{"type": "FeatureCollection", "name": "W4T/RV SUMMITS", "features": [{"type": "Feature", "geometry": {"type": "Point", "coordinates": [-82.1297, 36.4374]}, "properties": {"NAME": "W4T/RV-001", "TITLE": "Holston High Point", "REGION": "Ridge and Valley", "ASSOCIATION": "USA - Tennessee", "POINTS": "10", "BONUSPOINTS": "3"}}, {"type": "Feature", "geometry": {"type": "Point", "coordinates": [-81.9059, 36.5791]}, "properties": {"NAME": "W4T/RV-002", "TITLE": "3940", "REGION": "Ridge and Valley", "ASSOCIATION": "USA - Tennessee", "POINTS": "8", "BONUSPOINTS": "3"}}, {"type": "Feature", "geometry": {"type": "Point", "coordinates": [-81.9733, 36.5443]}, "properties": {"NAME": "W4T/RV-003", "TITLE": "Delaney Mountain", "REGION": "Ridge and Valley", "ASSOCIATION": "USA - Tennessee", "POINTS": "8", "BONUSPOINTS": "3"}}, {"type": "Feature", "geometry": {"type": "Point", "coordinates": [-84.3362, 36.1104]}, "properties": {"NAME": "W4T/RV-004", "TITLE": "Buffalo Mountain", "REGION": "Ridge and Valley", "ASSOCIATION": "USA - Tennessee", "POINTS": "8", "BONUSPOINTS": "3"}}, {"type": "Feature", "geometry": {"type": "Point", "coordinates": [-84.4432, 36.1488]}, "properties": {"NAME": "W4T/RV-005", "TITLE": "Stallion Mountain", "REGION": "Ridge and Valley", "ASSOCIATION": "USA - Tennessee", "POINTS": "8", "BONUSPOINTS": "3"}}, {"type": "Feature", "geometry": {"type": "Point", "coordinates": [-84.3153, 36.1674]}, "properties": {"NAME": "W4T/RV-006", "TITLE": "Buffalo Mountain North", "REGION": "Ridge and Valley", "ASSOCIATION": "USA - Tennessee", "POINTS": "8", "BONUSPOINTS": "3"}}, {"type": "Feature", "geometry": {"type": "Point", "coordinates": [-84.2709, 36.1483]}, "properties": {"NAME": "W4T/RV-007", "TITLE": "Pilot Mountain", "REGION": "Ridge and Valley", "ASSOCIATION": "USA - Tennessee", "POINTS": "8", "BONUSPOINTS": "3"}}, {"type": "Feature", "geometry": {"type": "Point", "coordinates": [-83.8352, 36.5691]}, "properties": {"NAME": "W4T/RV-008", "TITLE": "Bryson Mountain", "REGION": "Ridge and Valley", "ASSOCIATION": "USA - Tennessee", "POINTS": "8", "BONUSPOINTS": "3"}}, {"type": "Feature", "geometry": {"type": "Point", "coordinates": [-84.2924, 36.136]}, "properties": {"NAME": "W4T/RV-009", "TITLE": "Sassafras Mountain", "REGION": "Ridge and Valley", "ASSOCIATION": "USA - Tennessee", "POINTS": "8", "BONUSPOINTS": "3"}}, {"type": "Feature", "geometry": {"type": "Point", "coordinates": [-83.8005, 36.5623]}, "properties": {"NAME": "W4T/RV-010", "TITLE": "Bull Ridge", "REGION": "Ridge and Valley", "ASSOCIATION": "USA - Tennessee", "POINTS": "6", "BONUSPOINTS": "3"}}, {"type": "Feature", "geometry": {"type": "Point", "coordinates": [-83.7706, 36.577]}, "properties": {"NAME": "W4T/RV-011", "TITLE": "Yellow Creek Ridge", "REGION": "Ridge and Valley", "ASSOCIATION": "USA - Tennessee", "POINTS": "6", "BONUSPOINTS": "3"}}, {"type": "Feature", "geometry": {"type": "Point", "coordinates": [-84.1925, 36.2147]}, "properties": {"NAME": "W4T/RV-012", "TITLE": "Vowell Mountain", "REGION": "Ridge and Valley", "ASSOCIATION": "USA - Tennessee", "POINTS": "6", "BONUSPOINTS": "3"}}, {"type": "Feature", "geometry": {"type": "Point", "coordinates": [-83.1796, 36.3812]}, "properties": {"NAME": "W4T/RV-013", "TITLE": "Short Mountain", "REGION": "Ridge and Valley", "ASSOCIATION": "USA - Tennessee", "POINTS": "6", "BONUSPOINTS": "3"}}, {"type": "Feature", "geometry": {"type": "Point", "coordinates": [-83.8616, 36.5383]}, "properties": {"NAME": "W4T/RV-014", "TITLE": "Horseshoe Mountain", "REGION": "Ridge and Valley", "ASSOCIATION": "USA - Tennessee", "POINTS": "6", "BONUSPOINTS": "3"}}, {"type": "Feature", "geometry": {"type": "Point", "coordinates": [-83.3111, 36.5334]}, "properties": {"NAME": "W4T/RV-015", "TITLE": "Newman Ridge", "REGION": "Ridge and Valley", "ASSOCIATION": "USA - Tennessee", "POINTS": "6", "BONUSPOINTS": "3"}}, {"type": "Feature", "geometry": {"type": "Point", "coordinates": [-83.1967, 36.4234]}, "properties": {"NAME": "W4T/RV-016", "TITLE": "Clinch Mountain", "REGION": "Ridge and Valley", "ASSOCIATION": "USA - Tennessee", "POINTS": "6", "BONUSPOINTS": "3"}}, {"type": "Feature", "geometry": {"type": "Point", "coordinates": [-83.3458, 36.3753]}, "properties": {"NAME": "W4T/RV-017", "TITLE": "Grainger County HP", "REGION": "Ridge and Valley", "ASSOCIATION": "USA - Tennessee", "POINTS": "6", "BONUSPOINTS": "3"}}, {"type": "Feature", "geometry": {"type": "Point", "coordinates": [-83.6328, 36.2567]}, "properties": {"NAME": "W4T/RV-018", "TITLE": "2510", "REGION": "Ridge and Valley", "ASSOCIATION": "USA - Tennessee", "POINTS": "6", "BONUSPOINTS": "3"}}, {"type": "Feature", "geometry": {"type": "Point", "coordinates": [-83.0847, 36.4739]}, "properties": {"NAME": "W4T/RV-019", "TITLE": "2510", "REGION": "Ridge and Valley", "ASSOCIATION": "USA - Tennessee", "POINTS": "6", "BONUSPOINTS": "3"}}, {"type": "Feature", "geometry": {"type": "Point", "coordinates": [-83.8907, 36.515]}, "properties": {"NAME": "W4T/RV-020", "TITLE": "Leach Mountain", "REGION": "Ridge and Valley", "ASSOCIATION": "USA - Tennessee", "POINTS": "6", "BONUSPOINTS": "3"}}, {"type": "Feature", "geometry": {"type": "Point", "coordinates": [-83.0224, 36.462]}, "properties": {"NAME": "W4T/RV-021", "TITLE": "Stone Mountain", "REGION": "Ridge and Valley", "ASSOCIATION": "USA - Tennessee", "POINTS": "6", "BONUSPOINTS": "3"}}, {"type": "Feature", "geometry": {"type": "Point", "coordinates": [-83.0066, 36.4554]}, "properties": {"NAME": "W4T/RV-022", "TITLE": "Draw Rock", "REGION": "Ridge and Valley", "ASSOCIATION": "USA - Tennessee", "POINTS": "6", "BONUSPOINTS": "3"}}, {"type": "Feature", "geometry": {"type": "Point", "coordinates": [-82.6243, 36.5154]}, "properties": {"NAME": "W4T/RV-023", "TITLE": "Holston River Mountain", "REGION": "Ridge and Valley", "ASSOCIATION": "USA - Tennessee", "POINTS": "6", "BONUSPOINTS": "3"}}, {"type": "Feature", "geometry": {"type": "Point", "coordinates": [-83.2807, 36.5587]}, "properties": {"NAME": "W4T/RV-024", "TITLE": "2390", "REGION": "Ridge and Valley", "ASSOCIATION": "USA - Tennessee", "POINTS": "6", "BONUSPOINTS": "3"}}, {"type": "Feature", "geometry": {"type": "Point", "coordinates": [-83.9579, 36.5319]}, "properties": {"NAME": "W4T/RV-025", "TITLE": "King Mountain", "REGION": "Ridge and Valley", "ASSOCIATION": "USA - Tennessee", "POINTS": "6", "BONUSPOINTS": "3"}}, {"type": "Feature", "geometry": {"type": "Point", "coordinates": [-82.7046, 36.4549]}, "properties": {"NAME": "W4T/RV-026", "TITLE": "2330", "REGION": "Ridge and Valley", "ASSOCIATION": "USA - Tennessee", "POINTS": "6", "BONUSPOINTS": "3"}}, {"type": "Feature", "geometry": {"type": "Point", "coordinates": [-83.7189, 36.1986]}, "properties": {"NAME": "W4T/RV-027", "TITLE": "2310", "REGION": "Ridge and Valley", "ASSOCIATION": "USA - Tennessee", "POINTS": "6", "BONUSPOINTS": "3"}}, {"type": "Feature", "geometry": {"type": "Point", "coordinates": [-83.7244, 36.1759]}, "properties": {"NAME": "W4T/RV-028", "TITLE": "Signal Point", "REGION": "Ridge and Valley", "ASSOCIATION": "USA - Tennessee", "POINTS": "6", "BONUSPOINTS": "3"}}, {"type": "Feature", "geometry": {"type": "Point", "coordinates": [-83.4708, 36.4427]}, "properties": {"NAME": "W4T/RV-029", "TITLE": "Skaggs Ridge", "REGION": "Ridge and Valley", "ASSOCIATION": "USA - Tennessee", "POINTS": "6", "BONUSPOINTS": "3"}}, {"type": "Feature", "geometry": {"type": "Point", "coordinates": [-82.718, 36.4712]}, "properties": {"NAME": "W4T/RV-030", "TITLE": "Goshen Mountain", "REGION": "Ridge and Valley", "ASSOCIATION": "USA - Tennessee", "POINTS": "6", "BONUSPOINTS": "3"}}, {"type": "Feature", "geometry": {"type": "Point", "coordinates": [-83.6256, 36.3636]}, "properties": {"NAME": "W4T/RV-031", "TITLE": "Lone Mountain", "REGION": "Ridge and Valley", "ASSOCIATION": "USA - Tennessee", "POINTS": "4", "BONUSPOINTS": "0"}}, {"type": "Feature", "geometry": {"type": "Point", "coordinates": [-83.1794, 36.4821]}, "properties": {"NAME": "W4T/RV-032", "TITLE": "War Ridge", "REGION": "Ridge and Valley", "ASSOCIATION": "USA - Tennessee", "POINTS": "4", "BONUSPOINTS": "0"}}, {"type": "Feature", "geometry": {"type": "Point", "coordinates": [-83.096, 36.5895]}, "properties": {"NAME": "W4T/RV-033", "TITLE": "Indian Ridge North", "REGION": "Ridge and Valley", "ASSOCIATION": "USA - Tennessee", "POINTS": "4", "BONUSPOINTS": "0"}}, {"type": "Feature", "geometry": {"type": "Point", "coordinates": [-83.1124, 36.5738]}, "properties": {"NAME": "W4T/RV-034", "TITLE": "Indian Ridge South", "REGION": "Ridge and Valley", "ASSOCIATION": "USA - Tennessee", "POINTS": "4", "BONUSPOINTS": "0"}}, {"type": "Feature", "geometry": {"type": "Point", "coordinates": [-83.7667, 36.1119]}, "properties": {"NAME": "W4T/RV-035", "TITLE": "House Mountain", "REGION": "Ridge and Valley", "ASSOCIATION": "USA - Tennessee", "POINTS": "4", "BONUSPOINTS": "0"}}, {"type": "Feature", "geometry": {"type": "Point", "coordinates": [-83.5133, 36.4788]}, "properties": {"NAME": "W4T/RV-036", "TITLE": "Henderson Knob", "REGION": "Ridge and Valley", "ASSOCIATION": "USA - Tennessee", "POINTS": "4", "BONUSPOINTS": "0"}}, {"type": "Feature", "geometry": {"type": "Point", "coordinates": [-83.0209, 36.5604]}, "properties": {"NAME": "W4T/RV-037", "TITLE": "Big Ridge", "REGION": "Ridge and Valley", "ASSOCIATION": "USA - Tennessee", "POINTS": "4", "BONUSPOINTS": "0"}}, {"type": "Feature", "geometry": {"type": "Point", "coordinates": [-84.7143, 35.8666]}, "properties": {"NAME": "W4T/RV-038", "TITLE": "Mount Roosevelt", "REGION": "Ridge and Valley", "ASSOCIATION": "USA - Tennessee", "POINTS": "4", "BONUSPOINTS": "0"}}, {"type": "Feature", "geometry": {"type": "Point", "coordinates": [-83.0624, 36.4651]}, "properties": {"NAME": "W4T/RV-039", "TITLE": "Doubling Mountain", "REGION": "Ridge and Valley", "ASSOCIATION": "USA - Tennessee", "POINTS": "4", "BONUSPOINTS": "0"}}, {"type": "Feature", "geometry": {"type": "Point", "coordinates": [-85.4323, 35.0048]}, "properties": {"NAME": "W4T/RV-040", "TITLE": "Raccoon Mountain", "REGION": "Ridge and Valley", "ASSOCIATION": "USA - Tennessee", "POINTS": "4", "BONUSPOINTS": "0"}}, {"type": "Feature", "geometry": {"type": "Point", "coordinates": [-82.926, 36.5213]}, "properties": {"NAME": "W4T/RV-041", "TITLE": "2010", "REGION": "Ridge and Valley", "ASSOCIATION": "USA - Tennessee", "POINTS": "4", "BONUSPOINTS": "0"}}, {"type": "Feature", "geometry": {"type": "Point", "coordinates": [-82.7869, 36.4457]}, "properties": {"NAME": "W4T/RV-042", "TITLE": "Alec Mountain", "REGION": "Ridge and Valley", "ASSOCIATION": "USA - Tennessee", "POINTS": "4", "BONUSPOINTS": "0"}}, {"type": "Feature", "geometry": {"type": "Point", "coordinates": [-83.6821, 36.3317]}, "properties": {"NAME": "W4T/RV-043", "TITLE": "Lone Mountain", "REGION": "Ridge and Valley", "ASSOCIATION": "USA - Tennessee", "POINTS": "4", "BONUSPOINTS": "0"}}, {"type": "Feature", "geometry": {"type": "Point", "coordinates": [-83.2561, 36.3324]}, "properties": {"NAME": "W4T/RV-044", "TITLE": "Moseley Ridge", "REGION": "Ridge and Valley", "ASSOCIATION": "USA - Tennessee", "POINTS": "4", "BONUSPOINTS": "0"}}, {"type": "Feature", "geometry": {"type": "Point", "coordinates": [-83.3328, 36.2281]}, "properties": {"NAME": "W4T/RV-045", "TITLE": "Crockett Ridge", "REGION": "Ridge and Valley", "ASSOCIATION": "USA - Tennessee", "POINTS": "4", "BONUSPOINTS": "0"}}, {"type": "Feature", "geometry": {"type": "Point", "coordinates": [-83.6863, 36.2813]}, "properties": {"NAME": "W4T/RV-046", "TITLE": "Log Mountain", "REGION": "Ridge and Valley", "ASSOCIATION": "USA - Tennessee", "POINTS": "4", "BONUSPOINTS": "0"}}, {"type": "Feature", "geometry": {"type": "Point", "coordinates": [-82.9834, 36.562]}, "properties": {"NAME": "W4T/RV-047", "TITLE": "Little Pine Ridge", "REGION": "Ridge and Valley", "ASSOCIATION": "USA - Tennessee", "POINTS": "4", "BONUSPOINTS": "0"}}, {"type": "Feature", "geometry": {"type": "Point", "coordinates": [-83.6354, 36.3046]}, "properties": {"NAME": "W4T/RV-048", "TITLE": "1910", "REGION": "Ridge and Valley", "ASSOCIATION": "USA - Tennessee", "POINTS": "4", "BONUSPOINTS": "0"}}, {"type": "Feature", "geometry": {"type": "Point", "coordinates": [-83.3637, 36.4004]}, "properties": {"NAME": "W4T/RV-049", "TITLE": "1910", "REGION": "Ridge and Valley", "ASSOCIATION": "USA - Tennessee", "POINTS": "4", "BONUSPOINTS": "0"}}, {"type": "Feature", "geometry": {"type": "Point", "coordinates": [-82.8987, 36.3649]}, "properties": {"NAME": "W4T/RV-050", "TITLE": "Brushy Mountain", "REGION": "Ridge and Valley", "ASSOCIATION": "USA - Tennessee", "POINTS": "4", "BONUSPOINTS": "0"}}, {"type": "Feature", "geometry": {"type": "Point", "coordinates": [-82.9148, 36.354]}, "properties": {"NAME": "W4T/RV-051", "TITLE": "Short Mountain", "REGION": "Ridge and Valley", "ASSOCIATION": "USA - Tennessee", "POINTS": "4", "BONUSPOINTS": "0"}}, {"type": "Feature", "geometry": {"type": "Point", "coordinates": [-83.0126, 36.4147]}, "properties": {"NAME": "W4T/RV-052", "TITLE": "Town Knobs East", "REGION": "Ridge and Valley", "ASSOCIATION": "USA - Tennessee", "POINTS": "4", "BONUSPOINTS": "0"}}, {"type": "Feature", "geometry": {"type": "Point", "coordinates": [-83.3184, 36.4774]}, "properties": {"NAME": "W4T/RV-053", "TITLE": "1870", "REGION": "Ridge and Valley", "ASSOCIATION": "USA - Tennessee", "POINTS": "4", "BONUSPOINTS": "0"}}, {"type": "Feature", "geometry": {"type": "Point", "coordinates": [-83.1636, 36.3473]}, "properties": {"NAME": "W4T/RV-054", "TITLE": "Rogers High Point", "REGION": "Ridge and Valley", "ASSOCIATION": "USA - Tennessee", "POINTS": "4", "BONUSPOINTS": "0"}}, {"type": "Feature", "geometry": {"type": "Point", "coordinates": [-83.1978, 36.3335]}, "properties": {"NAME": "W4T/RV-055", "TITLE": "Prophet Ridge", "REGION": "Ridge and Valley", "ASSOCIATION": "USA - Tennessee", "POINTS": "4", "BONUSPOINTS": "0"}}, {"type": "Feature", "geometry": {"type": "Point", "coordinates": [-82.9777, 36.4416]}, "properties": {"NAME": "W4T/RV-056", "TITLE": "Harlan Knobs South", "REGION": "Ridge and Valley", "ASSOCIATION": "USA - Tennessee", "POINTS": "4", "BONUSPOINTS": "0"}}, {"type": "Feature", "geometry": {"type": "Point", "coordinates": [-83.7514, 36.3024]}, "properties": {"NAME": "W4T/RV-057", "TITLE": "1870", "REGION": "Ridge and Valley", "ASSOCIATION": "USA - Tennessee", "POINTS": "4", "BONUSPOINTS": "0"}}, {"type": "Feature", "geometry": {"type": "Point", "coordinates": [-83.8316, 36.4445]}, "properties": {"NAME": "W4T/RV-058", "TITLE": "Weaver Knob", "REGION": "Ridge and Valley", "ASSOCIATION": "USA - Tennessee", "POINTS": "4", "BONUSPOINTS": "0"}}, {"type": "Feature", "geometry": {"type": "Point", "coordinates": [-83.1093, 36.5493]}, "properties": {"NAME": "W4T/RV-059", "TITLE": "1850", "REGION": "Ridge and Valley", "ASSOCIATION": "USA - Tennessee", "POINTS": "4", "BONUSPOINTS": "0"}}, {"type": "Feature", "geometry": {"type": "Point", "coordinates": [-83.2652, 36.3721]}, "properties": {"NAME": "W4T/RV-060", "TITLE": "1850", "REGION": "Ridge and Valley", "ASSOCIATION": "USA - Tennessee", "POINTS": "4", "BONUSPOINTS": "0"}}, {"type": "Feature", "geometry": {"type": "Point", "coordinates": [-82.7981, 36.4211]}, "properties": {"NAME": "W4T/RV-061", "TITLE": "McGee Mountain", "REGION": "Ridge and Valley", "ASSOCIATION": "USA - Tennessee", "POINTS": "4", "BONUSPOINTS": "0"}}, {"type": "Feature", "geometry": {"type": "Point", "coordinates": [-83.7584, 36.2461]}, "properties": {"NAME": "W4T/RV-062", "TITLE": "Comb Ridge", "REGION": "Ridge and Valley", "ASSOCIATION": "USA - Tennessee", "POINTS": "4", "BONUSPOINTS": "0"}}, {"type": "Feature", "geometry": {"type": "Point", "coordinates": [-84.5167, 35.976]}, "properties": {"NAME": "W4T/RV-063", "TITLE": "Walden Ridge", "REGION": "Ridge and Valley", "ASSOCIATION": "USA - Tennessee", "POINTS": "2", "BONUSPOINTS": "0"}}, {"type": "Feature", "geometry": {"type": "Point", "coordinates": [-83.5547, 36.3425]}, "properties": {"NAME": "W4T/RV-064", "TITLE": "1830", "REGION": "Ridge and Valley", "ASSOCIATION": "USA - Tennessee", "POINTS": "2", "BONUSPOINTS": "0"}}, {"type": "Feature", "geometry": {"type": "Point", "coordinates": [-82.7347, 36.4838]}, "properties": {"NAME": "W4T/RV-065", "TITLE": "Little Pine Mountain", "REGION": "Ridge and Valley", "ASSOCIATION": "USA - Tennessee", "POINTS": "2", "BONUSPOINTS": "0"}}, {"type": "Feature", "geometry": {"type": "Point", "coordinates": [-83.1269, 36.5464]}, "properties": {"NAME": "W4T/RV-066", "TITLE": "Sneedville 4 Benchmark", "REGION": "Ridge and Valley", "ASSOCIATION": "USA - Tennessee", "POINTS": "2", "BONUSPOINTS": "0"}}, {"type": "Feature", "geometry": {"type": "Point", "coordinates": [-83.3576, 36.3467]}, "properties": {"NAME": "W4T/RV-067", "TITLE": "1790", "REGION": "Ridge and Valley", "ASSOCIATION": "USA - Tennessee", "POINTS": "2", "BONUSPOINTS": "0"}}, {"type": "Feature", "geometry": {"type": "Point", "coordinates": [-83.447, 36.3207]}, "properties": {"NAME": "W4T/RV-068", "TITLE": "Poor Valley Ridge", "REGION": "Ridge and Valley", "ASSOCIATION": "USA - Tennessee", "POINTS": "2", "BONUSPOINTS": "0"}}, {"type": "Feature", "geometry": {"type": "Point", "coordinates": [-83.1778, 36.54]}, "properties": {"NAME": "W4T/RV-069", "TITLE": "Brushy Ridge", "REGION": "Ridge and Valley", "ASSOCIATION": "USA - Tennessee", "POINTS": "2", "BONUSPOINTS": "0"}}, {"type": "Feature", "geometry": {"type": "Point", "coordinates": [-83.0493, 36.5658]}, "properties": {"NAME": "W4T/RV-070", "TITLE": "River Ridge", "REGION": "Ridge and Valley", "ASSOCIATION": "USA - Tennessee", "POINTS": "2", "BONUSPOINTS": "0"}}, {"type": "Feature", "geometry": {"type": "Point", "coordinates": [-83.5057, 36.3897]}, "properties": {"NAME": "W4T/RV-071", "TITLE": "River Ridge", "REGION": "Ridge and Valley", "ASSOCIATION": "USA - Tennessee", "POINTS": "2", "BONUSPOINTS": "0"}}, {"type": "Feature", "geometry": {"type": "Point", "coordinates": [-83.5149, 36.2665]}, "properties": {"NAME": "W4T/RV-072", "TITLE": "Richland Knobs HP", "REGION": "Ridge and Valley", "ASSOCIATION": "USA - Tennessee", "POINTS": "2", "BONUSPOINTS": "0"}}, {"type": "Feature", "geometry": {"type": "Point", "coordinates": [-83.1036, 36.3661]}, "properties": {"NAME": "W4T/RV-073", "TITLE": "1770", "REGION": "Ridge and Valley", "ASSOCIATION": "USA - Tennessee", "POINTS": "2", "BONUSPOINTS": "0"}}, {"type": "Feature", "geometry": {"type": "Point", "coordinates": [-84.1978, 36.1492]}, "properties": {"NAME": "W4T/RV-074", "TITLE": "Walden Ridge", "REGION": "Ridge and Valley", "ASSOCIATION": "USA - Tennessee", "POINTS": "2", "BONUSPOINTS": "0"}}, {"type": "Feature", "geometry": {"type": "Point", "coordinates": [-85.0496, 35.492]}, "properties": {"NAME": "W4T/RV-075", "TITLE": "Lone Mountain", "REGION": "Ridge and Valley", "ASSOCIATION": "USA - Tennessee", "POINTS": "2", "BONUSPOINTS": "0"}}, {"type": "Feature", "geometry": {"type": "Point", "coordinates": [-83.3978, 36.3346]}, "properties": {"NAME": "W4T/RV-076", "TITLE": "1730", "REGION": "Ridge and Valley", "ASSOCIATION": "USA - Tennessee", "POINTS": "2", "BONUSPOINTS": "0"}}, {"type": "Feature", "geometry": {"type": "Point", "coordinates": [-83.4218, 36.4097]}, "properties": {"NAME": "W4T/RV-077", "TITLE": "River Ridge", "REGION": "Ridge and Valley", "ASSOCIATION": "USA - Tennessee", "POINTS": "2", "BONUSPOINTS": "0"}}, {"type": "Feature", "geometry": {"type": "Point", "coordinates": [-83.4807, 36.3106]}, "properties": {"NAME": "W4T/RV-078", "TITLE": "1730", "REGION": "Ridge and Valley", "ASSOCIATION": "USA - Tennessee", "POINTS": "2", "BONUSPOINTS": "0"}}, {"type": "Feature", "geometry": {"type": "Point", "coordinates": [-83.15, 36.3634]}, "properties": {"NAME": "W4T/RV-079", "TITLE": "1730", "REGION": "Ridge and Valley", "ASSOCIATION": "USA - Tennessee", "POINTS": "2", "BONUSPOINTS": "0"}}, {"type": "Feature", "geometry": {"type": "Point", "coordinates": [-83.4247, 36.391]}, "properties": {"NAME": "W4T/RV-080", "TITLE": "1670", "REGION": "Ridge and Valley", "ASSOCIATION": "USA - Tennessee", "POINTS": "1", "BONUSPOINTS": "0"}}, {"type": "Feature", "geometry": {"type": "Point", "coordinates": [-84.4005, 36.0119]}, "properties": {"NAME": "W4T/RV-081", "TITLE": "1650", "REGION": "Ridge and Valley", "ASSOCIATION": "USA - Tennessee", "POINTS": "1", "BONUSPOINTS": "0"}}, {"type": "Feature", "geometry": {"type": "Point", "coordinates": [-83.4653, 36.3739]}, "properties": {"NAME": "W4T/RV-082", "TITLE": "Gouge Knob", "REGION": "Ridge and Valley", "ASSOCIATION": "USA - Tennessee", "POINTS": "1", "BONUSPOINTS": "0"}}, {"type": "Feature", "geometry": {"type": "Point", "coordinates": [-83.3238, 36.3302]}, "properties": {"NAME": "W4T/RV-083", "TITLE": "Big Ridge", "REGION": "Ridge and Valley", "ASSOCIATION": "USA - Tennessee", "POINTS": "1", "BONUSPOINTS": "0"}}, {"type": "Feature", "geometry": {"type": "Point", "coordinates": [-83.8012, 36.3317]}, "properties": {"NAME": "W4T/RV-084", "TITLE": "Big Ridge", "REGION": "Ridge and Valley", "ASSOCIATION": "USA - Tennessee", "POINTS": "1", "BONUSPOINTS": "0"}}, {"type": "Feature", "geometry": {"type": "Point", "coordinates": [-83.1881, 36.3487]}, "properties": {"NAME": "W4T/RV-085", "TITLE": "Quarry Hill", "REGION": "Ridge and Valley", "ASSOCIATION": "USA - Tennessee", "POINTS": "1", "BONUSPOINTS": "0"}}, {"type": "Feature", "geometry": {"type": "Point", "coordinates": [-83.7671, 35.9119]}, "properties": {"NAME": "W4T/RV-086", "TITLE": "1530", "REGION": "Ridge and Valley", "ASSOCIATION": "USA - Tennessee", "POINTS": "1", "BONUSPOINTS": "0"}}, {"type": "Feature", "geometry": {"type": "Point", "coordinates": [-85.0238, 35.1491]}, "properties": {"NAME": "W4T/RV-087", "TITLE": "White Oak Mountain", "REGION": "Ridge and Valley", "ASSOCIATION": "USA - Tennessee", "POINTS": "1", "BONUSPOINTS": "0"}}, {"type": "Feature", "geometry": {"type": "Point", "coordinates": [-85.0218, 35.0707]}, "properties": {"NAME": "W4T/RV-088", "TITLE": "Grindstone Mountain", "REGION": "Ridge and Valley", "ASSOCIATION": "USA - Tennessee", "POINTS": "1", "BONUSPOINTS": "0"}}, {"type": "Feature", "geometry": {"type": "Point", "coordinates": [-84.3053, 35.9096]}, "properties": {"NAME": "W4T/RV-089", "TITLE": "Melton Hill", "REGION": "Ridge and Valley", "ASSOCIATION": "USA - Tennessee", "POINTS": "1", "BONUSPOINTS": "0"}}]}