{"type": "FeatureCollection", "name": "W9/IL SUMMITS", "features": [{"type": "Feature", "geometry": {"type": "Point", "coordinates": [-88.4756, 37.5823]}, "properties": {"NAME": "W9/IL-001", "TITLE": "Williams Hill", "REGION": "Illinois", "ASSOCIATION": "USA - W9", "POINTS": "1", "BONUSPOINTS": "0"}}, {"type": "Feature", "geometry": {"type": "Point", "coordinates": [-89.3463, 37.552]}, "properties": {"NAME": "W9/IL-002", "TITLE": "Bald Knob", "REGION": "Illinois", "ASSOCIATION": "USA - W9", "POINTS": "1", "BONUSPOINTS": "0"}}, {"type": "Feature", "geometry": {"type": "Point", "coordinates": [-88.4376, 37.6247]}, "properties": {"NAME": "W9/IL-003", "TITLE": "Horton Hill", "REGION": "Illinois", "ASSOCIATION": "USA - W9", "POINTS": "1", "BONUSPOINTS": "0"}}, {"type": "Feature", "geometry": {"type": "Point", "coordinates": [-88.455, 37.611]}, "properties": {"NAME": "W9/IL-004", "TITLE": "Wamble Mountain", "REGION": "Illinois", "ASSOCIATION": "USA - W9", "POINTS": "1", "BONUSPOINTS": "0"}}, {"type": "Feature", "geometry": {"type": "Point", "coordinates": [-88.3282, 37.6004]}, "properties": {"NAME": "W9/IL-005", "TITLE": "High Knob", "REGION": "Illinois", "ASSOCIATION": "USA - W9", "POINTS": "1", "BONUSPOINTS": "0"}}, {"type": "Feature", "geometry": {"type": "Point", "coordinates": [-89.3347, 37.4251]}, "properties": {"NAME": "W9/IL-006", "TITLE": "Atwood Ridge", "REGION": "Illinois", "ASSOCIATION": "USA - W9", "POINTS": "1", "BONUSPOINTS": "0"}}, {"type": "Feature", "geometry": {"type": "Point", "coordinates": [-89.487, 37.6995]}, "properties": {"NAME": "W9/IL-007", "TITLE": "Fountain Bluff", "REGION": "Illinois", "ASSOCIATION": "USA - W9", "POINTS": "1", "BONUSPOINTS": "0"}}, {"type": "Feature", "geometry": {"type": "Point", "coordinates": [-88.3432, 37.7]}, "properties": {"NAME": "W9/IL-008", "TITLE": "Wildcat Hills", "REGION": "Illinois", "ASSOCIATION": "USA - W9", "POINTS": "1", "BONUSPOINTS": "0"}}, {"type": "Feature", "geometry": {"type": "Point", "coordinates": [-88.214, 37.6931]}, "properties": {"NAME": "W9/IL-009", "TITLE": "Gold Hill", "REGION": "Illinois", "ASSOCIATION": "USA - W9", "POINTS": "1", "BONUSPOINTS": "0"}}]}