{"type": "FeatureCollection", "name": "W6/NS SUMMITS", "features": [{"type": "Feature", "geometry": {"type": "Point", "coordinates": [-119.3052, 38.0244]}, "properties": {"NAME": "W6/NS-001", "TITLE": "Excelsior Mountain", "REGION": "Northern Sierra", "ASSOCIATION": "USA - CA", "POINTS": "10", "BONUSPOINTS": "3"}}, {"type": "Feature", "geometry": {"type": "Point", "coordinates": [-119.2742, 38.0645]}, "properties": {"NAME": "W6/NS-002", "TITLE": "Dunderberg Peak", "REGION": "Northern Sierra", "ASSOCIATION": "USA - CA", "POINTS": "10", "BONUSPOINTS": "3"}}, {"type": "Feature", "geometry": {"type": "Point", "coordinates": [-119.2233, 37.9897]}, "properties": {"NAME": "W6/NS-003", "TITLE": "Mount Warren", "REGION": "Northern Sierra", "ASSOCIATION": "USA - CA", "POINTS": "10", "BONUSPOINTS": "3"}}, {"type": "Feature", "geometry": {"type": "Point", "coordinates": [-119.3587, 38.0835]}, "properties": {"NAME": "W6/NS-004", "TITLE": "Twin Peaks", "REGION": "Northern Sierra", "ASSOCIATION": "USA - CA", "POINTS": "10", "BONUSPOINTS": "3"}}, {"type": "Feature", "geometry": {"type": "Point", "coordinates": [-119.3094, 37.947]}, "properties": {"NAME": "W6/NS-005", "TITLE": "White Mountain", "REGION": "Northern Sierra", "ASSOCIATION": "USA - CA", "POINTS": "10", "BONUSPOINTS": "3"}}, {"type": "Feature", "geometry": {"type": "Point", "coordinates": [-119.3833, 38.0742]}, "properties": {"NAME": "W6/NS-006", "TITLE": "Whorl Mountain", "REGION": "Northern Sierra", "ASSOCIATION": "USA - CA", "POINTS": "10", "BONUSPOINTS": "3"}}, {"type": "Feature", "geometry": {"type": "Point", "coordinates": [-119.3124, 38.0047]}, "properties": {"NAME": "W6/NS-007", "TITLE": "East Shepherd Crest", "REGION": "Northern Sierra", "ASSOCIATION": "USA - CA", "POINTS": "10", "BONUSPOINTS": "3"}}, {"type": "Feature", "geometry": {"type": "Point", "coordinates": [-119.2649, 37.9938]}, "properties": {"NAME": "W6/NS-008", "TITLE": "Tioga Crest", "REGION": "Northern Sierra", "ASSOCIATION": "USA - CA", "POINTS": "10", "BONUSPOINTS": "3"}}, {"type": "Feature", "geometry": {"type": "Point", "coordinates": [-119.3275, 38.0156]}, "properties": {"NAME": "W6/NS-009", "TITLE": "West Shepherd Crest", "REGION": "Northern Sierra", "ASSOCIATION": "USA - CA", "POINTS": "10", "BONUSPOINTS": "3"}}, {"type": "Feature", "geometry": {"type": "Point", "coordinates": [-119.4085, 38.1799]}, "properties": {"NAME": "W6/NS-010", "TITLE": "Eagle Peak", "REGION": "Northern Sierra", "ASSOCIATION": "USA - CA", "POINTS": "10", "BONUSPOINTS": "3"}}, {"type": "Feature", "geometry": {"type": "Point", "coordinates": [-119.3405, 37.9823]}, "properties": {"NAME": "W6/NS-011", "TITLE": "Sheep Peak", "REGION": "Northern Sierra", "ASSOCIATION": "USA - CA", "POINTS": "10", "BONUSPOINTS": "3"}}, {"type": "Feature", "geometry": {"type": "Point", "coordinates": [-119.3232, 38.1014]}, "properties": {"NAME": "W6/NS-012", "TITLE": "Monument Ridge", "REGION": "Northern Sierra", "ASSOCIATION": "USA - CA", "POINTS": "10", "BONUSPOINTS": "3"}}, {"type": "Feature", "geometry": {"type": "Point", "coordinates": [-119.5477, 38.1447]}, "properties": {"NAME": "W6/NS-013", "TITLE": "Tower Peak", "REGION": "Northern Sierra", "ASSOCIATION": "USA - CA", "POINTS": "10", "BONUSPOINTS": "3"}}, {"type": "Feature", "geometry": {"type": "Point", "coordinates": [-119.3243, 38.0601]}, "properties": {"NAME": "W6/NS-014", "TITLE": "Camiaca Peak", "REGION": "Northern Sierra", "ASSOCIATION": "USA - CA", "POINTS": "10", "BONUSPOINTS": "3"}}, {"type": "Feature", "geometry": {"type": "Point", "coordinates": [-119.4433, 38.1588]}, "properties": {"NAME": "W6/NS-015", "TITLE": "Hunewill Peak", "REGION": "Northern Sierra", "ASSOCIATION": "USA - CA", "POINTS": "10", "BONUSPOINTS": "3"}}, {"type": "Feature", "geometry": {"type": "Point", "coordinates": [-119.4728, 38.2361]}, "properties": {"NAME": "W6/NS-016", "TITLE": "Walker Mountain", "REGION": "Northern Sierra", "ASSOCIATION": "USA - CA", "POINTS": "10", "BONUSPOINTS": "3"}}, {"type": "Feature", "geometry": {"type": "Point", "coordinates": [-119.2463, 37.9494]}, "properties": {"NAME": "W6/NS-017", "TITLE": "Tioga Peak", "REGION": "Northern Sierra", "ASSOCIATION": "USA - CA", "POINTS": "10", "BONUSPOINTS": "3"}}, {"type": "Feature", "geometry": {"type": "Point", "coordinates": [-119.4071, 38.0872]}, "properties": {"NAME": "W6/NS-018", "TITLE": "Finger Peaks", "REGION": "Northern Sierra", "ASSOCIATION": "USA - CA", "POINTS": "10", "BONUSPOINTS": "3"}}, {"type": "Feature", "geometry": {"type": "Point", "coordinates": [-119.6144, 38.3798]}, "properties": {"NAME": "W6/NS-019", "TITLE": "White Mountain", "REGION": "Northern Sierra", "ASSOCIATION": "USA - CA", "POINTS": "10", "BONUSPOINTS": "3"}}, {"type": "Feature", "geometry": {"type": "Point", "coordinates": [-119.4577, 38.111]}, "properties": {"NAME": "W6/NS-020", "TITLE": "Crown Point", "REGION": "Northern Sierra", "ASSOCIATION": "USA - CA", "POINTS": "10", "BONUSPOINTS": "3"}}, {"type": "Feature", "geometry": {"type": "Point", "coordinates": [-119.4894, 38.1444]}, "properties": {"NAME": "W6/NS-021", "TITLE": "Center Mountain", "REGION": "Northern Sierra", "ASSOCIATION": "USA - CA", "POINTS": "10", "BONUSPOINTS": "3"}}, {"type": "Feature", "geometry": {"type": "Point", "coordinates": [-119.5154, 38.1374]}, "properties": {"NAME": "W6/NS-022", "TITLE": "Ehrnbeck Peak", "REGION": "Northern Sierra", "ASSOCIATION": "USA - CA", "POINTS": "10", "BONUSPOINTS": "3"}}, {"type": "Feature", "geometry": {"type": "Point", "coordinates": [-119.667, 38.384]}, "properties": {"NAME": "W6/NS-023", "TITLE": "Stanislaus Peak", "REGION": "Northern Sierra", "ASSOCIATION": "USA - CA", "POINTS": "10", "BONUSPOINTS": "3"}}, {"type": "Feature", "geometry": {"type": "Point", "coordinates": [-119.5807, 38.1574]}, "properties": {"NAME": "W6/NS-024", "TITLE": "Forsyth Peak", "REGION": "Northern Sierra", "ASSOCIATION": "USA - CA", "POINTS": "10", "BONUSPOINTS": "3"}}, {"type": "Feature", "geometry": {"type": "Point", "coordinates": [-119.4192, 38.045]}, "properties": {"NAME": "W6/NS-025", "TITLE": "Quarry Peak", "REGION": "Northern Sierra", "ASSOCIATION": "USA - CA", "POINTS": "10", "BONUSPOINTS": "3"}}, {"type": "Feature", "geometry": {"type": "Point", "coordinates": [-119.508, 38.1526]}, "properties": {"NAME": "W6/NS-026", "TITLE": "Hawksbeak Peak", "REGION": "Northern Sierra", "ASSOCIATION": "USA - CA", "POINTS": "10", "BONUSPOINTS": "3"}}, {"type": "Feature", "geometry": {"type": "Point", "coordinates": [-119.5488, 38.4059]}, "properties": {"NAME": "W6/NS-027", "TITLE": "Lost Cannon Peak", "REGION": "Northern Sierra", "ASSOCIATION": "USA - CA", "POINTS": "10", "BONUSPOINTS": "3"}}, {"type": "Feature", "geometry": {"type": "Point", "coordinates": [-119.4457, 38.0934]}, "properties": {"NAME": "W6/NS-028", "TITLE": "Slide Mountain", "REGION": "Northern Sierra", "ASSOCIATION": "USA - CA", "POINTS": "10", "BONUSPOINTS": "3"}}, {"type": "Feature", "geometry": {"type": "Point", "coordinates": [-119.4287, 38.123]}, "properties": {"NAME": "W6/NS-029", "TITLE": "Kettle Peak", "REGION": "Northern Sierra", "ASSOCIATION": "USA - CA", "POINTS": "10", "BONUSPOINTS": "3"}}, {"type": "Feature", "geometry": {"type": "Point", "coordinates": [-119.5095, 38.109]}, "properties": {"NAME": "W6/NS-030", "TITLE": "Acker Peak", "REGION": "Northern Sierra", "ASSOCIATION": "USA - CA", "POINTS": "8", "BONUSPOINTS": "3"}}, {"type": "Feature", "geometry": {"type": "Point", "coordinates": [-119.4248, 38.0268]}, "properties": {"NAME": "W6/NS-031", "TITLE": "10940", "REGION": "Northern Sierra", "ASSOCIATION": "USA - CA", "POINTS": "8", "BONUSPOINTS": "3"}}, {"type": "Feature", "geometry": {"type": "Point", "coordinates": [-119.3229, 38.0857]}, "properties": {"NAME": "W6/NS-032", "TITLE": "10940", "REGION": "Northern Sierra", "ASSOCIATION": "USA - CA", "POINTS": "8", "BONUSPOINTS": "3"}}, {"type": "Feature", "geometry": {"type": "Point", "coordinates": [-119.7555, 38.5439]}, "properties": {"NAME": "W6/NS-033", "TITLE": "Highland Peak", "REGION": "Northern Sierra", "ASSOCIATION": "USA - CA", "POINTS": "8", "BONUSPOINTS": "3"}}, {"type": "Feature", "geometry": {"type": "Point", "coordinates": [-119.657, 38.2346]}, "properties": {"NAME": "W6/NS-034", "TITLE": "Molo Mountain", "REGION": "Northern Sierra", "ASSOCIATION": "USA - CA", "POINTS": "8", "BONUSPOINTS": "3"}}, {"type": "Feature", "geometry": {"type": "Point", "coordinates": [-119.5105, 37.8468]}, "properties": {"NAME": "W6/NS-035", "TITLE": "Mount Hoffmann", "REGION": "Northern Sierra", "ASSOCIATION": "USA - CA", "POINTS": "8", "BONUSPOINTS": "3"}}, {"type": "Feature", "geometry": {"type": "Point", "coordinates": [-119.4846, 37.8752]}, "properties": {"NAME": "W6/NS-036", "TITLE": "Tuolumne Peak", "REGION": "Northern Sierra", "ASSOCIATION": "USA - CA", "POINTS": "8", "BONUSPOINTS": "3"}}, {"type": "Feature", "geometry": {"type": "Point", "coordinates": [-119.5836, 38.3965]}, "properties": {"NAME": "W6/NS-037", "TITLE": "Wells Peak", "REGION": "Northern Sierra", "ASSOCIATION": "USA - CA", "POINTS": "8", "BONUSPOINTS": "3"}}, {"type": "Feature", "geometry": {"type": "Point", "coordinates": [-119.615, 38.2332]}, "properties": {"NAME": "W6/NS-038", "TITLE": "10833", "REGION": "Northern Sierra", "ASSOCIATION": "USA - CA", "POINTS": "8", "BONUSPOINTS": "3"}}, {"type": "Feature", "geometry": {"type": "Point", "coordinates": [-119.3607, 38.1059]}, "properties": {"NAME": "W6/NS-039", "TITLE": "10827", "REGION": "Northern Sierra", "ASSOCIATION": "USA - CA", "POINTS": "8", "BONUSPOINTS": "3"}}, {"type": "Feature", "geometry": {"type": "Point", "coordinates": [-119.758, 38.5673]}, "properties": {"NAME": "W6/NS-040", "TITLE": "Silver Peak", "REGION": "Northern Sierra", "ASSOCIATION": "USA - CA", "POINTS": "8", "BONUSPOINTS": "3"}}, {"type": "Feature", "geometry": {"type": "Point", "coordinates": [-119.4804, 37.9859]}, "properties": {"NAME": "W6/NS-041", "TITLE": "Pettit Peak", "REGION": "Northern Sierra", "ASSOCIATION": "USA - CA", "POINTS": "8", "BONUSPOINTS": "3"}}, {"type": "Feature", "geometry": {"type": "Point", "coordinates": [-119.5068, 38.1772]}, "properties": {"NAME": "W6/NS-042", "TITLE": "10782", "REGION": "Northern Sierra", "ASSOCIATION": "USA - CA", "POINTS": "8", "BONUSPOINTS": "3"}}, {"type": "Feature", "geometry": {"type": "Point", "coordinates": [-119.477, 38.0852]}, "properties": {"NAME": "W6/NS-043", "TITLE": "10780", "REGION": "Northern Sierra", "ASSOCIATION": "USA - CA", "POINTS": "8", "BONUSPOINTS": "3"}}, {"type": "Feature", "geometry": {"type": "Point", "coordinates": [-119.4841, 38.2623]}, "properties": {"NAME": "W6/NS-044", "TITLE": "10727", "REGION": "Northern Sierra", "ASSOCIATION": "USA - CA", "POINTS": "8", "BONUSPOINTS": "3"}}, {"type": "Feature", "geometry": {"type": "Point", "coordinates": [-119.531, 38.0644]}, "properties": {"NAME": "W6/NS-045", "TITLE": "Price Peak", "REGION": "Northern Sierra", "ASSOCIATION": "USA - CA", "POINTS": "8", "BONUSPOINTS": "3"}}, {"type": "Feature", "geometry": {"type": "Point", "coordinates": [-119.4589, 38.1316]}, "properties": {"NAME": "W6/NS-046", "TITLE": "Cirque Mountain", "REGION": "Northern Sierra", "ASSOCIATION": "USA - CA", "POINTS": "8", "BONUSPOINTS": "3"}}, {"type": "Feature", "geometry": {"type": "Point", "coordinates": [-119.8613, 38.8581]}, "properties": {"NAME": "W6/NS-047", "TITLE": "Jobs Peak", "REGION": "Northern Sierra", "ASSOCIATION": "USA - CA", "POINTS": "8", "BONUSPOINTS": "3"}}, {"type": "Feature", "geometry": {"type": "Point", "coordinates": [-119.5088, 37.8792]}, "properties": {"NAME": "W6/NS-048", "TITLE": "10606", "REGION": "Northern Sierra", "ASSOCIATION": "USA - CA", "POINTS": "8", "BONUSPOINTS": "3"}}, {"type": "Feature", "geometry": {"type": "Point", "coordinates": [-119.5226, 37.8846]}, "properties": {"NAME": "W6/NS-049", "TITLE": "10542", "REGION": "Northern Sierra", "ASSOCIATION": "USA - CA", "POINTS": "8", "BONUSPOINTS": "3"}}, {"type": "Feature", "geometry": {"type": "Point", "coordinates": [-119.5482, 38.0333]}, "properties": {"NAME": "W6/NS-050", "TITLE": "Piute Mountain", "REGION": "Northern Sierra", "ASSOCIATION": "USA - CA", "POINTS": "8", "BONUSPOINTS": "3"}}, {"type": "Feature", "geometry": {"type": "Point", "coordinates": [-119.4648, 38.0582]}, "properties": {"NAME": "W6/NS-051", "TITLE": "Bath Mountain", "REGION": "Northern Sierra", "ASSOCIATION": "USA - CA", "POINTS": "8", "BONUSPOINTS": "3"}}, {"type": "Feature", "geometry": {"type": "Point", "coordinates": [-119.6279, 38.1491]}, "properties": {"NAME": "W6/NS-052", "TITLE": "Bigelow Peak", "REGION": "Northern Sierra", "ASSOCIATION": "USA - CA", "POINTS": "8", "BONUSPOINTS": "3"}}, {"type": "Feature", "geometry": {"type": "Point", "coordinates": [-119.6815, 38.4014]}, "properties": {"NAME": "W6/NS-053", "TITLE": "10440", "REGION": "Northern Sierra", "ASSOCIATION": "USA - CA", "POINTS": "8", "BONUSPOINTS": "3"}}, {"type": "Feature", "geometry": {"type": "Point", "coordinates": [-119.5889, 38.1852]}, "properties": {"NAME": "W6/NS-054", "TITLE": "10434", "REGION": "Northern Sierra", "ASSOCIATION": "USA - CA", "POINTS": "8", "BONUSPOINTS": "3"}}, {"type": "Feature", "geometry": {"type": "Point", "coordinates": [-120.0015, 38.6636]}, "properties": {"NAME": "W6/NS-055", "TITLE": "Round Top", "REGION": "Northern Sierra", "ASSOCIATION": "USA - CA", "POINTS": "8", "BONUSPOINTS": "3"}}, {"type": "Feature", "geometry": {"type": "Point", "coordinates": [-119.7089, 38.2062]}, "properties": {"NAME": "W6/NS-056", "TITLE": "Black Hawk Mountain", "REGION": "Northern Sierra", "ASSOCIATION": "USA - CA", "POINTS": "8", "BONUSPOINTS": "3"}}, {"type": "Feature", "geometry": {"type": "Point", "coordinates": [-119.7462, 38.2154]}, "properties": {"NAME": "W6/NS-057", "TITLE": "Granite Dome", "REGION": "Northern Sierra", "ASSOCIATION": "USA - CA", "POINTS": "8", "BONUSPOINTS": "3"}}, {"type": "Feature", "geometry": {"type": "Point", "coordinates": [-119.4274, 37.9505]}, "properties": {"NAME": "W6/NS-058", "TITLE": "Cold Mountain", "REGION": "Northern Sierra", "ASSOCIATION": "USA - CA", "POINTS": "8", "BONUSPOINTS": "3"}}, {"type": "Feature", "geometry": {"type": "Point", "coordinates": [-119.556, 38.4702]}, "properties": {"NAME": "W6/NS-059", "TITLE": "Antelope Peak", "REGION": "Northern Sierra", "ASSOCIATION": "USA - CA", "POINTS": "8", "BONUSPOINTS": "3"}}, {"type": "Feature", "geometry": {"type": "Point", "coordinates": [-119.7666, 38.5163]}, "properties": {"NAME": "W6/NS-060", "TITLE": "10082", "REGION": "Northern Sierra", "ASSOCIATION": "USA - CA", "POINTS": "8", "BONUSPOINTS": "3"}}, {"type": "Feature", "geometry": {"type": "Point", "coordinates": [-119.8975, 38.9228]}, "properties": {"NAME": "W6/NS-061", "TITLE": "Monument Peak", "REGION": "Northern Sierra", "ASSOCIATION": "USA - CA", "POINTS": "8", "BONUSPOINTS": "3"}}, {"type": "Feature", "geometry": {"type": "Point", "coordinates": [-119.9876, 38.7138]}, "properties": {"NAME": "W6/NS-062", "TITLE": "Red Lake Peak", "REGION": "Northern Sierra", "ASSOCIATION": "USA - CA", "POINTS": "8", "BONUSPOINTS": "3"}}, {"type": "Feature", "geometry": {"type": "Point", "coordinates": [-119.7596, 38.473]}, "properties": {"NAME": "W6/NS-063", "TITLE": "Arnot Peak", "REGION": "Northern Sierra", "ASSOCIATION": "USA - CA", "POINTS": "8", "BONUSPOINTS": "3"}}, {"type": "Feature", "geometry": {"type": "Point", "coordinates": [-119.7338, 38.4486]}, "properties": {"NAME": "W6/NS-064", "TITLE": "Disaster Peak", "REGION": "Northern Sierra", "ASSOCIATION": "USA - CA", "POINTS": "8", "BONUSPOINTS": "3"}}, {"type": "Feature", "geometry": {"type": "Point", "coordinates": [-119.8724, 38.7386]}, "properties": {"NAME": "W6/NS-065", "TITLE": "Hawkins Peak", "REGION": "Northern Sierra", "ASSOCIATION": "USA - CA", "POINTS": "8", "BONUSPOINTS": "3"}}, {"type": "Feature", "geometry": {"type": "Point", "coordinates": [-119.8332, 38.6038]}, "properties": {"NAME": "W6/NS-066", "TITLE": "Raymond Peak", "REGION": "Northern Sierra", "ASSOCIATION": "USA - CA", "POINTS": "8", "BONUSPOINTS": "3"}}, {"type": "Feature", "geometry": {"type": "Point", "coordinates": [-120.1577, 38.8449]}, "properties": {"NAME": "W6/NS-067", "TITLE": "Pyramid Peak", "REGION": "Northern Sierra", "ASSOCIATION": "USA - CA", "POINTS": "8", "BONUSPOINTS": "3"}}, {"type": "Feature", "geometry": {"type": "Point", "coordinates": [-120.151, 38.9004]}, "properties": {"NAME": "W6/NS-068", "TITLE": "Dicks Peak", "REGION": "Northern Sierra", "ASSOCIATION": "USA - CA", "POINTS": "8", "BONUSPOINTS": "3"}}, {"type": "Feature", "geometry": {"type": "Point", "coordinates": [-119.7017, 38.5142]}, "properties": {"NAME": "W6/NS-069", "TITLE": "9960", "REGION": "Northern Sierra", "ASSOCIATION": "USA - CA", "POINTS": "8", "BONUSPOINTS": "3"}}, {"type": "Feature", "geometry": {"type": "Point", "coordinates": [-119.8154, 38.4576]}, "properties": {"NAME": "W6/NS-070", "TITLE": "Airola Peak", "REGION": "Northern Sierra", "ASSOCIATION": "USA - CA", "POINTS": "8", "BONUSPOINTS": "3"}}, {"type": "Feature", "geometry": {"type": "Point", "coordinates": [-119.7803, 38.2438]}, "properties": {"NAME": "W6/NS-071", "TITLE": "9896", "REGION": "Northern Sierra", "ASSOCIATION": "USA - CA", "POINTS": "8", "BONUSPOINTS": "3"}}, {"type": "Feature", "geometry": {"type": "Point", "coordinates": [-119.8476, 38.5966]}, "properties": {"NAME": "W6/NS-072", "TITLE": "9860", "REGION": "Northern Sierra", "ASSOCIATION": "USA - CA", "POINTS": "8", "BONUSPOINTS": "3"}}, {"type": "Feature", "geometry": {"type": "Point", "coordinates": [-119.9925, 38.6285]}, "properties": {"NAME": "W6/NS-073", "TITLE": "Deadwood Peak", "REGION": "Northern Sierra", "ASSOCIATION": "USA - CA", "POINTS": "8", "BONUSPOINTS": "3"}}, {"type": "Feature", "geometry": {"type": "Point", "coordinates": [-119.5074, 38.0491]}, "properties": {"NAME": "W6/NS-074", "TITLE": "9812", "REGION": "Northern Sierra", "ASSOCIATION": "USA - CA", "POINTS": "8", "BONUSPOINTS": "3"}}, {"type": "Feature", "geometry": {"type": "Point", "coordinates": [-119.4498, 37.8543]}, "properties": {"NAME": "W6/NS-075", "TITLE": "Polly Dome", "REGION": "Northern Sierra", "ASSOCIATION": "USA - CA", "POINTS": "8", "BONUSPOINTS": "3"}}, {"type": "Feature", "geometry": {"type": "Point", "coordinates": [-120.0605, 38.6624]}, "properties": {"NAME": "W6/NS-076", "TITLE": "Thimble Peak", "REGION": "Northern Sierra", "ASSOCIATION": "USA - CA", "POINTS": "8", "BONUSPOINTS": "3"}}, {"type": "Feature", "geometry": {"type": "Point", "coordinates": [-119.8035, 38.4779]}, "properties": {"NAME": "W6/NS-077", "TITLE": "Hiram Peak", "REGION": "Northern Sierra", "ASSOCIATION": "USA - CA", "POINTS": "8", "BONUSPOINTS": "3"}}, {"type": "Feature", "geometry": {"type": "Point", "coordinates": [-119.8162, 38.4957]}, "properties": {"NAME": "W6/NS-078", "TITLE": "Folger Peak", "REGION": "Northern Sierra", "ASSOCIATION": "USA - CA", "POINTS": "8", "BONUSPOINTS": "3"}}, {"type": "Feature", "geometry": {"type": "Point", "coordinates": [-119.8516, 38.4971]}, "properties": {"NAME": "W6/NS-079", "TITLE": "Peep Sight Peak", "REGION": "Northern Sierra", "ASSOCIATION": "USA - CA", "POINTS": "8", "BONUSPOINTS": "3"}}, {"type": "Feature", "geometry": {"type": "Point", "coordinates": [-119.5089, 38.4293]}, "properties": {"NAME": "W6/NS-080", "TITLE": "9711", "REGION": "Northern Sierra", "ASSOCIATION": "USA - CA", "POINTS": "8", "BONUSPOINTS": "3"}}, {"type": "Feature", "geometry": {"type": "Point", "coordinates": [-119.8376, 38.5795]}, "properties": {"NAME": "W6/NS-081", "TITLE": "Reynolds Peak", "REGION": "Northern Sierra", "ASSOCIATION": "USA - CA", "POINTS": "8", "BONUSPOINTS": "3"}}, {"type": "Feature", "geometry": {"type": "Point", "coordinates": [-119.5668, 38.0817]}, "properties": {"NAME": "W6/NS-082", "TITLE": "9700", "REGION": "Northern Sierra", "ASSOCIATION": "USA - CA", "POINTS": "8", "BONUSPOINTS": "3"}}, {"type": "Feature", "geometry": {"type": "Point", "coordinates": [-119.619, 38.0984]}, "properties": {"NAME": "W6/NS-083", "TITLE": "Chittenden Peak", "REGION": "Northern Sierra", "ASSOCIATION": "USA - CA", "POINTS": "8", "BONUSPOINTS": "3"}}, {"type": "Feature", "geometry": {"type": "Point", "coordinates": [-119.9274, 38.8322]}, "properties": {"NAME": "W6/NS-084", "TITLE": "9647", "REGION": "Northern Sierra", "ASSOCIATION": "USA - CA", "POINTS": "8", "BONUSPOINTS": "3"}}, {"type": "Feature", "geometry": {"type": "Point", "coordinates": [-119.8381, 38.2479]}, "properties": {"NAME": "W6/NS-085", "TITLE": "Castle Rock", "REGION": "Northern Sierra", "ASSOCIATION": "USA - CA", "POINTS": "8", "BONUSPOINTS": "3"}}, {"type": "Feature", "geometry": {"type": "Point", "coordinates": [-119.8803, 38.9007]}, "properties": {"NAME": "W6/NS-086", "TITLE": "9614", "REGION": "Northern Sierra", "ASSOCIATION": "USA - CA", "POINTS": "8", "BONUSPOINTS": "3"}}, {"type": "Feature", "geometry": {"type": "Point", "coordinates": [-120.0515, 38.74]}, "properties": {"NAME": "W6/NS-087", "TITLE": "Little Round Top", "REGION": "Northern Sierra", "ASSOCIATION": "USA - CA", "POINTS": "8", "BONUSPOINTS": "3"}}, {"type": "Feature", "geometry": {"type": "Point", "coordinates": [-119.8733, 38.5108]}, "properties": {"NAME": "W6/NS-088", "TITLE": "Lookout Peak", "REGION": "Northern Sierra", "ASSOCIATION": "USA - CA", "POINTS": "8", "BONUSPOINTS": "3"}}, {"type": "Feature", "geometry": {"type": "Point", "coordinates": [-119.4702, 37.9539]}, "properties": {"NAME": "W6/NS-089", "TITLE": "Hooper Peak", "REGION": "Northern Sierra", "ASSOCIATION": "USA - CA", "POINTS": "8", "BONUSPOINTS": "3"}}, {"type": "Feature", "geometry": {"type": "Point", "coordinates": [-119.7786, 38.2686]}, "properties": {"NAME": "W6/NS-090", "TITLE": "9550", "REGION": "Northern Sierra", "ASSOCIATION": "USA - CA", "POINTS": "8", "BONUSPOINTS": "3"}}, {"type": "Feature", "geometry": {"type": "Point", "coordinates": [-119.8719, 38.4046]}, "properties": {"NAME": "W6/NS-091", "TITLE": "Dardanelles Cone", "REGION": "Northern Sierra", "ASSOCIATION": "USA - CA", "POINTS": "8", "BONUSPOINTS": "3"}}, {"type": "Feature", "geometry": {"type": "Point", "coordinates": [-119.9649, 38.7761]}, "properties": {"NAME": "W6/NS-092", "TITLE": "Waterhouse Peak", "REGION": "Northern Sierra", "ASSOCIATION": "USA - CA", "POINTS": "8", "BONUSPOINTS": "3"}}, {"type": "Feature", "geometry": {"type": "Point", "coordinates": [-119.8919, 38.4754]}, "properties": {"NAME": "W6/NS-093", "TITLE": "Bull Run Peak", "REGION": "Northern Sierra", "ASSOCIATION": "USA - CA", "POINTS": "8", "BONUSPOINTS": "3"}}, {"type": "Feature", "geometry": {"type": "Point", "coordinates": [-120.1871, 38.8845]}, "properties": {"NAME": "W6/NS-094", "TITLE": "Little Pyramid", "REGION": "Northern Sierra", "ASSOCIATION": "USA - CA", "POINTS": "8", "BONUSPOINTS": "3"}}, {"type": "Feature", "geometry": {"type": "Point", "coordinates": [-120.2134, 38.9169]}, "properties": {"NAME": "W6/NS-095", "TITLE": "9420", "REGION": "Northern Sierra", "ASSOCIATION": "USA - CA", "POINTS": "8", "BONUSPOINTS": "3"}}, {"type": "Feature", "geometry": {"type": "Point", "coordinates": [-119.898, 38.6613]}, "properties": {"NAME": "W6/NS-096", "TITLE": "Markleeville Peak", "REGION": "Northern Sierra", "ASSOCIATION": "USA - CA", "POINTS": "8", "BONUSPOINTS": "3"}}, {"type": "Feature", "geometry": {"type": "Point", "coordinates": [-119.672, 38.1525]}, "properties": {"NAME": "W6/NS-097", "TITLE": "Sachse Monument", "REGION": "Northern Sierra", "ASSOCIATION": "USA - CA", "POINTS": "8", "BONUSPOINTS": "3"}}, {"type": "Feature", "geometry": {"type": "Point", "coordinates": [-119.4993, 38.3944]}, "properties": {"NAME": "W6/NS-098", "TITLE": "9401", "REGION": "Northern Sierra", "ASSOCIATION": "USA - CA", "POINTS": "8", "BONUSPOINTS": "3"}}, {"type": "Feature", "geometry": {"type": "Point", "coordinates": [-119.688, 38.4477]}, "properties": {"NAME": "W6/NS-099", "TITLE": "Boulder Peak", "REGION": "Northern Sierra", "ASSOCIATION": "USA - CA", "POINTS": "8", "BONUSPOINTS": "3"}}, {"type": "Feature", "geometry": {"type": "Point", "coordinates": [-119.8557, 38.8096]}, "properties": {"NAME": "W6/NS-100", "TITLE": "9390", "REGION": "Northern Sierra", "ASSOCIATION": "USA - CA", "POINTS": "8", "BONUSPOINTS": "3"}}, {"type": "Feature", "geometry": {"type": "Point", "coordinates": [-119.8482, 38.2744]}, "properties": {"NAME": "W6/NS-101", "TITLE": "Eagle Peak", "REGION": "Northern Sierra", "ASSOCIATION": "USA - CA", "POINTS": "8", "BONUSPOINTS": "3"}}, {"type": "Feature", "geometry": {"type": "Point", "coordinates": [-119.9332, 38.6399]}, "properties": {"NAME": "W6/NS-102", "TITLE": "The Nipple", "REGION": "Northern Sierra", "ASSOCIATION": "USA - CA", "POINTS": "8", "BONUSPOINTS": "3"}}, {"type": "Feature", "geometry": {"type": "Point", "coordinates": [-120.0943, 38.538]}, "properties": {"NAME": "W6/NS-103", "TITLE": "Mokelumne Peak", "REGION": "Northern Sierra", "ASSOCIATION": "USA - CA", "POINTS": "8", "BONUSPOINTS": "3"}}, {"type": "Feature", "geometry": {"type": "Point", "coordinates": [-119.7827, 38.4485]}, "properties": {"NAME": "W6/NS-104", "TITLE": "Lightning Mountain", "REGION": "Northern Sierra", "ASSOCIATION": "USA - CA", "POINTS": "8", "BONUSPOINTS": "3"}}, {"type": "Feature", "geometry": {"type": "Point", "coordinates": [-120.1492, 38.9702]}, "properties": {"NAME": "W6/NS-105", "TITLE": "9310", "REGION": "Northern Sierra", "ASSOCIATION": "USA - CA", "POINTS": "8", "BONUSPOINTS": "3"}}, {"type": "Feature", "geometry": {"type": "Point", "coordinates": [-119.8541, 38.2019]}, "properties": {"NAME": "W6/NS-106", "TITLE": "9300", "REGION": "Northern Sierra", "ASSOCIATION": "USA - CA", "POINTS": "8", "BONUSPOINTS": "3"}}, {"type": "Feature", "geometry": {"type": "Point", "coordinates": [-120.1294, 38.9836]}, "properties": {"NAME": "W6/NS-107", "TITLE": "9269", "REGION": "Northern Sierra", "ASSOCIATION": "USA - CA", "POINTS": "8", "BONUSPOINTS": "3"}}, {"type": "Feature", "geometry": {"type": "Point", "coordinates": [-120.1016, 38.833]}, "properties": {"NAME": "W6/NS-108", "TITLE": "Ralston Peak", "REGION": "Northern Sierra", "ASSOCIATION": "USA - CA", "POINTS": "8", "BONUSPOINTS": "3"}}, {"type": "Feature", "geometry": {"type": "Point", "coordinates": [-119.9623, 38.5917]}, "properties": {"NAME": "W6/NS-109", "TITLE": "9205", "REGION": "Northern Sierra", "ASSOCIATION": "USA - CA", "POINTS": "8", "BONUSPOINTS": "3"}}, {"type": "Feature", "geometry": {"type": "Point", "coordinates": [-119.4129, 37.8806]}, "properties": {"NAME": "W6/NS-110", "TITLE": "Daff Dome", "REGION": "Northern Sierra", "ASSOCIATION": "USA - CA", "POINTS": "8", "BONUSPOINTS": "3"}}, {"type": "Feature", "geometry": {"type": "Point", "coordinates": [-120.3651, 39.433]}, "properties": {"NAME": "W6/NS-111", "TITLE": "Mount Lola", "REGION": "Northern Sierra", "ASSOCIATION": "USA - CA", "POINTS": "8", "BONUSPOINTS": "3"}}, {"type": "Feature", "geometry": {"type": "Point", "coordinates": [-119.4343, 37.9051]}, "properties": {"NAME": "W6/NS-112", "TITLE": "East Falls Ridge", "REGION": "Northern Sierra", "ASSOCIATION": "USA - CA", "POINTS": "8", "BONUSPOINTS": "3"}}, {"type": "Feature", "geometry": {"type": "Point", "coordinates": [-119.9625, 38.5108]}, "properties": {"NAME": "W6/NS-113", "TITLE": "9115", "REGION": "Northern Sierra", "ASSOCIATION": "USA - CA", "POINTS": "8", "BONUSPOINTS": "3"}}, {"type": "Feature", "geometry": {"type": "Point", "coordinates": [-119.8965, 38.6366]}, "properties": {"NAME": "W6/NS-114", "TITLE": "Jeff Davis Peak", "REGION": "Northern Sierra", "ASSOCIATION": "USA - CA", "POINTS": "8", "BONUSPOINTS": "3"}}, {"type": "Feature", "geometry": {"type": "Point", "coordinates": [-120.2869, 39.1982]}, "properties": {"NAME": "W6/NS-115", "TITLE": "Granite Chief", "REGION": "Northern Sierra", "ASSOCIATION": "USA - CA", "POINTS": "8", "BONUSPOINTS": "3"}}, {"type": "Feature", "geometry": {"type": "Point", "coordinates": [-119.3604, 38.3354]}, "properties": {"NAME": "W6/NS-116", "TITLE": "9002", "REGION": "Northern Sierra", "ASSOCIATION": "USA - CA", "POINTS": "8", "BONUSPOINTS": "3"}}, {"type": "Feature", "geometry": {"type": "Point", "coordinates": [-119.7319, 38.1004]}, "properties": {"NAME": "W6/NS-117", "TITLE": "Wheeler Peak", "REGION": "Northern Sierra", "ASSOCIATION": "USA - CA", "POINTS": "8", "BONUSPOINTS": "3"}}, {"type": "Feature", "geometry": {"type": "Point", "coordinates": [-119.666, 38.028]}, "properties": {"NAME": "W6/NS-118", "TITLE": "Tiltill Mountain", "REGION": "Northern Sierra", "ASSOCIATION": "USA - CA", "POINTS": "8", "BONUSPOINTS": "3"}}, {"type": "Feature", "geometry": {"type": "Point", "coordinates": [-119.608, 37.9591]}, "properties": {"NAME": "W6/NS-119", "TITLE": "Rancheria Mountain", "REGION": "Northern Sierra", "ASSOCIATION": "USA - CA", "POINTS": "8", "BONUSPOINTS": "3"}}, {"type": "Feature", "geometry": {"type": "Point", "coordinates": [-119.6249, 38.5264]}, "properties": {"NAME": "W6/NS-120", "TITLE": "Mineral Mountain", "REGION": "Northern Sierra", "ASSOCIATION": "USA - CA", "POINTS": "8", "BONUSPOINTS": "3"}}, {"type": "Feature", "geometry": {"type": "Point", "coordinates": [-120.2851, 39.2448]}, "properties": {"NAME": "W6/NS-121", "TITLE": "Tinker Knob", "REGION": "Northern Sierra", "ASSOCIATION": "USA - CA", "POINTS": "8", "BONUSPOINTS": "3"}}, {"type": "Feature", "geometry": {"type": "Point", "coordinates": [-119.6183, 38.6322]}, "properties": {"NAME": "W6/NS-122", "TITLE": "8930", "REGION": "Northern Sierra", "ASSOCIATION": "USA - CA", "POINTS": "8", "BONUSPOINTS": "3"}}, {"type": "Feature", "geometry": {"type": "Point", "coordinates": [-120.3265, 39.4155]}, "properties": {"NAME": "W6/NS-123", "TITLE": "Carpenter Ridge", "REGION": "Northern Sierra", "ASSOCIATION": "USA - CA", "POINTS": "8", "BONUSPOINTS": "3"}}, {"type": "Feature", "geometry": {"type": "Point", "coordinates": [-119.3657, 38.3204]}, "properties": {"NAME": "W6/NS-124", "TITLE": "8924", "REGION": "Northern Sierra", "ASSOCIATION": "USA - CA", "POINTS": "8", "BONUSPOINTS": "3"}}, {"type": "Feature", "geometry": {"type": "Point", "coordinates": [-119.8993, 38.7021]}, "properties": {"NAME": "W6/NS-125", "TITLE": "8910", "REGION": "Northern Sierra", "ASSOCIATION": "USA - CA", "POINTS": "8", "BONUSPOINTS": "3"}}, {"type": "Feature", "geometry": {"type": "Point", "coordinates": [-119.9137, 38.3958]}, "properties": {"NAME": "W6/NS-126", "TITLE": "The Dardanelles West", "REGION": "Northern Sierra", "ASSOCIATION": "USA - CA", "POINTS": "8", "BONUSPOINTS": "3"}}, {"type": "Feature", "geometry": {"type": "Point", "coordinates": [-120.0733, 38.8565]}, "properties": {"NAME": "W6/NS-127", "TITLE": "Echo Peak", "REGION": "Northern Sierra", "ASSOCIATION": "USA - CA", "POINTS": "8", "BONUSPOINTS": "3"}}, {"type": "Feature", "geometry": {"type": "Point", "coordinates": [-120.2317, 39.1124]}, "properties": {"NAME": "W6/NS-128", "TITLE": "East Twin Peaks", "REGION": "Northern Sierra", "ASSOCIATION": "USA - CA", "POINTS": "8", "BONUSPOINTS": "3"}}, {"type": "Feature", "geometry": {"type": "Point", "coordinates": [-119.394, 38.3228]}, "properties": {"NAME": "W6/NS-129", "TITLE": "Bush Mountain", "REGION": "Northern Sierra", "ASSOCIATION": "USA - CA", "POINTS": "8", "BONUSPOINTS": "3"}}, {"type": "Feature", "geometry": {"type": "Point", "coordinates": [-120.3679, 39.414]}, "properties": {"NAME": "W6/NS-130", "TITLE": "8812", "REGION": "Northern Sierra", "ASSOCIATION": "USA - CA", "POINTS": "8", "BONUSPOINTS": "3"}}, {"type": "Feature", "geometry": {"type": "Point", "coordinates": [-119.5839, 38.5529]}, "properties": {"NAME": "W6/NS-131", "TITLE": "8802", "REGION": "Northern Sierra", "ASSOCIATION": "USA - CA", "POINTS": "8", "BONUSPOINTS": "3"}}, {"type": "Feature", "geometry": {"type": "Point", "coordinates": [-120.1057, 39.6023]}, "properties": {"NAME": "W6/NS-132", "TITLE": "Babbitt Peak", "REGION": "Northern Sierra", "ASSOCIATION": "USA - CA", "POINTS": "8", "BONUSPOINTS": "3"}}, {"type": "Feature", "geometry": {"type": "Point", "coordinates": [-120.198, 39.0684]}, "properties": {"NAME": "W6/NS-133", "TITLE": "Ellis Peak", "REGION": "Northern Sierra", "ASSOCIATION": "USA - CA", "POINTS": "8", "BONUSPOINTS": "3"}}, {"type": "Feature", "geometry": {"type": "Point", "coordinates": [-120.3938, 39.4259]}, "properties": {"NAME": "W6/NS-134", "TITLE": "8740", "REGION": "Northern Sierra", "ASSOCIATION": "USA - CA", "POINTS": "8", "BONUSPOINTS": "3"}}, {"type": "Feature", "geometry": {"type": "Point", "coordinates": [-120.1138, 38.9316]}, "properties": {"NAME": "W6/NS-135", "TITLE": "South Maggies Peaks", "REGION": "Northern Sierra", "ASSOCIATION": "USA - CA", "POINTS": "8", "BONUSPOINTS": "3"}}, {"type": "Feature", "geometry": {"type": "Point", "coordinates": [-119.8496, 38.6496]}, "properties": {"NAME": "W6/NS-136", "TITLE": "Thornburg Peak", "REGION": "Northern Sierra", "ASSOCIATION": "USA - CA", "POINTS": "8", "BONUSPOINTS": "3"}}, {"type": "Feature", "geometry": {"type": "Point", "coordinates": [-119.4695, 37.9161]}, "properties": {"NAME": "W6/NS-137", "TITLE": "West Falls Ridge", "REGION": "Northern Sierra", "ASSOCIATION": "USA - CA", "POINTS": "8", "BONUSPOINTS": "3"}}, {"type": "Feature", "geometry": {"type": "Point", "coordinates": [-120.1399, 39.2415]}, "properties": {"NAME": "W6/NS-138", "TITLE": "Mount Pluto", "REGION": "Northern Sierra", "ASSOCIATION": "USA - CA", "POINTS": "8", "BONUSPOINTS": "3"}}, {"type": "Feature", "geometry": {"type": "Point", "coordinates": [-120.6471, 39.5936]}, "properties": {"NAME": "W6/NS-139", "TITLE": "North Sierra Buttes", "REGION": "Northern Sierra", "ASSOCIATION": "USA - CA", "POINTS": "8", "BONUSPOINTS": "3"}}, {"type": "Feature", "geometry": {"type": "Point", "coordinates": [-119.6796, 38.0391]}, "properties": {"NAME": "W6/NS-140", "TITLE": "Andrews Peak", "REGION": "Northern Sierra", "ASSOCIATION": "USA - CA", "POINTS": "8", "BONUSPOINTS": "3"}}, {"type": "Feature", "geometry": {"type": "Point", "coordinates": [-120.2993, 39.1778]}, "properties": {"NAME": "W6/NS-141", "TITLE": "8535", "REGION": "Northern Sierra", "ASSOCIATION": "USA - CA", "POINTS": "8", "BONUSPOINTS": "3"}}, {"type": "Feature", "geometry": {"type": "Point", "coordinates": [-120.3347, 39.164]}, "properties": {"NAME": "W6/NS-142", "TITLE": "Mildred Ridge", "REGION": "Northern Sierra", "ASSOCIATION": "USA - CA", "POINTS": "8", "BONUSPOINTS": "3"}}, {"type": "Feature", "geometry": {"type": "Point", "coordinates": [-120.0526, 38.4864]}, "properties": {"NAME": "W6/NS-143", "TITLE": "Bloods Ridge", "REGION": "Northern Sierra", "ASSOCIATION": "USA - CA", "POINTS": "8", "BONUSPOINTS": "3"}}, {"type": "Feature", "geometry": {"type": "Point", "coordinates": [-119.7552, 38.0691]}, "properties": {"NAME": "W6/NS-144", "TITLE": "Nance Peak", "REGION": "Northern Sierra", "ASSOCIATION": "USA - CA", "POINTS": "8", "BONUSPOINTS": "3"}}, {"type": "Feature", "geometry": {"type": "Point", "coordinates": [-119.7898, 38.614]}, "properties": {"NAME": "W6/NS-145", "TITLE": "IXL Benchmark", "REGION": "Northern Sierra", "ASSOCIATION": "USA - CA", "POINTS": "8", "BONUSPOINTS": "3"}}, {"type": "Feature", "geometry": {"type": "Point", "coordinates": [-120.0396, 39.4725]}, "properties": {"NAME": "W6/NS-146", "TITLE": "Verdi Peak", "REGION": "Northern Sierra", "ASSOCIATION": "USA - CA", "POINTS": "8", "BONUSPOINTS": "3"}}, {"type": "Feature", "geometry": {"type": "Point", "coordinates": [-120.1471, 39.2202]}, "properties": {"NAME": "W6/NS-147", "TITLE": "Mount Watson", "REGION": "Northern Sierra", "ASSOCIATION": "USA - CA", "POINTS": "8", "BONUSPOINTS": "3"}}, {"type": "Feature", "geometry": {"type": "Point", "coordinates": [-119.7006, 37.9976]}, "properties": {"NAME": "W6/NS-148", "TITLE": "Mount Gibson", "REGION": "Northern Sierra", "ASSOCIATION": "USA - CA", "POINTS": "8", "BONUSPOINTS": "3"}}, {"type": "Feature", "geometry": {"type": "Point", "coordinates": [-120.3284, 39.2878]}, "properties": {"NAME": "W6/NS-149", "TITLE": "Mount Lincoln", "REGION": "Northern Sierra", "ASSOCIATION": "USA - CA", "POINTS": "8", "BONUSPOINTS": "3"}}, {"type": "Feature", "geometry": {"type": "Point", "coordinates": [-119.4751, 38.4554]}, "properties": {"NAME": "W6/NS-150", "TITLE": "8376", "REGION": "Northern Sierra", "ASSOCIATION": "USA - CA", "POINTS": "8", "BONUSPOINTS": "3"}}, {"type": "Feature", "geometry": {"type": "Point", "coordinates": [-120.5512, 39.4465]}, "properties": {"NAME": "W6/NS-151", "TITLE": "English Mountain", "REGION": "Northern Sierra", "ASSOCIATION": "USA - CA", "POINTS": "8", "BONUSPOINTS": "3"}}, {"type": "Feature", "geometry": {"type": "Point", "coordinates": [-119.8317, 38.1492]}, "properties": {"NAME": "W6/NS-152", "TITLE": "8292", "REGION": "Northern Sierra", "ASSOCIATION": "USA - CA", "POINTS": "8", "BONUSPOINTS": "3"}}, {"type": "Feature", "geometry": {"type": "Point", "coordinates": [-120.2231, 39.1579]}, "properties": {"NAME": "W6/NS-153", "TITLE": "Scott Peak", "REGION": "Northern Sierra", "ASSOCIATION": "USA - CA", "POINTS": "8", "BONUSPOINTS": "3"}}, {"type": "Feature", "geometry": {"type": "Point", "coordinates": [-120.2041, 39.0135]}, "properties": {"NAME": "W6/NS-154", "TITLE": "Lost Corner Mountain", "REGION": "Northern Sierra", "ASSOCIATION": "USA - CA", "POINTS": "8", "BONUSPOINTS": "3"}}, {"type": "Feature", "geometry": {"type": "Point", "coordinates": [-120.3991, 39.3682]}, "properties": {"NAME": "W6/NS-155", "TITLE": "Sand Ridge", "REGION": "Northern Sierra", "ASSOCIATION": "USA - CA", "POINTS": "8", "BONUSPOINTS": "3"}}, {"type": "Feature", "geometry": {"type": "Point", "coordinates": [-120.4556, 39.4327]}, "properties": {"NAME": "W6/NS-156", "TITLE": "Lacey Benchmark", "REGION": "Northern Sierra", "ASSOCIATION": "USA - CA", "POINTS": "8", "BONUSPOINTS": "3"}}, {"type": "Feature", "geometry": {"type": "Point", "coordinates": [-119.6212, 38.0024]}, "properties": {"NAME": "W6/NS-157", "TITLE": "8215", "REGION": "Northern Sierra", "ASSOCIATION": "USA - CA", "POINTS": "8", "BONUSPOINTS": "3"}}, {"type": "Feature", "geometry": {"type": "Point", "coordinates": [-120.0988, 39.9099]}, "properties": {"NAME": "W6/NS-158", "TITLE": "Adams Peak", "REGION": "Northern Sierra", "ASSOCIATION": "USA - CA", "POINTS": "8", "BONUSPOINTS": "3"}}, {"type": "Feature", "geometry": {"type": "Point", "coordinates": [-120.4644, 39.4559]}, "properties": {"NAME": "W6/NS-159", "TITLE": "8166", "REGION": "Northern Sierra", "ASSOCIATION": "USA - CA", "POINTS": "8", "BONUSPOINTS": "3"}}, {"type": "Feature", "geometry": {"type": "Point", "coordinates": [-120.1877, 39.5403]}, "properties": {"NAME": "W6/NS-160", "TITLE": "Sardine Peak", "REGION": "Northern Sierra", "ASSOCIATION": "USA - CA", "POINTS": "8", "BONUSPOINTS": "3"}}, {"type": "Feature", "geometry": {"type": "Point", "coordinates": [-119.8603, 38.138]}, "properties": {"NAME": "W6/NS-161", "TITLE": "8126", "REGION": "Northern Sierra", "ASSOCIATION": "USA - CA", "POINTS": "8", "BONUSPOINTS": "3"}}, {"type": "Feature", "geometry": {"type": "Point", "coordinates": [-120.5527, 39.6624]}, "properties": {"NAME": "W6/NS-162", "TITLE": "Haskell Peak", "REGION": "Northern Sierra", "ASSOCIATION": "USA - CA", "POINTS": "8", "BONUSPOINTS": "3"}}, {"type": "Feature", "geometry": {"type": "Point", "coordinates": [-120.4455, 39.4803]}, "properties": {"NAME": "W6/NS-163", "TITLE": "Webber Peak", "REGION": "Northern Sierra", "ASSOCIATION": "USA - CA", "POINTS": "8", "BONUSPOINTS": "3"}}, {"type": "Feature", "geometry": {"type": "Point", "coordinates": [-119.6839, 38.6479]}, "properties": {"NAME": "W6/NS-164", "TITLE": "8090", "REGION": "Northern Sierra", "ASSOCIATION": "USA - CA", "POINTS": "8", "BONUSPOINTS": "3"}}, {"type": "Feature", "geometry": {"type": "Point", "coordinates": [-119.4825, 38.3502]}, "properties": {"NAME": "W6/NS-165", "TITLE": "Pickle Benchmark", "REGION": "Northern Sierra", "ASSOCIATION": "USA - CA", "POINTS": "8", "BONUSPOINTS": "3"}}, {"type": "Feature", "geometry": {"type": "Point", "coordinates": [-120.4609, 39.5566]}, "properties": {"NAME": "W6/NS-166", "TITLE": "8060", "REGION": "Northern Sierra", "ASSOCIATION": "USA - CA", "POINTS": "8", "BONUSPOINTS": "3"}}, {"type": "Feature", "geometry": {"type": "Point", "coordinates": [-120.1434, 39.7026]}, "properties": {"NAME": "W6/NS-167", "TITLE": "Mount Ina Coolbrith", "REGION": "Northern Sierra", "ASSOCIATION": "USA - CA", "POINTS": "8", "BONUSPOINTS": "3"}}, {"type": "Feature", "geometry": {"type": "Point", "coordinates": [-119.5425, 38.551]}, "properties": {"NAME": "W6/NS-168", "TITLE": "8041", "REGION": "Northern Sierra", "ASSOCIATION": "USA - CA", "POINTS": "8", "BONUSPOINTS": "3"}}, {"type": "Feature", "geometry": {"type": "Point", "coordinates": [-120.1903, 39.5567]}, "properties": {"NAME": "W6/NS-169", "TITLE": "Land Peak", "REGION": "Northern Sierra", "ASSOCIATION": "USA - CA", "POINTS": "8", "BONUSPOINTS": "3"}}, {"type": "Feature", "geometry": {"type": "Point", "coordinates": [-120.5577, 39.3952]}, "properties": {"NAME": "W6/NS-170", "TITLE": "Black Buttes", "REGION": "Northern Sierra", "ASSOCIATION": "USA - CA", "POINTS": "8", "BONUSPOINTS": "3"}}, {"type": "Feature", "geometry": {"type": "Point", "coordinates": [-120.4638, 39.2411]}, "properties": {"NAME": "W6/NS-171", "TITLE": "Snow Mountain", "REGION": "Northern Sierra", "ASSOCIATION": "USA - CA", "POINTS": "8", "BONUSPOINTS": "3"}}, {"type": "Feature", "geometry": {"type": "Point", "coordinates": [-119.5456, 38.5921]}, "properties": {"NAME": "W6/NS-172", "TITLE": "7973", "REGION": "Northern Sierra", "ASSOCIATION": "USA - CA", "POINTS": "8", "BONUSPOINTS": "3"}}, {"type": "Feature", "geometry": {"type": "Point", "coordinates": [-119.9216, 38.1488]}, "properties": {"NAME": "W6/NS-173", "TITLE": "Bell Mountain", "REGION": "Northern Sierra", "ASSOCIATION": "USA - CA", "POINTS": "8", "BONUSPOINTS": "3"}}, {"type": "Feature", "geometry": {"type": "Point", "coordinates": [-119.8758, 38.1024]}, "properties": {"NAME": "W6/NS-174", "TITLE": "Cherry Ridge", "REGION": "Northern Sierra", "ASSOCIATION": "USA - CA", "POINTS": "8", "BONUSPOINTS": "3"}}, {"type": "Feature", "geometry": {"type": "Point", "coordinates": [-120.3466, 39.0521]}, "properties": {"NAME": "W6/NS-175", "TITLE": "McKinstry Peak", "REGION": "Northern Sierra", "ASSOCIATION": "USA - CA", "POINTS": "8", "BONUSPOINTS": "3"}}, {"type": "Feature", "geometry": {"type": "Point", "coordinates": [-121.3861, 40.2176]}, "properties": {"NAME": "W6/NS-176", "TITLE": "Butt Mountain", "REGION": "Northern Sierra", "ASSOCIATION": "USA - CA", "POINTS": "8", "BONUSPOINTS": "3"}}, {"type": "Feature", "geometry": {"type": "Point", "coordinates": [-120.384, 39.4998]}, "properties": {"NAME": "W6/NS-177", "TITLE": "7860", "REGION": "Northern Sierra", "ASSOCIATION": "USA - CA", "POINTS": "8", "BONUSPOINTS": "3"}}, {"type": "Feature", "geometry": {"type": "Point", "coordinates": [-119.9996, 38.3693]}, "properties": {"NAME": "W6/NS-178", "TITLE": "Whittakers Dardanelles", "REGION": "Northern Sierra", "ASSOCIATION": "USA - CA", "POINTS": "8", "BONUSPOINTS": "3"}}, {"type": "Feature", "geometry": {"type": "Point", "coordinates": [-120.5354, 39.339]}, "properties": {"NAME": "W6/NS-179", "TITLE": "Signal Peak", "REGION": "Northern Sierra", "ASSOCIATION": "USA - CA", "POINTS": "8", "BONUSPOINTS": "3"}}, {"type": "Feature", "geometry": {"type": "Point", "coordinates": [-120.7206, 40.1464]}, "properties": {"NAME": "W6/NS-180", "TITLE": "Kettle Benchmark", "REGION": "Northern Sierra", "ASSOCIATION": "USA - CA", "POINTS": "8", "BONUSPOINTS": "3"}}, {"type": "Feature", "geometry": {"type": "Point", "coordinates": [-120.2812, 39.346]}, "properties": {"NAME": "W6/NS-181", "TITLE": "Donner Ridge", "REGION": "Northern Sierra", "ASSOCIATION": "USA - CA", "POINTS": "8", "BONUSPOINTS": "3"}}, {"type": "Feature", "geometry": {"type": "Point", "coordinates": [-120.6891, 39.7084]}, "properties": {"NAME": "W6/NS-182", "TITLE": "Mount Elwell", "REGION": "Northern Sierra", "ASSOCIATION": "USA - CA", "POINTS": "8", "BONUSPOINTS": "3"}}, {"type": "Feature", "geometry": {"type": "Point", "coordinates": [-120.5581, 40.2612]}, "properties": {"NAME": "W6/NS-183", "TITLE": "Thompson Peak", "REGION": "Northern Sierra", "ASSOCIATION": "USA - CA", "POINTS": "8", "BONUSPOINTS": "3"}}, {"type": "Feature", "geometry": {"type": "Point", "coordinates": [-120.5222, 39.3703]}, "properties": {"NAME": "W6/NS-184", "TITLE": "Old Man Mountain", "REGION": "Northern Sierra", "ASSOCIATION": "USA - CA", "POINTS": "8", "BONUSPOINTS": "3"}}, {"type": "Feature", "geometry": {"type": "Point", "coordinates": [-120.7766, 39.9953]}, "properties": {"NAME": "W6/NS-185", "TITLE": "Grizzly Mountain", "REGION": "Northern Sierra", "ASSOCIATION": "USA - CA", "POINTS": "8", "BONUSPOINTS": "3"}}, {"type": "Feature", "geometry": {"type": "Point", "coordinates": [-119.8293, 38.0459]}, "properties": {"NAME": "W6/NS-186", "TITLE": "7761", "REGION": "Northern Sierra", "ASSOCIATION": "USA - CA", "POINTS": "8", "BONUSPOINTS": "3"}}, {"type": "Feature", "geometry": {"type": "Point", "coordinates": [-119.7352, 37.9266]}, "properties": {"NAME": "W6/NS-187", "TITLE": "Smith Peak", "REGION": "Northern Sierra", "ASSOCIATION": "USA - CA", "POINTS": "8", "BONUSPOINTS": "3"}}, {"type": "Feature", "geometry": {"type": "Point", "coordinates": [-120.313, 39.0377]}, "properties": {"NAME": "W6/NS-188", "TITLE": "Guide Peak", "REGION": "Northern Sierra", "ASSOCIATION": "USA - CA", "POINTS": "8", "BONUSPOINTS": "3"}}, {"type": "Feature", "geometry": {"type": "Point", "coordinates": [-120.0882, 39.2569]}, "properties": {"NAME": "W6/NS-189", "TITLE": "Gold Star Peak", "REGION": "Northern Sierra", "ASSOCIATION": "USA - CA", "POINTS": "8", "BONUSPOINTS": "3"}}, {"type": "Feature", "geometry": {"type": "Point", "coordinates": [-120.3199, 40.0022]}, "properties": {"NAME": "W6/NS-190", "TITLE": "7740", "REGION": "Northern Sierra", "ASSOCIATION": "USA - CA", "POINTS": "8", "BONUSPOINTS": "3"}}, {"type": "Feature", "geometry": {"type": "Point", "coordinates": [-120.6938, 40.3126]}, "properties": {"NAME": "W6/NS-191", "TITLE": "Diamond Mountain", "REGION": "Northern Sierra", "ASSOCIATION": "USA - CA", "POINTS": "8", "BONUSPOINTS": "3"}}, {"type": "Feature", "geometry": {"type": "Point", "coordinates": [-119.7413, 38.6328]}, "properties": {"NAME": "W6/NS-192", "TITLE": "7730", "REGION": "Northern Sierra", "ASSOCIATION": "USA - CA", "POINTS": "8", "BONUSPOINTS": "3"}}, {"type": "Feature", "geometry": {"type": "Point", "coordinates": [-120.2537, 39.4069]}, "properties": {"NAME": "W6/NS-193", "TITLE": "Sagehen Hills", "REGION": "Northern Sierra", "ASSOCIATION": "USA - CA", "POINTS": "8", "BONUSPOINTS": "3"}}, {"type": "Feature", "geometry": {"type": "Point", "coordinates": [-120.8525, 39.7302]}, "properties": {"NAME": "W6/NS-194", "TITLE": "Mount Fillmore", "REGION": "Northern Sierra", "ASSOCIATION": "USA - CA", "POINTS": "8", "BONUSPOINTS": "3"}}, {"type": "Feature", "geometry": {"type": "Point", "coordinates": [-120.6126, 39.3863]}, "properties": {"NAME": "W6/NS-195", "TITLE": "Grouse Ridge", "REGION": "Northern Sierra", "ASSOCIATION": "USA - CA", "POINTS": "8", "BONUSPOINTS": "3"}}, {"type": "Feature", "geometry": {"type": "Point", "coordinates": [-120.8005, 40.0153]}, "properties": {"NAME": "W6/NS-196", "TITLE": "Grizzly Peak", "REGION": "Northern Sierra", "ASSOCIATION": "USA - CA", "POINTS": "8", "BONUSPOINTS": "3"}}, {"type": "Feature", "geometry": {"type": "Point", "coordinates": [-120.4406, 39.2824]}, "properties": {"NAME": "W6/NS-197", "TITLE": "Devils Peak", "REGION": "Northern Sierra", "ASSOCIATION": "USA - CA", "POINTS": "8", "BONUSPOINTS": "3"}}, {"type": "Feature", "geometry": {"type": "Point", "coordinates": [-120.5305, 39.8674]}, "properties": {"NAME": "W6/NS-198", "TITLE": "Smith Peak", "REGION": "Northern Sierra", "ASSOCIATION": "USA - CA", "POINTS": "8", "BONUSPOINTS": "3"}}, {"type": "Feature", "geometry": {"type": "Point", "coordinates": [-120.0611, 38.3551]}, "properties": {"NAME": "W6/NS-199", "TITLE": "7656", "REGION": "Northern Sierra", "ASSOCIATION": "USA - CA", "POINTS": "8", "BONUSPOINTS": "3"}}, {"type": "Feature", "geometry": {"type": "Point", "coordinates": [-120.0906, 39.6696]}, "properties": {"NAME": "W6/NS-200", "TITLE": "7654", "REGION": "Northern Sierra", "ASSOCIATION": "USA - CA", "POINTS": "8", "BONUSPOINTS": "3"}}, {"type": "Feature", "geometry": {"type": "Point", "coordinates": [-120.8324, 40.2899]}, "properties": {"NAME": "W6/NS-201", "TITLE": "Coyote Peak", "REGION": "Northern Sierra", "ASSOCIATION": "USA - CA", "POINTS": "8", "BONUSPOINTS": "3"}}, {"type": "Feature", "geometry": {"type": "Point", "coordinates": [-120.3087, 39.8725]}, "properties": {"NAME": "W6/NS-202", "TITLE": "Reconnaissance Peak", "REGION": "Northern Sierra", "ASSOCIATION": "USA - CA", "POINTS": "8", "BONUSPOINTS": "3"}}, {"type": "Feature", "geometry": {"type": "Point", "coordinates": [-120.5031, 39.6487]}, "properties": {"NAME": "W6/NS-203", "TITLE": "7605", "REGION": "Northern Sierra", "ASSOCIATION": "USA - CA", "POINTS": "8", "BONUSPOINTS": "3"}}, {"type": "Feature", "geometry": {"type": "Point", "coordinates": [-120.3974, 39.2974]}, "properties": {"NAME": "W6/NS-204", "TITLE": "KU6J Memorial Peak - 7559", "REGION": "Northern Sierra", "ASSOCIATION": "USA - CA", "POINTS": "8", "BONUSPOINTS": "3"}}, {"type": "Feature", "geometry": {"type": "Point", "coordinates": [-119.4789, 38.4794]}, "properties": {"NAME": "W6/NS-205", "TITLE": "7540", "REGION": "Northern Sierra", "ASSOCIATION": "USA - CA", "POINTS": "8", "BONUSPOINTS": "3"}}, {"type": "Feature", "geometry": {"type": "Point", "coordinates": [-120.9688, 40.216]}, "properties": {"NAME": "W6/NS-206", "TITLE": "Keddie Peak", "REGION": "Northern Sierra", "ASSOCIATION": "USA - CA", "POINTS": "6", "BONUSPOINTS": "3"}}, {"type": "Feature", "geometry": {"type": "Point", "coordinates": [-120.45, 39.8952]}, "properties": {"NAME": "W6/NS-207", "TITLE": "Crocker Mountain", "REGION": "Northern Sierra", "ASSOCIATION": "USA - CA", "POINTS": "6", "BONUSPOINTS": "3"}}, {"type": "Feature", "geometry": {"type": "Point", "coordinates": [-120.7706, 39.7178]}, "properties": {"NAME": "W6/NS-208", "TITLE": "McRae Ridge", "REGION": "Northern Sierra", "ASSOCIATION": "USA - CA", "POINTS": "6", "BONUSPOINTS": "3"}}, {"type": "Feature", "geometry": {"type": "Point", "coordinates": [-120.6285, 39.4052]}, "properties": {"NAME": "W6/NS-209", "TITLE": "Fall Creek Mountain", "REGION": "Northern Sierra", "ASSOCIATION": "USA - CA", "POINTS": "6", "BONUSPOINTS": "3"}}, {"type": "Feature", "geometry": {"type": "Point", "coordinates": [-119.7094, 38.6705]}, "properties": {"NAME": "W6/NS-210", "TITLE": "Colorado Hill", "REGION": "Northern Sierra", "ASSOCIATION": "USA - CA", "POINTS": "6", "BONUSPOINTS": "3"}}, {"type": "Feature", "geometry": {"type": "Point", "coordinates": [-120.3322, 39.5028]}, "properties": {"NAME": "W6/NS-211", "TITLE": "7481", "REGION": "Northern Sierra", "ASSOCIATION": "USA - CA", "POINTS": "6", "BONUSPOINTS": "3"}}, {"type": "Feature", "geometry": {"type": "Point", "coordinates": [-121.0327, 40.2393]}, "properties": {"NAME": "W6/NS-212", "TITLE": "Dyer Mountain", "REGION": "Northern Sierra", "ASSOCIATION": "USA - CA", "POINTS": "6", "BONUSPOINTS": "3"}}, {"type": "Feature", "geometry": {"type": "Point", "coordinates": [-120.2663, 39.3063]}, "properties": {"NAME": "W6/NS-213", "TITLE": "Schallenberger Ridge", "REGION": "Northern Sierra", "ASSOCIATION": "USA - CA", "POINTS": "6", "BONUSPOINTS": "3"}}, {"type": "Feature", "geometry": {"type": "Point", "coordinates": [-120.8688, 39.7832]}, "properties": {"NAME": "W6/NS-214", "TITLE": "Pilot Peak", "REGION": "Northern Sierra", "ASSOCIATION": "USA - CA", "POINTS": "6", "BONUSPOINTS": "3"}}, {"type": "Feature", "geometry": {"type": "Point", "coordinates": [-120.7215, 39.7472]}, "properties": {"NAME": "W6/NS-215", "TITLE": "Eureka Peak", "REGION": "Northern Sierra", "ASSOCIATION": "USA - CA", "POINTS": "6", "BONUSPOINTS": "3"}}, {"type": "Feature", "geometry": {"type": "Point", "coordinates": [-120.5749, 39.4841]}, "properties": {"NAME": "W6/NS-216", "TITLE": "Findley Peak", "REGION": "Northern Sierra", "ASSOCIATION": "USA - CA", "POINTS": "6", "BONUSPOINTS": "3"}}, {"type": "Feature", "geometry": {"type": "Point", "coordinates": [-120.6841, 40.1031]}, "properties": {"NAME": "W6/NS-217", "TITLE": "Wheeler Peak", "REGION": "Northern Sierra", "ASSOCIATION": "USA - CA", "POINTS": "6", "BONUSPOINTS": "3"}}, {"type": "Feature", "geometry": {"type": "Point", "coordinates": [-120.6299, 39.433]}, "properties": {"NAME": "W6/NS-218", "TITLE": "Bowman Mountain", "REGION": "Northern Sierra", "ASSOCIATION": "USA - CA", "POINTS": "6", "BONUSPOINTS": "3"}}, {"type": "Feature", "geometry": {"type": "Point", "coordinates": [-120.1689, 38.4093]}, "properties": {"NAME": "W6/NS-219", "TITLE": "Bailey Ridge", "REGION": "Northern Sierra", "ASSOCIATION": "USA - CA", "POINTS": "6", "BONUSPOINTS": "3"}}, {"type": "Feature", "geometry": {"type": "Point", "coordinates": [-120.1645, 39.4987]}, "properties": {"NAME": "W6/NS-220", "TITLE": "7348", "REGION": "Northern Sierra", "ASSOCIATION": "USA - CA", "POINTS": "6", "BONUSPOINTS": "3"}}, {"type": "Feature", "geometry": {"type": "Point", "coordinates": [-120.5855, 39.8575]}, "properties": {"NAME": "W6/NS-221", "TITLE": "7346", "REGION": "Northern Sierra", "ASSOCIATION": "USA - CA", "POINTS": "6", "BONUSPOINTS": "3"}}, {"type": "Feature", "geometry": {"type": "Point", "coordinates": [-120.8183, 39.9996]}, "properties": {"NAME": "W6/NS-222", "TITLE": "Taylor Rock", "REGION": "Northern Sierra", "ASSOCIATION": "USA - CA", "POINTS": "6", "BONUSPOINTS": "3"}}, {"type": "Feature", "geometry": {"type": "Point", "coordinates": [-120.6209, 39.4957]}, "properties": {"NAME": "W6/NS-223", "TITLE": "Pinoli Ridge", "REGION": "Northern Sierra", "ASSOCIATION": "USA - CA", "POINTS": "6", "BONUSPOINTS": "3"}}, {"type": "Feature", "geometry": {"type": "Point", "coordinates": [-120.8112, 39.7742]}, "properties": {"NAME": "W6/NS-224", "TITLE": "Blue Nose Mountain", "REGION": "Northern Sierra", "ASSOCIATION": "USA - CA", "POINTS": "6", "BONUSPOINTS": "3"}}, {"type": "Feature", "geometry": {"type": "Point", "coordinates": [-119.9541, 38.1247]}, "properties": {"NAME": "W6/NS-225", "TITLE": "7290", "REGION": "Northern Sierra", "ASSOCIATION": "USA - CA", "POINTS": "6", "BONUSPOINTS": "3"}}, {"type": "Feature", "geometry": {"type": "Point", "coordinates": [-120.2546, 39.5824]}, "properties": {"NAME": "W6/NS-226", "TITLE": "7282", "REGION": "Northern Sierra", "ASSOCIATION": "USA - CA", "POINTS": "6", "BONUSPOINTS": "3"}}, {"type": "Feature", "geometry": {"type": "Point", "coordinates": [-120.4826, 39.2851]}, "properties": {"NAME": "W6/NS-227", "TITLE": "7260", "REGION": "Northern Sierra", "ASSOCIATION": "USA - CA", "POINTS": "6", "BONUSPOINTS": "3"}}, {"type": "Feature", "geometry": {"type": "Point", "coordinates": [-120.4333, 39.7726]}, "properties": {"NAME": "W6/NS-228", "TITLE": "Beckwourth Peak", "REGION": "Northern Sierra", "ASSOCIATION": "USA - CA", "POINTS": "6", "BONUSPOINTS": "3"}}, {"type": "Feature", "geometry": {"type": "Point", "coordinates": [-120.6283, 40.2606]}, "properties": {"NAME": "W6/NS-229", "TITLE": "Wildcat Ridge", "REGION": "Northern Sierra", "ASSOCIATION": "USA - CA", "POINTS": "6", "BONUSPOINTS": "3"}}, {"type": "Feature", "geometry": {"type": "Point", "coordinates": [-120.3512, 39.9258]}, "properties": {"NAME": "W6/NS-230", "TITLE": "Horton Ridge", "REGION": "Northern Sierra", "ASSOCIATION": "USA - CA", "POINTS": "6", "BONUSPOINTS": "3"}}, {"type": "Feature", "geometry": {"type": "Point", "coordinates": [-120.8093, 39.721]}, "properties": {"NAME": "W6/NS-231", "TITLE": "Beartrap Mountain", "REGION": "Northern Sierra", "ASSOCIATION": "USA - CA", "POINTS": "6", "BONUSPOINTS": "3"}}, {"type": "Feature", "geometry": {"type": "Point", "coordinates": [-120.7892, 39.6835]}, "properties": {"NAME": "W6/NS-232", "TITLE": "Rattlesnake Peak", "REGION": "Northern Sierra", "ASSOCIATION": "USA - CA", "POINTS": "6", "BONUSPOINTS": "3"}}, {"type": "Feature", "geometry": {"type": "Point", "coordinates": [-120.3128, 40.1179]}, "properties": {"NAME": "W6/NS-233", "TITLE": "Black Mountain", "REGION": "Northern Sierra", "ASSOCIATION": "USA - CA", "POINTS": "6", "BONUSPOINTS": "3"}}, {"type": "Feature", "geometry": {"type": "Point", "coordinates": [-121.4031, 40.1258]}, "properties": {"NAME": "W6/NS-234", "TITLE": "7180", "REGION": "Northern Sierra", "ASSOCIATION": "USA - CA", "POINTS": "6", "BONUSPOINTS": "3"}}, {"type": "Feature", "geometry": {"type": "Point", "coordinates": [-120.5148, 40.206]}, "properties": {"NAME": "W6/NS-235", "TITLE": "Clarks Peak", "REGION": "Northern Sierra", "ASSOCIATION": "USA - CA", "POINTS": "6", "BONUSPOINTS": "3"}}, {"type": "Feature", "geometry": {"type": "Point", "coordinates": [-120.2171, 39.3752]}, "properties": {"NAME": "W6/NS-236", "TITLE": "Prosser Hill", "REGION": "Northern Sierra", "ASSOCIATION": "USA - CA", "POINTS": "6", "BONUSPOINTS": "3"}}, {"type": "Feature", "geometry": {"type": "Point", "coordinates": [-121.1724, 39.9627]}, "properties": {"NAME": "W6/NS-237", "TITLE": "Mount Pleasant", "REGION": "Northern Sierra", "ASSOCIATION": "USA - CA", "POINTS": "6", "BONUSPOINTS": "3"}}, {"type": "Feature", "geometry": {"type": "Point", "coordinates": [-120.0943, 39.7119]}, "properties": {"NAME": "W6/NS-238", "TITLE": "Haskell Peak", "REGION": "Northern Sierra", "ASSOCIATION": "USA - CA", "POINTS": "6", "BONUSPOINTS": "3"}}, {"type": "Feature", "geometry": {"type": "Point", "coordinates": [-120.608, 39.5398]}, "properties": {"NAME": "W6/NS-239", "TITLE": "7100", "REGION": "Northern Sierra", "ASSOCIATION": "USA - CA", "POINTS": "6", "BONUSPOINTS": "3"}}, {"type": "Feature", "geometry": {"type": "Point", "coordinates": [-121.3858, 40.0529]}, "properties": {"NAME": "W6/NS-240", "TITLE": "7100", "REGION": "Northern Sierra", "ASSOCIATION": "USA - CA", "POINTS": "6", "BONUSPOINTS": "3"}}, {"type": "Feature", "geometry": {"type": "Point", "coordinates": [-120.2488, 40.0903]}, "properties": {"NAME": "W6/NS-241", "TITLE": "McKesick Peak", "REGION": "Northern Sierra", "ASSOCIATION": "USA - CA", "POINTS": "6", "BONUSPOINTS": "3"}}, {"type": "Feature", "geometry": {"type": "Point", "coordinates": [-120.0691, 39.6443]}, "properties": {"NAME": "W6/NS-242", "TITLE": "7062", "REGION": "Northern Sierra", "ASSOCIATION": "USA - CA", "POINTS": "6", "BONUSPOINTS": "3"}}, {"type": "Feature", "geometry": {"type": "Point", "coordinates": [-121.3756, 40.186]}, "properties": {"NAME": "W6/NS-243", "TITLE": "Ruffa Ridge", "REGION": "Northern Sierra", "ASSOCIATION": "USA - CA", "POINTS": "6", "BONUSPOINTS": "3"}}, {"type": "Feature", "geometry": {"type": "Point", "coordinates": [-120.547, 39.4755]}, "properties": {"NAME": "W6/NS-244", "TITLE": "7052", "REGION": "Northern Sierra", "ASSOCIATION": "USA - CA", "POINTS": "6", "BONUSPOINTS": "3"}}, {"type": "Feature", "geometry": {"type": "Point", "coordinates": [-120.8267, 39.7421]}, "properties": {"NAME": "W6/NS-245", "TITLE": "Stafford Mountain", "REGION": "Northern Sierra", "ASSOCIATION": "USA - CA", "POINTS": "6", "BONUSPOINTS": "3"}}, {"type": "Feature", "geometry": {"type": "Point", "coordinates": [-120.6224, 39.472]}, "properties": {"NAME": "W6/NS-246", "TITLE": "Quartz Hill", "REGION": "Northern Sierra", "ASSOCIATION": "USA - CA", "POINTS": "6", "BONUSPOINTS": "3"}}, {"type": "Feature", "geometry": {"type": "Point", "coordinates": [-120.5994, 40.0932]}, "properties": {"NAME": "W6/NS-247", "TITLE": "Babcock Peak", "REGION": "Northern Sierra", "ASSOCIATION": "USA - CA", "POINTS": "6", "BONUSPOINTS": "3"}}, {"type": "Feature", "geometry": {"type": "Point", "coordinates": [-120.0083, 38.8959]}, "properties": {"NAME": "W6/NS-248", "TITLE": "7008", "REGION": "Northern Sierra", "ASSOCIATION": "USA - CA", "POINTS": "6", "BONUSPOINTS": "3"}}, {"type": "Feature", "geometry": {"type": "Point", "coordinates": [-120.4838, 40.2064]}, "properties": {"NAME": "W6/NS-249", "TITLE": "6998", "REGION": "Northern Sierra", "ASSOCIATION": "USA - CA", "POINTS": "6", "BONUSPOINTS": "3"}}, {"type": "Feature", "geometry": {"type": "Point", "coordinates": [-120.9458, 39.8836]}, "properties": {"NAME": "W6/NS-250", "TITLE": "Claremont", "REGION": "Northern Sierra", "ASSOCIATION": "USA - CA", "POINTS": "6", "BONUSPOINTS": "3"}}, {"type": "Feature", "geometry": {"type": "Point", "coordinates": [-120.8343, 39.6658]}, "properties": {"NAME": "W6/NS-251", "TITLE": "Bunker Hill", "REGION": "Northern Sierra", "ASSOCIATION": "USA - CA", "POINTS": "6", "BONUSPOINTS": "3"}}, {"type": "Feature", "geometry": {"type": "Point", "coordinates": [-120.2107, 40.0476]}, "properties": {"NAME": "W6/NS-252", "TITLE": "Meadow View Peak", "REGION": "Northern Sierra", "ASSOCIATION": "USA - CA", "POINTS": "6", "BONUSPOINTS": "3"}}, {"type": "Feature", "geometry": {"type": "Point", "coordinates": [-119.6738, 37.9681]}, "properties": {"NAME": "W6/NS-253", "TITLE": "6910", "REGION": "Northern Sierra", "ASSOCIATION": "USA - CA", "POINTS": "6", "BONUSPOINTS": "3"}}, {"type": "Feature", "geometry": {"type": "Point", "coordinates": [-121.3809, 40.0177]}, "properties": {"NAME": "W6/NS-254", "TITLE": "Spring Valley Mountain", "REGION": "Northern Sierra", "ASSOCIATION": "USA - CA", "POINTS": "6", "BONUSPOINTS": "3"}}, {"type": "Feature", "geometry": {"type": "Point", "coordinates": [-120.3572, 39.0067]}, "properties": {"NAME": "W6/NS-255", "TITLE": "Red Mountain", "REGION": "Northern Sierra", "ASSOCIATION": "USA - CA", "POINTS": "6", "BONUSPOINTS": "3"}}, {"type": "Feature", "geometry": {"type": "Point", "coordinates": [-120.6929, 40.1988]}, "properties": {"NAME": "W6/NS-256", "TITLE": "6860", "REGION": "Northern Sierra", "ASSOCIATION": "USA - CA", "POINTS": "6", "BONUSPOINTS": "3"}}, {"type": "Feature", "geometry": {"type": "Point", "coordinates": [-120.4014, 40.0285]}, "properties": {"NAME": "W6/NS-257", "TITLE": "Delunga Peak", "REGION": "Northern Sierra", "ASSOCIATION": "USA - CA", "POINTS": "6", "BONUSPOINTS": "3"}}, {"type": "Feature", "geometry": {"type": "Point", "coordinates": [-120.3949, 39.8918]}, "properties": {"NAME": "W6/NS-258", "TITLE": "6831", "REGION": "Northern Sierra", "ASSOCIATION": "USA - CA", "POINTS": "6", "BONUSPOINTS": "3"}}, {"type": "Feature", "geometry": {"type": "Point", "coordinates": [-120.5329, 39.8394]}, "properties": {"NAME": "W6/NS-259", "TITLE": "6826", "REGION": "Northern Sierra", "ASSOCIATION": "USA - CA", "POINTS": "6", "BONUSPOINTS": "3"}}, {"type": "Feature", "geometry": {"type": "Point", "coordinates": [-120.8407, 40.2398]}, "properties": {"NAME": "W6/NS-260", "TITLE": "Moonlight Peak", "REGION": "Northern Sierra", "ASSOCIATION": "USA - CA", "POINTS": "6", "BONUSPOINTS": "3"}}, {"type": "Feature", "geometry": {"type": "Point", "coordinates": [-121.2076, 39.9187]}, "properties": {"NAME": "W6/NS-261", "TITLE": "Bucks Mountain", "REGION": "Northern Sierra", "ASSOCIATION": "USA - CA", "POINTS": "6", "BONUSPOINTS": "3"}}, {"type": "Feature", "geometry": {"type": "Point", "coordinates": [-120.2613, 39.6343]}, "properties": {"NAME": "W6/NS-262", "TITLE": "6815", "REGION": "Northern Sierra", "ASSOCIATION": "USA - CA", "POINTS": "6", "BONUSPOINTS": "3"}}, {"type": "Feature", "geometry": {"type": "Point", "coordinates": [-120.5044, 40.0732]}, "properties": {"NAME": "W6/NS-263", "TITLE": "Papoose Peak", "REGION": "Northern Sierra", "ASSOCIATION": "USA - CA", "POINTS": "6", "BONUSPOINTS": "3"}}, {"type": "Feature", "geometry": {"type": "Point", "coordinates": [-120.1196, 39.3812]}, "properties": {"NAME": "W6/NS-264", "TITLE": "Boca Hill", "REGION": "Northern Sierra", "ASSOCIATION": "USA - CA", "POINTS": "6", "BONUSPOINTS": "3"}}, {"type": "Feature", "geometry": {"type": "Point", "coordinates": [-120.8645, 39.6367]}, "properties": {"NAME": "W6/NS-265", "TITLE": "Saddleback Mountain", "REGION": "Northern Sierra", "ASSOCIATION": "USA - CA", "POINTS": "6", "BONUSPOINTS": "3"}}, {"type": "Feature", "geometry": {"type": "Point", "coordinates": [-120.4035, 38.9246]}, "properties": {"NAME": "W6/NS-266", "TITLE": "Robbs Peak", "REGION": "Northern Sierra", "ASSOCIATION": "USA - CA", "POINTS": "6", "BONUSPOINTS": "3"}}, {"type": "Feature", "geometry": {"type": "Point", "coordinates": [-119.81, 38.6746]}, "properties": {"NAME": "W6/NS-267", "TITLE": "6669", "REGION": "Northern Sierra", "ASSOCIATION": "USA - CA", "POINTS": "6", "BONUSPOINTS": "3"}}, {"type": "Feature", "geometry": {"type": "Point", "coordinates": [-120.7341, 39.5378]}, "properties": {"NAME": "W6/NS-268", "TITLE": "6631", "REGION": "Northern Sierra", "ASSOCIATION": "USA - CA", "POINTS": "6", "BONUSPOINTS": "3"}}, {"type": "Feature", "geometry": {"type": "Point", "coordinates": [-119.7972, 38.7327]}, "properties": {"NAME": "W6/NS-269", "TITLE": "6622", "REGION": "Northern Sierra", "ASSOCIATION": "USA - CA", "POINTS": "6", "BONUSPOINTS": "3"}}, {"type": "Feature", "geometry": {"type": "Point", "coordinates": [-120.4915, 40.2314]}, "properties": {"NAME": "W6/NS-270", "TITLE": "6621", "REGION": "Northern Sierra", "ASSOCIATION": "USA - CA", "POINTS": "6", "BONUSPOINTS": "3"}}, {"type": "Feature", "geometry": {"type": "Point", "coordinates": [-120.3705, 40.1019]}, "properties": {"NAME": "W6/NS-271", "TITLE": "Johnson Hill", "REGION": "Northern Sierra", "ASSOCIATION": "USA - CA", "POINTS": "6", "BONUSPOINTS": "3"}}, {"type": "Feature", "geometry": {"type": "Point", "coordinates": [-120.3763, 39.0055]}, "properties": {"NAME": "W6/NS-272", "TITLE": "Johnnys Hill", "REGION": "Northern Sierra", "ASSOCIATION": "USA - CA", "POINTS": "6", "BONUSPOINTS": "3"}}, {"type": "Feature", "geometry": {"type": "Point", "coordinates": [-120.667, 39.4568]}, "properties": {"NAME": "W6/NS-273", "TITLE": "6522", "REGION": "Northern Sierra", "ASSOCIATION": "USA - CA", "POINTS": "6", "BONUSPOINTS": "3"}}, {"type": "Feature", "geometry": {"type": "Point", "coordinates": [-120.8947, 40.3164]}, "properties": {"NAME": "W6/NS-274", "TITLE": "6489", "REGION": "Northern Sierra", "ASSOCIATION": "USA - CA", "POINTS": "6", "BONUSPOINTS": "0"}}, {"type": "Feature", "geometry": {"type": "Point", "coordinates": [-120.3926, 39.8495]}, "properties": {"NAME": "W6/NS-275", "TITLE": "Sally Benchmark", "REGION": "Northern Sierra", "ASSOCIATION": "USA - CA", "POINTS": "6", "BONUSPOINTS": "0"}}, {"type": "Feature", "geometry": {"type": "Point", "coordinates": [-120.5097, 39.8439]}, "properties": {"NAME": "W6/NS-276", "TITLE": "6460", "REGION": "Northern Sierra", "ASSOCIATION": "USA - CA", "POINTS": "6", "BONUSPOINTS": "0"}}, {"type": "Feature", "geometry": {"type": "Point", "coordinates": [-120.7915, 40.2192]}, "properties": {"NAME": "W6/NS-277", "TITLE": "6421", "REGION": "Northern Sierra", "ASSOCIATION": "USA - CA", "POINTS": "6", "BONUSPOINTS": "0"}}, {"type": "Feature", "geometry": {"type": "Point", "coordinates": [-120.1156, 39.7597]}, "properties": {"NAME": "W6/NS-278", "TITLE": "6420", "REGION": "Northern Sierra", "ASSOCIATION": "USA - CA", "POINTS": "6", "BONUSPOINTS": "0"}}, {"type": "Feature", "geometry": {"type": "Point", "coordinates": [-120.3298, 39.8406]}, "properties": {"NAME": "W6/NS-279", "TITLE": "Sugar Loaf", "REGION": "Northern Sierra", "ASSOCIATION": "USA - CA", "POINTS": "6", "BONUSPOINTS": "0"}}, {"type": "Feature", "geometry": {"type": "Point", "coordinates": [-120.5339, 39.9897]}, "properties": {"NAME": "W6/NS-280", "TITLE": "6374", "REGION": "Northern Sierra", "ASSOCIATION": "USA - CA", "POINTS": "6", "BONUSPOINTS": "0"}}, {"type": "Feature", "geometry": {"type": "Point", "coordinates": [-121.1959, 39.8396]}, "properties": {"NAME": "W6/NS-281", "TITLE": "Red Mountain", "REGION": "Northern Sierra", "ASSOCIATION": "USA - CA", "POINTS": "6", "BONUSPOINTS": "0"}}, {"type": "Feature", "geometry": {"type": "Point", "coordinates": [-121.1872, 40.0374]}, "properties": {"NAME": "W6/NS-282", "TITLE": "Red Hill", "REGION": "Northern Sierra", "ASSOCIATION": "USA - CA", "POINTS": "6", "BONUSPOINTS": "0"}}, {"type": "Feature", "geometry": {"type": "Point", "coordinates": [-121.0536, 40.1395]}, "properties": {"NAME": "W6/NS-283", "TITLE": "6334", "REGION": "Northern Sierra", "ASSOCIATION": "USA - CA", "POINTS": "6", "BONUSPOINTS": "0"}}, {"type": "Feature", "geometry": {"type": "Point", "coordinates": [-120.1782, 39.855]}, "properties": {"NAME": "W6/NS-284", "TITLE": "6332", "REGION": "Northern Sierra", "ASSOCIATION": "USA - CA", "POINTS": "6", "BONUSPOINTS": "0"}}, {"type": "Feature", "geometry": {"type": "Point", "coordinates": [-120.7986, 40.0715]}, "properties": {"NAME": "W6/NS-285", "TITLE": "Mount Jura", "REGION": "Northern Sierra", "ASSOCIATION": "USA - CA", "POINTS": "6", "BONUSPOINTS": "0"}}, {"type": "Feature", "geometry": {"type": "Point", "coordinates": [-120.9827, 39.7552]}, "properties": {"NAME": "W6/NS-286", "TITLE": "Grass Valley Bald Mountain", "REGION": "Northern Sierra", "ASSOCIATION": "USA - CA", "POINTS": "6", "BONUSPOINTS": "0"}}, {"type": "Feature", "geometry": {"type": "Point", "coordinates": [-121.1312, 39.8761]}, "properties": {"NAME": "W6/NS-287", "TITLE": "6203", "REGION": "Northern Sierra", "ASSOCIATION": "USA - CA", "POINTS": "6", "BONUSPOINTS": "0"}}, {"type": "Feature", "geometry": {"type": "Point", "coordinates": [-120.4307, 39.9847]}, "properties": {"NAME": "W6/NS-288", "TITLE": "North Coyote Hills", "REGION": "Northern Sierra", "ASSOCIATION": "USA - CA", "POINTS": "6", "BONUSPOINTS": "0"}}, {"type": "Feature", "geometry": {"type": "Point", "coordinates": [-121.0457, 39.7672]}, "properties": {"NAME": "W6/NS-289", "TITLE": "6157", "REGION": "Northern Sierra", "ASSOCIATION": "USA - CA", "POINTS": "6", "BONUSPOINTS": "0"}}, {"type": "Feature", "geometry": {"type": "Point", "coordinates": [-120.4072, 38.8422]}, "properties": {"NAME": "W6/NS-290", "TITLE": "Big Hill", "REGION": "Northern Sierra", "ASSOCIATION": "USA - CA", "POINTS": "6", "BONUSPOINTS": "0"}}, {"type": "Feature", "geometry": {"type": "Point", "coordinates": [-120.4487, 39.0458]}, "properties": {"NAME": "W6/NS-291", "TITLE": "Wallace Peak", "REGION": "Northern Sierra", "ASSOCIATION": "USA - CA", "POINTS": "6", "BONUSPOINTS": "0"}}, {"type": "Feature", "geometry": {"type": "Point", "coordinates": [-121.3262, 39.9639]}, "properties": {"NAME": "W6/NS-292", "TITLE": "Chambers Peak", "REGION": "Northern Sierra", "ASSOCIATION": "USA - CA", "POINTS": "6", "BONUSPOINTS": "0"}}, {"type": "Feature", "geometry": {"type": "Point", "coordinates": [-121.1466, 40.1717]}, "properties": {"NAME": "W6/NS-293", "TITLE": "6112", "REGION": "Northern Sierra", "ASSOCIATION": "USA - CA", "POINTS": "6", "BONUSPOINTS": "0"}}, {"type": "Feature", "geometry": {"type": "Point", "coordinates": [-121.1454, 39.8524]}, "properties": {"NAME": "W6/NS-294", "TITLE": "6096", "REGION": "Northern Sierra", "ASSOCIATION": "USA - CA", "POINTS": "6", "BONUSPOINTS": "0"}}, {"type": "Feature", "geometry": {"type": "Point", "coordinates": [-120.3649, 38.3421]}, "properties": {"NAME": "W6/NS-295", "TITLE": "Blue Mountain", "REGION": "Northern Sierra", "ASSOCIATION": "USA - CA", "POINTS": "6", "BONUSPOINTS": "0"}}, {"type": "Feature", "geometry": {"type": "Point", "coordinates": [-120.6607, 39.3427]}, "properties": {"NAME": "W6/NS-296", "TITLE": "Clyde Mountain", "REGION": "Northern Sierra", "ASSOCIATION": "USA - CA", "POINTS": "6", "BONUSPOINTS": "0"}}, {"type": "Feature", "geometry": {"type": "Point", "coordinates": [-120.4747, 40.2308]}, "properties": {"NAME": "W6/NS-297", "TITLE": "6002", "REGION": "Northern Sierra", "ASSOCIATION": "USA - CA", "POINTS": "6", "BONUSPOINTS": "0"}}, {"type": "Feature", "geometry": {"type": "Point", "coordinates": [-121.2166, 39.8872]}, "properties": {"NAME": "W6/NS-298", "TITLE": "5978", "REGION": "Northern Sierra", "ASSOCIATION": "USA - CA", "POINTS": "6", "BONUSPOINTS": "0"}}, {"type": "Feature", "geometry": {"type": "Point", "coordinates": [-121.0198, 39.8474]}, "properties": {"NAME": "W6/NS-299", "TITLE": "5969", "REGION": "Northern Sierra", "ASSOCIATION": "USA - CA", "POINTS": "6", "BONUSPOINTS": "0"}}, {"type": "Feature", "geometry": {"type": "Point", "coordinates": [-120.6033, 39.3541]}, "properties": {"NAME": "W6/NS-300", "TITLE": "Brady Mountain", "REGION": "Northern Sierra", "ASSOCIATION": "USA - CA", "POINTS": "6", "BONUSPOINTS": "0"}}, {"type": "Feature", "geometry": {"type": "Point", "coordinates": [-121.0049, 40.1171]}, "properties": {"NAME": "W6/NS-301", "TITLE": "5956", "REGION": "Northern Sierra", "ASSOCIATION": "USA - CA", "POINTS": "6", "BONUSPOINTS": "0"}}, {"type": "Feature", "geometry": {"type": "Point", "coordinates": [-120.4001, 39.7674]}, "properties": {"NAME": "W6/NS-302", "TITLE": "5888", "REGION": "Northern Sierra", "ASSOCIATION": "USA - CA", "POINTS": "6", "BONUSPOINTS": "0"}}, {"type": "Feature", "geometry": {"type": "Point", "coordinates": [-120.7218, 40.3685]}, "properties": {"NAME": "W6/NS-303", "TITLE": "5860", "REGION": "Northern Sierra", "ASSOCIATION": "USA - CA", "POINTS": "6", "BONUSPOINTS": "0"}}, {"type": "Feature", "geometry": {"type": "Point", "coordinates": [-120.6335, 40.0727]}, "properties": {"NAME": "W6/NS-304", "TITLE": "5850", "REGION": "Northern Sierra", "ASSOCIATION": "USA - CA", "POINTS": "6", "BONUSPOINTS": "0"}}, {"type": "Feature", "geometry": {"type": "Point", "coordinates": [-120.1196, 37.9688]}, "properties": {"NAME": "W6/NS-305", "TITLE": "Duckwall Mountain", "REGION": "Northern Sierra", "ASSOCIATION": "USA - CA", "POINTS": "6", "BONUSPOINTS": "0"}}, {"type": "Feature", "geometry": {"type": "Point", "coordinates": [-120.6874, 39.3211]}, "properties": {"NAME": "W6/NS-306", "TITLE": "Lowell Hill Ridge", "REGION": "Northern Sierra", "ASSOCIATION": "USA - CA", "POINTS": "6", "BONUSPOINTS": "0"}}, {"type": "Feature", "geometry": {"type": "Point", "coordinates": [-120.3952, 39.7437]}, "properties": {"NAME": "W6/NS-307", "TITLE": "5780", "REGION": "Northern Sierra", "ASSOCIATION": "USA - CA", "POINTS": "6", "BONUSPOINTS": "0"}}, {"type": "Feature", "geometry": {"type": "Point", "coordinates": [-119.7596, 37.9524]}, "properties": {"NAME": "W6/NS-308", "TITLE": "Kolana Rock", "REGION": "Northern Sierra", "ASSOCIATION": "USA - CA", "POINTS": "6", "BONUSPOINTS": "0"}}, {"type": "Feature", "geometry": {"type": "Point", "coordinates": [-119.8966, 37.9024]}, "properties": {"NAME": "W6/NS-309", "TITLE": "North Mountain", "REGION": "Northern Sierra", "ASSOCIATION": "USA - CA", "POINTS": "6", "BONUSPOINTS": "0"}}, {"type": "Feature", "geometry": {"type": "Point", "coordinates": [-120.0755, 37.9657]}, "properties": {"NAME": "W6/NS-310", "TITLE": "Duckwall Ridge", "REGION": "Northern Sierra", "ASSOCIATION": "USA - CA", "POINTS": "6", "BONUSPOINTS": "0"}}, {"type": "Feature", "geometry": {"type": "Point", "coordinates": [-120.721, 39.8325]}, "properties": {"NAME": "W6/NS-311", "TITLE": "Big Hill", "REGION": "Northern Sierra", "ASSOCIATION": "USA - CA", "POINTS": "6", "BONUSPOINTS": "0"}}, {"type": "Feature", "geometry": {"type": "Point", "coordinates": [-120.9191, 39.6039]}, "properties": {"NAME": "W6/NS-312", "TITLE": "Sugarloaf", "REGION": "Northern Sierra", "ASSOCIATION": "USA - CA", "POINTS": "6", "BONUSPOINTS": "0"}}, {"type": "Feature", "geometry": {"type": "Point", "coordinates": [-121.19, 40.0934]}, "properties": {"NAME": "W6/NS-313", "TITLE": "Mosquito Ridge", "REGION": "Northern Sierra", "ASSOCIATION": "USA - CA", "POINTS": "6", "BONUSPOINTS": "0"}}, {"type": "Feature", "geometry": {"type": "Point", "coordinates": [-121.2854, 40.1829]}, "properties": {"NAME": "W6/NS-314", "TITLE": "5543", "REGION": "Northern Sierra", "ASSOCIATION": "USA - CA", "POINTS": "6", "BONUSPOINTS": "0"}}, {"type": "Feature", "geometry": {"type": "Point", "coordinates": [-121.2174, 40.1731]}, "properties": {"NAME": "W6/NS-315", "TITLE": "5527", "REGION": "Northern Sierra", "ASSOCIATION": "USA - CA", "POINTS": "6", "BONUSPOINTS": "0"}}, {"type": "Feature", "geometry": {"type": "Point", "coordinates": [-120.4086, 39.7127]}, "properties": {"NAME": "W6/NS-316", "TITLE": "McElroy Hill", "REGION": "Northern Sierra", "ASSOCIATION": "USA - CA", "POINTS": "6", "BONUSPOINTS": "0"}}, {"type": "Feature", "geometry": {"type": "Point", "coordinates": [-119.8915, 37.9798]}, "properties": {"NAME": "W6/NS-317", "TITLE": "South Kibbie Ridge", "REGION": "Northern Sierra", "ASSOCIATION": "USA - CA", "POINTS": "6", "BONUSPOINTS": "0"}}, {"type": "Feature", "geometry": {"type": "Point", "coordinates": [-121.1079, 40.1361]}, "properties": {"NAME": "W6/NS-318", "TITLE": "5482", "REGION": "Northern Sierra", "ASSOCIATION": "USA - CA", "POINTS": "4", "BONUSPOINTS": "0"}}, {"type": "Feature", "geometry": {"type": "Point", "coordinates": [-120.9392, 40.1175]}, "properties": {"NAME": "W6/NS-319", "TITLE": "5464", "REGION": "Northern Sierra", "ASSOCIATION": "USA - CA", "POINTS": "4", "BONUSPOINTS": "0"}}, {"type": "Feature", "geometry": {"type": "Point", "coordinates": [-120.1432, 38.1588]}, "properties": {"NAME": "W6/NS-320", "TITLE": "Crandall Peak", "REGION": "Northern Sierra", "ASSOCIATION": "USA - CA", "POINTS": "4", "BONUSPOINTS": "0"}}, {"type": "Feature", "geometry": {"type": "Point", "coordinates": [-120.526, 39.037]}, "properties": {"NAME": "W6/NS-321", "TITLE": "Ralston Ridge", "REGION": "Northern Sierra", "ASSOCIATION": "USA - CA", "POINTS": "4", "BONUSPOINTS": "0"}}, {"type": "Feature", "geometry": {"type": "Point", "coordinates": [-120.7628, 39.6046]}, "properties": {"NAME": "W6/NS-322", "TITLE": "5412", "REGION": "Northern Sierra", "ASSOCIATION": "USA - CA", "POINTS": "4", "BONUSPOINTS": "0"}}, {"type": "Feature", "geometry": {"type": "Point", "coordinates": [-119.89, 37.8551]}, "properties": {"NAME": "W6/NS-323", "TITLE": "Bear Mountain", "REGION": "Northern Sierra", "ASSOCIATION": "USA - CA", "POINTS": "4", "BONUSPOINTS": "0"}}, {"type": "Feature", "geometry": {"type": "Point", "coordinates": [-119.9058, 37.8349]}, "properties": {"NAME": "W6/NS-324", "TITLE": "Ascension Mountain", "REGION": "Northern Sierra", "ASSOCIATION": "USA - CA", "POINTS": "4", "BONUSPOINTS": "0"}}, {"type": "Feature", "geometry": {"type": "Point", "coordinates": [-119.9356, 37.827]}, "properties": {"NAME": "W6/NS-325", "TITLE": "Sawmill Mountain", "REGION": "Northern Sierra", "ASSOCIATION": "USA - CA", "POINTS": "4", "BONUSPOINTS": "0"}}, {"type": "Feature", "geometry": {"type": "Point", "coordinates": [-120.9021, 39.5006]}, "properties": {"NAME": "W6/NS-326", "TITLE": "5260", "REGION": "Northern Sierra", "ASSOCIATION": "USA - CA", "POINTS": "4", "BONUSPOINTS": "0"}}, {"type": "Feature", "geometry": {"type": "Point", "coordinates": [-120.7977, 39.4168]}, "properties": {"NAME": "W6/NS-327", "TITLE": "Cherry Hill", "REGION": "Northern Sierra", "ASSOCIATION": "USA - CA", "POINTS": "4", "BONUSPOINTS": "0"}}, {"type": "Feature", "geometry": {"type": "Point", "coordinates": [-120.7971, 39.8763]}, "properties": {"NAME": "W6/NS-328", "TITLE": "5180", "REGION": "Northern Sierra", "ASSOCIATION": "USA - CA", "POINTS": "4", "BONUSPOINTS": "0"}}, {"type": "Feature", "geometry": {"type": "Point", "coordinates": [-121.234, 40.0575]}, "properties": {"NAME": "W6/NS-329", "TITLE": "5101", "REGION": "Northern Sierra", "ASSOCIATION": "USA - CA", "POINTS": "4", "BONUSPOINTS": "0"}}, {"type": "Feature", "geometry": {"type": "Point", "coordinates": [-120.2474, 38.0631]}, "properties": {"NAME": "W6/NS-330", "TITLE": "Elizabeth Peak", "REGION": "Northern Sierra", "ASSOCIATION": "USA - CA", "POINTS": "4", "BONUSPOINTS": "0"}}, {"type": "Feature", "geometry": {"type": "Point", "coordinates": [-120.2063, 38.0119]}, "properties": {"NAME": "W6/NS-331", "TITLE": "Mount Provo", "REGION": "Northern Sierra", "ASSOCIATION": "USA - CA", "POINTS": "4", "BONUSPOINTS": "0"}}, {"type": "Feature", "geometry": {"type": "Point", "coordinates": [-120.9128, 39.983]}, "properties": {"NAME": "W6/NS-332", "TITLE": "4180", "REGION": "Northern Sierra", "ASSOCIATION": "USA - CA", "POINTS": "4", "BONUSPOINTS": "0"}}, {"type": "Feature", "geometry": {"type": "Point", "coordinates": [-121.2931, 39.7034]}, "properties": {"NAME": "W6/NS-333", "TITLE": "Shute Mountain", "REGION": "Northern Sierra", "ASSOCIATION": "USA - CA", "POINTS": "4", "BONUSPOINTS": "0"}}, {"type": "Feature", "geometry": {"type": "Point", "coordinates": [-121.6614, 40.0577]}, "properties": {"NAME": "W6/NS-334", "TITLE": "Cold Spring Hill", "REGION": "Northern Sierra", "ASSOCIATION": "USA - CA", "POINTS": "4", "BONUSPOINTS": "0"}}, {"type": "Feature", "geometry": {"type": "Point", "coordinates": [-120.1885, 37.9464]}, "properties": {"NAME": "W6/NS-335", "TITLE": "4025", "REGION": "Northern Sierra", "ASSOCIATION": "USA - CA", "POINTS": "4", "BONUSPOINTS": "0"}}, {"type": "Feature", "geometry": {"type": "Point", "coordinates": [-121.7186, 40.035]}, "properties": {"NAME": "W6/NS-336", "TITLE": "Cohasset Ridge", "REGION": "Northern Sierra", "ASSOCIATION": "USA - CA", "POINTS": "4", "BONUSPOINTS": "0"}}, {"type": "Feature", "geometry": {"type": "Point", "coordinates": [-120.8162, 39.5814]}, "properties": {"NAME": "W6/NS-337", "TITLE": "3793", "REGION": "Northern Sierra", "ASSOCIATION": "USA - CA", "POINTS": "2", "BONUSPOINTS": "0"}}, {"type": "Feature", "geometry": {"type": "Point", "coordinates": [-121.1004, 39.5154]}, "properties": {"NAME": "W6/NS-338", "TITLE": "Pittsburgh Hill", "REGION": "Northern Sierra", "ASSOCIATION": "USA - CA", "POINTS": "2", "BONUSPOINTS": "0"}}, {"type": "Feature", "geometry": {"type": "Point", "coordinates": [-121.2023, 39.4748]}, "properties": {"NAME": "W6/NS-339", "TITLE": "Pike County Peak", "REGION": "Northern Sierra", "ASSOCIATION": "USA - CA", "POINTS": "2", "BONUSPOINTS": "0"}}, {"type": "Feature", "geometry": {"type": "Point", "coordinates": [-121.177, 39.3882]}, "properties": {"NAME": "W6/NS-340", "TITLE": "Oregon Peak", "REGION": "Northern Sierra", "ASSOCIATION": "USA - CA", "POINTS": "2", "BONUSPOINTS": "0"}}, {"type": "Feature", "geometry": {"type": "Point", "coordinates": [-120.3872, 38.0865]}, "properties": {"NAME": "W6/NS-341", "TITLE": "American Camp Lookout", "REGION": "Northern Sierra", "ASSOCIATION": "USA - CA", "POINTS": "2", "BONUSPOINTS": "0"}}, {"type": "Feature", "geometry": {"type": "Point", "coordinates": [-120.0905, 37.8506]}, "properties": {"NAME": "W6/NS-342", "TITLE": "Jawbone Ridge", "REGION": "Northern Sierra", "ASSOCIATION": "USA - CA", "POINTS": "2", "BONUSPOINTS": "0"}}, {"type": "Feature", "geometry": {"type": "Point", "coordinates": [-121.3051, 39.5824]}, "properties": {"NAME": "W6/NS-343", "TITLE": "Kanaka Peak", "REGION": "Northern Sierra", "ASSOCIATION": "USA - CA", "POINTS": "2", "BONUSPOINTS": "0"}}, {"type": "Feature", "geometry": {"type": "Point", "coordinates": [-120.584, 38.0193]}, "properties": {"NAME": "W6/NS-344", "TITLE": "Bear Mountain", "REGION": "Northern Sierra", "ASSOCIATION": "USA - CA", "POINTS": "2", "BONUSPOINTS": "0"}}, {"type": "Feature", "geometry": {"type": "Point", "coordinates": [-120.6917, 38.1432]}, "properties": {"NAME": "W6/NS-345", "TITLE": "Joaquin Peak", "REGION": "Northern Sierra", "ASSOCIATION": "USA - CA", "POINTS": "2", "BONUSPOINTS": "0"}}, {"type": "Feature", "geometry": {"type": "Point", "coordinates": [-121.2774, 39.418]}, "properties": {"NAME": "W6/NS-346", "TITLE": "Chitterden Ridge", "REGION": "Northern Sierra", "ASSOCIATION": "USA - CA", "POINTS": "2", "BONUSPOINTS": "0"}}, {"type": "Feature", "geometry": {"type": "Point", "coordinates": [-120.6143, 38.2299]}, "properties": {"NAME": "W6/NS-347", "TITLE": "Quiggs Mountain", "REGION": "Northern Sierra", "ASSOCIATION": "USA - CA", "POINTS": "2", "BONUSPOINTS": "0"}}, {"type": "Feature", "geometry": {"type": "Point", "coordinates": [-120.7253, 38.1187]}, "properties": {"NAME": "W6/NS-348", "TITLE": "2750", "REGION": "Northern Sierra", "ASSOCIATION": "USA - CA", "POINTS": "2", "BONUSPOINTS": "0"}}, {"type": "Feature", "geometry": {"type": "Point", "coordinates": [-120.3458, 38.1652]}, "properties": {"NAME": "W6/NS-349", "TITLE": "2605", "REGION": "Northern Sierra", "ASSOCIATION": "USA - CA", "POINTS": "2", "BONUSPOINTS": "0"}}, {"type": "Feature", "geometry": {"type": "Point", "coordinates": [-120.6624, 38.0545]}, "properties": {"NAME": "W6/NS-350", "TITLE": "Carmen Peak", "REGION": "Northern Sierra", "ASSOCIATION": "USA - CA", "POINTS": "2", "BONUSPOINTS": "0"}}, {"type": "Feature", "geometry": {"type": "Point", "coordinates": [-120.3542, 37.8833]}, "properties": {"NAME": "W6/NS-351", "TITLE": "Hog Mountain", "REGION": "Northern Sierra", "ASSOCIATION": "USA - CA", "POINTS": "1", "BONUSPOINTS": "0"}}, {"type": "Feature", "geometry": {"type": "Point", "coordinates": [-121.3989, 39.5299]}, "properties": {"NAME": "W6/NS-352", "TITLE": "Stringtown Mountain", "REGION": "Northern Sierra", "ASSOCIATION": "USA - CA", "POINTS": "1", "BONUSPOINTS": "0"}}, {"type": "Feature", "geometry": {"type": "Point", "coordinates": [-121.234, 39.3326]}, "properties": {"NAME": "W6/NS-353", "TITLE": "Dixon Hill", "REGION": "Northern Sierra", "ASSOCIATION": "USA - CA", "POINTS": "1", "BONUSPOINTS": "0"}}, {"type": "Feature", "geometry": {"type": "Point", "coordinates": [-121.1718, 39.3308]}, "properties": {"NAME": "W6/NS-354", "TITLE": "2350", "REGION": "Northern Sierra", "ASSOCIATION": "USA - CA", "POINTS": "1", "BONUSPOINTS": "0"}}, {"type": "Feature", "geometry": {"type": "Point", "coordinates": [-120.7213, 38.3399]}, "properties": {"NAME": "W6/NS-355", "TITLE": "Jackson Butte", "REGION": "Northern Sierra", "ASSOCIATION": "USA - CA", "POINTS": "1", "BONUSPOINTS": "0"}}, {"type": "Feature", "geometry": {"type": "Point", "coordinates": [-120.7446, 38.2481]}, "properties": {"NAME": "W6/NS-356", "TITLE": "Golden Gate Hill", "REGION": "Northern Sierra", "ASSOCIATION": "USA - CA", "POINTS": "1", "BONUSPOINTS": "0"}}, {"type": "Feature", "geometry": {"type": "Point", "coordinates": [-120.9905, 38.7193]}, "properties": {"NAME": "W6/NS-357", "TITLE": "Pine Hill", "REGION": "Northern Sierra", "ASSOCIATION": "USA - CA", "POINTS": "1", "BONUSPOINTS": "0"}}, {"type": "Feature", "geometry": {"type": "Point", "coordinates": [-121.4243, 39.5704]}, "properties": {"NAME": "W6/NS-358", "TITLE": "2022", "REGION": "Northern Sierra", "ASSOCIATION": "USA - CA", "POINTS": "1", "BONUSPOINTS": "0"}}, {"type": "Feature", "geometry": {"type": "Point", "coordinates": [-120.5148, 37.9409]}, "properties": {"NAME": "W6/NS-359", "TITLE": "Peoria Mountain", "REGION": "Northern Sierra", "ASSOCIATION": "USA - CA", "POINTS": "1", "BONUSPOINTS": "0"}}, {"type": "Feature", "geometry": {"type": "Point", "coordinates": [-121.4963, 39.599]}, "properties": {"NAME": "W6/NS-360", "TITLE": "1846", "REGION": "Northern Sierra", "ASSOCIATION": "USA - CA", "POINTS": "1", "BONUSPOINTS": "0"}}, {"type": "Feature", "geometry": {"type": "Point", "coordinates": [-120.535, 37.964]}, "properties": {"NAME": "W6/NS-361", "TITLE": "Bostick Mountain", "REGION": "Northern Sierra", "ASSOCIATION": "USA - CA", "POINTS": "1", "BONUSPOINTS": "0"}}, {"type": "Feature", "geometry": {"type": "Point", "coordinates": [-121.3209, 39.2963]}, "properties": {"NAME": "W6/NS-362", "TITLE": "Daugherty Hill", "REGION": "Northern Sierra", "ASSOCIATION": "USA - CA", "POINTS": "1", "BONUSPOINTS": "0"}}, {"type": "Feature", "geometry": {"type": "Point", "coordinates": [-121.351, 39.3424]}, "properties": {"NAME": "W6/NS-363", "TITLE": "Donovan Hill", "REGION": "Northern Sierra", "ASSOCIATION": "USA - CA", "POINTS": "1", "BONUSPOINTS": "0"}}, {"type": "Feature", "geometry": {"type": "Point", "coordinates": [-120.8617, 38.524]}, "properties": {"NAME": "W6/NS-364", "TITLE": "1625", "REGION": "Northern Sierra", "ASSOCIATION": "USA - CA", "POINTS": "1", "BONUSPOINTS": "0"}}, {"type": "Feature", "geometry": {"type": "Point", "coordinates": [-121.5408, 39.6639]}, "properties": {"NAME": "W6/NS-365", "TITLE": "Glover Ridge", "REGION": "Northern Sierra", "ASSOCIATION": "USA - CA", "POINTS": "1", "BONUSPOINTS": "0"}}, {"type": "Feature", "geometry": {"type": "Point", "coordinates": [-121.0839, 38.7673]}, "properties": {"NAME": "W6/NS-366", "TITLE": "Flagstaff Hill", "REGION": "Northern Sierra", "ASSOCIATION": "USA - CA", "POINTS": "1", "BONUSPOINTS": "0"}}, {"type": "Feature", "geometry": {"type": "Point", "coordinates": [-121.4334, 39.2705]}, "properties": {"NAME": "W6/NS-367", "TITLE": "Browns Valley Ridge", "REGION": "Northern Sierra", "ASSOCIATION": "USA - CA", "POINTS": "1", "BONUSPOINTS": "0"}}, {"type": "Feature", "geometry": {"type": "Point", "coordinates": [-119.358, 38.0658]}, "properties": {"NAME": "W6/NS-368", "TITLE": "Virginia Peak", "REGION": "Northern Sierra", "ASSOCIATION": "USA - CA", "POINTS": "10", "BONUSPOINTS": "3"}}, {"type": "Feature", "geometry": {"type": "Point", "coordinates": [-119.3629, 38.0575]}, "properties": {"NAME": "W6/NS-369", "TITLE": "Stanton Peak", "REGION": "Northern Sierra", "ASSOCIATION": "USA - CA", "POINTS": "10", "BONUSPOINTS": "3"}}, {"type": "Feature", "geometry": {"type": "Point", "coordinates": [-119.6414, 38.4355]}, "properties": {"NAME": "W6/NS-370", "TITLE": "Whitecliff Peak", "REGION": "Northern Sierra", "ASSOCIATION": "USA - CA", "POINTS": "8", "BONUSPOINTS": "3"}}, {"type": "Feature", "geometry": {"type": "Point", "coordinates": [-119.6971, 38.2374]}, "properties": {"NAME": "W6/NS-371", "TITLE": "Relief Peak", "REGION": "Northern Sierra", "ASSOCIATION": "USA - CA", "POINTS": "8", "BONUSPOINTS": "3"}}, {"type": "Feature", "geometry": {"type": "Point", "coordinates": [-119.6911, 38.3076]}, "properties": {"NAME": "W6/NS-372", "TITLE": "Night Cap Peak", "REGION": "Northern Sierra", "ASSOCIATION": "USA - CA", "POINTS": "8", "BONUSPOINTS": "3"}}, {"type": "Feature", "geometry": {"type": "Point", "coordinates": [-119.6366, 38.2245]}, "properties": {"NAME": "W6/NS-373", "TITLE": "10612", "REGION": "Northern Sierra", "ASSOCIATION": "USA - CA", "POINTS": "8", "BONUSPOINTS": "3"}}, {"type": "Feature", "geometry": {"type": "Point", "coordinates": [-119.4821, 38.0615]}, "properties": {"NAME": "W6/NS-374", "TITLE": "10417", "REGION": "Northern Sierra", "ASSOCIATION": "USA - CA", "POINTS": "8", "BONUSPOINTS": "3"}}, {"type": "Feature", "geometry": {"type": "Point", "coordinates": [-119.9827, 38.7335]}, "properties": {"NAME": "W6/NS-375", "TITLE": "Stevens Peak", "REGION": "Northern Sierra", "ASSOCIATION": "USA - CA", "POINTS": "8", "BONUSPOINTS": "3"}}, {"type": "Feature", "geometry": {"type": "Point", "coordinates": [-119.7432, 38.3819]}, "properties": {"NAME": "W6/NS-376", "TITLE": "Red Peak", "REGION": "Northern Sierra", "ASSOCIATION": "USA - CA", "POINTS": "8", "BONUSPOINTS": "3"}}, {"type": "Feature", "geometry": {"type": "Point", "coordinates": [-120.1747, 38.8639]}, "properties": {"NAME": "W6/NS-377", "TITLE": "Mount Price", "REGION": "Northern Sierra", "ASSOCIATION": "USA - CA", "POINTS": "8", "BONUSPOINTS": "3"}}, {"type": "Feature", "geometry": {"type": "Point", "coordinates": [-120.0341, 38.6543]}, "properties": {"NAME": "W6/NS-378", "TITLE": "9795", "REGION": "Northern Sierra", "ASSOCIATION": "USA - CA", "POINTS": "8", "BONUSPOINTS": "3"}}, {"type": "Feature", "geometry": {"type": "Point", "coordinates": [-119.6911, 38.1695]}, "properties": {"NAME": "W6/NS-379", "TITLE": "9620", "REGION": "Northern Sierra", "ASSOCIATION": "USA - CA", "POINTS": "8", "BONUSPOINTS": "3"}}, {"type": "Feature", "geometry": {"type": "Point", "coordinates": [-119.9552, 38.6548]}, "properties": {"NAME": "W6/NS-380", "TITLE": "9374", "REGION": "Northern Sierra", "ASSOCIATION": "USA - CA", "POINTS": "8", "BONUSPOINTS": "3"}}, {"type": "Feature", "geometry": {"type": "Point", "coordinates": [-119.5581, 38.5046]}, "properties": {"NAME": "W6/NS-381", "TITLE": "9361", "REGION": "Northern Sierra", "ASSOCIATION": "USA - CA", "POINTS": "8", "BONUSPOINTS": "3"}}, {"type": "Feature", "geometry": {"type": "Point", "coordinates": [-119.903, 38.756]}, "properties": {"NAME": "W6/NS-382", "TITLE": "Pickett Peak", "REGION": "Northern Sierra", "ASSOCIATION": "USA - CA", "POINTS": "8", "BONUSPOINTS": "3"}}, {"type": "Feature", "geometry": {"type": "Point", "coordinates": [-119.5953, 38.4671]}, "properties": {"NAME": "W6/NS-383", "TITLE": "9033", "REGION": "Northern Sierra", "ASSOCIATION": "USA - CA", "POINTS": "8", "BONUSPOINTS": "3"}}, {"type": "Feature", "geometry": {"type": "Point", "coordinates": [-119.8063, 38.3721]}, "properties": {"NAME": "W6/NS-384", "TITLE": "8970", "REGION": "Northern Sierra", "ASSOCIATION": "USA - CA", "POINTS": "8", "BONUSPOINTS": "3"}}, {"type": "Feature", "geometry": {"type": "Point", "coordinates": [-120.3121, 39.1276]}, "properties": {"NAME": "W6/NS-385", "TITLE": "8385", "REGION": "Northern Sierra", "ASSOCIATION": "USA - CA", "POINTS": "8", "BONUSPOINTS": "3"}}, {"type": "Feature", "geometry": {"type": "Point", "coordinates": [-119.7931, 38.1139]}, "properties": {"NAME": "W6/NS-386", "TITLE": "Gillett Mountain", "REGION": "Northern Sierra", "ASSOCIATION": "USA - CA", "POINTS": "8", "BONUSPOINTS": "3"}}, {"type": "Feature", "geometry": {"type": "Point", "coordinates": [-120.1169, 38.7484]}, "properties": {"NAME": "W6/NS-387", "TITLE": "8330", "REGION": "Northern Sierra", "ASSOCIATION": "USA - CA", "POINTS": "8", "BONUSPOINTS": "3"}}, {"type": "Feature", "geometry": {"type": "Point", "coordinates": [-119.8364, 38.0899]}, "properties": {"NAME": "W6/NS-388", "TITLE": "Kibbie Ridge", "REGION": "Northern Sierra", "ASSOCIATION": "USA - CA", "POINTS": "8", "BONUSPOINTS": "3"}}, {"type": "Feature", "geometry": {"type": "Point", "coordinates": [-120.4287, 39.3714]}, "properties": {"NAME": "W6/NS-389", "TITLE": "Buzzard Roost", "REGION": "Northern Sierra", "ASSOCIATION": "USA - CA", "POINTS": "8", "BONUSPOINTS": "3"}}, {"type": "Feature", "geometry": {"type": "Point", "coordinates": [-120.1835, 39.0312]}, "properties": {"NAME": "W6/NS-390", "TITLE": "7860", "REGION": "Northern Sierra", "ASSOCIATION": "USA - CA", "POINTS": "8", "BONUSPOINTS": "3"}}, {"type": "Feature", "geometry": {"type": "Point", "coordinates": [-119.5683, 37.9942]}, "properties": {"NAME": "W6/NS-391", "TITLE": "7820", "REGION": "Northern Sierra", "ASSOCIATION": "USA - CA", "POINTS": "8", "BONUSPOINTS": "3"}}, {"type": "Feature", "geometry": {"type": "Point", "coordinates": [-119.6732, 38.6632]}, "properties": {"NAME": "W6/NS-392", "TITLE": "7779", "REGION": "Northern Sierra", "ASSOCIATION": "USA - CA", "POINTS": "8", "BONUSPOINTS": "3"}}, {"type": "Feature", "geometry": {"type": "Point", "coordinates": [-120.3362, 39.3218]}, "properties": {"NAME": "W6/NS-393", "TITLE": "7751", "REGION": "Northern Sierra", "ASSOCIATION": "USA - CA", "POINTS": "8", "BONUSPOINTS": "3"}}, {"type": "Feature", "geometry": {"type": "Point", "coordinates": [-120.1369, 39.674]}, "properties": {"NAME": "W6/NS-394", "TITLE": "7580", "REGION": "Northern Sierra", "ASSOCIATION": "USA - CA", "POINTS": "8", "BONUSPOINTS": "3"}}, {"type": "Feature", "geometry": {"type": "Point", "coordinates": [-120.6706, 39.6398]}, "properties": {"NAME": "W6/NS-395", "TITLE": "7569", "REGION": "Northern Sierra", "ASSOCIATION": "USA - CA", "POINTS": "8", "BONUSPOINTS": "3"}}, {"type": "Feature", "geometry": {"type": "Point", "coordinates": [-120.4193, 39.1913]}, "properties": {"NAME": "W6/NS-396", "TITLE": "Red Star Ridge", "REGION": "Northern Sierra", "ASSOCIATION": "USA - CA", "POINTS": "6", "BONUSPOINTS": "3"}}, {"type": "Feature", "geometry": {"type": "Point", "coordinates": [-120.0359, 38.91]}, "properties": {"NAME": "W6/NS-397", "TITLE": "Tahoe Mountain", "REGION": "Northern Sierra", "ASSOCIATION": "USA - CA", "POINTS": "6", "BONUSPOINTS": "3"}}, {"type": "Feature", "geometry": {"type": "Point", "coordinates": [-120.2672, 39.8699]}, "properties": {"NAME": "W6/NS-398", "TITLE": "Bald Rock", "REGION": "Northern Sierra", "ASSOCIATION": "USA - CA", "POINTS": "6", "BONUSPOINTS": "3"}}, {"type": "Feature", "geometry": {"type": "Point", "coordinates": [-120.8376, 39.7457]}, "properties": {"NAME": "W6/NS-399", "TITLE": "Mount Etna", "REGION": "Northern Sierra", "ASSOCIATION": "USA - CA", "POINTS": "6", "BONUSPOINTS": "3"}}, {"type": "Feature", "geometry": {"type": "Point", "coordinates": [-120.607, 39.2826]}, "properties": {"NAME": "W6/NS-400", "TITLE": "Black Mountain", "REGION": "Northern Sierra", "ASSOCIATION": "USA - CA", "POINTS": "6", "BONUSPOINTS": "3"}}, {"type": "Feature", "geometry": {"type": "Point", "coordinates": [-120.3261, 39.6357]}, "properties": {"NAME": "W6/NS-401", "TITLE": "6847", "REGION": "Northern Sierra", "ASSOCIATION": "USA - CA", "POINTS": "6", "BONUSPOINTS": "3"}}, {"type": "Feature", "geometry": {"type": "Point", "coordinates": [-120.5983, 40.1279]}, "properties": {"NAME": "W6/NS-402", "TITLE": "6618", "REGION": "Northern Sierra", "ASSOCIATION": "USA - CA", "POINTS": "6", "BONUSPOINTS": "3"}}, {"type": "Feature", "geometry": {"type": "Point", "coordinates": [-120.3589, 39.88]}, "properties": {"NAME": "W6/NS-403", "TITLE": "6540", "REGION": "Northern Sierra", "ASSOCIATION": "USA - CA", "POINTS": "6", "BONUSPOINTS": "3"}}, {"type": "Feature", "geometry": {"type": "Point", "coordinates": [-120.8747, 39.6732]}, "properties": {"NAME": "W6/NS-404", "TITLE": "Deadwood Peak", "REGION": "Northern Sierra", "ASSOCIATION": "USA - CA", "POINTS": "6", "BONUSPOINTS": "0"}}, {"type": "Feature", "geometry": {"type": "Point", "coordinates": [-120.7397, 40.1077]}, "properties": {"NAME": "W6/NS-405", "TITLE": "Kessler Peak", "REGION": "Northern Sierra", "ASSOCIATION": "USA - CA", "POINTS": "6", "BONUSPOINTS": "0"}}, {"type": "Feature", "geometry": {"type": "Point", "coordinates": [-119.8741, 37.7801]}, "properties": {"NAME": "W6/NS-406", "TITLE": "Crocker Ridge", "REGION": "Northern Sierra", "ASSOCIATION": "USA - CA", "POINTS": "6", "BONUSPOINTS": "0"}}, {"type": "Feature", "geometry": {"type": "Point", "coordinates": [-120.98, 39.6975]}, "properties": {"NAME": "W6/NS-407", "TITLE": "La Porte Bald Mountain", "REGION": "Northern Sierra", "ASSOCIATION": "USA - CA", "POINTS": "6", "BONUSPOINTS": "0"}}, {"type": "Feature", "geometry": {"type": "Point", "coordinates": [-120.6958, 39.4951]}, "properties": {"NAME": "W6/NS-408", "TITLE": "5850", "REGION": "Northern Sierra", "ASSOCIATION": "USA - CA", "POINTS": "6", "BONUSPOINTS": "0"}}, {"type": "Feature", "geometry": {"type": "Point", "coordinates": [-120.9579, 40.0815]}, "properties": {"NAME": "W6/NS-409", "TITLE": "5568", "REGION": "Northern Sierra", "ASSOCIATION": "USA - CA", "POINTS": "6", "BONUSPOINTS": "0"}}, {"type": "Feature", "geometry": {"type": "Point", "coordinates": [-121.2785, 39.9408]}, "properties": {"NAME": "W6/NS-410", "TITLE": "5521", "REGION": "Northern Sierra", "ASSOCIATION": "USA - CA", "POINTS": "6", "BONUSPOINTS": "0"}}, {"type": "Feature", "geometry": {"type": "Point", "coordinates": [-120.3008, 39.8125]}, "properties": {"NAME": "W6/NS-411", "TITLE": "The Buttes", "REGION": "Northern Sierra", "ASSOCIATION": "USA - CA", "POINTS": "4", "BONUSPOINTS": "0"}}, {"type": "Feature", "geometry": {"type": "Point", "coordinates": [-119.8728, 37.9738]}, "properties": {"NAME": "W6/NS-412", "TITLE": "5380", "REGION": "Northern Sierra", "ASSOCIATION": "USA - CA", "POINTS": "4", "BONUSPOINTS": "0"}}, {"type": "Feature", "geometry": {"type": "Point", "coordinates": [-120.6649, 39.2555]}, "properties": {"NAME": "W6/NS-413", "TITLE": "Scott Hill", "REGION": "Northern Sierra", "ASSOCIATION": "USA - CA", "POINTS": "4", "BONUSPOINTS": "0"}}, {"type": "Feature", "geometry": {"type": "Point", "coordinates": [-120.7233, 39.1944]}, "properties": {"NAME": "W6/NS-414", "TITLE": "4210", "REGION": "Northern Sierra", "ASSOCIATION": "USA - CA", "POINTS": "4", "BONUSPOINTS": "0"}}, {"type": "Feature", "geometry": {"type": "Point", "coordinates": [-120.4415, 38.3156]}, "properties": {"NAME": "W6/NS-415", "TITLE": "Pine Ridge", "REGION": "Northern Sierra", "ASSOCIATION": "USA - CA", "POINTS": "4", "BONUSPOINTS": "0"}}, {"type": "Feature", "geometry": {"type": "Point", "coordinates": [-121.6463, 39.9692]}, "properties": {"NAME": "W6/NS-416", "TITLE": "3700", "REGION": "Northern Sierra", "ASSOCIATION": "USA - CA", "POINTS": "2", "BONUSPOINTS": "0"}}, {"type": "Feature", "geometry": {"type": "Point", "coordinates": [-121.2075, 39.5258]}, "properties": {"NAME": "W6/NS-417", "TITLE": "Mount Hope", "REGION": "Northern Sierra", "ASSOCIATION": "USA - CA", "POINTS": "2", "BONUSPOINTS": "0"}}, {"type": "Feature", "geometry": {"type": "Point", "coordinates": [-120.3253, 38.0891]}, "properties": {"NAME": "W6/NS-418", "TITLE": "3380", "REGION": "Northern Sierra", "ASSOCIATION": "USA - CA", "POINTS": "2", "BONUSPOINTS": "0"}}, {"type": "Feature", "geometry": {"type": "Point", "coordinates": [-121.3, 39.5238]}, "properties": {"NAME": "W6/NS-419", "TITLE": "Sunset Hill", "REGION": "Northern Sierra", "ASSOCIATION": "USA - CA", "POINTS": "2", "BONUSPOINTS": "0"}}, {"type": "Feature", "geometry": {"type": "Point", "coordinates": [-120.9531, 39.1106]}, "properties": {"NAME": "W6/NS-420", "TITLE": "Colfax Hill", "REGION": "Northern Sierra", "ASSOCIATION": "USA - CA", "POINTS": "2", "BONUSPOINTS": "0"}}, {"type": "Feature", "geometry": {"type": "Point", "coordinates": [-120.9273, 39.0763]}, "properties": {"NAME": "W6/NS-421", "TITLE": "Gillis Hill", "REGION": "Northern Sierra", "ASSOCIATION": "USA - CA", "POINTS": "2", "BONUSPOINTS": "0"}}, {"type": "Feature", "geometry": {"type": "Point", "coordinates": [-121.0136, 39.0911]}, "properties": {"NAME": "W6/NS-422", "TITLE": "Quick Benchmark", "REGION": "Northern Sierra", "ASSOCIATION": "USA - CA", "POINTS": "1", "BONUSPOINTS": "0"}}, {"type": "Feature", "geometry": {"type": "Point", "coordinates": [-120.604, 38.0089]}, "properties": {"NAME": "W6/NS-423", "TITLE": "2319", "REGION": "Northern Sierra", "ASSOCIATION": "USA - CA", "POINTS": "1", "BONUSPOINTS": "0"}}, {"type": "Feature", "geometry": {"type": "Point", "coordinates": [-120.4752, 38.0399]}, "properties": {"NAME": "W6/NS-424", "TITLE": "2024", "REGION": "Northern Sierra", "ASSOCIATION": "USA - CA", "POINTS": "1", "BONUSPOINTS": "0"}}, {"type": "Feature", "geometry": {"type": "Point", "coordinates": [-121.4222, 39.5373]}, "properties": {"NAME": "W6/NS-425", "TITLE": "South Bidwell Hill", "REGION": "Northern Sierra", "ASSOCIATION": "USA - CA", "POINTS": "1", "BONUSPOINTS": "0"}}, {"type": "Feature", "geometry": {"type": "Point", "coordinates": [-121.0297, 38.8182]}, "properties": {"NAME": "W6/NS-426", "TITLE": "Pilot Hill", "REGION": "Northern Sierra", "ASSOCIATION": "USA - CA", "POINTS": "1", "BONUSPOINTS": "0"}}, {"type": "Feature", "geometry": {"type": "Point", "coordinates": [-120.5968, 37.9541]}, "properties": {"NAME": "W6/NS-427", "TITLE": "1610", "REGION": "Northern Sierra", "ASSOCIATION": "USA - CA", "POINTS": "1", "BONUSPOINTS": "0"}}, {"type": "Feature", "geometry": {"type": "Point", "coordinates": [-121.3805, 39.3119]}, "properties": {"NAME": "W6/NS-428", "TITLE": "Paynes Peak", "REGION": "Northern Sierra", "ASSOCIATION": "USA - CA", "POINTS": "1", "BONUSPOINTS": "0"}}, {"type": "Feature", "geometry": {"type": "Point", "coordinates": [-121.8771, 39.2166]}, "properties": {"NAME": "W6/NS-429", "TITLE": "690", "REGION": "Northern Sierra", "ASSOCIATION": "USA - CA", "POINTS": "1", "BONUSPOINTS": "0"}}]}