{"type": "FeatureCollection", "name": "W6/SS SUMMITS", "features": [{"type": "Feature", "geometry": {"type": "Point", "coordinates": [-118.5144, 37.0941]}, "properties": {"NAME": "W6/SS-001", "TITLE": "North Palisade", "REGION": "Southern Sierra", "ASSOCIATION": "USA - CA", "POINTS": "10", "BONUSPOINTS": "3"}}, {"type": "Feature", "geometry": {"type": "Point", "coordinates": [-118.2908, 36.5901]}, "properties": {"NAME": "W6/SS-002", "TITLE": "Mount Russell", "REGION": "Southern Sierra", "ASSOCIATION": "USA - CA", "POINTS": "10", "BONUSPOINTS": "3"}}, {"type": "Feature", "geometry": {"type": "Point", "coordinates": [-118.4226, 37.021]}, "properties": {"NAME": "W6/SS-003", "TITLE": "Split Mountain", "REGION": "Southern Sierra", "ASSOCIATION": "USA - CA", "POINTS": "10", "BONUSPOINTS": "3"}}, {"type": "Feature", "geometry": {"type": "Point", "coordinates": [-118.4691, 37.0703]}, "properties": {"NAME": "W6/SS-004", "TITLE": "Middle Palisade", "REGION": "Southern Sierra", "ASSOCIATION": "USA - CA", "POINTS": "10", "BONUSPOINTS": "3"}}, {"type": "Feature", "geometry": {"type": "Point", "coordinates": [-118.3434, 36.7001]}, "properties": {"NAME": "W6/SS-005", "TITLE": "Mount Keith", "REGION": "Southern Sierra", "ASSOCIATION": "USA - CA", "POINTS": "10", "BONUSPOINTS": "3"}}, {"type": "Feature", "geometry": {"type": "Point", "coordinates": [-118.3151, 36.6421]}, "properties": {"NAME": "W6/SS-006", "TITLE": "Trojan Peak", "REGION": "Southern Sierra", "ASSOCIATION": "USA - CA", "POINTS": "10", "BONUSPOINTS": "3"}}, {"type": "Feature", "geometry": {"type": "Point", "coordinates": [-118.2519, 36.5415]}, "properties": {"NAME": "W6/SS-007", "TITLE": "Mount LeConte", "REGION": "Southern Sierra", "ASSOCIATION": "USA - CA", "POINTS": "10", "BONUSPOINTS": "3"}}, {"type": "Feature", "geometry": {"type": "Point", "coordinates": [-118.5306, 37.1119]}, "properties": {"NAME": "W6/SS-008", "TITLE": "Mount Agassiz", "REGION": "Southern Sierra", "ASSOCIATION": "USA - CA", "POINTS": "10", "BONUSPOINTS": "3"}}, {"type": "Feature", "geometry": {"type": "Point", "coordinates": [-118.3661, 36.691]}, "properties": {"NAME": "W6/SS-009", "TITLE": "Junction Peak", "REGION": "Southern Sierra", "ASSOCIATION": "USA - CA", "POINTS": "10", "BONUSPOINTS": "3"}}, {"type": "Feature", "geometry": {"type": "Point", "coordinates": [-118.3905, 36.6888]}, "properties": {"NAME": "W6/SS-010", "TITLE": "Caltech Peak", "REGION": "Southern Sierra", "ASSOCIATION": "USA - CA", "POINTS": "10", "BONUSPOINTS": "3"}}, {"type": "Feature", "geometry": {"type": "Point", "coordinates": [-118.4785, 36.526]}, "properties": {"NAME": "W6/SS-011", "TITLE": "Mount Kaweah", "REGION": "Southern Sierra", "ASSOCIATION": "USA - CA", "POINTS": "10", "BONUSPOINTS": "3"}}, {"type": "Feature", "geometry": {"type": "Point", "coordinates": [-118.7328, 37.4052]}, "properties": {"NAME": "W6/SS-012", "TITLE": "Mount Morgan", "REGION": "Southern Sierra", "ASSOCIATION": "USA - CA", "POINTS": "10", "BONUSPOINTS": "3"}}, {"type": "Feature", "geometry": {"type": "Point", "coordinates": [-118.8029, 37.3766]}, "properties": {"NAME": "W6/SS-013", "TITLE": "Mount Gabb", "REGION": "Southern Sierra", "ASSOCIATION": "USA - CA", "POINTS": "10", "BONUSPOINTS": "3"}}, {"type": "Feature", "geometry": {"type": "Point", "coordinates": [-118.7673, 37.3679]}, "properties": {"NAME": "W6/SS-014", "TITLE": "Bear Creek Spire", "REGION": "Southern Sierra", "ASSOCIATION": "USA - CA", "POINTS": "10", "BONUSPOINTS": "3"}}, {"type": "Feature", "geometry": {"type": "Point", "coordinates": [-118.5056, 36.54]}, "properties": {"NAME": "W6/SS-015", "TITLE": "Red Kaweah", "REGION": "Southern Sierra", "ASSOCIATION": "USA - CA", "POINTS": "10", "BONUSPOINTS": "3"}}, {"type": "Feature", "geometry": {"type": "Point", "coordinates": [-118.7847, 37.3863]}, "properties": {"NAME": "W6/SS-016", "TITLE": "Mount Abbot", "REGION": "Southern Sierra", "ASSOCIATION": "USA - CA", "POINTS": "10", "BONUSPOINTS": "3"}}, {"type": "Feature", "geometry": {"type": "Point", "coordinates": [-118.4835, 36.6433]}, "properties": {"NAME": "W6/SS-017", "TITLE": "Midway Mountain", "REGION": "Southern Sierra", "ASSOCIATION": "USA - CA", "POINTS": "10", "BONUSPOINTS": "3"}}, {"type": "Feature", "geometry": {"type": "Point", "coordinates": [-118.493, 36.5331]}, "properties": {"NAME": "W6/SS-018", "TITLE": "Second Kaweah", "REGION": "Southern Sierra", "ASSOCIATION": "USA - CA", "POINTS": "10", "BONUSPOINTS": "3"}}, {"type": "Feature", "geometry": {"type": "Point", "coordinates": [-118.6569, 37.3385]}, "properties": {"NAME": "W6/SS-019", "TITLE": "Mount Tom", "REGION": "Southern Sierra", "ASSOCIATION": "USA - CA", "POINTS": "10", "BONUSPOINTS": "3"}}, {"type": "Feature", "geometry": {"type": "Point", "coordinates": [-118.4844, 36.6344]}, "properties": {"NAME": "W6/SS-020", "TITLE": "Milestone Mountain", "REGION": "Southern Sierra", "ASSOCIATION": "USA - CA", "POINTS": "10", "BONUSPOINTS": "3"}}, {"type": "Feature", "geometry": {"type": "Point", "coordinates": [-118.4736, 36.6602]}, "properties": {"NAME": "W6/SS-021", "TITLE": "Table Mountain", "REGION": "Southern Sierra", "ASSOCIATION": "USA - CA", "POINTS": "10", "BONUSPOINTS": "3"}}, {"type": "Feature", "geometry": {"type": "Point", "coordinates": [-118.4145, 36.6972]}, "properties": {"NAME": "W6/SS-022", "TITLE": "Mount Ericsson", "REGION": "Southern Sierra", "ASSOCIATION": "USA - CA", "POINTS": "10", "BONUSPOINTS": "3"}}, {"type": "Feature", "geometry": {"type": "Point", "coordinates": [-118.4189, 37.0625]}, "properties": {"NAME": "W6/SS-023", "TITLE": "Birch Mountain", "REGION": "Southern Sierra", "ASSOCIATION": "USA - CA", "POINTS": "10", "BONUSPOINTS": "3"}}, {"type": "Feature", "geometry": {"type": "Point", "coordinates": [-118.3618, 36.748]}, "properties": {"NAME": "W6/SS-024", "TITLE": "University Peak", "REGION": "Southern Sierra", "ASSOCIATION": "USA - CA", "POINTS": "10", "BONUSPOINTS": "3"}}, {"type": "Feature", "geometry": {"type": "Point", "coordinates": [-118.4362, 37.0605]}, "properties": {"NAME": "W6/SS-025", "TITLE": "Ed Lane Peak", "REGION": "Southern Sierra", "ASSOCIATION": "USA - CA", "POINTS": "10", "BONUSPOINTS": "3"}}, {"type": "Feature", "geometry": {"type": "Point", "coordinates": [-118.485, 36.7085]}, "properties": {"NAME": "W6/SS-026", "TITLE": "Mount Brewer", "REGION": "Southern Sierra", "ASSOCIATION": "USA - CA", "POINTS": "10", "BONUSPOINTS": "3"}}, {"type": "Feature", "geometry": {"type": "Point", "coordinates": [-118.7193, 37.1035]}, "properties": {"NAME": "W6/SS-027", "TITLE": "Mount Goddard", "REGION": "Southern Sierra", "ASSOCIATION": "USA - CA", "POINTS": "10", "BONUSPOINTS": "3"}}, {"type": "Feature", "geometry": {"type": "Point", "coordinates": [-118.2822, 36.6051]}, "properties": {"NAME": "W6/SS-028", "TITLE": "Tunnabora Peak", "REGION": "Southern Sierra", "ASSOCIATION": "USA - CA", "POINTS": "10", "BONUSPOINTS": "3"}}, {"type": "Feature", "geometry": {"type": "Point", "coordinates": [-118.4896, 37.0814]}, "properties": {"NAME": "W6/SS-029", "TITLE": "Palisade Crest", "REGION": "Southern Sierra", "ASSOCIATION": "USA - CA", "POINTS": "10", "BONUSPOINTS": "3"}}, {"type": "Feature", "geometry": {"type": "Point", "coordinates": [-118.4757, 36.669]}, "properties": {"NAME": "W6/SS-030", "TITLE": "Thunder Mountain", "REGION": "Southern Sierra", "ASSOCIATION": "USA - CA", "POINTS": "10", "BONUSPOINTS": "3"}}, {"type": "Feature", "geometry": {"type": "Point", "coordinates": [-118.4748, 36.6303]}, "properties": {"NAME": "W6/SS-031", "TITLE": "Milestone Mesa", "REGION": "Southern Sierra", "ASSOCIATION": "USA - CA", "POINTS": "10", "BONUSPOINTS": "3"}}, {"type": "Feature", "geometry": {"type": "Point", "coordinates": [-118.5306, 37.1426]}, "properties": {"NAME": "W6/SS-032", "TITLE": "Cloudripper", "REGION": "Southern Sierra", "ASSOCIATION": "USA - CA", "POINTS": "10", "BONUSPOINTS": "3"}}, {"type": "Feature", "geometry": {"type": "Point", "coordinates": [-118.6676, 37.1366]}, "properties": {"NAME": "W6/SS-033", "TITLE": "Mount Fiske", "REGION": "Southern Sierra", "ASSOCIATION": "USA - CA", "POINTS": "10", "BONUSPOINTS": "3"}}, {"type": "Feature", "geometry": {"type": "Point", "coordinates": [-118.4051, 36.9474]}, "properties": {"NAME": "W6/SS-034", "TITLE": "Mount Pinchot", "REGION": "Southern Sierra", "ASSOCIATION": "USA - CA", "POINTS": "10", "BONUSPOINTS": "3"}}, {"type": "Feature", "geometry": {"type": "Point", "coordinates": [-118.3143, 36.5879]}, "properties": {"NAME": "W6/SS-035", "TITLE": "Mount Hale", "REGION": "Southern Sierra", "ASSOCIATION": "USA - CA", "POINTS": "10", "BONUSPOINTS": "3"}}, {"type": "Feature", "geometry": {"type": "Point", "coordinates": [-118.4407, 37.0462]}, "properties": {"NAME": "W6/SS-036", "TITLE": "Mount Bolton Brown", "REGION": "Southern Sierra", "ASSOCIATION": "USA - CA", "POINTS": "10", "BONUSPOINTS": "3"}}, {"type": "Feature", "geometry": {"type": "Point", "coordinates": [-118.2906, 36.5271]}, "properties": {"NAME": "W6/SS-037", "TITLE": "Mount Pickering", "REGION": "Southern Sierra", "ASSOCIATION": "USA - CA", "POINTS": "10", "BONUSPOINTS": "3"}}, {"type": "Feature", "geometry": {"type": "Point", "coordinates": [-118.6735, 37.1967]}, "properties": {"NAME": "W6/SS-038", "TITLE": "13464", "REGION": "Southern Sierra", "ASSOCIATION": "USA - CA", "POINTS": "10", "BONUSPOINTS": "3"}}, {"type": "Feature", "geometry": {"type": "Point", "coordinates": [-118.2931, 36.54]}, "properties": {"NAME": "W6/SS-039", "TITLE": "Mount Newcomb", "REGION": "Southern Sierra", "ASSOCIATION": "USA - CA", "POINTS": "10", "BONUSPOINTS": "3"}}, {"type": "Feature", "geometry": {"type": "Point", "coordinates": [-118.4125, 36.9995]}, "properties": {"NAME": "W6/SS-040", "TITLE": "Cardinal Mountain", "REGION": "Southern Sierra", "ASSOCIATION": "USA - CA", "POINTS": "10", "BONUSPOINTS": "3"}}, {"type": "Feature", "geometry": {"type": "Point", "coordinates": [-118.5085, 36.5547]}, "properties": {"NAME": "W6/SS-041", "TITLE": "Kaweah Queen", "REGION": "Southern Sierra", "ASSOCIATION": "USA - CA", "POINTS": "10", "BONUSPOINTS": "3"}}, {"type": "Feature", "geometry": {"type": "Point", "coordinates": [-118.8267, 37.3605]}, "properties": {"NAME": "W6/SS-042", "TITLE": "Mount Hilgard", "REGION": "Southern Sierra", "ASSOCIATION": "USA - CA", "POINTS": "10", "BONUSPOINTS": "3"}}, {"type": "Feature", "geometry": {"type": "Point", "coordinates": [-118.4458, 37.0715]}, "properties": {"NAME": "W6/SS-043", "TITLE": "The Thumb", "REGION": "Southern Sierra", "ASSOCIATION": "USA - CA", "POINTS": "10", "BONUSPOINTS": "3"}}, {"type": "Feature", "geometry": {"type": "Point", "coordinates": [-118.4497, 36.6822]}, "properties": {"NAME": "W6/SS-044", "TITLE": "Mount Jordan", "REGION": "Southern Sierra", "ASSOCIATION": "USA - CA", "POINTS": "10", "BONUSPOINTS": "3"}}, {"type": "Feature", "geometry": {"type": "Point", "coordinates": [-118.6484, 37.1022]}, "properties": {"NAME": "W6/SS-045", "TITLE": "Black Giant", "REGION": "Southern Sierra", "ASSOCIATION": "USA - CA", "POINTS": "10", "BONUSPOINTS": "3"}}, {"type": "Feature", "geometry": {"type": "Point", "coordinates": [-118.4898, 36.7166]}, "properties": {"NAME": "W6/SS-046", "TITLE": "North Guard", "REGION": "Southern Sierra", "ASSOCIATION": "USA - CA", "POINTS": "10", "BONUSPOINTS": "3"}}, {"type": "Feature", "geometry": {"type": "Point", "coordinates": [-118.7708, 37.3181]}, "properties": {"NAME": "W6/SS-047", "TITLE": "Royce Peak", "REGION": "Southern Sierra", "ASSOCIATION": "USA - CA", "POINTS": "10", "BONUSPOINTS": "3"}}, {"type": "Feature", "geometry": {"type": "Point", "coordinates": [-118.5387, 37.1278]}, "properties": {"NAME": "W6/SS-048", "TITLE": "Picture Puzzle", "REGION": "Southern Sierra", "ASSOCIATION": "USA - CA", "POINTS": "10", "BONUSPOINTS": "3"}}, {"type": "Feature", "geometry": {"type": "Point", "coordinates": [-118.378, 36.809]}, "properties": {"NAME": "W6/SS-049", "TITLE": "Black Mountain", "REGION": "Southern Sierra", "ASSOCIATION": "USA - CA", "POINTS": "10", "BONUSPOINTS": "3"}}, {"type": "Feature", "geometry": {"type": "Point", "coordinates": [-118.4555, 36.533]}, "properties": {"NAME": "W6/SS-050", "TITLE": "13284", "REGION": "Southern Sierra", "ASSOCIATION": "USA - CA", "POINTS": "10", "BONUSPOINTS": "3"}}, {"type": "Feature", "geometry": {"type": "Point", "coordinates": [-118.6438, 37.0736]}, "properties": {"NAME": "W6/SS-051", "TITLE": "Mount McDuffie", "REGION": "Southern Sierra", "ASSOCIATION": "USA - CA", "POINTS": "10", "BONUSPOINTS": "3"}}, {"type": "Feature", "geometry": {"type": "Point", "coordinates": [-118.4102, 36.7131]}, "properties": {"NAME": "W6/SS-052", "TITLE": "Deerhorn Mountain", "REGION": "Southern Sierra", "ASSOCIATION": "USA - CA", "POINTS": "10", "BONUSPOINTS": "3"}}, {"type": "Feature", "geometry": {"type": "Point", "coordinates": [-118.3386, 36.7286]}, "properties": {"NAME": "W6/SS-053", "TITLE": "Mount Bradley", "REGION": "Southern Sierra", "ASSOCIATION": "USA - CA", "POINTS": "10", "BONUSPOINTS": "3"}}, {"type": "Feature", "geometry": {"type": "Point", "coordinates": [-118.7019, 37.2061]}, "properties": {"NAME": "W6/SS-054", "TITLE": "Mount Goethe", "REGION": "Southern Sierra", "ASSOCIATION": "USA - CA", "POINTS": "10", "BONUSPOINTS": "3"}}, {"type": "Feature", "geometry": {"type": "Point", "coordinates": [-118.6639, 37.1785]}, "properties": {"NAME": "W6/SS-055", "TITLE": "Mount Tom Ross", "REGION": "Southern Sierra", "ASSOCIATION": "USA - CA", "POINTS": "10", "BONUSPOINTS": "3"}}, {"type": "Feature", "geometry": {"type": "Point", "coordinates": [-118.484, 36.6936]}, "properties": {"NAME": "W6/SS-056", "TITLE": "South Guard", "REGION": "Southern Sierra", "ASSOCIATION": "USA - CA", "POINTS": "10", "BONUSPOINTS": "3"}}, {"type": "Feature", "geometry": {"type": "Point", "coordinates": [-118.4654, 36.6199]}, "properties": {"NAME": "W6/SS-057", "TITLE": "West Kern Ridge", "REGION": "Southern Sierra", "ASSOCIATION": "USA - CA", "POINTS": "10", "BONUSPOINTS": "3"}}, {"type": "Feature", "geometry": {"type": "Point", "coordinates": [-118.375, 36.8608]}, "properties": {"NAME": "W6/SS-058", "TITLE": "Acrodectes Peak", "REGION": "Southern Sierra", "ASSOCIATION": "USA - CA", "POINTS": "10", "BONUSPOINTS": "3"}}, {"type": "Feature", "geometry": {"type": "Point", "coordinates": [-118.8692, 37.5075]}, "properties": {"NAME": "W6/SS-059", "TITLE": "Red Slate Mountain", "REGION": "Southern Sierra", "ASSOCIATION": "USA - CA", "POINTS": "10", "BONUSPOINTS": "3"}}, {"type": "Feature", "geometry": {"type": "Point", "coordinates": [-118.3621, 36.8615]}, "properties": {"NAME": "W6/SS-060", "TITLE": "Mount Baxter", "REGION": "Southern Sierra", "ASSOCIATION": "USA - CA", "POINTS": "10", "BONUSPOINTS": "3"}}, {"type": "Feature", "geometry": {"type": "Point", "coordinates": [-118.3901, 36.8264]}, "properties": {"NAME": "W6/SS-061", "TITLE": "Diamond Peak", "REGION": "Southern Sierra", "ASSOCIATION": "USA - CA", "POINTS": "10", "BONUSPOINTS": "3"}}, {"type": "Feature", "geometry": {"type": "Point", "coordinates": [-118.4391, 37.0835]}, "properties": {"NAME": "W6/SS-062", "TITLE": "13104", "REGION": "Southern Sierra", "ASSOCIATION": "USA - CA", "POINTS": "10", "BONUSPOINTS": "3"}}, {"type": "Feature", "geometry": {"type": "Point", "coordinates": [-118.6681, 37.0868]}, "properties": {"NAME": "W6/SS-063", "TITLE": "Charybdis", "REGION": "Southern Sierra", "ASSOCIATION": "USA - CA", "POINTS": "10", "BONUSPOINTS": "3"}}, {"type": "Feature", "geometry": {"type": "Point", "coordinates": [-118.6741, 37.1063]}, "properties": {"NAME": "W6/SS-064", "TITLE": "Mount Solomons", "REGION": "Southern Sierra", "ASSOCIATION": "USA - CA", "POINTS": "10", "BONUSPOINTS": "3"}}, {"type": "Feature", "geometry": {"type": "Point", "coordinates": [-118.6976, 37.4178]}, "properties": {"NAME": "W6/SS-065", "TITLE": "Wheeler Ridge", "REGION": "Southern Sierra", "ASSOCIATION": "USA - CA", "POINTS": "10", "BONUSPOINTS": "3"}}, {"type": "Feature", "geometry": {"type": "Point", "coordinates": [-118.378, 36.78]}, "properties": {"NAME": "W6/SS-066", "TITLE": "Mount Gould", "REGION": "Southern Sierra", "ASSOCIATION": "USA - CA", "POINTS": "10", "BONUSPOINTS": "3"}}, {"type": "Feature", "geometry": {"type": "Point", "coordinates": [-119.2081, 37.8129]}, "properties": {"NAME": "W6/SS-067", "TITLE": "Kuna Peak", "REGION": "Southern Sierra", "ASSOCIATION": "USA - CA", "POINTS": "10", "BONUSPOINTS": "3"}}, {"type": "Feature", "geometry": {"type": "Point", "coordinates": [-118.7797, 37.5113]}, "properties": {"NAME": "W6/SS-068", "TITLE": "Mount Morgan", "REGION": "Southern Sierra", "ASSOCIATION": "USA - CA", "POINTS": "10", "BONUSPOINTS": "3"}}, {"type": "Feature", "geometry": {"type": "Point", "coordinates": [-118.4739, 36.9988]}, "properties": {"NAME": "W6/SS-069", "TITLE": "Vennacher Needle", "REGION": "Southern Sierra", "ASSOCIATION": "USA - CA", "POINTS": "10", "BONUSPOINTS": "3"}}, {"type": "Feature", "geometry": {"type": "Point", "coordinates": [-118.7508, 37.2214]}, "properties": {"NAME": "W6/SS-070", "TITLE": "12980", "REGION": "Southern Sierra", "ASSOCIATION": "USA - CA", "POINTS": "10", "BONUSPOINTS": "3"}}, {"type": "Feature", "geometry": {"type": "Point", "coordinates": [-119.2574, 37.7251]}, "properties": {"NAME": "W6/SS-071", "TITLE": "Rodgers Peak", "REGION": "Southern Sierra", "ASSOCIATION": "USA - CA", "POINTS": "10", "BONUSPOINTS": "3"}}, {"type": "Feature", "geometry": {"type": "Point", "coordinates": [-118.6921, 37.0737]}, "properties": {"NAME": "W6/SS-072", "TITLE": "Mount Hansen", "REGION": "Southern Sierra", "ASSOCIATION": "USA - CA", "POINTS": "10", "BONUSPOINTS": "3"}}, {"type": "Feature", "geometry": {"type": "Point", "coordinates": [-118.7223, 37.116]}, "properties": {"NAME": "W6/SS-073", "TITLE": "12964", "REGION": "Southern Sierra", "ASSOCIATION": "USA - CA", "POINTS": "10", "BONUSPOINTS": "3"}}, {"type": "Feature", "geometry": {"type": "Point", "coordinates": [-118.4908, 36.9283]}, "properties": {"NAME": "W6/SS-074", "TITLE": "Arrow Peak", "REGION": "Southern Sierra", "ASSOCIATION": "USA - CA", "POINTS": "10", "BONUSPOINTS": "3"}}, {"type": "Feature", "geometry": {"type": "Point", "coordinates": [-118.4391, 36.9329]}, "properties": {"NAME": "W6/SS-075", "TITLE": "Mount Ickes", "REGION": "Southern Sierra", "ASSOCIATION": "USA - CA", "POINTS": "10", "BONUSPOINTS": "3"}}, {"type": "Feature", "geometry": {"type": "Point", "coordinates": [-118.4883, 37.0057]}, "properties": {"NAME": "W6/SS-076", "TITLE": "12959", "REGION": "Southern Sierra", "ASSOCIATION": "USA - CA", "POINTS": "10", "BONUSPOINTS": "3"}}, {"type": "Feature", "geometry": {"type": "Point", "coordinates": [-118.3285, 36.5396]}, "properties": {"NAME": "W6/SS-077", "TITLE": "Crabtree Crags", "REGION": "Southern Sierra", "ASSOCIATION": "USA - CA", "POINTS": "10", "BONUSPOINTS": "3"}}, {"type": "Feature", "geometry": {"type": "Point", "coordinates": [-118.7382, 37.139]}, "properties": {"NAME": "W6/SS-078", "TITLE": "Mount McGee", "REGION": "Southern Sierra", "ASSOCIATION": "USA - CA", "POINTS": "10", "BONUSPOINTS": "3"}}, {"type": "Feature", "geometry": {"type": "Point", "coordinates": [-118.4824, 37.0341]}, "properties": {"NAME": "W6/SS-079", "TITLE": "12933", "REGION": "Southern Sierra", "ASSOCIATION": "USA - CA", "POINTS": "10", "BONUSPOINTS": "3"}}, {"type": "Feature", "geometry": {"type": "Point", "coordinates": [-118.6512, 37.0833]}, "properties": {"NAME": "W6/SS-080", "TITLE": "12928", "REGION": "Southern Sierra", "ASSOCIATION": "USA - CA", "POINTS": "10", "BONUSPOINTS": "3"}}, {"type": "Feature", "geometry": {"type": "Point", "coordinates": [-118.4732, 36.9785]}, "properties": {"NAME": "W6/SS-081", "TITLE": "Mount Ruskin", "REGION": "Southern Sierra", "ASSOCIATION": "USA - CA", "POINTS": "10", "BONUSPOINTS": "3"}}, {"type": "Feature", "geometry": {"type": "Point", "coordinates": [-118.4591, 36.806]}, "properties": {"NAME": "W6/SS-082", "TITLE": "Mount Gardiner", "REGION": "Southern Sierra", "ASSOCIATION": "USA - CA", "POINTS": "10", "BONUSPOINTS": "3"}}, {"type": "Feature", "geometry": {"type": "Point", "coordinates": [-118.4463, 36.8336]}, "properties": {"NAME": "W6/SS-083", "TITLE": "Mount Clarence King", "REGION": "Southern Sierra", "ASSOCIATION": "USA - CA", "POINTS": "10", "BONUSPOINTS": "3"}}, {"type": "Feature", "geometry": {"type": "Point", "coordinates": [-118.8179, 37.2976]}, "properties": {"NAME": "W6/SS-084", "TITLE": "Gemini", "REGION": "Southern Sierra", "ASSOCIATION": "USA - CA", "POINTS": "10", "BONUSPOINTS": "3"}}, {"type": "Feature", "geometry": {"type": "Point", "coordinates": [-118.2369, 36.4767]}, "properties": {"NAME": "W6/SS-085", "TITLE": "Cirque Peak", "REGION": "Southern Sierra", "ASSOCIATION": "USA - CA", "POINTS": "10", "BONUSPOINTS": "3"}}, {"type": "Feature", "geometry": {"type": "Point", "coordinates": [-118.4981, 36.7285]}, "properties": {"NAME": "W6/SS-086", "TITLE": "Mount Farquhar", "REGION": "Southern Sierra", "ASSOCIATION": "USA - CA", "POINTS": "10", "BONUSPOINTS": "3"}}, {"type": "Feature", "geometry": {"type": "Point", "coordinates": [-118.3987, 36.7849]}, "properties": {"NAME": "W6/SS-087", "TITLE": "Mount Rixford", "REGION": "Southern Sierra", "ASSOCIATION": "USA - CA", "POINTS": "10", "BONUSPOINTS": "3"}}, {"type": "Feature", "geometry": {"type": "Point", "coordinates": [-118.4209, 36.922]}, "properties": {"NAME": "W6/SS-088", "TITLE": "Crater Mountain", "REGION": "Southern Sierra", "ASSOCIATION": "USA - CA", "POINTS": "10", "BONUSPOINTS": "3"}}, {"type": "Feature", "geometry": {"type": "Point", "coordinates": [-118.5864, 37.1283]}, "properties": {"NAME": "W6/SS-089", "TITLE": "Mount Johnson", "REGION": "Southern Sierra", "ASSOCIATION": "USA - CA", "POINTS": "10", "BONUSPOINTS": "3"}}, {"type": "Feature", "geometry": {"type": "Point", "coordinates": [-119.1841, 37.8139]}, "properties": {"NAME": "W6/SS-090", "TITLE": "Parker Peak", "REGION": "Southern Sierra", "ASSOCIATION": "USA - CA", "POINTS": "10", "BONUSPOINTS": "3"}}, {"type": "Feature", "geometry": {"type": "Point", "coordinates": [-118.4743, 37.1128]}, "properties": {"NAME": "W6/SS-091", "TITLE": "Buck Mountain", "REGION": "Southern Sierra", "ASSOCIATION": "USA - CA", "POINTS": "10", "BONUSPOINTS": "3"}}, {"type": "Feature", "geometry": {"type": "Point", "coordinates": [-118.2063, 36.5113]}, "properties": {"NAME": "W6/SS-092", "TITLE": "12837", "REGION": "Southern Sierra", "ASSOCIATION": "USA - CA", "POINTS": "10", "BONUSPOINTS": "3"}}, {"type": "Feature", "geometry": {"type": "Point", "coordinates": [-118.7653, 37.429]}, "properties": {"NAME": "W6/SS-093", "TITLE": "Mount Starr", "REGION": "Southern Sierra", "ASSOCIATION": "USA - CA", "POINTS": "10", "BONUSPOINTS": "3"}}, {"type": "Feature", "geometry": {"type": "Point", "coordinates": [-118.3912, 36.8598]}, "properties": {"NAME": "W6/SS-094", "TITLE": "12828", "REGION": "Southern Sierra", "ASSOCIATION": "USA - CA", "POINTS": "10", "BONUSPOINTS": "3"}}, {"type": "Feature", "geometry": {"type": "Point", "coordinates": [-118.8572, 37.4797]}, "properties": {"NAME": "W6/SS-095", "TITLE": "Red and White Mountain", "REGION": "Southern Sierra", "ASSOCIATION": "USA - CA", "POINTS": "10", "BONUSPOINTS": "3"}}, {"type": "Feature", "geometry": {"type": "Point", "coordinates": [-118.8557, 37.3823]}, "properties": {"NAME": "W6/SS-096", "TITLE": "Recess Peak", "REGION": "Southern Sierra", "ASSOCIATION": "USA - CA", "POINTS": "10", "BONUSPOINTS": "3"}}, {"type": "Feature", "geometry": {"type": "Point", "coordinates": [-118.4178, 36.9584]}, "properties": {"NAME": "W6/SS-097", "TITLE": "White Mountain", "REGION": "Southern Sierra", "ASSOCIATION": "USA - CA", "POINTS": "10", "BONUSPOINTS": "3"}}, {"type": "Feature", "geometry": {"type": "Point", "coordinates": [-118.7996, 37.3459]}, "properties": {"NAME": "W6/SS-098", "TITLE": "12780", "REGION": "Southern Sierra", "ASSOCIATION": "USA - CA", "POINTS": "10", "BONUSPOINTS": "3"}}, {"type": "Feature", "geometry": {"type": "Point", "coordinates": [-118.462, 36.9065]}, "properties": {"NAME": "W6/SS-099", "TITLE": "Pyramid Peak", "REGION": "Southern Sierra", "ASSOCIATION": "USA - CA", "POINTS": "10", "BONUSPOINTS": "3"}}, {"type": "Feature", "geometry": {"type": "Point", "coordinates": [-118.6292, 37.0466]}, "properties": {"NAME": "W6/SS-100", "TITLE": "Wheel Mountain", "REGION": "Southern Sierra", "ASSOCIATION": "USA - CA", "POINTS": "10", "BONUSPOINTS": "3"}}, {"type": "Feature", "geometry": {"type": "Point", "coordinates": [-119.2119, 37.877]}, "properties": {"NAME": "W6/SS-101", "TITLE": "Mount Gibbs", "REGION": "Southern Sierra", "ASSOCIATION": "USA - CA", "POINTS": "10", "BONUSPOINTS": "3"}}, {"type": "Feature", "geometry": {"type": "Point", "coordinates": [-118.3859, 36.972]}, "properties": {"NAME": "W6/SS-102", "TITLE": "Goodale Mountain", "REGION": "Southern Sierra", "ASSOCIATION": "USA - CA", "POINTS": "10", "BONUSPOINTS": "3"}}, {"type": "Feature", "geometry": {"type": "Point", "coordinates": [-118.4445, 36.5966]}, "properties": {"NAME": "W6/SS-103", "TITLE": "Kern Point", "REGION": "Southern Sierra", "ASSOCIATION": "USA - CA", "POINTS": "10", "BONUSPOINTS": "3"}}, {"type": "Feature", "geometry": {"type": "Point", "coordinates": [-118.749, 37.3824]}, "properties": {"NAME": "W6/SS-104", "TITLE": "Rosy Finch Peak", "REGION": "Southern Sierra", "ASSOCIATION": "USA - CA", "POINTS": "10", "BONUSPOINTS": "3"}}, {"type": "Feature", "geometry": {"type": "Point", "coordinates": [-118.5223, 36.9568]}, "properties": {"NAME": "W6/SS-105", "TITLE": "Marion Peak", "REGION": "Southern Sierra", "ASSOCIATION": "USA - CA", "POINTS": "10", "BONUSPOINTS": "3"}}, {"type": "Feature", "geometry": {"type": "Point", "coordinates": [-118.5117, 37.0756]}, "properties": {"NAME": "W6/SS-106", "TITLE": "12698", "REGION": "Southern Sierra", "ASSOCIATION": "USA - CA", "POINTS": "10", "BONUSPOINTS": "3"}}, {"type": "Feature", "geometry": {"type": "Point", "coordinates": [-118.8139, 37.4115]}, "properties": {"NAME": "W6/SS-107", "TITLE": "12692", "REGION": "Southern Sierra", "ASSOCIATION": "USA - CA", "POINTS": "10", "BONUSPOINTS": "3"}}, {"type": "Feature", "geometry": {"type": "Point", "coordinates": [-118.6629, 37.2248]}, "properties": {"NAME": "W6/SS-108", "TITLE": "Mount George Davis", "REGION": "Southern Sierra", "ASSOCIATION": "USA - CA", "POINTS": "10", "BONUSPOINTS": "3"}}, {"type": "Feature", "geometry": {"type": "Point", "coordinates": [-118.5039, 36.6952]}, "properties": {"NAME": "W6/SS-109", "TITLE": "Mount Sheldon", "REGION": "Southern Sierra", "ASSOCIATION": "USA - CA", "POINTS": "10", "BONUSPOINTS": "3"}}, {"type": "Feature", "geometry": {"type": "Point", "coordinates": [-118.4992, 36.6677]}, "properties": {"NAME": "W6/SS-110", "TITLE": "12631", "REGION": "Southern Sierra", "ASSOCIATION": "USA - CA", "POINTS": "10", "BONUSPOINTS": "3"}}, {"type": "Feature", "geometry": {"type": "Point", "coordinates": [-118.5453, 36.932]}, "properties": {"NAME": "W6/SS-111", "TITLE": "State Peak", "REGION": "Southern Sierra", "ASSOCIATION": "USA - CA", "POINTS": "10", "BONUSPOINTS": "3"}}, {"type": "Feature", "geometry": {"type": "Point", "coordinates": [-118.5172, 36.6093]}, "properties": {"NAME": "W6/SS-112", "TITLE": "12620", "REGION": "Southern Sierra", "ASSOCIATION": "USA - CA", "POINTS": "10", "BONUSPOINTS": "3"}}, {"type": "Feature", "geometry": {"type": "Point", "coordinates": [-118.8511, 37.5321]}, "properties": {"NAME": "W6/SS-113", "TITLE": "Mount Baldwin", "REGION": "Southern Sierra", "ASSOCIATION": "USA - CA", "POINTS": "10", "BONUSPOINTS": "3"}}, {"type": "Feature", "geometry": {"type": "Point", "coordinates": [-118.5643, 37.0774]}, "properties": {"NAME": "W6/SS-114", "TITLE": "Giraud Peak", "REGION": "Southern Sierra", "ASSOCIATION": "USA - CA", "POINTS": "10", "BONUSPOINTS": "3"}}, {"type": "Feature", "geometry": {"type": "Point", "coordinates": [-118.7382, 37.0793]}, "properties": {"NAME": "W6/SS-115", "TITLE": "Mount Reinstein", "REGION": "Southern Sierra", "ASSOCIATION": "USA - CA", "POINTS": "10", "BONUSPOINTS": "3"}}, {"type": "Feature", "geometry": {"type": "Point", "coordinates": [-118.8149, 37.3383]}, "properties": {"NAME": "W6/SS-116", "TITLE": "12580", "REGION": "Southern Sierra", "ASSOCIATION": "USA - CA", "POINTS": "10", "BONUSPOINTS": "3"}}, {"type": "Feature", "geometry": {"type": "Point", "coordinates": [-118.7987, 37.308]}, "properties": {"NAME": "W6/SS-117", "TITLE": "12580", "REGION": "Southern Sierra", "ASSOCIATION": "USA - CA", "POINTS": "10", "BONUSPOINTS": "3"}}, {"type": "Feature", "geometry": {"type": "Point", "coordinates": [-118.6257, 37.0861]}, "properties": {"NAME": "W6/SS-118", "TITLE": "12580", "REGION": "Southern Sierra", "ASSOCIATION": "USA - CA", "POINTS": "10", "BONUSPOINTS": "3"}}, {"type": "Feature", "geometry": {"type": "Point", "coordinates": [-118.4262, 36.7978]}, "properties": {"NAME": "W6/SS-119", "TITLE": "12565", "REGION": "Southern Sierra", "ASSOCIATION": "USA - CA", "POINTS": "10", "BONUSPOINTS": "3"}}, {"type": "Feature", "geometry": {"type": "Point", "coordinates": [-118.7573, 37.3291]}, "properties": {"NAME": "W6/SS-120", "TITLE": "Treasure Benchmark", "REGION": "Southern Sierra", "ASSOCIATION": "USA - CA", "POINTS": "10", "BONUSPOINTS": "3"}}, {"type": "Feature", "geometry": {"type": "Point", "coordinates": [-119.3159, 37.7399]}, "properties": {"NAME": "W6/SS-121", "TITLE": "Mount Florence", "REGION": "Southern Sierra", "ASSOCIATION": "USA - CA", "POINTS": "10", "BONUSPOINTS": "3"}}, {"type": "Feature", "geometry": {"type": "Point", "coordinates": [-118.9069, 37.5606]}, "properties": {"NAME": "W6/SS-122", "TITLE": "Bloody Mountain", "REGION": "Southern Sierra", "ASSOCIATION": "USA - CA", "POINTS": "10", "BONUSPOINTS": "3"}}, {"type": "Feature", "geometry": {"type": "Point", "coordinates": [-118.7637, 37.1653]}, "properties": {"NAME": "W6/SS-123", "TITLE": "Emerald Peak", "REGION": "Southern Sierra", "ASSOCIATION": "USA - CA", "POINTS": "10", "BONUSPOINTS": "3"}}, {"type": "Feature", "geometry": {"type": "Point", "coordinates": [-118.5371, 36.4545]}, "properties": {"NAME": "W6/SS-124", "TITLE": "Needham Mountain", "REGION": "Southern Sierra", "ASSOCIATION": "USA - CA", "POINTS": "10", "BONUSPOINTS": "3"}}, {"type": "Feature", "geometry": {"type": "Point", "coordinates": [-118.7794, 37.4896]}, "properties": {"NAME": "W6/SS-125", "TITLE": "Hilton Peak", "REGION": "Southern Sierra", "ASSOCIATION": "USA - CA", "POINTS": "10", "BONUSPOINTS": "3"}}, {"type": "Feature", "geometry": {"type": "Point", "coordinates": [-118.7641, 37.3321]}, "properties": {"NAME": "W6/SS-126", "TITLE": "Spire Peak", "REGION": "Southern Sierra", "ASSOCIATION": "USA - CA", "POINTS": "10", "BONUSPOINTS": "3"}}, {"type": "Feature", "geometry": {"type": "Point", "coordinates": [-118.8253, 37.483]}, "properties": {"NAME": "W6/SS-127", "TITLE": "Mount Crocker", "REGION": "Southern Sierra", "ASSOCIATION": "USA - CA", "POINTS": "10", "BONUSPOINTS": "3"}}, {"type": "Feature", "geometry": {"type": "Point", "coordinates": [-118.3667, 36.9073]}, "properties": {"NAME": "W6/SS-128", "TITLE": "Colosseum Mountain", "REGION": "Southern Sierra", "ASSOCIATION": "USA - CA", "POINTS": "10", "BONUSPOINTS": "3"}}, {"type": "Feature", "geometry": {"type": "Point", "coordinates": [-118.7387, 37.1222]}, "properties": {"NAME": "W6/SS-129", "TITLE": "12434", "REGION": "Southern Sierra", "ASSOCIATION": "USA - CA", "POINTS": "10", "BONUSPOINTS": "3"}}, {"type": "Feature", "geometry": {"type": "Point", "coordinates": [-118.5508, 36.406]}, "properties": {"NAME": "W6/SS-130", "TITLE": "Florence Peak", "REGION": "Southern Sierra", "ASSOCIATION": "USA - CA", "POINTS": "10", "BONUSPOINTS": "3"}}, {"type": "Feature", "geometry": {"type": "Point", "coordinates": [-118.6123, 37.038]}, "properties": {"NAME": "W6/SS-131", "TITLE": "Devils Crags", "REGION": "Southern Sierra", "ASSOCIATION": "USA - CA", "POINTS": "10", "BONUSPOINTS": "3"}}, {"type": "Feature", "geometry": {"type": "Point", "coordinates": [-118.3745, 36.7632]}, "properties": {"NAME": "W6/SS-132", "TITLE": "Snow Crown", "REGION": "Southern Sierra", "ASSOCIATION": "USA - CA", "POINTS": "10", "BONUSPOINTS": "3"}}, {"type": "Feature", "geometry": {"type": "Point", "coordinates": [-118.7303, 37.0299]}, "properties": {"NAME": "W6/SS-133", "TITLE": "Finger Peak", "REGION": "Southern Sierra", "ASSOCIATION": "USA - CA", "POINTS": "10", "BONUSPOINTS": "3"}}, {"type": "Feature", "geometry": {"type": "Point", "coordinates": [-118.7772, 37.4697]}, "properties": {"NAME": "W6/SS-134", "TITLE": "Mount Huntington", "REGION": "Southern Sierra", "ASSOCIATION": "USA - CA", "POINTS": "10", "BONUSPOINTS": "3"}}, {"type": "Feature", "geometry": {"type": "Point", "coordinates": [-118.5419, 36.5824]}, "properties": {"NAME": "W6/SS-135", "TITLE": "Lion Rock", "REGION": "Southern Sierra", "ASSOCIATION": "USA - CA", "POINTS": "10", "BONUSPOINTS": "3"}}, {"type": "Feature", "geometry": {"type": "Point", "coordinates": [-118.5587, 36.6177]}, "properties": {"NAME": "W6/SS-136", "TITLE": "Glacier Ridge", "REGION": "Southern Sierra", "ASSOCIATION": "USA - CA", "POINTS": "10", "BONUSPOINTS": "3"}}, {"type": "Feature", "geometry": {"type": "Point", "coordinates": [-118.3874, 36.9039]}, "properties": {"NAME": "W6/SS-137", "TITLE": "Mount Cedric Wright", "REGION": "Southern Sierra", "ASSOCIATION": "USA - CA", "POINTS": "10", "BONUSPOINTS": "3"}}, {"type": "Feature", "geometry": {"type": "Point", "coordinates": [-118.517, 36.3804]}, "properties": {"NAME": "W6/SS-138", "TITLE": "12362", "REGION": "Southern Sierra", "ASSOCIATION": "USA - CA", "POINTS": "10", "BONUSPOINTS": "3"}}, {"type": "Feature", "geometry": {"type": "Point", "coordinates": [-118.5236, 37.0232]}, "properties": {"NAME": "W6/SS-139", "TITLE": "Observation Peak", "REGION": "Southern Sierra", "ASSOCIATION": "USA - CA", "POINTS": "10", "BONUSPOINTS": "3"}}, {"type": "Feature", "geometry": {"type": "Point", "coordinates": [-118.8949, 37.2924]}, "properties": {"NAME": "W6/SS-140", "TITLE": "Mount Hooper", "REGION": "Southern Sierra", "ASSOCIATION": "USA - CA", "POINTS": "10", "BONUSPOINTS": "3"}}, {"type": "Feature", "geometry": {"type": "Point", "coordinates": [-118.5529, 36.598]}, "properties": {"NAME": "W6/SS-141", "TITLE": "12345", "REGION": "Southern Sierra", "ASSOCIATION": "USA - CA", "POINTS": "10", "BONUSPOINTS": "3"}}, {"type": "Feature", "geometry": {"type": "Point", "coordinates": [-118.5552, 36.4554]}, "properties": {"NAME": "W6/SS-142", "TITLE": "Sawtooth Peak", "REGION": "Southern Sierra", "ASSOCIATION": "USA - CA", "POINTS": "10", "BONUSPOINTS": "3"}}, {"type": "Feature", "geometry": {"type": "Point", "coordinates": [-118.7138, 37.1563]}, "properties": {"NAME": "W6/SS-143", "TITLE": "12342", "REGION": "Southern Sierra", "ASSOCIATION": "USA - CA", "POINTS": "10", "BONUSPOINTS": "3"}}, {"type": "Feature", "geometry": {"type": "Point", "coordinates": [-118.9162, 37.5232]}, "properties": {"NAME": "W6/SS-144", "TITLE": "12342", "REGION": "Southern Sierra", "ASSOCIATION": "USA - CA", "POINTS": "10", "BONUSPOINTS": "3"}}, {"type": "Feature", "geometry": {"type": "Point", "coordinates": [-118.5181, 36.9983]}, "properties": {"NAME": "W6/SS-145", "TITLE": "12340", "REGION": "Southern Sierra", "ASSOCIATION": "USA - CA", "POINTS": "10", "BONUSPOINTS": "3"}}, {"type": "Feature", "geometry": {"type": "Point", "coordinates": [-119.1894, 37.8427]}, "properties": {"NAME": "W6/SS-146", "TITLE": "Mount Lewis", "REGION": "Southern Sierra", "ASSOCIATION": "USA - CA", "POINTS": "10", "BONUSPOINTS": "3"}}, {"type": "Feature", "geometry": {"type": "Point", "coordinates": [-118.5482, 36.3932]}, "properties": {"NAME": "W6/SS-147", "TITLE": "12323", "REGION": "Southern Sierra", "ASSOCIATION": "USA - CA", "POINTS": "10", "BONUSPOINTS": "3"}}, {"type": "Feature", "geometry": {"type": "Point", "coordinates": [-119.2195, 37.7149]}, "properties": {"NAME": "W6/SS-148", "TITLE": "Mount Davis", "REGION": "Southern Sierra", "ASSOCIATION": "USA - CA", "POINTS": "10", "BONUSPOINTS": "3"}}, {"type": "Feature", "geometry": {"type": "Point", "coordinates": [-118.3618, 36.5101]}, "properties": {"NAME": "W6/SS-149", "TITLE": "Mount Guyot", "REGION": "Southern Sierra", "ASSOCIATION": "USA - CA", "POINTS": "10", "BONUSPOINTS": "3"}}, {"type": "Feature", "geometry": {"type": "Point", "coordinates": [-118.8585, 37.2777]}, "properties": {"NAME": "W6/SS-150", "TITLE": "Mount Senger", "REGION": "Southern Sierra", "ASSOCIATION": "USA - CA", "POINTS": "10", "BONUSPOINTS": "3"}}, {"type": "Feature", "geometry": {"type": "Point", "coordinates": [-118.5629, 36.5214]}, "properties": {"NAME": "W6/SS-151", "TITLE": "Lippincott Mountain", "REGION": "Southern Sierra", "ASSOCIATION": "USA - CA", "POINTS": "10", "BONUSPOINTS": "3"}}, {"type": "Feature", "geometry": {"type": "Point", "coordinates": [-119.1739, 37.6604]}, "properties": {"NAME": "W6/SS-152", "TITLE": "Clyde Minaret", "REGION": "Southern Sierra", "ASSOCIATION": "USA - CA", "POINTS": "10", "BONUSPOINTS": "3"}}, {"type": "Feature", "geometry": {"type": "Point", "coordinates": [-118.7669, 37.1072]}, "properties": {"NAME": "W6/SS-153", "TITLE": "12220", "REGION": "Southern Sierra", "ASSOCIATION": "USA - CA", "POINTS": "10", "BONUSPOINTS": "3"}}, {"type": "Feature", "geometry": {"type": "Point", "coordinates": [-118.7079, 37.1308]}, "properties": {"NAME": "W6/SS-154", "TITLE": "12262", "REGION": "Southern Sierra", "ASSOCIATION": "USA - CA", "POINTS": "10", "BONUSPOINTS": "3"}}, {"type": "Feature", "geometry": {"type": "Point", "coordinates": [-118.556, 36.6465]}, "properties": {"NAME": "W6/SS-155", "TITLE": "12260", "REGION": "Southern Sierra", "ASSOCIATION": "USA - CA", "POINTS": "10", "BONUSPOINTS": "3"}}, {"type": "Feature", "geometry": {"type": "Point", "coordinates": [-118.7571, 37.2733]}, "properties": {"NAME": "W6/SS-156", "TITLE": "Pilot Knob", "REGION": "Southern Sierra", "ASSOCIATION": "USA - CA", "POINTS": "10", "BONUSPOINTS": "3"}}, {"type": "Feature", "geometry": {"type": "Point", "coordinates": [-119.2201, 37.7796]}, "properties": {"NAME": "W6/SS-157", "TITLE": "Mount Andrea Lawrence", "REGION": "Southern Sierra", "ASSOCIATION": "USA - CA", "POINTS": "10", "BONUSPOINTS": "3"}}, {"type": "Feature", "geometry": {"type": "Point", "coordinates": [-118.7033, 37.1522]}, "properties": {"NAME": "W6/SS-158", "TITLE": "12245", "REGION": "Southern Sierra", "ASSOCIATION": "USA - CA", "POINTS": "10", "BONUSPOINTS": "3"}}, {"type": "Feature", "geometry": {"type": "Point", "coordinates": [-118.8679, 37.4757]}, "properties": {"NAME": "W6/SS-159", "TITLE": "12238", "REGION": "Southern Sierra", "ASSOCIATION": "USA - CA", "POINTS": "10", "BONUSPOINTS": "3"}}, {"type": "Feature", "geometry": {"type": "Point", "coordinates": [-118.9094, 37.4657]}, "properties": {"NAME": "W6/SS-160", "TITLE": "Evon Benchmark", "REGION": "Southern Sierra", "ASSOCIATION": "USA - CA", "POINTS": "10", "BONUSPOINTS": "3"}}, {"type": "Feature", "geometry": {"type": "Point", "coordinates": [-118.5636, 36.5297]}, "properties": {"NAME": "W6/SS-161", "TITLE": "12220", "REGION": "Southern Sierra", "ASSOCIATION": "USA - CA", "POINTS": "10", "BONUSPOINTS": "3"}}, {"type": "Feature", "geometry": {"type": "Point", "coordinates": [-118.5743, 36.8695]}, "properties": {"NAME": "W6/SS-162", "TITLE": "Goat Mountain", "REGION": "Southern Sierra", "ASSOCIATION": "USA - CA", "POINTS": "10", "BONUSPOINTS": "3"}}, {"type": "Feature", "geometry": {"type": "Point", "coordinates": [-118.8273, 37.1834]}, "properties": {"NAME": "W6/SS-163", "TITLE": "Mount Henry", "REGION": "Southern Sierra", "ASSOCIATION": "USA - CA", "POINTS": "10", "BONUSPOINTS": "3"}}, {"type": "Feature", "geometry": {"type": "Point", "coordinates": [-118.7691, 37.0983]}, "properties": {"NAME": "W6/SS-164", "TITLE": "12180", "REGION": "Southern Sierra", "ASSOCIATION": "USA - CA", "POINTS": "10", "BONUSPOINTS": "3"}}, {"type": "Feature", "geometry": {"type": "Point", "coordinates": [-118.5684, 36.4982]}, "properties": {"NAME": "W6/SS-165", "TITLE": "Mount Eisen", "REGION": "Southern Sierra", "ASSOCIATION": "USA - CA", "POINTS": "10", "BONUSPOINTS": "3"}}, {"type": "Feature", "geometry": {"type": "Point", "coordinates": [-118.5324, 37.0367]}, "properties": {"NAME": "W6/SS-166", "TITLE": "Mount Shakspere", "REGION": "Southern Sierra", "ASSOCIATION": "USA - CA", "POINTS": "10", "BONUSPOINTS": "3"}}, {"type": "Feature", "geometry": {"type": "Point", "coordinates": [-118.8426, 37.448]}, "properties": {"NAME": "W6/SS-167", "TITLE": "12171", "REGION": "Southern Sierra", "ASSOCIATION": "USA - CA", "POINTS": "10", "BONUSPOINTS": "3"}}, {"type": "Feature", "geometry": {"type": "Point", "coordinates": [-119.3077, 37.7768]}, "properties": {"NAME": "W6/SS-168", "TITLE": "Parsons Peak", "REGION": "Southern Sierra", "ASSOCIATION": "USA - CA", "POINTS": "10", "BONUSPOINTS": "3"}}, {"type": "Feature", "geometry": {"type": "Point", "coordinates": [-118.8998, 37.3152]}, "properties": {"NAME": "W6/SS-169", "TITLE": "12142", "REGION": "Southern Sierra", "ASSOCIATION": "USA - CA", "POINTS": "10", "BONUSPOINTS": "3"}}, {"type": "Feature", "geometry": {"type": "Point", "coordinates": [-118.8208, 37.1693]}, "properties": {"NAME": "W6/SS-170", "TITLE": "12140", "REGION": "Southern Sierra", "ASSOCIATION": "USA - CA", "POINTS": "10", "BONUSPOINTS": "3"}}, {"type": "Feature", "geometry": {"type": "Point", "coordinates": [-118.5009, 36.4254]}, "properties": {"NAME": "W6/SS-171", "TITLE": "12100", "REGION": "Southern Sierra", "ASSOCIATION": "USA - CA", "POINTS": "10", "BONUSPOINTS": "3"}}, {"type": "Feature", "geometry": {"type": "Point", "coordinates": [-119.2926, 37.7196]}, "properties": {"NAME": "W6/SS-172", "TITLE": "12113", "REGION": "Southern Sierra", "ASSOCIATION": "USA - CA", "POINTS": "10", "BONUSPOINTS": "3"}}, {"type": "Feature", "geometry": {"type": "Point", "coordinates": [-118.5592, 36.4358]}, "properties": {"NAME": "W6/SS-173", "TITLE": "12109", "REGION": "Southern Sierra", "ASSOCIATION": "USA - CA", "POINTS": "10", "BONUSPOINTS": "3"}}, {"type": "Feature", "geometry": {"type": "Point", "coordinates": [-118.7134, 37.0165]}, "properties": {"NAME": "W6/SS-174", "TITLE": "12096", "REGION": "Southern Sierra", "ASSOCIATION": "USA - CA", "POINTS": "10", "BONUSPOINTS": "3"}}, {"type": "Feature", "geometry": {"type": "Point", "coordinates": [-118.9414, 37.5587]}, "properties": {"NAME": "W6/SS-175", "TITLE": "12076", "REGION": "Southern Sierra", "ASSOCIATION": "USA - CA", "POINTS": "10", "BONUSPOINTS": "3"}}, {"type": "Feature", "geometry": {"type": "Point", "coordinates": [-118.35, 36.4745]}, "properties": {"NAME": "W6/SS-176", "TITLE": "Mount Anna Mills", "REGION": "Southern Sierra", "ASSOCIATION": "USA - CA", "POINTS": "10", "BONUSPOINTS": "3"}}, {"type": "Feature", "geometry": {"type": "Point", "coordinates": [-118.5413, 37.005]}, "properties": {"NAME": "W6/SS-177", "TITLE": "11988", "REGION": "Southern Sierra", "ASSOCIATION": "USA - CA", "POINTS": "10", "BONUSPOINTS": "3"}}, {"type": "Feature", "geometry": {"type": "Point", "coordinates": [-118.6899, 37.0216]}, "properties": {"NAME": "W6/SS-178", "TITLE": "Black Crown", "REGION": "Southern Sierra", "ASSOCIATION": "USA - CA", "POINTS": "10", "BONUSPOINTS": "3"}}, {"type": "Feature", "geometry": {"type": "Point", "coordinates": [-118.9162, 37.5502]}, "properties": {"NAME": "W6/SS-179", "TITLE": "11981", "REGION": "Southern Sierra", "ASSOCIATION": "USA - CA", "POINTS": "10", "BONUSPOINTS": "3"}}, {"type": "Feature", "geometry": {"type": "Point", "coordinates": [-118.5811, 36.3983]}, "properties": {"NAME": "W6/SS-180", "TITLE": "Vandever Mountain", "REGION": "Southern Sierra", "ASSOCIATION": "USA - CA", "POINTS": "10", "BONUSPOINTS": "3"}}, {"type": "Feature", "geometry": {"type": "Point", "coordinates": [-118.5242, 36.474]}, "properties": {"NAME": "W6/SS-181", "TITLE": "11900", "REGION": "Southern Sierra", "ASSOCIATION": "USA - CA", "POINTS": "10", "BONUSPOINTS": "3"}}, {"type": "Feature", "geometry": {"type": "Point", "coordinates": [-118.4672, 36.3926]}, "properties": {"NAME": "W6/SS-182", "TITLE": "11896", "REGION": "Southern Sierra", "ASSOCIATION": "USA - CA", "POINTS": "10", "BONUSPOINTS": "3"}}, {"type": "Feature", "geometry": {"type": "Point", "coordinates": [-118.6883, 36.9955]}, "properties": {"NAME": "W6/SS-183", "TITLE": "Tunemah Peak", "REGION": "Southern Sierra", "ASSOCIATION": "USA - CA", "POINTS": "10", "BONUSPOINTS": "3"}}, {"type": "Feature", "geometry": {"type": "Point", "coordinates": [-119.0212, 37.4696]}, "properties": {"NAME": "W6/SS-184", "TITLE": "Silver Peak", "REGION": "Southern Sierra", "ASSOCIATION": "USA - CA", "POINTS": "10", "BONUSPOINTS": "3"}}, {"type": "Feature", "geometry": {"type": "Point", "coordinates": [-118.4379, 36.7701]}, "properties": {"NAME": "W6/SS-185", "TITLE": "Mount Bago", "REGION": "Southern Sierra", "ASSOCIATION": "USA - CA", "POINTS": "10", "BONUSPOINTS": "3"}}, {"type": "Feature", "geometry": {"type": "Point", "coordinates": [-118.8913, 37.5803]}, "properties": {"NAME": "W6/SS-186", "TITLE": "Laurel Mountain", "REGION": "Southern Sierra", "ASSOCIATION": "USA - CA", "POINTS": "10", "BONUSPOINTS": "3"}}, {"type": "Feature", "geometry": {"type": "Point", "coordinates": [-118.8725, 37.4529]}, "properties": {"NAME": "W6/SS-187", "TITLE": "11771", "REGION": "Southern Sierra", "ASSOCIATION": "USA - CA", "POINTS": "10", "BONUSPOINTS": "3"}}, {"type": "Feature", "geometry": {"type": "Point", "coordinates": [-118.6846, 37.5027]}, "properties": {"NAME": "W6/SS-188", "TITLE": "Wheeler Crest", "REGION": "Southern Sierra", "ASSOCIATION": "USA - CA", "POINTS": "10", "BONUSPOINTS": "3"}}, {"type": "Feature", "geometry": {"type": "Point", "coordinates": [-119.3945, 37.6351]}, "properties": {"NAME": "W6/SS-189", "TITLE": "Merced Peak", "REGION": "Southern Sierra", "ASSOCIATION": "USA - CA", "POINTS": "10", "BONUSPOINTS": "3"}}, {"type": "Feature", "geometry": {"type": "Point", "coordinates": [-118.5315, 36.6303]}, "properties": {"NAME": "W6/SS-190", "TITLE": "Whaleback", "REGION": "Southern Sierra", "ASSOCIATION": "USA - CA", "POINTS": "10", "BONUSPOINTS": "3"}}, {"type": "Feature", "geometry": {"type": "Point", "coordinates": [-118.9774, 37.5547]}, "properties": {"NAME": "W6/SS-191", "TITLE": "11712", "REGION": "Southern Sierra", "ASSOCIATION": "USA - CA", "POINTS": "10", "BONUSPOINTS": "3"}}, {"type": "Feature", "geometry": {"type": "Point", "coordinates": [-119.4092, 37.6538]}, "properties": {"NAME": "W6/SS-192", "TITLE": "Red Peak", "REGION": "Southern Sierra", "ASSOCIATION": "USA - CA", "POINTS": "10", "BONUSPOINTS": "3"}}, {"type": "Feature", "geometry": {"type": "Point", "coordinates": [-119.1861, 37.6701]}, "properties": {"NAME": "W6/SS-193", "TITLE": "Waller Minaret", "REGION": "Southern Sierra", "ASSOCIATION": "USA - CA", "POINTS": "10", "BONUSPOINTS": "3"}}, {"type": "Feature", "geometry": {"type": "Point", "coordinates": [-118.1903, 36.4275]}, "properties": {"NAME": "W6/SS-194", "TITLE": "Trail Peak", "REGION": "Southern Sierra", "ASSOCIATION": "USA - CA", "POINTS": "10", "BONUSPOINTS": "3"}}, {"type": "Feature", "geometry": {"type": "Point", "coordinates": [-118.6041, 36.6126]}, "properties": {"NAME": "W6/SS-195", "TITLE": "Big Bird Peak", "REGION": "Southern Sierra", "ASSOCIATION": "USA - CA", "POINTS": "10", "BONUSPOINTS": "3"}}, {"type": "Feature", "geometry": {"type": "Point", "coordinates": [-118.6293, 36.8537]}, "properties": {"NAME": "W6/SS-196", "TITLE": "Comb Spur", "REGION": "Southern Sierra", "ASSOCIATION": "USA - CA", "POINTS": "10", "BONUSPOINTS": "3"}}, {"type": "Feature", "geometry": {"type": "Point", "coordinates": [-119.3702, 37.6317]}, "properties": {"NAME": "W6/SS-197", "TITLE": "Triple Divide Peak", "REGION": "Southern Sierra", "ASSOCIATION": "USA - CA", "POINTS": "10", "BONUSPOINTS": "3"}}, {"type": "Feature", "geometry": {"type": "Point", "coordinates": [-119.1057, 37.7187]}, "properties": {"NAME": "W6/SS-198", "TITLE": "San Joaquin Mountain", "REGION": "Southern Sierra", "ASSOCIATION": "USA - CA", "POINTS": "10", "BONUSPOINTS": "3"}}, {"type": "Feature", "geometry": {"type": "Point", "coordinates": [-119.4185, 37.6736]}, "properties": {"NAME": "W6/SS-199", "TITLE": "Gray Peak", "REGION": "Southern Sierra", "ASSOCIATION": "USA - CA", "POINTS": "10", "BONUSPOINTS": "3"}}, {"type": "Feature", "geometry": {"type": "Point", "coordinates": [-118.3036, 36.4546]}, "properties": {"NAME": "W6/SS-200", "TITLE": "11557", "REGION": "Southern Sierra", "ASSOCIATION": "USA - CA", "POINTS": "10", "BONUSPOINTS": "3"}}, {"type": "Feature", "geometry": {"type": "Point", "coordinates": [-119.4285, 37.6963]}, "properties": {"NAME": "W6/SS-201", "TITLE": "Mount Clark", "REGION": "Southern Sierra", "ASSOCIATION": "USA - CA", "POINTS": "10", "BONUSPOINTS": "3"}}, {"type": "Feature", "geometry": {"type": "Point", "coordinates": [-118.9323, 37.4522]}, "properties": {"NAME": "W6/SS-202", "TITLE": "11515", "REGION": "Southern Sierra", "ASSOCIATION": "USA - CA", "POINTS": "10", "BONUSPOINTS": "3"}}, {"type": "Feature", "geometry": {"type": "Point", "coordinates": [-118.7586, 37.0168]}, "properties": {"NAME": "W6/SS-203", "TITLE": "Kettle Ridge", "REGION": "Southern Sierra", "ASSOCIATION": "USA - CA", "POINTS": "10", "BONUSPOINTS": "3"}}, {"type": "Feature", "geometry": {"type": "Point", "coordinates": [-119.3496, 37.7772]}, "properties": {"NAME": "W6/SS-204", "TITLE": "Vogelsang Peak", "REGION": "Southern Sierra", "ASSOCIATION": "USA - CA", "POINTS": "10", "BONUSPOINTS": "3"}}, {"type": "Feature", "geometry": {"type": "Point", "coordinates": [-119.1604, 37.6713]}, "properties": {"NAME": "W6/SS-205", "TITLE": "West Volcanic Ridge", "REGION": "Southern Sierra", "ASSOCIATION": "USA - CA", "POINTS": "10", "BONUSPOINTS": "3"}}, {"type": "Feature", "geometry": {"type": "Point", "coordinates": [-119.0132, 37.4937]}, "properties": {"NAME": "W6/SS-206", "TITLE": "11482", "REGION": "Southern Sierra", "ASSOCIATION": "USA - CA", "POINTS": "10", "BONUSPOINTS": "3"}}, {"type": "Feature", "geometry": {"type": "Point", "coordinates": [-118.7349, 37.5227]}, "properties": {"NAME": "W6/SS-207", "TITLE": "Red Mountain", "REGION": "Southern Sierra", "ASSOCIATION": "USA - CA", "POINTS": "10", "BONUSPOINTS": "3"}}, {"type": "Feature", "geometry": {"type": "Point", "coordinates": [-118.9279, 37.5796]}, "properties": {"NAME": "W6/SS-208", "TITLE": "11446", "REGION": "Southern Sierra", "ASSOCIATION": "USA - CA", "POINTS": "10", "BONUSPOINTS": "3"}}, {"type": "Feature", "geometry": {"type": "Point", "coordinates": [-118.6682, 36.8791]}, "properties": {"NAME": "W6/SS-209", "TITLE": "Kennedy Mountain", "REGION": "Southern Sierra", "ASSOCIATION": "USA - CA", "POINTS": "10", "BONUSPOINTS": "3"}}, {"type": "Feature", "geometry": {"type": "Point", "coordinates": [-118.3335, 36.4198]}, "properties": {"NAME": "W6/SS-210", "TITLE": "Johnson Peak", "REGION": "Southern Sierra", "ASSOCIATION": "USA - CA", "POINTS": "10", "BONUSPOINTS": "3"}}, {"type": "Feature", "geometry": {"type": "Point", "coordinates": [-119.3639, 37.802]}, "properties": {"NAME": "W6/SS-211", "TITLE": "11357", "REGION": "Southern Sierra", "ASSOCIATION": "USA - CA", "POINTS": "10", "BONUSPOINTS": "3"}}, {"type": "Feature", "geometry": {"type": "Point", "coordinates": [-118.6535, 36.5981]}, "properties": {"NAME": "W6/SS-212", "TITLE": "Winter Alta", "REGION": "Southern Sierra", "ASSOCIATION": "USA - CA", "POINTS": "10", "BONUSPOINTS": "3"}}, {"type": "Feature", "geometry": {"type": "Point", "coordinates": [-118.1176, 36.2513]}, "properties": {"NAME": "W6/SS-213", "TITLE": "11340", "REGION": "Southern Sierra", "ASSOCIATION": "USA - CA", "POINTS": "10", "BONUSPOINTS": "3"}}, {"type": "Feature", "geometry": {"type": "Point", "coordinates": [-118.5549, 37.0321]}, "properties": {"NAME": "W6/SS-214", "TITLE": "11291", "REGION": "Southern Sierra", "ASSOCIATION": "USA - CA", "POINTS": "10", "BONUSPOINTS": "3"}}, {"type": "Feature", "geometry": {"type": "Point", "coordinates": [-118.5692, 36.748]}, "properties": {"NAME": "W6/SS-215", "TITLE": "Palmer Mountain", "REGION": "Southern Sierra", "ASSOCIATION": "USA - CA", "POINTS": "10", "BONUSPOINTS": "3"}}, {"type": "Feature", "geometry": {"type": "Point", "coordinates": [-119.1449, 37.6783]}, "properties": {"NAME": "W6/SS-216", "TITLE": "East Volcanic Ridge", "REGION": "Southern Sierra", "ASSOCIATION": "USA - CA", "POINTS": "10", "BONUSPOINTS": "3"}}, {"type": "Feature", "geometry": {"type": "Point", "coordinates": [-118.6971, 36.6436]}, "properties": {"NAME": "W6/SS-217", "TITLE": "Mount Silliman", "REGION": "Southern Sierra", "ASSOCIATION": "USA - CA", "POINTS": "10", "BONUSPOINTS": "3"}}, {"type": "Feature", "geometry": {"type": "Point", "coordinates": [-118.4327, 37.2077]}, "properties": {"NAME": "W6/SS-218", "TITLE": "Round Mountain", "REGION": "Southern Sierra", "ASSOCIATION": "USA - CA", "POINTS": "10", "BONUSPOINTS": "3"}}, {"type": "Feature", "geometry": {"type": "Point", "coordinates": [-119.396, 37.835]}, "properties": {"NAME": "W6/SS-219", "TITLE": "Echo Ridge", "REGION": "Southern Sierra", "ASSOCIATION": "USA - CA", "POINTS": "10", "BONUSPOINTS": "3"}}, {"type": "Feature", "geometry": {"type": "Point", "coordinates": [-118.9436, 37.5175]}, "properties": {"NAME": "W6/SS-220", "TITLE": "Virginia Pass Crag", "REGION": "Southern Sierra", "ASSOCIATION": "USA - CA", "POINTS": "10", "BONUSPOINTS": "3"}}, {"type": "Feature", "geometry": {"type": "Point", "coordinates": [-119.1644, 37.6116]}, "properties": {"NAME": "W6/SS-221", "TITLE": "Iron Mountain", "REGION": "Southern Sierra", "ASSOCIATION": "USA - CA", "POINTS": "10", "BONUSPOINTS": "3"}}, {"type": "Feature", "geometry": {"type": "Point", "coordinates": [-118.8569, 37.1838]}, "properties": {"NAME": "W6/SS-222", "TITLE": "Zingheim Heights", "REGION": "Southern Sierra", "ASSOCIATION": "USA - CA", "POINTS": "10", "BONUSPOINTS": "3"}}, {"type": "Feature", "geometry": {"type": "Point", "coordinates": [-119.3605, 37.8271]}, "properties": {"NAME": "W6/SS-223", "TITLE": "11105", "REGION": "Southern Sierra", "ASSOCIATION": "USA - CA", "POINTS": "10", "BONUSPOINTS": "3"}}, {"type": "Feature", "geometry": {"type": "Point", "coordinates": [-118.1291, 36.4436]}, "properties": {"NAME": "W6/SS-224", "TITLE": "11100", "REGION": "Southern Sierra", "ASSOCIATION": "USA - CA", "POINTS": "10", "BONUSPOINTS": "3"}}, {"type": "Feature", "geometry": {"type": "Point", "coordinates": [-119.1927, 37.6368]}, "properties": {"NAME": "W6/SS-225", "TITLE": "Mount Bartholomew", "REGION": "Southern Sierra", "ASSOCIATION": "USA - CA", "POINTS": "10", "BONUSPOINTS": "3"}}, {"type": "Feature", "geometry": {"type": "Point", "coordinates": [-118.4359, 37.1843]}, "properties": {"NAME": "W6/SS-226", "TITLE": "Sugarloaf", "REGION": "Southern Sierra", "ASSOCIATION": "USA - CA", "POINTS": "10", "BONUSPOINTS": "3"}}, {"type": "Feature", "geometry": {"type": "Point", "coordinates": [-118.1253, 36.4004]}, "properties": {"NAME": "W6/SS-227", "TITLE": "Muah Mountain", "REGION": "Southern Sierra", "ASSOCIATION": "USA - CA", "POINTS": "10", "BONUSPOINTS": "3"}}, {"type": "Feature", "geometry": {"type": "Point", "coordinates": [-118.8101, 37.0243]}, "properties": {"NAME": "W6/SS-228", "TITLE": "10980", "REGION": "Southern Sierra", "ASSOCIATION": "USA - CA", "POINTS": "8", "BONUSPOINTS": "3"}}, {"type": "Feature", "geometry": {"type": "Point", "coordinates": [-118.9193, 37.2122]}, "properties": {"NAME": "W6/SS-229", "TITLE": "Mount Shinn", "REGION": "Southern Sierra", "ASSOCIATION": "USA - CA", "POINTS": "8", "BONUSPOINTS": "3"}}, {"type": "Feature", "geometry": {"type": "Point", "coordinates": [-119.4057, 37.8477]}, "properties": {"NAME": "W6/SS-230", "TITLE": "Cathedral Peak", "REGION": "Southern Sierra", "ASSOCIATION": "USA - CA", "POINTS": "8", "BONUSPOINTS": "3"}}, {"type": "Feature", "geometry": {"type": "Point", "coordinates": [-118.4564, 36.3004]}, "properties": {"NAME": "W6/SS-231", "TITLE": "10900", "REGION": "Southern Sierra", "ASSOCIATION": "USA - CA", "POINTS": "8", "BONUSPOINTS": "3"}}, {"type": "Feature", "geometry": {"type": "Point", "coordinates": [-118.142, 36.3728]}, "properties": {"NAME": "W6/SS-232", "TITLE": "10860", "REGION": "Southern Sierra", "ASSOCIATION": "USA - CA", "POINTS": "8", "BONUSPOINTS": "3"}}, {"type": "Feature", "geometry": {"type": "Point", "coordinates": [-118.6011, 36.833]}, "properties": {"NAME": "W6/SS-233", "TITLE": "Mount Hutchings", "REGION": "Southern Sierra", "ASSOCIATION": "USA - CA", "POINTS": "8", "BONUSPOINTS": "3"}}, {"type": "Feature", "geometry": {"type": "Point", "coordinates": [-118.5116, 36.8333]}, "properties": {"NAME": "W6/SS-234", "TITLE": "10782", "REGION": "Southern Sierra", "ASSOCIATION": "USA - CA", "POINTS": "8", "BONUSPOINTS": "3"}}, {"type": "Feature", "geometry": {"type": "Point", "coordinates": [-119.3872, 37.5681]}, "properties": {"NAME": "W6/SS-235", "TITLE": "Gale Peak", "REGION": "Southern Sierra", "ASSOCIATION": "USA - CA", "POINTS": "8", "BONUSPOINTS": "3"}}, {"type": "Feature", "geometry": {"type": "Point", "coordinates": [-118.863, 36.9874]}, "properties": {"NAME": "W6/SS-236", "TITLE": "Castle Peak", "REGION": "Southern Sierra", "ASSOCIATION": "USA - CA", "POINTS": "8", "BONUSPOINTS": "3"}}, {"type": "Feature", "geometry": {"type": "Point", "coordinates": [-119.0553, 37.2789]}, "properties": {"NAME": "W6/SS-237", "TITLE": "Mount Givens", "REGION": "Southern Sierra", "ASSOCIATION": "USA - CA", "POINTS": "8", "BONUSPOINTS": "3"}}, {"type": "Feature", "geometry": {"type": "Point", "coordinates": [-118.8445, 37.0405]}, "properties": {"NAME": "W6/SS-238", "TITLE": "Scepter Benchmark", "REGION": "Southern Sierra", "ASSOCIATION": "USA - CA", "POINTS": "8", "BONUSPOINTS": "3"}}, {"type": "Feature", "geometry": {"type": "Point", "coordinates": [-119.4222, 37.8299]}, "properties": {"NAME": "W6/SS-239", "TITLE": "Tresidder Peak", "REGION": "Southern Sierra", "ASSOCIATION": "USA - CA", "POINTS": "8", "BONUSPOINTS": "3"}}, {"type": "Feature", "geometry": {"type": "Point", "coordinates": [-119.0609, 37.1411]}, "properties": {"NAME": "W6/SS-240", "TITLE": "East Three Sisters", "REGION": "Southern Sierra", "ASSOCIATION": "USA - CA", "POINTS": "8", "BONUSPOINTS": "3"}}, {"type": "Feature", "geometry": {"type": "Point", "coordinates": [-118.7285, 36.9724]}, "properties": {"NAME": "W6/SS-241", "TITLE": "Burnt Mountain", "REGION": "Southern Sierra", "ASSOCIATION": "USA - CA", "POINTS": "8", "BONUSPOINTS": "3"}}, {"type": "Feature", "geometry": {"type": "Point", "coordinates": [-119.3743, 37.5376]}, "properties": {"NAME": "W6/SS-242", "TITLE": "Madera Peak", "REGION": "Southern Sierra", "ASSOCIATION": "USA - CA", "POINTS": "8", "BONUSPOINTS": "3"}}, {"type": "Feature", "geometry": {"type": "Point", "coordinates": [-118.7149, 36.7322]}, "properties": {"NAME": "W6/SS-243", "TITLE": "Mitchell Peak", "REGION": "Southern Sierra", "ASSOCIATION": "USA - CA", "POINTS": "8", "BONUSPOINTS": "3"}}, {"type": "Feature", "geometry": {"type": "Point", "coordinates": [-119.0164, 37.0886]}, "properties": {"NAME": "W6/SS-244", "TITLE": "Eagle Peak", "REGION": "Southern Sierra", "ASSOCIATION": "USA - CA", "POINTS": "8", "BONUSPOINTS": "3"}}, {"type": "Feature", "geometry": {"type": "Point", "coordinates": [-119.1855, 37.2943]}, "properties": {"NAME": "W6/SS-245", "TITLE": "Kaiser Peak", "REGION": "Southern Sierra", "ASSOCIATION": "USA - CA", "POINTS": "8", "BONUSPOINTS": "3"}}, {"type": "Feature", "geometry": {"type": "Point", "coordinates": [-118.5926, 36.303]}, "properties": {"NAME": "W6/SS-246", "TITLE": "10278", "REGION": "Southern Sierra", "ASSOCIATION": "USA - CA", "POINTS": "8", "BONUSPOINTS": "3"}}, {"type": "Feature", "geometry": {"type": "Point", "coordinates": [-118.6379, 36.2768]}, "properties": {"NAME": "W6/SS-247", "TITLE": "North Maggie Mountain", "REGION": "Southern Sierra", "ASSOCIATION": "USA - CA", "POINTS": "8", "BONUSPOINTS": "3"}}, {"type": "Feature", "geometry": {"type": "Point", "coordinates": [-118.3725, 36.3343]}, "properties": {"NAME": "W6/SS-248", "TITLE": "Overlook Mountain", "REGION": "Southern Sierra", "ASSOCIATION": "USA - CA", "POINTS": "8", "BONUSPOINTS": "3"}}, {"type": "Feature", "geometry": {"type": "Point", "coordinates": [-118.2229, 36.3958]}, "properties": {"NAME": "W6/SS-249", "TITLE": "10137", "REGION": "Southern Sierra", "ASSOCIATION": "USA - CA", "POINTS": "8", "BONUSPOINTS": "3"}}, {"type": "Feature", "geometry": {"type": "Point", "coordinates": [-118.6142, 36.4695]}, "properties": {"NAME": "W6/SS-250", "TITLE": "10100", "REGION": "Southern Sierra", "ASSOCIATION": "USA - CA", "POINTS": "8", "BONUSPOINTS": "3"}}, {"type": "Feature", "geometry": {"type": "Point", "coordinates": [-118.8914, 36.9091]}, "properties": {"NAME": "W6/SS-251", "TITLE": "Spanish Mountain", "REGION": "Southern Sierra", "ASSOCIATION": "USA - CA", "POINTS": "8", "BONUSPOINTS": "3"}}, {"type": "Feature", "geometry": {"type": "Point", "coordinates": [-119.046, 37.7254]}, "properties": {"NAME": "W6/SS-252", "TITLE": "White Wing Mountain", "REGION": "Southern Sierra", "ASSOCIATION": "USA - CA", "POINTS": "8", "BONUSPOINTS": "3"}}, {"type": "Feature", "geometry": {"type": "Point", "coordinates": [-118.7333, 36.6736]}, "properties": {"NAME": "W6/SS-253", "TITLE": "Kettle Peak", "REGION": "Southern Sierra", "ASSOCIATION": "USA - CA", "POINTS": "8", "BONUSPOINTS": "3"}}, {"type": "Feature", "geometry": {"type": "Point", "coordinates": [-118.18, 36.259]}, "properties": {"NAME": "W6/SS-254", "TITLE": "Brown Mountain", "REGION": "Southern Sierra", "ASSOCIATION": "USA - CA", "POINTS": "8", "BONUSPOINTS": "3"}}, {"type": "Feature", "geometry": {"type": "Point", "coordinates": [-118.3316, 35.9315]}, "properties": {"NAME": "W6/SS-255", "TITLE": "9980", "REGION": "Southern Sierra", "ASSOCIATION": "USA - CA", "POINTS": "8", "BONUSPOINTS": "3"}}, {"type": "Feature", "geometry": {"type": "Point", "coordinates": [-118.2067, 36.3146]}, "properties": {"NAME": "W6/SS-256", "TITLE": "Templeton Mountain", "REGION": "Southern Sierra", "ASSOCIATION": "USA - CA", "POINTS": "8", "BONUSPOINTS": "3"}}, {"type": "Feature", "geometry": {"type": "Point", "coordinates": [-119.4893, 37.7677]}, "properties": {"NAME": "W6/SS-257", "TITLE": "Clouds Rest", "REGION": "Southern Sierra", "ASSOCIATION": "USA - CA", "POINTS": "8", "BONUSPOINTS": "3"}}, {"type": "Feature", "geometry": {"type": "Point", "coordinates": [-118.391, 36.0101]}, "properties": {"NAME": "W6/SS-258", "TITLE": "Sherman Peak", "REGION": "Southern Sierra", "ASSOCIATION": "USA - CA", "POINTS": "8", "BONUSPOINTS": "3"}}, {"type": "Feature", "geometry": {"type": "Point", "coordinates": [-118.6464, 36.4858]}, "properties": {"NAME": "W6/SS-259", "TITLE": "9904", "REGION": "Southern Sierra", "ASSOCIATION": "USA - CA", "POINTS": "8", "BONUSPOINTS": "3"}}, {"type": "Feature", "geometry": {"type": "Point", "coordinates": [-119.1148, 37.1965]}, "properties": {"NAME": "W6/SS-260", "TITLE": "Red Mountain", "REGION": "Southern Sierra", "ASSOCIATION": "USA - CA", "POINTS": "8", "BONUSPOINTS": "3"}}, {"type": "Feature", "geometry": {"type": "Point", "coordinates": [-119.457, 37.6108]}, "properties": {"NAME": "W6/SS-261", "TITLE": "Buena Vista Crest", "REGION": "Southern Sierra", "ASSOCIATION": "USA - CA", "POINTS": "8", "BONUSPOINTS": "3"}}, {"type": "Feature", "geometry": {"type": "Point", "coordinates": [-118.074, 36.1893]}, "properties": {"NAME": "W6/SS-262", "TITLE": "Round Mountain", "REGION": "Southern Sierra", "ASSOCIATION": "USA - CA", "POINTS": "8", "BONUSPOINTS": "3"}}, {"type": "Feature", "geometry": {"type": "Point", "coordinates": [-118.7613, 36.8485]}, "properties": {"NAME": "W6/SS-263", "TITLE": "Eagle Peaks (HP)", "REGION": "Southern Sierra", "ASSOCIATION": "USA - CA", "POINTS": "8", "BONUSPOINTS": "3"}}, {"type": "Feature", "geometry": {"type": "Point", "coordinates": [-119.1088, 37.4724]}, "properties": {"NAME": "W6/SS-264", "TITLE": "Pincushion Peak", "REGION": "Southern Sierra", "ASSOCIATION": "USA - CA", "POINTS": "8", "BONUSPOINTS": "3"}}, {"type": "Feature", "geometry": {"type": "Point", "coordinates": [-119.0508, 37.1818]}, "properties": {"NAME": "W6/SS-265", "TITLE": "Black Peak", "REGION": "Southern Sierra", "ASSOCIATION": "USA - CA", "POINTS": "8", "BONUSPOINTS": "3"}}, {"type": "Feature", "geometry": {"type": "Point", "coordinates": [-118.3755, 36.0577]}, "properties": {"NAME": "W6/SS-266", "TITLE": "Lookout Mountain", "REGION": "Southern Sierra", "ASSOCIATION": "USA - CA", "POINTS": "8", "BONUSPOINTS": "3"}}, {"type": "Feature", "geometry": {"type": "Point", "coordinates": [-119.4038, 37.8713]}, "properties": {"NAME": "W6/SS-267", "TITLE": "Fairview Dome", "REGION": "Southern Sierra", "ASSOCIATION": "USA - CA", "POINTS": "8", "BONUSPOINTS": "3"}}, {"type": "Feature", "geometry": {"type": "Point", "coordinates": [-118.9173, 37.1036]}, "properties": {"NAME": "W6/SS-268", "TITLE": "Corral Mountain", "REGION": "Southern Sierra", "ASSOCIATION": "USA - CA", "POINTS": "8", "BONUSPOINTS": "3"}}, {"type": "Feature", "geometry": {"type": "Point", "coordinates": [-119.1304, 37.2885]}, "properties": {"NAME": "W6/SS-269", "TITLE": "9691", "REGION": "Southern Sierra", "ASSOCIATION": "USA - CA", "POINTS": "8", "BONUSPOINTS": "3"}}, {"type": "Feature", "geometry": {"type": "Point", "coordinates": [-118.747, 36.7277]}, "properties": {"NAME": "W6/SS-270", "TITLE": "Mount Maddox", "REGION": "Southern Sierra", "ASSOCIATION": "USA - CA", "POINTS": "8", "BONUSPOINTS": "3"}}, {"type": "Feature", "geometry": {"type": "Point", "coordinates": [-119.2432, 37.2891]}, "properties": {"NAME": "W6/SS-271", "TITLE": "9658", "REGION": "Southern Sierra", "ASSOCIATION": "USA - CA", "POINTS": "8", "BONUSPOINTS": "3"}}, {"type": "Feature", "geometry": {"type": "Point", "coordinates": [-118.278, 36.1792]}, "properties": {"NAME": "W6/SS-272", "TITLE": "Blackrock Mountain", "REGION": "Southern Sierra", "ASSOCIATION": "USA - CA", "POINTS": "8", "BONUSPOINTS": "3"}}, {"type": "Feature", "geometry": {"type": "Point", "coordinates": [-118.9204, 36.9882]}, "properties": {"NAME": "W6/SS-273", "TITLE": "Hoffman Mountain", "REGION": "Southern Sierra", "ASSOCIATION": "USA - CA", "POINTS": "8", "BONUSPOINTS": "3"}}, {"type": "Feature", "geometry": {"type": "Point", "coordinates": [-118.2244, 36.1273]}, "properties": {"NAME": "W6/SS-274", "TITLE": "Smith Mountain", "REGION": "Southern Sierra", "ASSOCIATION": "USA - CA", "POINTS": "8", "BONUSPOINTS": "3"}}, {"type": "Feature", "geometry": {"type": "Point", "coordinates": [-118.1519, 36.1158]}, "properties": {"NAME": "W6/SS-275", "TITLE": "Crag Peak", "REGION": "Southern Sierra", "ASSOCIATION": "USA - CA", "POINTS": "8", "BONUSPOINTS": "3"}}, {"type": "Feature", "geometry": {"type": "Point", "coordinates": [-119.0993, 37.8046]}, "properties": {"NAME": "W6/SS-276", "TITLE": "Reversed Peak", "REGION": "Southern Sierra", "ASSOCIATION": "USA - CA", "POINTS": "8", "BONUSPOINTS": "3"}}, {"type": "Feature", "geometry": {"type": "Point", "coordinates": [-118.349, 36.0248]}, "properties": {"NAME": "W6/SS-277", "TITLE": "9470", "REGION": "Southern Sierra", "ASSOCIATION": "USA - CA", "POINTS": "8", "BONUSPOINTS": "3"}}, {"type": "Feature", "geometry": {"type": "Point", "coordinates": [-118.7857, 36.947]}, "properties": {"NAME": "W6/SS-278", "TITLE": "Kettle Dome", "REGION": "Southern Sierra", "ASSOCIATION": "USA - CA", "POINTS": "8", "BONUSPOINTS": "3"}}, {"type": "Feature", "geometry": {"type": "Point", "coordinates": [-118.7925, 36.8383]}, "properties": {"NAME": "W6/SS-279", "TITLE": "Wren Peak", "REGION": "Southern Sierra", "ASSOCIATION": "USA - CA", "POINTS": "8", "BONUSPOINTS": "3"}}, {"type": "Feature", "geometry": {"type": "Point", "coordinates": [-118.3216, 36.9167]}, "properties": {"NAME": "W6/SS-280", "TITLE": "Sawmill Point", "REGION": "Southern Sierra", "ASSOCIATION": "USA - CA", "POINTS": "8", "BONUSPOINTS": "3"}}, {"type": "Feature", "geometry": {"type": "Point", "coordinates": [-118.0681, 36.1096]}, "properties": {"NAME": "W6/SS-281", "TITLE": "9420", "REGION": "Southern Sierra", "ASSOCIATION": "USA - CA", "POINTS": "8", "BONUSPOINTS": "3"}}, {"type": "Feature", "geometry": {"type": "Point", "coordinates": [-118.1249, 36.149]}, "properties": {"NAME": "W6/SS-282", "TITLE": "Deer Mountain", "REGION": "Southern Sierra", "ASSOCIATION": "USA - CA", "POINTS": "8", "BONUSPOINTS": "3"}}, {"type": "Feature", "geometry": {"type": "Point", "coordinates": [-118.1964, 36.2054]}, "properties": {"NAME": "W6/SS-283", "TITLE": "Monache Mountain", "REGION": "Southern Sierra", "ASSOCIATION": "USA - CA", "POINTS": "8", "BONUSPOINTS": "3"}}, {"type": "Feature", "geometry": {"type": "Point", "coordinates": [-118.9999, 37.6661]}, "properties": {"NAME": "W6/SS-284", "TITLE": "Earthquake Dome", "REGION": "Southern Sierra", "ASSOCIATION": "USA - CA", "POINTS": "8", "BONUSPOINTS": "3"}}, {"type": "Feature", "geometry": {"type": "Point", "coordinates": [-118.2539, 36.0198]}, "properties": {"NAME": "W6/SS-285", "TITLE": "Bald Mountain", "REGION": "Southern Sierra", "ASSOCIATION": "USA - CA", "POINTS": "8", "BONUSPOINTS": "3"}}, {"type": "Feature", "geometry": {"type": "Point", "coordinates": [-118.6973, 36.4773]}, "properties": {"NAME": "W6/SS-286", "TITLE": "Paradise Peak", "REGION": "Southern Sierra", "ASSOCIATION": "USA - CA", "POINTS": "8", "BONUSPOINTS": "3"}}, {"type": "Feature", "geometry": {"type": "Point", "coordinates": [-118.3102, 36.1967]}, "properties": {"NAME": "W6/SS-287", "TITLE": "9348", "REGION": "Southern Sierra", "ASSOCIATION": "USA - CA", "POINTS": "8", "BONUSPOINTS": "3"}}, {"type": "Feature", "geometry": {"type": "Point", "coordinates": [-118.6809, 36.2786]}, "properties": {"NAME": "W6/SS-288", "TITLE": "Moses Mountain", "REGION": "Southern Sierra", "ASSOCIATION": "USA - CA", "POINTS": "8", "BONUSPOINTS": "3"}}, {"type": "Feature", "geometry": {"type": "Point", "coordinates": [-118.5761, 36.0834]}, "properties": {"NAME": "W6/SS-289", "TITLE": "Slate Mountain", "REGION": "Southern Sierra", "ASSOCIATION": "USA - CA", "POINTS": "8", "BONUSPOINTS": "3"}}, {"type": "Feature", "geometry": {"type": "Point", "coordinates": [-118.2077, 36.1378]}, "properties": {"NAME": "W6/SS-290", "TITLE": "Jackass Peak", "REGION": "Southern Sierra", "ASSOCIATION": "USA - CA", "POINTS": "8", "BONUSPOINTS": "3"}}, {"type": "Feature", "geometry": {"type": "Point", "coordinates": [-118.69, 36.3787]}, "properties": {"NAME": "W6/SS-291", "TITLE": "Cahoon Rock", "REGION": "Southern Sierra", "ASSOCIATION": "USA - CA", "POINTS": "8", "BONUSPOINTS": "3"}}, {"type": "Feature", "geometry": {"type": "Point", "coordinates": [-118.592, 36.1902]}, "properties": {"NAME": "W6/SS-292", "TITLE": "9236", "REGION": "Southern Sierra", "ASSOCIATION": "USA - CA", "POINTS": "8", "BONUSPOINTS": "3"}}, {"type": "Feature", "geometry": {"type": "Point", "coordinates": [-119.6565, 37.8289]}, "properties": {"NAME": "W6/SS-293", "TITLE": "9222", "REGION": "Southern Sierra", "ASSOCIATION": "USA - CA", "POINTS": "8", "BONUSPOINTS": "3"}}, {"type": "Feature", "geometry": {"type": "Point", "coordinates": [-118.1678, 36.1173]}, "properties": {"NAME": "W6/SS-294", "TITLE": "9220", "REGION": "Southern Sierra", "ASSOCIATION": "USA - CA", "POINTS": "8", "BONUSPOINTS": "3"}}, {"type": "Feature", "geometry": {"type": "Point", "coordinates": [-119.4952, 37.4844]}, "properties": {"NAME": "W6/SS-295", "TITLE": "9158", "REGION": "Southern Sierra", "ASSOCIATION": "USA - CA", "POINTS": "8", "BONUSPOINTS": "3"}}, {"type": "Feature", "geometry": {"type": "Point", "coordinates": [-119.5176, 37.7029]}, "properties": {"NAME": "W6/SS-296", "TITLE": "Mount Starr King", "REGION": "Southern Sierra", "ASSOCIATION": "USA - CA", "POINTS": "8", "BONUSPOINTS": "3"}}, {"type": "Feature", "geometry": {"type": "Point", "coordinates": [-119.5062, 37.516]}, "properties": {"NAME": "W6/SS-297", "TITLE": "9083", "REGION": "Southern Sierra", "ASSOCIATION": "USA - CA", "POINTS": "8", "BONUSPOINTS": "3"}}, {"type": "Feature", "geometry": {"type": "Point", "coordinates": [-118.3092, 36.004]}, "properties": {"NAME": "W6/SS-298", "TITLE": "9060", "REGION": "Southern Sierra", "ASSOCIATION": "USA - CA", "POINTS": "8", "BONUSPOINTS": "3"}}, {"type": "Feature", "geometry": {"type": "Point", "coordinates": [-118.7158, 36.5833]}, "properties": {"NAME": "W6/SS-299", "TITLE": "Panther Peak", "REGION": "Southern Sierra", "ASSOCIATION": "USA - CA", "POINTS": "8", "BONUSPOINTS": "3"}}, {"type": "Feature", "geometry": {"type": "Point", "coordinates": [-119.4477, 37.5184]}, "properties": {"NAME": "W6/SS-300", "TITLE": "Quartz Mountain", "REGION": "Southern Sierra", "ASSOCIATION": "USA - CA", "POINTS": "8", "BONUSPOINTS": "3"}}, {"type": "Feature", "geometry": {"type": "Point", "coordinates": [-119.1793, 37.3755]}, "properties": {"NAME": "W6/SS-301", "TITLE": "Mount Tom", "REGION": "Southern Sierra", "ASSOCIATION": "USA - CA", "POINTS": "8", "BONUSPOINTS": "3"}}, {"type": "Feature", "geometry": {"type": "Point", "coordinates": [-118.7378, 36.385]}, "properties": {"NAME": "W6/SS-302", "TITLE": "Homers Nose", "REGION": "Southern Sierra", "ASSOCIATION": "USA - CA", "POINTS": "8", "BONUSPOINTS": "3"}}, {"type": "Feature", "geometry": {"type": "Point", "coordinates": [-119.6529, 37.7729]}, "properties": {"NAME": "W6/SS-303", "TITLE": "8971", "REGION": "Southern Sierra", "ASSOCIATION": "USA - CA", "POINTS": "8", "BONUSPOINTS": "3"}}, {"type": "Feature", "geometry": {"type": "Point", "coordinates": [-118.5576, 36.8038]}, "properties": {"NAME": "W6/SS-304", "TITLE": "Buck Peak", "REGION": "Southern Sierra", "ASSOCIATION": "USA - CA", "POINTS": "8", "BONUSPOINTS": "3"}}, {"type": "Feature", "geometry": {"type": "Point", "coordinates": [-118.3032, 35.8565]}, "properties": {"NAME": "W6/SS-305", "TITLE": "Taylor Dome", "REGION": "Southern Sierra", "ASSOCIATION": "USA - CA", "POINTS": "8", "BONUSPOINTS": "3"}}, {"type": "Feature", "geometry": {"type": "Point", "coordinates": [-119.0126, 37.6988]}, "properties": {"NAME": "W6/SS-306", "TITLE": "Deer Mountain", "REGION": "Southern Sierra", "ASSOCIATION": "USA - CA", "POINTS": "8", "BONUSPOINTS": "3"}}, {"type": "Feature", "geometry": {"type": "Point", "coordinates": [-119.1515, 37.3502]}, "properties": {"NAME": "W6/SS-307", "TITLE": "8777", "REGION": "Southern Sierra", "ASSOCIATION": "USA - CA", "POINTS": "8", "BONUSPOINTS": "3"}}, {"type": "Feature", "geometry": {"type": "Point", "coordinates": [-118.596, 36.2168]}, "properties": {"NAME": "W6/SS-308", "TITLE": "8774", "REGION": "Southern Sierra", "ASSOCIATION": "USA - CA", "POINTS": "8", "BONUSPOINTS": "3"}}, {"type": "Feature", "geometry": {"type": "Point", "coordinates": [-118.7573, 36.7726]}, "properties": {"NAME": "W6/SS-309", "TITLE": "8677", "REGION": "Southern Sierra", "ASSOCIATION": "USA - CA", "POINTS": "8", "BONUSPOINTS": "3"}}, {"type": "Feature", "geometry": {"type": "Point", "coordinates": [-118.7463, 36.3184]}, "properties": {"NAME": "W6/SS-310", "TITLE": "Dennison Mountain", "REGION": "Southern Sierra", "ASSOCIATION": "USA - CA", "POINTS": "8", "BONUSPOINTS": "3"}}, {"type": "Feature", "geometry": {"type": "Point", "coordinates": [-118.5224, 36.1688]}, "properties": {"NAME": "W6/SS-311", "TITLE": "Fish Benchmark", "REGION": "Southern Sierra", "ASSOCIATION": "USA - CA", "POINTS": "8", "BONUSPOINTS": "3"}}, {"type": "Feature", "geometry": {"type": "Point", "coordinates": [-118.3861, 36.221]}, "properties": {"NAME": "W6/SS-312", "TITLE": "Hockett Peak", "REGION": "Southern Sierra", "ASSOCIATION": "USA - CA", "POINTS": "8", "BONUSPOINTS": "3"}}, {"type": "Feature", "geometry": {"type": "Point", "coordinates": [-119.5514, 37.7827]}, "properties": {"NAME": "W6/SS-313", "TITLE": "Indian Rock", "REGION": "Southern Sierra", "ASSOCIATION": "USA - CA", "POINTS": "8", "BONUSPOINTS": "3"}}, {"type": "Feature", "geometry": {"type": "Point", "coordinates": [-118.8608, 36.7372]}, "properties": {"NAME": "W6/SS-314", "TITLE": "Buck Rock", "REGION": "Southern Sierra", "ASSOCIATION": "USA - CA", "POINTS": "8", "BONUSPOINTS": "3"}}, {"type": "Feature", "geometry": {"type": "Point", "coordinates": [-118.2719, 35.9118]}, "properties": {"NAME": "W6/SS-315", "TITLE": "8484", "REGION": "Southern Sierra", "ASSOCIATION": "USA - CA", "POINTS": "8", "BONUSPOINTS": "3"}}, {"type": "Feature", "geometry": {"type": "Point", "coordinates": [-119.6287, 37.7642]}, "properties": {"NAME": "W6/SS-316", "TITLE": "Boundary Hill", "REGION": "Southern Sierra", "ASSOCIATION": "USA - CA", "POINTS": "8", "BONUSPOINTS": "3"}}, {"type": "Feature", "geometry": {"type": "Point", "coordinates": [-118.3883, 35.4493]}, "properties": {"NAME": "W6/SS-317", "TITLE": "Piute Peak", "REGION": "Southern Sierra", "ASSOCIATION": "USA - CA", "POINTS": "8", "BONUSPOINTS": "3"}}, {"type": "Feature", "geometry": {"type": "Point", "coordinates": [-117.9969, 35.7382]}, "properties": {"NAME": "W6/SS-318", "TITLE": "Owens Peak", "REGION": "Southern Sierra", "ASSOCIATION": "USA - CA", "POINTS": "8", "BONUSPOINTS": "3"}}, {"type": "Feature", "geometry": {"type": "Point", "coordinates": [-118.8432, 36.7686]}, "properties": {"NAME": "W6/SS-319", "TITLE": "8433", "REGION": "Southern Sierra", "ASSOCIATION": "USA - CA", "POINTS": "8", "BONUSPOINTS": "3"}}, {"type": "Feature", "geometry": {"type": "Point", "coordinates": [-119.1151, 37.9189]}, "properties": {"NAME": "W6/SS-320", "TITLE": "Williams Butte", "REGION": "Southern Sierra", "ASSOCIATION": "USA - CA", "POINTS": "8", "BONUSPOINTS": "3"}}, {"type": "Feature", "geometry": {"type": "Point", "coordinates": [-118.2285, 35.9009]}, "properties": {"NAME": "W6/SS-321", "TITLE": "Rockhouse Peak", "REGION": "Southern Sierra", "ASSOCIATION": "USA - CA", "POINTS": "8", "BONUSPOINTS": "3"}}, {"type": "Feature", "geometry": {"type": "Point", "coordinates": [-119.4706, 37.3946]}, "properties": {"NAME": "W6/SS-322", "TITLE": "Little Shuteye Peak", "REGION": "Southern Sierra", "ASSOCIATION": "USA - CA", "POINTS": "8", "BONUSPOINTS": "3"}}, {"type": "Feature", "geometry": {"type": "Point", "coordinates": [-119.4283, 37.3495]}, "properties": {"NAME": "W6/SS-323", "TITLE": "Shuteye Peak", "REGION": "Southern Sierra", "ASSOCIATION": "USA - CA", "POINTS": "8", "BONUSPOINTS": "3"}}, {"type": "Feature", "geometry": {"type": "Point", "coordinates": [-118.3875, 35.8561]}, "properties": {"NAME": "W6/SS-324", "TITLE": "Corral Benchmark", "REGION": "Southern Sierra", "ASSOCIATION": "USA - CA", "POINTS": "8", "BONUSPOINTS": "3"}}, {"type": "Feature", "geometry": {"type": "Point", "coordinates": [-118.0696, 35.8991]}, "properties": {"NAME": "W6/SS-325", "TITLE": "8337", "REGION": "Southern Sierra", "ASSOCIATION": "USA - CA", "POINTS": "8", "BONUSPOINTS": "3"}}, {"type": "Feature", "geometry": {"type": "Point", "coordinates": [-118.6028, 36.0275]}, "properties": {"NAME": "W6/SS-326", "TITLE": "Onion Meadow Peak", "REGION": "Southern Sierra", "ASSOCIATION": "USA - CA", "POINTS": "8", "BONUSPOINTS": "3"}}, {"type": "Feature", "geometry": {"type": "Point", "coordinates": [-118.3432, 35.7857]}, "properties": {"NAME": "W6/SS-327", "TITLE": "Cannel Benchmark", "REGION": "Southern Sierra", "ASSOCIATION": "USA - CA", "POINTS": "8", "BONUSPOINTS": "3"}}, {"type": "Feature", "geometry": {"type": "Point", "coordinates": [-118.1876, 36.0208]}, "properties": {"NAME": "W6/SS-328", "TITLE": "Pine Mountain", "REGION": "Southern Sierra", "ASSOCIATION": "USA - CA", "POINTS": "8", "BONUSPOINTS": "3"}}, {"type": "Feature", "geometry": {"type": "Point", "coordinates": [-118.5851, 35.7822]}, "properties": {"NAME": "W6/SS-329", "TITLE": "Sunday Peak", "REGION": "Southern Sierra", "ASSOCIATION": "USA - CA", "POINTS": "8", "BONUSPOINTS": "3"}}, {"type": "Feature", "geometry": {"type": "Point", "coordinates": [-118.5725, 35.8502]}, "properties": {"NAME": "W6/SS-330", "TITLE": "Tobias Peak", "REGION": "Southern Sierra", "ASSOCIATION": "USA - CA", "POINTS": "8", "BONUSPOINTS": "3"}}, {"type": "Feature", "geometry": {"type": "Point", "coordinates": [-118.5045, 36.1193]}, "properties": {"NAME": "W6/SS-331", "TITLE": "Eye Benchmark", "REGION": "Southern Sierra", "ASSOCIATION": "USA - CA", "POINTS": "8", "BONUSPOINTS": "3"}}, {"type": "Feature", "geometry": {"type": "Point", "coordinates": [-119.5782, 37.6978]}, "properties": {"NAME": "W6/SS-332", "TITLE": "Illilouette Ridge", "REGION": "Southern Sierra", "ASSOCIATION": "USA - CA", "POINTS": "8", "BONUSPOINTS": "3"}}, {"type": "Feature", "geometry": {"type": "Point", "coordinates": [-118.2394, 35.8065]}, "properties": {"NAME": "W6/SS-333", "TITLE": "8213", "REGION": "Southern Sierra", "ASSOCIATION": "USA - CA", "POINTS": "8", "BONUSPOINTS": "3"}}, {"type": "Feature", "geometry": {"type": "Point", "coordinates": [-118.8823, 36.6718]}, "properties": {"NAME": "W6/SS-334", "TITLE": "Big Baldy", "REGION": "Southern Sierra", "ASSOCIATION": "USA - CA", "POINTS": "8", "BONUSPOINTS": "3"}}, {"type": "Feature", "geometry": {"type": "Point", "coordinates": [-119.0564, 36.9748]}, "properties": {"NAME": "W6/SS-335", "TITLE": "Patterson Mountain", "REGION": "Southern Sierra", "ASSOCIATION": "USA - CA", "POINTS": "8", "BONUSPOINTS": "3"}}, {"type": "Feature", "geometry": {"type": "Point", "coordinates": [-118.2838, 35.7937]}, "properties": {"NAME": "W6/SS-336", "TITLE": "8108", "REGION": "Southern Sierra", "ASSOCIATION": "USA - CA", "POINTS": "8", "BONUSPOINTS": "3"}}, {"type": "Feature", "geometry": {"type": "Point", "coordinates": [-118.2259, 35.8819]}, "properties": {"NAME": "W6/SS-337", "TITLE": "8100", "REGION": "Southern Sierra", "ASSOCIATION": "USA - CA", "POINTS": "8", "BONUSPOINTS": "3"}}, {"type": "Feature", "geometry": {"type": "Point", "coordinates": [-118.9654, 37.3038]}, "properties": {"NAME": "W6/SS-338", "TITLE": "Jackass Dike", "REGION": "Southern Sierra", "ASSOCIATION": "USA - CA", "POINTS": "8", "BONUSPOINTS": "3"}}, {"type": "Feature", "geometry": {"type": "Point", "coordinates": [-118.5894, 37.3063]}, "properties": {"NAME": "W6/SS-339", "TITLE": "Grouse Mountain", "REGION": "Southern Sierra", "ASSOCIATION": "USA - CA", "POINTS": "8", "BONUSPOINTS": "3"}}, {"type": "Feature", "geometry": {"type": "Point", "coordinates": [-118.1147, 36.0703]}, "properties": {"NAME": "W6/SS-340", "TITLE": "8060", "REGION": "Southern Sierra", "ASSOCIATION": "USA - CA", "POINTS": "8", "BONUSPOINTS": "3"}}, {"type": "Feature", "geometry": {"type": "Point", "coordinates": [-119.4738, 37.4215]}, "properties": {"NAME": "W6/SS-341", "TITLE": "8044", "REGION": "Southern Sierra", "ASSOCIATION": "USA - CA", "POINTS": "8", "BONUSPOINTS": "3"}}, {"type": "Feature", "geometry": {"type": "Point", "coordinates": [-117.9986, 35.8232]}, "properties": {"NAME": "W6/SS-342", "TITLE": "Sawtooth Peak", "REGION": "Southern Sierra", "ASSOCIATION": "USA - CA", "POINTS": "8", "BONUSPOINTS": "3"}}, {"type": "Feature", "geometry": {"type": "Point", "coordinates": [-118.2085, 36.0055]}, "properties": {"NAME": "W6/SS-343", "TITLE": "8017", "REGION": "Southern Sierra", "ASSOCIATION": "USA - CA", "POINTS": "8", "BONUSPOINTS": "3"}}, {"type": "Feature", "geometry": {"type": "Point", "coordinates": [-118.6589, 36.7306]}, "properties": {"NAME": "W6/SS-344", "TITLE": "Sugarloaf", "REGION": "Southern Sierra", "ASSOCIATION": "USA - CA", "POINTS": "8", "BONUSPOINTS": "3"}}, {"type": "Feature", "geometry": {"type": "Point", "coordinates": [-118.0425, 35.8664]}, "properties": {"NAME": "W6/SS-345", "TITLE": "Chimney Peak", "REGION": "Southern Sierra", "ASSOCIATION": "USA - CA", "POINTS": "8", "BONUSPOINTS": "3"}}, {"type": "Feature", "geometry": {"type": "Point", "coordinates": [-118.5212, 35.8604]}, "properties": {"NAME": "W6/SS-346", "TITLE": "Baker Peak", "REGION": "Southern Sierra", "ASSOCIATION": "USA - CA", "POINTS": "8", "BONUSPOINTS": "3"}}, {"type": "Feature", "geometry": {"type": "Point", "coordinates": [-117.9928, 35.7086]}, "properties": {"NAME": "W6/SS-347", "TITLE": "Mount Jenkins", "REGION": "Southern Sierra", "ASSOCIATION": "USA - CA", "POINTS": "8", "BONUSPOINTS": "3"}}, {"type": "Feature", "geometry": {"type": "Point", "coordinates": [-118.3588, 35.4317]}, "properties": {"NAME": "W6/SS-348", "TITLE": "7895", "REGION": "Southern Sierra", "ASSOCIATION": "USA - CA", "POINTS": "8", "BONUSPOINTS": "3"}}, {"type": "Feature", "geometry": {"type": "Point", "coordinates": [-119.3983, 37.3339]}, "properties": {"NAME": "W6/SS-349", "TITLE": "South Chiquito Ridge", "REGION": "Southern Sierra", "ASSOCIATION": "USA - CA", "POINTS": "8", "BONUSPOINTS": "3"}}, {"type": "Feature", "geometry": {"type": "Point", "coordinates": [-118.2858, 35.7723]}, "properties": {"NAME": "W6/SS-350", "TITLE": "7851", "REGION": "Southern Sierra", "ASSOCIATION": "USA - CA", "POINTS": "8", "BONUSPOINTS": "3"}}, {"type": "Feature", "geometry": {"type": "Point", "coordinates": [-118.0014, 35.7713]}, "properties": {"NAME": "W6/SS-351", "TITLE": "Spanish Needle", "REGION": "Southern Sierra", "ASSOCIATION": "USA - CA", "POINTS": "8", "BONUSPOINTS": "3"}}, {"type": "Feature", "geometry": {"type": "Point", "coordinates": [-119.264, 37.4815]}, "properties": {"NAME": "W6/SS-352", "TITLE": "Piyau Dome", "REGION": "Southern Sierra", "ASSOCIATION": "USA - CA", "POINTS": "8", "BONUSPOINTS": "3"}}, {"type": "Feature", "geometry": {"type": "Point", "coordinates": [-119.6515, 37.6509]}, "properties": {"NAME": "W6/SS-353", "TITLE": "7860", "REGION": "Southern Sierra", "ASSOCIATION": "USA - CA", "POINTS": "8", "BONUSPOINTS": "3"}}, {"type": "Feature", "geometry": {"type": "Point", "coordinates": [-118.9455, 36.7437]}, "properties": {"NAME": "W6/SS-354", "TITLE": "Park Ridge", "REGION": "Southern Sierra", "ASSOCIATION": "USA - CA", "POINTS": "8", "BONUSPOINTS": "3"}}, {"type": "Feature", "geometry": {"type": "Point", "coordinates": [-118.4591, 36.1772]}, "properties": {"NAME": "W6/SS-355", "TITLE": "Castle Rock", "REGION": "Southern Sierra", "ASSOCIATION": "USA - CA", "POINTS": "8", "BONUSPOINTS": "3"}}, {"type": "Feature", "geometry": {"type": "Point", "coordinates": [-118.2889, 35.4176]}, "properties": {"NAME": "W6/SS-356", "TITLE": "Sorrell Peak", "REGION": "Southern Sierra", "ASSOCIATION": "USA - CA", "POINTS": "8", "BONUSPOINTS": "3"}}, {"type": "Feature", "geometry": {"type": "Point", "coordinates": [-118.6467, 35.9724]}, "properties": {"NAME": "W6/SS-357", "TITLE": "Parker Peak", "REGION": "Southern Sierra", "ASSOCIATION": "USA - CA", "POINTS": "8", "BONUSPOINTS": "3"}}, {"type": "Feature", "geometry": {"type": "Point", "coordinates": [-118.0199, 35.8073]}, "properties": {"NAME": "W6/SS-358", "TITLE": "Lamont Benchmark", "REGION": "Southern Sierra", "ASSOCIATION": "USA - CA", "POINTS": "8", "BONUSPOINTS": "3"}}, {"type": "Feature", "geometry": {"type": "Point", "coordinates": [-118.2056, 35.9374]}, "properties": {"NAME": "W6/SS-359", "TITLE": "Stegosaurus Fin", "REGION": "Southern Sierra", "ASSOCIATION": "USA - CA", "POINTS": "8", "BONUSPOINTS": "3"}}, {"type": "Feature", "geometry": {"type": "Point", "coordinates": [-117.9833, 35.8748]}, "properties": {"NAME": "W6/SS-360", "TITLE": "Bales Benchmark", "REGION": "Southern Sierra", "ASSOCIATION": "USA - CA", "POINTS": "8", "BONUSPOINTS": "3"}}, {"type": "Feature", "geometry": {"type": "Point", "coordinates": [-118.3156, 35.3992]}, "properties": {"NAME": "W6/SS-361", "TITLE": "Mace Benchmark", "REGION": "Southern Sierra", "ASSOCIATION": "USA - CA", "POINTS": "8", "BONUSPOINTS": "3"}}, {"type": "Feature", "geometry": {"type": "Point", "coordinates": [-118.0315, 35.7884]}, "properties": {"NAME": "W6/SS-362", "TITLE": "7475", "REGION": "Southern Sierra", "ASSOCIATION": "USA - CA", "POINTS": "6", "BONUSPOINTS": "3"}}, {"type": "Feature", "geometry": {"type": "Point", "coordinates": [-118.1731, 35.8748]}, "properties": {"NAME": "W6/SS-363", "TITLE": "7460", "REGION": "Southern Sierra", "ASSOCIATION": "USA - CA", "POINTS": "6", "BONUSPOINTS": "3"}}, {"type": "Feature", "geometry": {"type": "Point", "coordinates": [-118.5239, 35.7417]}, "properties": {"NAME": "W6/SS-364", "TITLE": "Black Mountain", "REGION": "Southern Sierra", "ASSOCIATION": "USA - CA", "POINTS": "6", "BONUSPOINTS": "3"}}, {"type": "Feature", "geometry": {"type": "Point", "coordinates": [-118.1188, 36.0891]}, "properties": {"NAME": "W6/SS-365", "TITLE": "7420", "REGION": "Southern Sierra", "ASSOCIATION": "USA - CA", "POINTS": "6", "BONUSPOINTS": "3"}}, {"type": "Feature", "geometry": {"type": "Point", "coordinates": [-118.1368, 35.9564]}, "properties": {"NAME": "W6/SS-366", "TITLE": "Canyon Benchmark", "REGION": "Southern Sierra", "ASSOCIATION": "USA - CA", "POINTS": "6", "BONUSPOINTS": "3"}}, {"type": "Feature", "geometry": {"type": "Point", "coordinates": [-118.6725, 36.104]}, "properties": {"NAME": "W6/SS-367", "TITLE": "Solo Peak", "REGION": "Southern Sierra", "ASSOCIATION": "USA - CA", "POINTS": "6", "BONUSPOINTS": "3"}}, {"type": "Feature", "geometry": {"type": "Point", "coordinates": [-118.028, 35.6293]}, "properties": {"NAME": "W6/SS-368", "TITLE": "Scodie Mountains (HP)", "REGION": "Southern Sierra", "ASSOCIATION": "USA - CA", "POINTS": "6", "BONUSPOINTS": "3"}}, {"type": "Feature", "geometry": {"type": "Point", "coordinates": [-118.3205, 35.5503]}, "properties": {"NAME": "W6/SS-369", "TITLE": "7262", "REGION": "Southern Sierra", "ASSOCIATION": "USA - CA", "POINTS": "6", "BONUSPOINTS": "3"}}, {"type": "Feature", "geometry": {"type": "Point", "coordinates": [-118.9472, 36.8189]}, "properties": {"NAME": "W6/SS-370", "TITLE": "Converse Mountain", "REGION": "Southern Sierra", "ASSOCIATION": "USA - CA", "POINTS": "6", "BONUSPOINTS": "3"}}, {"type": "Feature", "geometry": {"type": "Point", "coordinates": [-117.9871, 35.6902]}, "properties": {"NAME": "W6/SS-371", "TITLE": "Morris Peak", "REGION": "Southern Sierra", "ASSOCIATION": "USA - CA", "POINTS": "6", "BONUSPOINTS": "3"}}, {"type": "Feature", "geometry": {"type": "Point", "coordinates": [-119.5798, 37.4531]}, "properties": {"NAME": "W6/SS-372", "TITLE": "Speckerman Mountain", "REGION": "Southern Sierra", "ASSOCIATION": "USA - CA", "POINTS": "6", "BONUSPOINTS": "3"}}, {"type": "Feature", "geometry": {"type": "Point", "coordinates": [-118.6669, 36.2287]}, "properties": {"NAME": "W6/SS-373", "TITLE": "7180", "REGION": "Southern Sierra", "ASSOCIATION": "USA - CA", "POINTS": "6", "BONUSPOINTS": "3"}}, {"type": "Feature", "geometry": {"type": "Point", "coordinates": [-118.1311, 35.9266]}, "properties": {"NAME": "W6/SS-374", "TITLE": "7168", "REGION": "Southern Sierra", "ASSOCIATION": "USA - CA", "POINTS": "6", "BONUSPOINTS": "3"}}, {"type": "Feature", "geometry": {"type": "Point", "coordinates": [-118.5611, 35.7192]}, "properties": {"NAME": "W6/SS-375", "TITLE": "7140", "REGION": "Southern Sierra", "ASSOCIATION": "USA - CA", "POINTS": "6", "BONUSPOINTS": "3"}}, {"type": "Feature", "geometry": {"type": "Point", "coordinates": [-119.3017, 37.4328]}, "properties": {"NAME": "W6/SS-376", "TITLE": "Jackass Rock", "REGION": "Southern Sierra", "ASSOCIATION": "USA - CA", "POINTS": "6", "BONUSPOINTS": "3"}}, {"type": "Feature", "geometry": {"type": "Point", "coordinates": [-119.5325, 37.7286]}, "properties": {"NAME": "W6/SS-377", "TITLE": "Liberty Cap", "REGION": "Southern Sierra", "ASSOCIATION": "USA - CA", "POINTS": "6", "BONUSPOINTS": "3"}}, {"type": "Feature", "geometry": {"type": "Point", "coordinates": [-118.1624, 35.7818]}, "properties": {"NAME": "W6/SS-378", "TITLE": "7047", "REGION": "Southern Sierra", "ASSOCIATION": "USA - CA", "POINTS": "6", "BONUSPOINTS": "3"}}, {"type": "Feature", "geometry": {"type": "Point", "coordinates": [-117.9566, 35.9225]}, "properties": {"NAME": "W6/SS-379", "TITLE": "7004", "REGION": "Southern Sierra", "ASSOCIATION": "USA - CA", "POINTS": "6", "BONUSPOINTS": "3"}}, {"type": "Feature", "geometry": {"type": "Point", "coordinates": [-118.9249, 36.684]}, "properties": {"NAME": "W6/SS-380", "TITLE": "Redwood Mountain", "REGION": "Southern Sierra", "ASSOCIATION": "USA - CA", "POINTS": "6", "BONUSPOINTS": "3"}}, {"type": "Feature", "geometry": {"type": "Point", "coordinates": [-119.7404, 37.5293]}, "properties": {"NAME": "W6/SS-381", "TITLE": "Devil Peak", "REGION": "Southern Sierra", "ASSOCIATION": "USA - CA", "POINTS": "6", "BONUSPOINTS": "3"}}, {"type": "Feature", "geometry": {"type": "Point", "coordinates": [-118.3096, 35.5909]}, "properties": {"NAME": "W6/SS-382", "TITLE": "Heald Peak", "REGION": "Southern Sierra", "ASSOCIATION": "USA - CA", "POINTS": "6", "BONUSPOINTS": "3"}}, {"type": "Feature", "geometry": {"type": "Point", "coordinates": [-119.2267, 37.4648]}, "properties": {"NAME": "W6/SS-383", "TITLE": "Balloon Dome", "REGION": "Southern Sierra", "ASSOCIATION": "USA - CA", "POINTS": "6", "BONUSPOINTS": "3"}}, {"type": "Feature", "geometry": {"type": "Point", "coordinates": [-118.3345, 35.5793]}, "properties": {"NAME": "W6/SS-384", "TITLE": "6850", "REGION": "Southern Sierra", "ASSOCIATION": "USA - CA", "POINTS": "6", "BONUSPOINTS": "3"}}, {"type": "Feature", "geometry": {"type": "Point", "coordinates": [-118.4824, 35.7516]}, "properties": {"NAME": "W6/SS-385", "TITLE": "Split Mountain", "REGION": "Southern Sierra", "ASSOCIATION": "USA - CA", "POINTS": "6", "BONUSPOINTS": "3"}}, {"type": "Feature", "geometry": {"type": "Point", "coordinates": [-118.5902, 35.6787]}, "properties": {"NAME": "W6/SS-386", "TITLE": "Oak Ridge", "REGION": "Southern Sierra", "ASSOCIATION": "USA - CA", "POINTS": "6", "BONUSPOINTS": "3"}}, {"type": "Feature", "geometry": {"type": "Point", "coordinates": [-118.803, 36.4112]}, "properties": {"NAME": "W6/SS-387", "TITLE": "Case Mountain", "REGION": "Southern Sierra", "ASSOCIATION": "USA - CA", "POINTS": "6", "BONUSPOINTS": "3"}}, {"type": "Feature", "geometry": {"type": "Point", "coordinates": [-119.3087, 37.17]}, "properties": {"NAME": "W6/SS-388", "TITLE": "Musick Mountain", "REGION": "Southern Sierra", "ASSOCIATION": "USA - CA", "POINTS": "6", "BONUSPOINTS": "3"}}, {"type": "Feature", "geometry": {"type": "Point", "coordinates": [-118.6876, 35.9735]}, "properties": {"NAME": "W6/SS-389", "TITLE": "North Cold Spring Peak", "REGION": "Southern Sierra", "ASSOCIATION": "USA - CA", "POINTS": "6", "BONUSPOINTS": "3"}}, {"type": "Feature", "geometry": {"type": "Point", "coordinates": [-119.1622, 37.0291]}, "properties": {"NAME": "W6/SS-390", "TITLE": "Dinkey Mountain", "REGION": "Southern Sierra", "ASSOCIATION": "USA - CA", "POINTS": "6", "BONUSPOINTS": "3"}}, {"type": "Feature", "geometry": {"type": "Point", "coordinates": [-118.1668, 35.8273]}, "properties": {"NAME": "W6/SS-391", "TITLE": "6700", "REGION": "Southern Sierra", "ASSOCIATION": "USA - CA", "POINTS": "6", "BONUSPOINTS": "3"}}, {"type": "Feature", "geometry": {"type": "Point", "coordinates": [-118.2501, 35.2219]}, "properties": {"NAME": "W6/SS-392", "TITLE": "Cache Peak", "REGION": "Southern Sierra", "ASSOCIATION": "USA - CA", "POINTS": "6", "BONUSPOINTS": "3"}}, {"type": "Feature", "geometry": {"type": "Point", "coordinates": [-117.9579, 35.6736]}, "properties": {"NAME": "W6/SS-393", "TITLE": "Russell Peak", "REGION": "Southern Sierra", "ASSOCIATION": "USA - CA", "POINTS": "6", "BONUSPOINTS": "3"}}, {"type": "Feature", "geometry": {"type": "Point", "coordinates": [-118.5154, 35.9476]}, "properties": {"NAME": "W6/SS-394", "TITLE": "Speas Ridge", "REGION": "Southern Sierra", "ASSOCIATION": "USA - CA", "POINTS": "6", "BONUSPOINTS": "3"}}, {"type": "Feature", "geometry": {"type": "Point", "coordinates": [-118.5019, 35.7996]}, "properties": {"NAME": "W6/SS-395", "TITLE": "6590", "REGION": "Southern Sierra", "ASSOCIATION": "USA - CA", "POINTS": "6", "BONUSPOINTS": "3"}}, {"type": "Feature", "geometry": {"type": "Point", "coordinates": [-119.6666, 37.4859]}, "properties": {"NAME": "W6/SS-396", "TITLE": "Hogan Mountain", "REGION": "Southern Sierra", "ASSOCIATION": "USA - CA", "POINTS": "6", "BONUSPOINTS": "3"}}, {"type": "Feature", "geometry": {"type": "Point", "coordinates": [-119.197, 37.5301]}, "properties": {"NAME": "W6/SS-397", "TITLE": "Junction Butte", "REGION": "Southern Sierra", "ASSOCIATION": "USA - CA", "POINTS": "6", "BONUSPOINTS": "3"}}, {"type": "Feature", "geometry": {"type": "Point", "coordinates": [-117.9537, 35.8101]}, "properties": {"NAME": "W6/SS-398", "TITLE": "6486", "REGION": "Southern Sierra", "ASSOCIATION": "USA - CA", "POINTS": "6", "BONUSPOINTS": "0"}}, {"type": "Feature", "geometry": {"type": "Point", "coordinates": [-119.3271, 37.1235]}, "properties": {"NAME": "W6/SS-399", "TITLE": "Mount Stevenson", "REGION": "Southern Sierra", "ASSOCIATION": "USA - CA", "POINTS": "6", "BONUSPOINTS": "0"}}, {"type": "Feature", "geometry": {"type": "Point", "coordinates": [-118.5626, 35.5293]}, "properties": {"NAME": "W6/SS-400", "TITLE": "Lightner Peak", "REGION": "Southern Sierra", "ASSOCIATION": "USA - CA", "POINTS": "6", "BONUSPOINTS": "0"}}, {"type": "Feature", "geometry": {"type": "Point", "coordinates": [-118.2925, 35.3486]}, "properties": {"NAME": "W6/SS-401", "TITLE": "6406", "REGION": "Southern Sierra", "ASSOCIATION": "USA - CA", "POINTS": "6", "BONUSPOINTS": "0"}}, {"type": "Feature", "geometry": {"type": "Point", "coordinates": [-118.4607, 35.9188]}, "properties": {"NAME": "W6/SS-402", "TITLE": "6500", "REGION": "Southern Sierra", "ASSOCIATION": "USA - CA", "POINTS": "6", "BONUSPOINTS": "3"}}, {"type": "Feature", "geometry": {"type": "Point", "coordinates": [-118.3952, 35.2152]}, "properties": {"NAME": "W6/SS-403", "TITLE": "Toll Benchmark", "REGION": "Southern Sierra", "ASSOCIATION": "USA - CA", "POINTS": "6", "BONUSPOINTS": "0"}}, {"type": "Feature", "geometry": {"type": "Point", "coordinates": [-118.0295, 35.7182]}, "properties": {"NAME": "W6/SS-404", "TITLE": "6398", "REGION": "Southern Sierra", "ASSOCIATION": "USA - CA", "POINTS": "6", "BONUSPOINTS": "0"}}, {"type": "Feature", "geometry": {"type": "Point", "coordinates": [-118.14, 35.5359]}, "properties": {"NAME": "W6/SS-405", "TITLE": "Wyleys Knob", "REGION": "Southern Sierra", "ASSOCIATION": "USA - CA", "POINTS": "6", "BONUSPOINTS": "0"}}, {"type": "Feature", "geometry": {"type": "Point", "coordinates": [-117.9529, 35.8598]}, "properties": {"NAME": "W6/SS-406", "TITLE": "6370", "REGION": "Southern Sierra", "ASSOCIATION": "USA - CA", "POINTS": "6", "BONUSPOINTS": "0"}}, {"type": "Feature", "geometry": {"type": "Point", "coordinates": [-118.0896, 35.7852]}, "properties": {"NAME": "W6/SS-407", "TITLE": "6352", "REGION": "Southern Sierra", "ASSOCIATION": "USA - CA", "POINTS": "6", "BONUSPOINTS": "0"}}, {"type": "Feature", "geometry": {"type": "Point", "coordinates": [-118.245, 35.1528]}, "properties": {"NAME": "W6/SS-408", "TITLE": "6345", "REGION": "Southern Sierra", "ASSOCIATION": "USA - CA", "POINTS": "6", "BONUSPOINTS": "0"}}, {"type": "Feature", "geometry": {"type": "Point", "coordinates": [-118.7347, 36.0969]}, "properties": {"NAME": "W6/SS-409", "TITLE": "Black Mountain", "REGION": "Southern Sierra", "ASSOCIATION": "USA - CA", "POINTS": "6", "BONUSPOINTS": "0"}}, {"type": "Feature", "geometry": {"type": "Point", "coordinates": [-118.1841, 35.4308]}, "properties": {"NAME": "W6/SS-410", "TITLE": "Walbrecht Peak", "REGION": "Southern Sierra", "ASSOCIATION": "USA - CA", "POINTS": "6", "BONUSPOINTS": "0"}}, {"type": "Feature", "geometry": {"type": "Point", "coordinates": [-118.0766, 35.5423]}, "properties": {"NAME": "W6/SS-411", "TITLE": "6273", "REGION": "Southern Sierra", "ASSOCIATION": "USA - CA", "POINTS": "6", "BONUSPOINTS": "0"}}, {"type": "Feature", "geometry": {"type": "Point", "coordinates": [-118.3403, 35.2161]}, "properties": {"NAME": "W6/SS-412", "TITLE": "Sugarloaf Mountain", "REGION": "Southern Sierra", "ASSOCIATION": "USA - CA", "POINTS": "6", "BONUSPOINTS": "0"}}, {"type": "Feature", "geometry": {"type": "Point", "coordinates": [-118.2123, 35.7287]}, "properties": {"NAME": "W6/SS-413", "TITLE": "Pilot Knob", "REGION": "Southern Sierra", "ASSOCIATION": "USA - CA", "POINTS": "6", "BONUSPOINTS": "0"}}, {"type": "Feature", "geometry": {"type": "Point", "coordinates": [-118.1575, 35.4591]}, "properties": {"NAME": "W6/SS-414", "TITLE": "Pinyon Mountain", "REGION": "Southern Sierra", "ASSOCIATION": "USA - CA", "POINTS": "6", "BONUSPOINTS": "0"}}, {"type": "Feature", "geometry": {"type": "Point", "coordinates": [-118.4642, 35.9969]}, "properties": {"NAME": "W6/SS-415", "TITLE": "6180", "REGION": "Southern Sierra", "ASSOCIATION": "USA - CA", "POINTS": "6", "BONUSPOINTS": "0"}}, {"type": "Feature", "geometry": {"type": "Point", "coordinates": [-118.3071, 35.2186]}, "properties": {"NAME": "W6/SS-416", "TITLE": "6148", "REGION": "Southern Sierra", "ASSOCIATION": "USA - CA", "POINTS": "6", "BONUSPOINTS": "0"}}, {"type": "Feature", "geometry": {"type": "Point", "coordinates": [-118.8225, 36.5621]}, "properties": {"NAME": "W6/SS-417", "TITLE": "Colony Peak", "REGION": "Southern Sierra", "ASSOCIATION": "USA - CA", "POINTS": "6", "BONUSPOINTS": "0"}}, {"type": "Feature", "geometry": {"type": "Point", "coordinates": [-118.1949, 35.4642]}, "properties": {"NAME": "W6/SS-418", "TITLE": "Mayan Peak", "REGION": "Southern Sierra", "ASSOCIATION": "USA - CA", "POINTS": "6", "BONUSPOINTS": "0"}}, {"type": "Feature", "geometry": {"type": "Point", "coordinates": [-118.2978, 35.6197]}, "properties": {"NAME": "W6/SS-419", "TITLE": "Nicolls Peak", "REGION": "Southern Sierra", "ASSOCIATION": "USA - CA", "POINTS": "6", "BONUSPOINTS": "0"}}, {"type": "Feature", "geometry": {"type": "Point", "coordinates": [-118.4395, 35.8237]}, "properties": {"NAME": "W6/SS-420", "TITLE": "6047", "REGION": "Southern Sierra", "ASSOCIATION": "USA - CA", "POINTS": "6", "BONUSPOINTS": "0"}}, {"type": "Feature", "geometry": {"type": "Point", "coordinates": [-119.9361, 37.7628]}, "properties": {"NAME": "W6/SS-421", "TITLE": "Pilot Peak", "REGION": "Southern Sierra", "ASSOCIATION": "USA - CA", "POINTS": "6", "BONUSPOINTS": "0"}}, {"type": "Feature", "geometry": {"type": "Point", "coordinates": [-119.3341, 37.1443]}, "properties": {"NAME": "W6/SS-422", "TITLE": "Flume Peak", "REGION": "Southern Sierra", "ASSOCIATION": "USA - CA", "POINTS": "6", "BONUSPOINTS": "0"}}, {"type": "Feature", "geometry": {"type": "Point", "coordinates": [-118.1535, 35.3836]}, "properties": {"NAME": "W6/SS-423", "TITLE": "Butterbredt Peak", "REGION": "Southern Sierra", "ASSOCIATION": "USA - CA", "POINTS": "6", "BONUSPOINTS": "0"}}, {"type": "Feature", "geometry": {"type": "Point", "coordinates": [-118.5269, 35.9812]}, "properties": {"NAME": "W6/SS-424", "TITLE": "Capitol Rock", "REGION": "Southern Sierra", "ASSOCIATION": "USA - CA", "POINTS": "6", "BONUSPOINTS": "0"}}, {"type": "Feature", "geometry": {"type": "Point", "coordinates": [-118.1429, 35.4906]}, "properties": {"NAME": "W6/SS-425", "TITLE": "5924", "REGION": "Southern Sierra", "ASSOCIATION": "USA - CA", "POINTS": "6", "BONUSPOINTS": "0"}}, {"type": "Feature", "geometry": {"type": "Point", "coordinates": [-118.494, 35.3718]}, "properties": {"NAME": "W6/SS-426", "TITLE": "Harper Peak", "REGION": "Southern Sierra", "ASSOCIATION": "USA - CA", "POINTS": "6", "BONUSPOINTS": "0"}}, {"type": "Feature", "geometry": {"type": "Point", "coordinates": [-119.7757, 37.6347]}, "properties": {"NAME": "W6/SS-427", "TITLE": "Pinoche Peak", "REGION": "Southern Sierra", "ASSOCIATION": "USA - CA", "POINTS": "6", "BONUSPOINTS": "0"}}, {"type": "Feature", "geometry": {"type": "Point", "coordinates": [-119.6492, 37.5095]}, "properties": {"NAME": "W6/SS-428", "TITLE": "Mount Savage", "REGION": "Southern Sierra", "ASSOCIATION": "USA - CA", "POINTS": "6", "BONUSPOINTS": "0"}}, {"type": "Feature", "geometry": {"type": "Point", "coordinates": [-118.8396, 36.2869]}, "properties": {"NAME": "W6/SS-429", "TITLE": "Blue Ridge", "REGION": "Southern Sierra", "ASSOCIATION": "USA - CA", "POINTS": "6", "BONUSPOINTS": "0"}}, {"type": "Feature", "geometry": {"type": "Point", "coordinates": [-118.2809, 35.2855]}, "properties": {"NAME": "W6/SS-430", "TITLE": "5696", "REGION": "Southern Sierra", "ASSOCIATION": "USA - CA", "POINTS": "6", "BONUSPOINTS": "0"}}, {"type": "Feature", "geometry": {"type": "Point", "coordinates": [-118.463, 35.9457]}, "properties": {"NAME": "W6/SS-431", "TITLE": "5672", "REGION": "Southern Sierra", "ASSOCIATION": "USA - CA", "POINTS": "6", "BONUSPOINTS": "0"}}, {"type": "Feature", "geometry": {"type": "Point", "coordinates": [-117.9453, 35.7129]}, "properties": {"NAME": "W6/SS-432", "TITLE": "5660", "REGION": "Southern Sierra", "ASSOCIATION": "USA - CA", "POINTS": "6", "BONUSPOINTS": "0"}}, {"type": "Feature", "geometry": {"type": "Point", "coordinates": [-117.9267, 35.8285]}, "properties": {"NAME": "W6/SS-433", "TITLE": "5660", "REGION": "Southern Sierra", "ASSOCIATION": "USA - CA", "POINTS": "6", "BONUSPOINTS": "0"}}, {"type": "Feature", "geometry": {"type": "Point", "coordinates": [-118.4145, 35.158]}, "properties": {"NAME": "W6/SS-434", "TITLE": "5521", "REGION": "Southern Sierra", "ASSOCIATION": "USA - CA", "POINTS": "6", "BONUSPOINTS": "0"}}, {"type": "Feature", "geometry": {"type": "Point", "coordinates": [-117.9464, 35.8329]}, "properties": {"NAME": "W6/SS-435", "TITLE": "5620", "REGION": "Southern Sierra", "ASSOCIATION": "USA - CA", "POINTS": "6", "BONUSPOINTS": "0"}}, {"type": "Feature", "geometry": {"type": "Point", "coordinates": [-118.6442, 35.585]}, "properties": {"NAME": "W6/SS-436", "TITLE": "5620", "REGION": "Southern Sierra", "ASSOCIATION": "USA - CA", "POINTS": "6", "BONUSPOINTS": "0"}}, {"type": "Feature", "geometry": {"type": "Point", "coordinates": [-118.2188, 35.2476]}, "properties": {"NAME": "W6/SS-437", "TITLE": "5601", "REGION": "Southern Sierra", "ASSOCIATION": "USA - CA", "POINTS": "6", "BONUSPOINTS": "0"}}, {"type": "Feature", "geometry": {"type": "Point", "coordinates": [-117.9345, 35.8702]}, "properties": {"NAME": "W6/SS-438", "TITLE": "5585", "REGION": "Southern Sierra", "ASSOCIATION": "USA - CA", "POINTS": "6", "BONUSPOINTS": "0"}}, {"type": "Feature", "geometry": {"type": "Point", "coordinates": [-118.3485, 35.2558]}, "properties": {"NAME": "W6/SS-439", "TITLE": "5565", "REGION": "Southern Sierra", "ASSOCIATION": "USA - CA", "POINTS": "6", "BONUSPOINTS": "0"}}, {"type": "Feature", "geometry": {"type": "Point", "coordinates": [-117.9487, 35.7637]}, "properties": {"NAME": "W6/SS-440", "TITLE": "5502", "REGION": "Southern Sierra", "ASSOCIATION": "USA - CA", "POINTS": "6", "BONUSPOINTS": "0"}}, {"type": "Feature", "geometry": {"type": "Point", "coordinates": [-118.4624, 35.9565]}, "properties": {"NAME": "W6/SS-441", "TITLE": "5500", "REGION": "Southern Sierra", "ASSOCIATION": "USA - CA", "POINTS": "6", "BONUSPOINTS": "0"}}, {"type": "Feature", "geometry": {"type": "Point", "coordinates": [-118.1126, 36.6338]}, "properties": {"NAME": "W6/SS-442", "TITLE": "Alabama Hills", "REGION": "Southern Sierra", "ASSOCIATION": "USA - CA", "POINTS": "4", "BONUSPOINTS": "0"}}, {"type": "Feature", "geometry": {"type": "Point", "coordinates": [-118.0142, 35.5758]}, "properties": {"NAME": "W6/SS-443", "TITLE": "5352", "REGION": "Southern Sierra", "ASSOCIATION": "USA - CA", "POINTS": "4", "BONUSPOINTS": "0"}}, {"type": "Feature", "geometry": {"type": "Point", "coordinates": [-119.1187, 36.7889]}, "properties": {"NAME": "W6/SS-444", "TITLE": "Pine Ridge", "REGION": "Southern Sierra", "ASSOCIATION": "USA - CA", "POINTS": "4", "BONUSPOINTS": "0"}}, {"type": "Feature", "geometry": {"type": "Point", "coordinates": [-118.8193, 36.3336]}, "properties": {"NAME": "W6/SS-445", "TITLE": "Grouse Peak", "REGION": "Southern Sierra", "ASSOCIATION": "USA - CA", "POINTS": "4", "BONUSPOINTS": "0"}}, {"type": "Feature", "geometry": {"type": "Point", "coordinates": [-119.1754, 36.9615]}, "properties": {"NAME": "W6/SS-446", "TITLE": "Fence Meadow Lookout", "REGION": "Southern Sierra", "ASSOCIATION": "USA - CA", "POINTS": "4", "BONUSPOINTS": "0"}}, {"type": "Feature", "geometry": {"type": "Point", "coordinates": [-118.6532, 35.8569]}, "properties": {"NAME": "W6/SS-447", "TITLE": "Pine Mountain", "REGION": "Southern Sierra", "ASSOCIATION": "USA - CA", "POINTS": "4", "BONUSPOINTS": "0"}}, {"type": "Feature", "geometry": {"type": "Point", "coordinates": [-118.1367, 35.2789]}, "properties": {"NAME": "W6/SS-448", "TITLE": "Cross Mountain", "REGION": "Southern Sierra", "ASSOCIATION": "USA - CA", "POINTS": "4", "BONUSPOINTS": "0"}}, {"type": "Feature", "geometry": {"type": "Point", "coordinates": [-118.1294, 36.6603]}, "properties": {"NAME": "W6/SS-449", "TITLE": "5200", "REGION": "Southern Sierra", "ASSOCIATION": "USA - CA", "POINTS": "4", "BONUSPOINTS": "0"}}, {"type": "Feature", "geometry": {"type": "Point", "coordinates": [-119.8957, 37.7181]}, "properties": {"NAME": "W6/SS-450", "TITLE": "Big Grizzly Mountain", "REGION": "Southern Sierra", "ASSOCIATION": "USA - CA", "POINTS": "4", "BONUSPOINTS": "0"}}, {"type": "Feature", "geometry": {"type": "Point", "coordinates": [-117.9093, 35.6889]}, "properties": {"NAME": "W6/SS-451", "TITLE": "Five Fingers", "REGION": "Southern Sierra", "ASSOCIATION": "USA - CA", "POINTS": "4", "BONUSPOINTS": "0"}}, {"type": "Feature", "geometry": {"type": "Point", "coordinates": [-118.4931, 35.9835]}, "properties": {"NAME": "W6/SS-452", "TITLE": "5140", "REGION": "Southern Sierra", "ASSOCIATION": "USA - CA", "POINTS": "4", "BONUSPOINTS": "0"}}, {"type": "Feature", "geometry": {"type": "Point", "coordinates": [-118.4719, 35.3507]}, "properties": {"NAME": "W6/SS-453", "TITLE": "Black Bill Peak", "REGION": "Southern Sierra", "ASSOCIATION": "USA - CA", "POINTS": "4", "BONUSPOINTS": "0"}}, {"type": "Feature", "geometry": {"type": "Point", "coordinates": [-118.095, 35.2724]}, "properties": {"NAME": "W6/SS-454", "TITLE": "Chuckwalla Mountain", "REGION": "Southern Sierra", "ASSOCIATION": "USA - CA", "POINTS": "4", "BONUSPOINTS": "0"}}, {"type": "Feature", "geometry": {"type": "Point", "coordinates": [-118.3843, 35.2864]}, "properties": {"NAME": "W6/SS-455", "TITLE": "Stevenson Peak", "REGION": "Southern Sierra", "ASSOCIATION": "USA - CA", "POINTS": "4", "BONUSPOINTS": "0"}}, {"type": "Feature", "geometry": {"type": "Point", "coordinates": [-119.3937, 37.1943]}, "properties": {"NAME": "W6/SS-456", "TITLE": "Lion Point", "REGION": "Southern Sierra", "ASSOCIATION": "USA - CA", "POINTS": "4", "BONUSPOINTS": "0"}}, {"type": "Feature", "geometry": {"type": "Point", "coordinates": [-119.5652, 37.295]}, "properties": {"NAME": "W6/SS-457", "TITLE": "Goat Mountain", "REGION": "Southern Sierra", "ASSOCIATION": "USA - CA", "POINTS": "4", "BONUSPOINTS": "0"}}, {"type": "Feature", "geometry": {"type": "Point", "coordinates": [-118.7073, 35.5354]}, "properties": {"NAME": "W6/SS-458", "TITLE": "Brushy Hell Benchmark", "REGION": "Southern Sierra", "ASSOCIATION": "USA - CA", "POINTS": "4", "BONUSPOINTS": "0"}}, {"type": "Feature", "geometry": {"type": "Point", "coordinates": [-118.2041, 35.3065]}, "properties": {"NAME": "W6/SS-459", "TITLE": "4859", "REGION": "Southern Sierra", "ASSOCIATION": "USA - CA", "POINTS": "4", "BONUSPOINTS": "0"}}, {"type": "Feature", "geometry": {"type": "Point", "coordinates": [-118.7594, 35.7598]}, "properties": {"NAME": "W6/SS-460", "TITLE": "Blue Mountain", "REGION": "Southern Sierra", "ASSOCIATION": "USA - CA", "POINTS": "4", "BONUSPOINTS": "0"}}, {"type": "Feature", "geometry": {"type": "Point", "coordinates": [-119.6009, 37.2768]}, "properties": {"NAME": "W6/SS-461", "TITLE": "Thornberry Mountain", "REGION": "Southern Sierra", "ASSOCIATION": "USA - CA", "POINTS": "4", "BONUSPOINTS": "0"}}, {"type": "Feature", "geometry": {"type": "Point", "coordinates": [-119.8854, 37.5699]}, "properties": {"NAME": "W6/SS-462", "TITLE": "Sweetwater Point", "REGION": "Southern Sierra", "ASSOCIATION": "USA - CA", "POINTS": "4", "BONUSPOINTS": "0"}}, {"type": "Feature", "geometry": {"type": "Point", "coordinates": [-118.8433, 36.5076]}, "properties": {"NAME": "W6/SS-463", "TITLE": "Frys Point", "REGION": "Southern Sierra", "ASSOCIATION": "USA - CA", "POINTS": "4", "BONUSPOINTS": "0"}}, {"type": "Feature", "geometry": {"type": "Point", "coordinates": [-119.8399, 37.5857]}, "properties": {"NAME": "W6/SS-464", "TITLE": "Snyder Ridge", "REGION": "Southern Sierra", "ASSOCIATION": "USA - CA", "POINTS": "4", "BONUSPOINTS": "0"}}, {"type": "Feature", "geometry": {"type": "Point", "coordinates": [-119.6858, 37.3135]}, "properties": {"NAME": "W6/SS-465", "TITLE": "Deadwood Peak", "REGION": "Southern Sierra", "ASSOCIATION": "USA - CA", "POINTS": "4", "BONUSPOINTS": "0"}}, {"type": "Feature", "geometry": {"type": "Point", "coordinates": [-118.7651, 35.9561]}, "properties": {"NAME": "W6/SS-466", "TITLE": "Gibbon Peak", "REGION": "Southern Sierra", "ASSOCIATION": "USA - CA", "POINTS": "4", "BONUSPOINTS": "0"}}, {"type": "Feature", "geometry": {"type": "Point", "coordinates": [-118.5124, 35.567]}, "properties": {"NAME": "W6/SS-467", "TITLE": "Hooper Hill", "REGION": "Southern Sierra", "ASSOCIATION": "USA - CA", "POINTS": "4", "BONUSPOINTS": "0"}}, {"type": "Feature", "geometry": {"type": "Point", "coordinates": [-118.9565, 36.5672]}, "properties": {"NAME": "W6/SS-468", "TITLE": "Shadequarter Mountain", "REGION": "Southern Sierra", "ASSOCIATION": "USA - CA", "POINTS": "4", "BONUSPOINTS": "0"}}, {"type": "Feature", "geometry": {"type": "Point", "coordinates": [-119.1602, 36.8509]}, "properties": {"NAME": "W6/SS-469", "TITLE": "Oat Mountain", "REGION": "Southern Sierra", "ASSOCIATION": "USA - CA", "POINTS": "4", "BONUSPOINTS": "0"}}, {"type": "Feature", "geometry": {"type": "Point", "coordinates": [-118.742, 35.8712]}, "properties": {"NAME": "W6/SS-470", "TITLE": "King George Peak", "REGION": "Southern Sierra", "ASSOCIATION": "USA - CA", "POINTS": "4", "BONUSPOINTS": "0"}}, {"type": "Feature", "geometry": {"type": "Point", "coordinates": [-120.0302, 37.5345]}, "properties": {"NAME": "W6/SS-471", "TITLE": "Bullion Benchmark", "REGION": "Southern Sierra", "ASSOCIATION": "USA - CA", "POINTS": "4", "BONUSPOINTS": "0"}}, {"type": "Feature", "geometry": {"type": "Point", "coordinates": [-119.3731, 37.0162]}, "properties": {"NAME": "W6/SS-472", "TITLE": "Burrough Mountain", "REGION": "Southern Sierra", "ASSOCIATION": "USA - CA", "POINTS": "4", "BONUSPOINTS": "0"}}, {"type": "Feature", "geometry": {"type": "Point", "coordinates": [-120.0756, 37.5593]}, "properties": {"NAME": "W6/SS-473", "TITLE": "Fremont Peak", "REGION": "Southern Sierra", "ASSOCIATION": "USA - CA", "POINTS": "4", "BONUSPOINTS": "0"}}, {"type": "Feature", "geometry": {"type": "Point", "coordinates": [-118.4281, 35.7872]}, "properties": {"NAME": "W6/SS-474", "TITLE": "Flume Benchmark", "REGION": "Southern Sierra", "ASSOCIATION": "USA - CA", "POINTS": "4", "BONUSPOINTS": "0"}}, {"type": "Feature", "geometry": {"type": "Point", "coordinates": [-118.0479, 35.3394]}, "properties": {"NAME": "W6/SS-475", "TITLE": "Sugarloaf", "REGION": "Southern Sierra", "ASSOCIATION": "USA - CA", "POINTS": "4", "BONUSPOINTS": "0"}}, {"type": "Feature", "geometry": {"type": "Point", "coordinates": [-119.0472, 36.5963]}, "properties": {"NAME": "W6/SS-476", "TITLE": "Bear Mountain", "REGION": "Southern Sierra", "ASSOCIATION": "USA - CA", "POINTS": "4", "BONUSPOINTS": "0"}}, {"type": "Feature", "geometry": {"type": "Point", "coordinates": [-118.6808, 35.7096]}, "properties": {"NAME": "W6/SS-477", "TITLE": "4022", "REGION": "Southern Sierra", "ASSOCIATION": "USA - CA", "POINTS": "4", "BONUSPOINTS": "0"}}, {"type": "Feature", "geometry": {"type": "Point", "coordinates": [-120.1281, 37.7817]}, "properties": {"NAME": "W6/SS-478", "TITLE": "Wagner Ridge", "REGION": "Southern Sierra", "ASSOCIATION": "USA - CA", "POINTS": "2", "BONUSPOINTS": "0"}}, {"type": "Feature", "geometry": {"type": "Point", "coordinates": [-118.6982, 35.6927]}, "properties": {"NAME": "W6/SS-479", "TITLE": "3950", "REGION": "Southern Sierra", "ASSOCIATION": "USA - CA", "POINTS": "2", "BONUSPOINTS": "0"}}, {"type": "Feature", "geometry": {"type": "Point", "coordinates": [-118.7692, 35.5626]}, "properties": {"NAME": "W6/SS-480", "TITLE": "Pine Mountain", "REGION": "Southern Sierra", "ASSOCIATION": "USA - CA", "POINTS": "2", "BONUSPOINTS": "0"}}, {"type": "Feature", "geometry": {"type": "Point", "coordinates": [-120.101, 37.8008]}, "properties": {"NAME": "W6/SS-481", "TITLE": "Smith Peak", "REGION": "Southern Sierra", "ASSOCIATION": "USA - CA", "POINTS": "2", "BONUSPOINTS": "0"}}, {"type": "Feature", "geometry": {"type": "Point", "coordinates": [-119.9501, 37.5513]}, "properties": {"NAME": "W6/SS-482", "TITLE": "3871", "REGION": "Southern Sierra", "ASSOCIATION": "USA - CA", "POINTS": "2", "BONUSPOINTS": "0"}}, {"type": "Feature", "geometry": {"type": "Point", "coordinates": [-118.9623, 36.54]}, "properties": {"NAME": "W6/SS-483", "TITLE": "3845", "REGION": "Southern Sierra", "ASSOCIATION": "USA - CA", "POINTS": "2", "BONUSPOINTS": "0"}}, {"type": "Feature", "geometry": {"type": "Point", "coordinates": [-118.3838, 35.3316]}, "properties": {"NAME": "W6/SS-484", "TITLE": "3831", "REGION": "Southern Sierra", "ASSOCIATION": "USA - CA", "POINTS": "2", "BONUSPOINTS": "0"}}, {"type": "Feature", "geometry": {"type": "Point", "coordinates": [-119.0696, 36.8132]}, "properties": {"NAME": "W6/SS-485", "TITLE": "3809", "REGION": "Southern Sierra", "ASSOCIATION": "USA - CA", "POINTS": "2", "BONUSPOINTS": "0"}}, {"type": "Feature", "geometry": {"type": "Point", "coordinates": [-118.7853, 36.0577]}, "properties": {"NAME": "W6/SS-486", "TITLE": "Cow Mountain", "REGION": "Southern Sierra", "ASSOCIATION": "USA - CA", "POINTS": "2", "BONUSPOINTS": "0"}}, {"type": "Feature", "geometry": {"type": "Point", "coordinates": [-120.124, 37.6639]}, "properties": {"NAME": "W6/SS-487", "TITLE": "Buckhorn Peak", "REGION": "Southern Sierra", "ASSOCIATION": "USA - CA", "POINTS": "2", "BONUSPOINTS": "0"}}, {"type": "Feature", "geometry": {"type": "Point", "coordinates": [-119.3039, 36.9914]}, "properties": {"NAME": "W6/SS-488", "TITLE": "Davis Mountain", "REGION": "Southern Sierra", "ASSOCIATION": "USA - CA", "POINTS": "2", "BONUSPOINTS": "0"}}, {"type": "Feature", "geometry": {"type": "Point", "coordinates": [-120.0026, 37.5412]}, "properties": {"NAME": "W6/SS-489", "TITLE": "3629", "REGION": "Southern Sierra", "ASSOCIATION": "USA - CA", "POINTS": "2", "BONUSPOINTS": "0"}}, {"type": "Feature", "geometry": {"type": "Point", "coordinates": [-119.2519, 36.9547]}, "properties": {"NAME": "W6/SS-490", "TITLE": "Cats Head Mountain", "REGION": "Southern Sierra", "ASSOCIATION": "USA - CA", "POINTS": "2", "BONUSPOINTS": "0"}}, {"type": "Feature", "geometry": {"type": "Point", "coordinates": [-119.2033, 36.7661]}, "properties": {"NAME": "W6/SS-491", "TITLE": "Bald Mountain", "REGION": "Southern Sierra", "ASSOCIATION": "USA - CA", "POINTS": "2", "BONUSPOINTS": "0"}}, {"type": "Feature", "geometry": {"type": "Point", "coordinates": [-119.4523, 37.013]}, "properties": {"NAME": "W6/SS-492", "TITLE": "Black Mountain", "REGION": "Southern Sierra", "ASSOCIATION": "USA - CA", "POINTS": "2", "BONUSPOINTS": "0"}}, {"type": "Feature", "geometry": {"type": "Point", "coordinates": [-118.8779, 36.4914]}, "properties": {"NAME": "W6/SS-493", "TITLE": "Shepherd Peak", "REGION": "Southern Sierra", "ASSOCIATION": "USA - CA", "POINTS": "2", "BONUSPOINTS": "0"}}, {"type": "Feature", "geometry": {"type": "Point", "coordinates": [-118.7711, 35.6184]}, "properties": {"NAME": "W6/SS-494", "TITLE": "3565", "REGION": "Southern Sierra", "ASSOCIATION": "USA - CA", "POINTS": "2", "BONUSPOINTS": "0"}}, {"type": "Feature", "geometry": {"type": "Point", "coordinates": [-119.2909, 36.9516]}, "properties": {"NAME": "W6/SS-495", "TITLE": "Branford Mountain", "REGION": "Southern Sierra", "ASSOCIATION": "USA - CA", "POINTS": "2", "BONUSPOINTS": "0"}}, {"type": "Feature", "geometry": {"type": "Point", "coordinates": [-119.7713, 37.3722]}, "properties": {"NAME": "W6/SS-496", "TITLE": "Crooks Mountain", "REGION": "Southern Sierra", "ASSOCIATION": "USA - CA", "POINTS": "2", "BONUSPOINTS": "0"}}, {"type": "Feature", "geometry": {"type": "Point", "coordinates": [-119.2413, 36.7747]}, "properties": {"NAME": "W6/SS-497", "TITLE": "Dalton Mountain", "REGION": "Southern Sierra", "ASSOCIATION": "USA - CA", "POINTS": "2", "BONUSPOINTS": "0"}}, {"type": "Feature", "geometry": {"type": "Point", "coordinates": [-118.983, 36.4774]}, "properties": {"NAME": "W6/SS-498", "TITLE": "Greasy Benchmark", "REGION": "Southern Sierra", "ASSOCIATION": "USA - CA", "POINTS": "2", "BONUSPOINTS": "0"}}, {"type": "Feature", "geometry": {"type": "Point", "coordinates": [-118.7821, 35.7956]}, "properties": {"NAME": "W6/SS-499", "TITLE": "3420", "REGION": "Southern Sierra", "ASSOCIATION": "USA - CA", "POINTS": "2", "BONUSPOINTS": "0"}}, {"type": "Feature", "geometry": {"type": "Point", "coordinates": [-119.2799, 36.7467]}, "properties": {"NAME": "W6/SS-500", "TITLE": "Bear Mountain", "REGION": "Southern Sierra", "ASSOCIATION": "USA - CA", "POINTS": "2", "BONUSPOINTS": "0"}}, {"type": "Feature", "geometry": {"type": "Point", "coordinates": [-120.0371, 37.5983]}, "properties": {"NAME": "W6/SS-501", "TITLE": "Telegraph Hill", "REGION": "Southern Sierra", "ASSOCIATION": "USA - CA", "POINTS": "2", "BONUSPOINTS": "0"}}, {"type": "Feature", "geometry": {"type": "Point", "coordinates": [-118.95, 36.4528]}, "properties": {"NAME": "W6/SS-502", "TITLE": "Homer Benchmark", "REGION": "Southern Sierra", "ASSOCIATION": "USA - CA", "POINTS": "2", "BONUSPOINTS": "0"}}, {"type": "Feature", "geometry": {"type": "Point", "coordinates": [-118.83, 36.1506]}, "properties": {"NAME": "W6/SS-503", "TITLE": "Hatchet Peak", "REGION": "Southern Sierra", "ASSOCIATION": "USA - CA", "POINTS": "2", "BONUSPOINTS": "0"}}, {"type": "Feature", "geometry": {"type": "Point", "coordinates": [-119.5773, 37.1649]}, "properties": {"NAME": "W6/SS-504", "TITLE": "Fish Creek Mountain", "REGION": "Southern Sierra", "ASSOCIATION": "USA - CA", "POINTS": "2", "BONUSPOINTS": "0"}}, {"type": "Feature", "geometry": {"type": "Point", "coordinates": [-120.1707, 37.6]}, "properties": {"NAME": "W6/SS-505", "TITLE": "Williams Peak", "REGION": "Southern Sierra", "ASSOCIATION": "USA - CA", "POINTS": "2", "BONUSPOINTS": "0"}}, {"type": "Feature", "geometry": {"type": "Point", "coordinates": [-119.0761, 36.5509]}, "properties": {"NAME": "W6/SS-506", "TITLE": "Blue Mountain", "REGION": "Southern Sierra", "ASSOCIATION": "USA - CA", "POINTS": "2", "BONUSPOINTS": "0"}}, {"type": "Feature", "geometry": {"type": "Point", "coordinates": [-119.1928, 36.8101]}, "properties": {"NAME": "W6/SS-507", "TITLE": "Luckett Mountain", "REGION": "Southern Sierra", "ASSOCIATION": "USA - CA", "POINTS": "2", "BONUSPOINTS": "0"}}, {"type": "Feature", "geometry": {"type": "Point", "coordinates": [-119.3133, 36.8857]}, "properties": {"NAME": "W6/SS-508", "TITLE": "Hog Mountain", "REGION": "Southern Sierra", "ASSOCIATION": "USA - CA", "POINTS": "2", "BONUSPOINTS": "0"}}, {"type": "Feature", "geometry": {"type": "Point", "coordinates": [-120.1449, 37.5592]}, "properties": {"NAME": "W6/SS-509", "TITLE": "3125", "REGION": "Southern Sierra", "ASSOCIATION": "USA - CA", "POINTS": "2", "BONUSPOINTS": "0"}}, {"type": "Feature", "geometry": {"type": "Point", "coordinates": [-119.4081, 36.971]}, "properties": {"NAME": "W6/SS-510", "TITLE": "Green Mountain", "REGION": "Southern Sierra", "ASSOCIATION": "USA - CA", "POINTS": "2", "BONUSPOINTS": "0"}}, {"type": "Feature", "geometry": {"type": "Point", "coordinates": [-119.4166, 36.9319]}, "properties": {"NAME": "W6/SS-511", "TITLE": "3078", "REGION": "Southern Sierra", "ASSOCIATION": "USA - CA", "POINTS": "2", "BONUSPOINTS": "0"}}, {"type": "Feature", "geometry": {"type": "Point", "coordinates": [-119.7638, 37.3275]}, "properties": {"NAME": "W6/SS-512", "TITLE": "Indian Hill", "REGION": "Southern Sierra", "ASSOCIATION": "USA - CA", "POINTS": "2", "BONUSPOINTS": "0"}}, {"type": "Feature", "geometry": {"type": "Point", "coordinates": [-119.1577, 36.7081]}, "properties": {"NAME": "W6/SS-513", "TITLE": "2992", "REGION": "Southern Sierra", "ASSOCIATION": "USA - CA", "POINTS": "2", "BONUSPOINTS": "0"}}, {"type": "Feature", "geometry": {"type": "Point", "coordinates": [-118.9035, 36.3794]}, "properties": {"NAME": "W6/SS-514", "TITLE": "2991", "REGION": "Southern Sierra", "ASSOCIATION": "USA - CA", "POINTS": "2", "BONUSPOINTS": "0"}}, {"type": "Feature", "geometry": {"type": "Point", "coordinates": [-120.2998, 37.7706]}, "properties": {"NAME": "W6/SS-515", "TITLE": "North Penon Blanco Ridge", "REGION": "Southern Sierra", "ASSOCIATION": "USA - CA", "POINTS": "2", "BONUSPOINTS": "0"}}, {"type": "Feature", "geometry": {"type": "Point", "coordinates": [-120.328, 37.8052]}, "properties": {"NAME": "W6/SS-516", "TITLE": "Moccasin Peak", "REGION": "Southern Sierra", "ASSOCIATION": "USA - CA", "POINTS": "2", "BONUSPOINTS": "0"}}, {"type": "Feature", "geometry": {"type": "Point", "coordinates": [-119.1344, 36.7301]}, "properties": {"NAME": "W6/SS-517", "TITLE": "2935", "REGION": "Southern Sierra", "ASSOCIATION": "USA - CA", "POINTS": "2", "BONUSPOINTS": "0"}}, {"type": "Feature", "geometry": {"type": "Point", "coordinates": [-119.519, 37.1044]}, "properties": {"NAME": "W6/SS-518", "TITLE": "Rock Mountain", "REGION": "Southern Sierra", "ASSOCIATION": "USA - CA", "POINTS": "2", "BONUSPOINTS": "0"}}, {"type": "Feature", "geometry": {"type": "Point", "coordinates": [-118.9443, 36.3201]}, "properties": {"NAME": "W6/SS-519", "TITLE": "Potato Hill", "REGION": "Southern Sierra", "ASSOCIATION": "USA - CA", "POINTS": "2", "BONUSPOINTS": "0"}}, {"type": "Feature", "geometry": {"type": "Point", "coordinates": [-118.8101, 35.9053]}, "properties": {"NAME": "W6/SS-520", "TITLE": "Galley Mountain", "REGION": "Southern Sierra", "ASSOCIATION": "USA - CA", "POINTS": "2", "BONUSPOINTS": "0"}}, {"type": "Feature", "geometry": {"type": "Point", "coordinates": [-119.359, 36.9609]}, "properties": {"NAME": "W6/SS-521", "TITLE": "2851", "REGION": "Southern Sierra", "ASSOCIATION": "USA - CA", "POINTS": "2", "BONUSPOINTS": "0"}}, {"type": "Feature", "geometry": {"type": "Point", "coordinates": [-119.3593, 36.8004]}, "properties": {"NAME": "W6/SS-522", "TITLE": "Tivy Mountain", "REGION": "Southern Sierra", "ASSOCIATION": "USA - CA", "POINTS": "2", "BONUSPOINTS": "0"}}, {"type": "Feature", "geometry": {"type": "Point", "coordinates": [-119.1588, 36.6289]}, "properties": {"NAME": "W6/SS-523", "TITLE": "Goldstein Peak", "REGION": "Southern Sierra", "ASSOCIATION": "USA - CA", "POINTS": "2", "BONUSPOINTS": "0"}}, {"type": "Feature", "geometry": {"type": "Point", "coordinates": [-119.2649, 36.8338]}, "properties": {"NAME": "W6/SS-524", "TITLE": "2672", "REGION": "Southern Sierra", "ASSOCIATION": "USA - CA", "POINTS": "2", "BONUSPOINTS": "0"}}, {"type": "Feature", "geometry": {"type": "Point", "coordinates": [-119.3384, 36.9569]}, "properties": {"NAME": "W6/SS-525", "TITLE": "2665", "REGION": "Southern Sierra", "ASSOCIATION": "USA - CA", "POINTS": "2", "BONUSPOINTS": "0"}}, {"type": "Feature", "geometry": {"type": "Point", "coordinates": [-120.2099, 37.6812]}, "properties": {"NAME": "W6/SS-526", "TITLE": "Horseshoe Bend Mountain", "REGION": "Southern Sierra", "ASSOCIATION": "USA - CA", "POINTS": "2", "BONUSPOINTS": "0"}}, {"type": "Feature", "geometry": {"type": "Point", "coordinates": [-120.0177, 37.4758]}, "properties": {"NAME": "W6/SS-527", "TITLE": "Negro Hill", "REGION": "Southern Sierra", "ASSOCIATION": "USA - CA", "POINTS": "2", "BONUSPOINTS": "0"}}, {"type": "Feature", "geometry": {"type": "Point", "coordinates": [-119.9412, 37.4073]}, "properties": {"NAME": "W6/SS-528", "TITLE": "Lookout Mountain", "REGION": "Southern Sierra", "ASSOCIATION": "USA - CA", "POINTS": "2", "BONUSPOINTS": "0"}}, {"type": "Feature", "geometry": {"type": "Point", "coordinates": [-119.2094, 36.6386]}, "properties": {"NAME": "W6/SS-529", "TITLE": "Tucker Mountain", "REGION": "Southern Sierra", "ASSOCIATION": "USA - CA", "POINTS": "2", "BONUSPOINTS": "0"}}, {"type": "Feature", "geometry": {"type": "Point", "coordinates": [-119.9874, 37.3908]}, "properties": {"NAME": "W6/SS-530", "TITLE": "Moore Hill", "REGION": "Southern Sierra", "ASSOCIATION": "USA - CA", "POINTS": "2", "BONUSPOINTS": "0"}}, {"type": "Feature", "geometry": {"type": "Point", "coordinates": [-119.4782, 37.1465]}, "properties": {"NAME": "W6/SS-531", "TITLE": "Long Ridge", "REGION": "Southern Sierra", "ASSOCIATION": "USA - CA", "POINTS": "2", "BONUSPOINTS": "0"}}, {"type": "Feature", "geometry": {"type": "Point", "coordinates": [-118.932, 36.2127]}, "properties": {"NAME": "W6/SS-532", "TITLE": "2540", "REGION": "Southern Sierra", "ASSOCIATION": "USA - CA", "POINTS": "2", "BONUSPOINTS": "0"}}, {"type": "Feature", "geometry": {"type": "Point", "coordinates": [-120.3609, 37.8205]}, "properties": {"NAME": "W6/SS-533", "TITLE": "2525", "REGION": "Southern Sierra", "ASSOCIATION": "USA - CA", "POINTS": "2", "BONUSPOINTS": "0"}}, {"type": "Feature", "geometry": {"type": "Point", "coordinates": [-120.3307, 37.786]}, "properties": {"NAME": "W6/SS-534", "TITLE": "Domingo Peak", "REGION": "Southern Sierra", "ASSOCIATION": "USA - CA", "POINTS": "1", "BONUSPOINTS": "0"}}, {"type": "Feature", "geometry": {"type": "Point", "coordinates": [-118.8799, 35.9386]}, "properties": {"NAME": "W6/SS-535", "TITLE": "Quedow Mountain", "REGION": "Southern Sierra", "ASSOCIATION": "USA - CA", "POINTS": "1", "BONUSPOINTS": "0"}}, {"type": "Feature", "geometry": {"type": "Point", "coordinates": [-118.8284, 35.8114]}, "properties": {"NAME": "W6/SS-536", "TITLE": "Bald Mountain", "REGION": "Southern Sierra", "ASSOCIATION": "USA - CA", "POINTS": "1", "BONUSPOINTS": "0"}}, {"type": "Feature", "geometry": {"type": "Point", "coordinates": [-119.3337, 36.8404]}, "properties": {"NAME": "W6/SS-537", "TITLE": "Hughes Mountain", "REGION": "Southern Sierra", "ASSOCIATION": "USA - CA", "POINTS": "1", "BONUSPOINTS": "0"}}, {"type": "Feature", "geometry": {"type": "Point", "coordinates": [-119.043, 36.467]}, "properties": {"NAME": "W6/SS-538", "TITLE": "Davis Mountain", "REGION": "Southern Sierra", "ASSOCIATION": "USA - CA", "POINTS": "1", "BONUSPOINTS": "0"}}, {"type": "Feature", "geometry": {"type": "Point", "coordinates": [-118.9542, 36.2307]}, "properties": {"NAME": "W6/SS-539", "TITLE": "2349", "REGION": "Southern Sierra", "ASSOCIATION": "USA - CA", "POINTS": "1", "BONUSPOINTS": "0"}}, {"type": "Feature", "geometry": {"type": "Point", "coordinates": [-119.2944, 36.9151]}, "properties": {"NAME": "W6/SS-540", "TITLE": "Hacker Mountain", "REGION": "Southern Sierra", "ASSOCIATION": "USA - CA", "POINTS": "1", "BONUSPOINTS": "0"}}, {"type": "Feature", "geometry": {"type": "Point", "coordinates": [-119.0985, 36.5123]}, "properties": {"NAME": "W6/SS-541", "TITLE": "Red Mountain", "REGION": "Southern Sierra", "ASSOCIATION": "USA - CA", "POINTS": "1", "BONUSPOINTS": "0"}}, {"type": "Feature", "geometry": {"type": "Point", "coordinates": [-118.9138, 36.1769]}, "properties": {"NAME": "W6/SS-542", "TITLE": "Campbell Benchmark", "REGION": "Southern Sierra", "ASSOCIATION": "USA - CA", "POINTS": "1", "BONUSPOINTS": "0"}}, {"type": "Feature", "geometry": {"type": "Point", "coordinates": [-120.1449, 37.4456]}, "properties": {"NAME": "W6/SS-543", "TITLE": "Shultz Mountain", "REGION": "Southern Sierra", "ASSOCIATION": "USA - CA", "POINTS": "1", "BONUSPOINTS": "0"}}, {"type": "Feature", "geometry": {"type": "Point", "coordinates": [-118.9825, 36.3788]}, "properties": {"NAME": "W6/SS-544", "TITLE": "2260", "REGION": "Southern Sierra", "ASSOCIATION": "USA - CA", "POINTS": "1", "BONUSPOINTS": "0"}}, {"type": "Feature", "geometry": {"type": "Point", "coordinates": [-119.325, 36.7853]}, "properties": {"NAME": "W6/SS-545", "TITLE": "Harmon Peak", "REGION": "Southern Sierra", "ASSOCIATION": "USA - CA", "POINTS": "1", "BONUSPOINTS": "0"}}, {"type": "Feature", "geometry": {"type": "Point", "coordinates": [-119.121, 36.5989]}, "properties": {"NAME": "W6/SS-546", "TITLE": "2188", "REGION": "Southern Sierra", "ASSOCIATION": "USA - CA", "POINTS": "1", "BONUSPOINTS": "0"}}, {"type": "Feature", "geometry": {"type": "Point", "coordinates": [-119.1871, 36.5239]}, "properties": {"NAME": "W6/SS-547", "TITLE": "Stokes Mountain", "REGION": "Southern Sierra", "ASSOCIATION": "USA - CA", "POINTS": "1", "BONUSPOINTS": "0"}}, {"type": "Feature", "geometry": {"type": "Point", "coordinates": [-119.4846, 36.9508]}, "properties": {"NAME": "W6/SS-548", "TITLE": "Keys Mountain", "REGION": "Southern Sierra", "ASSOCIATION": "USA - CA", "POINTS": "1", "BONUSPOINTS": "0"}}, {"type": "Feature", "geometry": {"type": "Point", "coordinates": [-119.55, 37.1312]}, "properties": {"NAME": "W6/SS-549", "TITLE": "2135", "REGION": "Southern Sierra", "ASSOCIATION": "USA - CA", "POINTS": "1", "BONUSPOINTS": "0"}}, {"type": "Feature", "geometry": {"type": "Point", "coordinates": [-119.5822, 37.0463]}, "properties": {"NAME": "W6/SS-550", "TITLE": "2030", "REGION": "Southern Sierra", "ASSOCIATION": "USA - CA", "POINTS": "1", "BONUSPOINTS": "0"}}, {"type": "Feature", "geometry": {"type": "Point", "coordinates": [-119.1718, 36.5564]}, "properties": {"NAME": "W6/SS-551", "TITLE": "Cliff Peak", "REGION": "Southern Sierra", "ASSOCIATION": "USA - CA", "POINTS": "1", "BONUSPOINTS": "0"}}, {"type": "Feature", "geometry": {"type": "Point", "coordinates": [-119.6177, 37.0723]}, "properties": {"NAME": "W6/SS-552", "TITLE": "Crook Mountain", "REGION": "Southern Sierra", "ASSOCIATION": "USA - CA", "POINTS": "1", "BONUSPOINTS": "0"}}, {"type": "Feature", "geometry": {"type": "Point", "coordinates": [-118.8413, 35.8275]}, "properties": {"NAME": "W6/SS-553", "TITLE": "1956", "REGION": "Southern Sierra", "ASSOCIATION": "USA - CA", "POINTS": "1", "BONUSPOINTS": "0"}}, {"type": "Feature", "geometry": {"type": "Point", "coordinates": [-119.5499, 37.0015]}, "properties": {"NAME": "W6/SS-554", "TITLE": "Corlew Mountain", "REGION": "Southern Sierra", "ASSOCIATION": "USA - CA", "POINTS": "1", "BONUSPOINTS": "0"}}, {"type": "Feature", "geometry": {"type": "Point", "coordinates": [-119.122, 36.5632]}, "properties": {"NAME": "W6/SS-555", "TITLE": "Grapevine Peak", "REGION": "Southern Sierra", "ASSOCIATION": "USA - CA", "POINTS": "1", "BONUSPOINTS": "0"}}, {"type": "Feature", "geometry": {"type": "Point", "coordinates": [-119.795, 37.1814]}, "properties": {"NAME": "W6/SS-556", "TITLE": "Lilley Mountain", "REGION": "Southern Sierra", "ASSOCIATION": "USA - CA", "POINTS": "1", "BONUSPOINTS": "0"}}, {"type": "Feature", "geometry": {"type": "Point", "coordinates": [-119.671, 37.0554]}, "properties": {"NAME": "W6/SS-557", "TITLE": "Hulbert Mountain", "REGION": "Southern Sierra", "ASSOCIATION": "USA - CA", "POINTS": "1", "BONUSPOINTS": "0"}}, {"type": "Feature", "geometry": {"type": "Point", "coordinates": [-118.9229, 36.1446]}, "properties": {"NAME": "W6/SS-558", "TITLE": "1842", "REGION": "Southern Sierra", "ASSOCIATION": "USA - CA", "POINTS": "1", "BONUSPOINTS": "0"}}, {"type": "Feature", "geometry": {"type": "Point", "coordinates": [-119.1387, 36.555]}, "properties": {"NAME": "W6/SS-559", "TITLE": "1812", "REGION": "Southern Sierra", "ASSOCIATION": "USA - CA", "POINTS": "1", "BONUSPOINTS": "0"}}, {"type": "Feature", "geometry": {"type": "Point", "coordinates": [-120.2926, 37.6106]}, "properties": {"NAME": "W6/SS-560", "TITLE": "Webb Benchmark", "REGION": "Southern Sierra", "ASSOCIATION": "USA - CA", "POINTS": "1", "BONUSPOINTS": "0"}}, {"type": "Feature", "geometry": {"type": "Point", "coordinates": [-120.3882, 37.8395]}, "properties": {"NAME": "W6/SS-561", "TITLE": "1785", "REGION": "Southern Sierra", "ASSOCIATION": "USA - CA", "POINTS": "1", "BONUSPOINTS": "0"}}, {"type": "Feature", "geometry": {"type": "Point", "coordinates": [-120.4888, 37.8553]}, "properties": {"NAME": "W6/SS-562", "TITLE": "Red Hills", "REGION": "Southern Sierra", "ASSOCIATION": "USA - CA", "POINTS": "1", "BONUSPOINTS": "0"}}, {"type": "Feature", "geometry": {"type": "Point", "coordinates": [-119.0295, 36.2943]}, "properties": {"NAME": "W6/SS-563", "TITLE": "Monument Hill", "REGION": "Southern Sierra", "ASSOCIATION": "USA - CA", "POINTS": "1", "BONUSPOINTS": "0"}}, {"type": "Feature", "geometry": {"type": "Point", "coordinates": [-119.0576, 36.4283]}, "properties": {"NAME": "W6/SS-564", "TITLE": "1688", "REGION": "Southern Sierra", "ASSOCIATION": "USA - CA", "POINTS": "1", "BONUSPOINTS": "0"}}, {"type": "Feature", "geometry": {"type": "Point", "coordinates": [-119.6416, 36.93]}, "properties": {"NAME": "W6/SS-565", "TITLE": "Owens Mountain", "REGION": "Southern Sierra", "ASSOCIATION": "USA - CA", "POINTS": "1", "BONUSPOINTS": "0"}}, {"type": "Feature", "geometry": {"type": "Point", "coordinates": [-119.0859, 36.2873]}, "properties": {"NAME": "W6/SS-566", "TITLE": "Rocky Hill", "REGION": "Southern Sierra", "ASSOCIATION": "USA - CA", "POINTS": "1", "BONUSPOINTS": "0"}}, {"type": "Feature", "geometry": {"type": "Point", "coordinates": [-119.5366, 36.9555]}, "properties": {"NAME": "W6/SS-567", "TITLE": "1524", "REGION": "Southern Sierra", "ASSOCIATION": "USA - CA", "POINTS": "1", "BONUSPOINTS": "0"}}, {"type": "Feature", "geometry": {"type": "Point", "coordinates": [-120.5684, 37.8285]}, "properties": {"NAME": "W6/SS-568", "TITLE": "Rushing Mountain", "REGION": "Southern Sierra", "ASSOCIATION": "USA - CA", "POINTS": "1", "BONUSPOINTS": "0"}}, {"type": "Feature", "geometry": {"type": "Point", "coordinates": [-119.1676, 36.5278]}, "properties": {"NAME": "W6/SS-569", "TITLE": "1501", "REGION": "Southern Sierra", "ASSOCIATION": "USA - CA", "POINTS": "1", "BONUSPOINTS": "0"}}, {"type": "Feature", "geometry": {"type": "Point", "coordinates": [-119.0611, 36.2445]}, "properties": {"NAME": "W6/SS-570", "TITLE": "Lindsay Peak", "REGION": "Southern Sierra", "ASSOCIATION": "USA - CA", "POINTS": "1", "BONUSPOINTS": "0"}}, {"type": "Feature", "geometry": {"type": "Point", "coordinates": [-119.0946, 36.4598]}, "properties": {"NAME": "W6/SS-571", "TITLE": "1345", "REGION": "Southern Sierra", "ASSOCIATION": "USA - CA", "POINTS": "1", "BONUSPOINTS": "0"}}, {"type": "Feature", "geometry": {"type": "Point", "coordinates": [-119.0466, 36.3613]}, "properties": {"NAME": "W6/SS-572", "TITLE": "1066", "REGION": "Southern Sierra", "ASSOCIATION": "USA - CA", "POINTS": "1", "BONUSPOINTS": "0"}}, {"type": "Feature", "geometry": {"type": "Point", "coordinates": [-118.2761, 36.5517]}, "properties": {"NAME": "W6/SS-573", "TITLE": "Mount McAdie", "REGION": "Southern Sierra", "ASSOCIATION": "USA - CA", "POINTS": "10", "BONUSPOINTS": "3"}}, {"type": "Feature", "geometry": {"type": "Point", "coordinates": [-118.3107, 36.626]}, "properties": {"NAME": "W6/SS-574", "TITLE": "13746", "REGION": "Southern Sierra", "ASSOCIATION": "USA - CA", "POINTS": "10", "BONUSPOINTS": "3"}}, {"type": "Feature", "geometry": {"type": "Point", "coordinates": [-118.6608, 37.1508]}, "properties": {"NAME": "W6/SS-575", "TITLE": "Mount Haeckel", "REGION": "Southern Sierra", "ASSOCIATION": "USA - CA", "POINTS": "10", "BONUSPOINTS": "3"}}, {"type": "Feature", "geometry": {"type": "Point", "coordinates": [-118.2985, 36.6114]}, "properties": {"NAME": "W6/SS-576", "TITLE": "Mount Carl Heller", "REGION": "Southern Sierra", "ASSOCIATION": "USA - CA", "POINTS": "10", "BONUSPOINTS": "3"}}, {"type": "Feature", "geometry": {"type": "Point", "coordinates": [-118.6745, 37.1284]}, "properties": {"NAME": "W6/SS-577", "TITLE": "Mount Warlow", "REGION": "Southern Sierra", "ASSOCIATION": "USA - CA", "POINTS": "10", "BONUSPOINTS": "3"}}, {"type": "Feature", "geometry": {"type": "Point", "coordinates": [-118.4037, 36.9656]}, "properties": {"NAME": "W6/SS-578", "TITLE": "Striped Mountain", "REGION": "Southern Sierra", "ASSOCIATION": "USA - CA", "POINTS": "10", "BONUSPOINTS": "3"}}, {"type": "Feature", "geometry": {"type": "Point", "coordinates": [-118.3895, 36.8353]}, "properties": {"NAME": "W6/SS-579", "TITLE": "13070", "REGION": "Southern Sierra", "ASSOCIATION": "USA - CA", "POINTS": "10", "BONUSPOINTS": "3"}}, {"type": "Feature", "geometry": {"type": "Point", "coordinates": [-118.4786, 36.6858]}, "properties": {"NAME": "W6/SS-580", "TITLE": "Sky Pilot Peak", "REGION": "Southern Sierra", "ASSOCIATION": "USA - CA", "POINTS": "10", "BONUSPOINTS": "3"}}, {"type": "Feature", "geometry": {"type": "Point", "coordinates": [-118.3344, 36.6726]}, "properties": {"NAME": "W6/SS-581", "TITLE": "Polychrome Peak", "REGION": "Southern Sierra", "ASSOCIATION": "USA - CA", "POINTS": "10", "BONUSPOINTS": "3"}}, {"type": "Feature", "geometry": {"type": "Point", "coordinates": [-118.5042, 37.0059]}, "properties": {"NAME": "W6/SS-582", "TITLE": "12882", "REGION": "Southern Sierra", "ASSOCIATION": "USA - CA", "POINTS": "10", "BONUSPOINTS": "3"}}, {"type": "Feature", "geometry": {"type": "Point", "coordinates": [-119.2808, 37.7316]}, "properties": {"NAME": "W6/SS-583", "TITLE": "12767", "REGION": "Southern Sierra", "ASSOCIATION": "USA - CA", "POINTS": "10", "BONUSPOINTS": "3"}}, {"type": "Feature", "geometry": {"type": "Point", "coordinates": [-118.5415, 37.0894]}, "properties": {"NAME": "W6/SS-584", "TITLE": "Columbine Peak", "REGION": "Southern Sierra", "ASSOCIATION": "USA - CA", "POINTS": "10", "BONUSPOINTS": "3"}}, {"type": "Feature", "geometry": {"type": "Point", "coordinates": [-118.5254, 36.5998]}, "properties": {"NAME": "W6/SS-585", "TITLE": "12660", "REGION": "Southern Sierra", "ASSOCIATION": "USA - CA", "POINTS": "10", "BONUSPOINTS": "3"}}, {"type": "Feature", "geometry": {"type": "Point", "coordinates": [-118.443, 36.9031]}, "properties": {"NAME": "W6/SS-586", "TITLE": "12349", "REGION": "Southern Sierra", "ASSOCIATION": "USA - CA", "POINTS": "10", "BONUSPOINTS": "3"}}, {"type": "Feature", "geometry": {"type": "Point", "coordinates": [-118.7348, 37.0539]}, "properties": {"NAME": "W6/SS-587", "TITLE": "12323", "REGION": "Southern Sierra", "ASSOCIATION": "USA - CA", "POINTS": "10", "BONUSPOINTS": "3"}}, {"type": "Feature", "geometry": {"type": "Point", "coordinates": [-118.5549, 36.4911]}, "properties": {"NAME": "W6/SS-588", "TITLE": "12172", "REGION": "Southern Sierra", "ASSOCIATION": "USA - CA", "POINTS": "10", "BONUSPOINTS": "3"}}, {"type": "Feature", "geometry": {"type": "Point", "coordinates": [-118.8897, 37.47]}, "properties": {"NAME": "W6/SS-589", "TITLE": "Mount Izaak Walton", "REGION": "Southern Sierra", "ASSOCIATION": "USA - CA", "POINTS": "10", "BONUSPOINTS": "3"}}, {"type": "Feature", "geometry": {"type": "Point", "coordinates": [-119.0189, 37.4499]}, "properties": {"NAME": "W6/SS-590", "TITLE": "11620", "REGION": "Southern Sierra", "ASSOCIATION": "USA - CA", "POINTS": "10", "BONUSPOINTS": "3"}}, {"type": "Feature", "geometry": {"type": "Point", "coordinates": [-118.7208, 36.9911]}, "properties": {"NAME": "W6/SS-591", "TITLE": "11485", "REGION": "Southern Sierra", "ASSOCIATION": "USA - CA", "POINTS": "10", "BONUSPOINTS": "3"}}, {"type": "Feature", "geometry": {"type": "Point", "coordinates": [-118.6303, 36.6471]}, "properties": {"NAME": "W6/SS-592", "TITLE": "11420", "REGION": "Southern Sierra", "ASSOCIATION": "USA - CA", "POINTS": "10", "BONUSPOINTS": "3"}}, {"type": "Feature", "geometry": {"type": "Point", "coordinates": [-118.936, 37.4421]}, "properties": {"NAME": "W6/SS-593", "TITLE": "11278", "REGION": "Southern Sierra", "ASSOCIATION": "USA - CA", "POINTS": "10", "BONUSPOINTS": "3"}}, {"type": "Feature", "geometry": {"type": "Point", "coordinates": [-118.6681, 36.8932]}, "properties": {"NAME": "W6/SS-594", "TITLE": "11114", "REGION": "Southern Sierra", "ASSOCIATION": "USA - CA", "POINTS": "10", "BONUSPOINTS": "3"}}, {"type": "Feature", "geometry": {"type": "Point", "coordinates": [-119.328, 37.628]}, "properties": {"NAME": "W6/SS-595", "TITLE": "Post Peak", "REGION": "Southern Sierra", "ASSOCIATION": "USA - CA", "POINTS": "10", "BONUSPOINTS": "3"}}, {"type": "Feature", "geometry": {"type": "Point", "coordinates": [-118.2488, 36.2795]}, "properties": {"NAME": "W6/SS-596", "TITLE": "10980", "REGION": "Southern Sierra", "ASSOCIATION": "USA - CA", "POINTS": "8", "BONUSPOINTS": "3"}}, {"type": "Feature", "geometry": {"type": "Point", "coordinates": [-118.3093, 36.3987]}, "properties": {"NAME": "W6/SS-597", "TITLE": "10755", "REGION": "Southern Sierra", "ASSOCIATION": "USA - CA", "POINTS": "8", "BONUSPOINTS": "3"}}, {"type": "Feature", "geometry": {"type": "Point", "coordinates": [-119.0432, 37.4614]}, "properties": {"NAME": "W6/SS-598", "TITLE": "Cockscomb", "REGION": "Southern Sierra", "ASSOCIATION": "USA - CA", "POINTS": "8", "BONUSPOINTS": "3"}}, {"type": "Feature", "geometry": {"type": "Point", "coordinates": [-118.1767, 36.3918]}, "properties": {"NAME": "W6/SS-599", "TITLE": "Sharknose Ridge", "REGION": "Southern Sierra", "ASSOCIATION": "USA - CA", "POINTS": "8", "BONUSPOINTS": "3"}}, {"type": "Feature", "geometry": {"type": "Point", "coordinates": [-118.1023, 36.3246]}, "properties": {"NAME": "W6/SS-600", "TITLE": "Cartago Peak", "REGION": "Southern Sierra", "ASSOCIATION": "USA - CA", "POINTS": "8", "BONUSPOINTS": "3"}}, {"type": "Feature", "geometry": {"type": "Point", "coordinates": [-119.0464, 37.5675]}, "properties": {"NAME": "W6/SS-601", "TITLE": "9717", "REGION": "Southern Sierra", "ASSOCIATION": "USA - CA", "POINTS": "8", "BONUSPOINTS": "3"}}, {"type": "Feature", "geometry": {"type": "Point", "coordinates": [-118.4117, 36.0278]}, "properties": {"NAME": "W6/SS-602", "TITLE": "9611", "REGION": "Southern Sierra", "ASSOCIATION": "USA - CA", "POINTS": "8", "BONUSPOINTS": "3"}}, {"type": "Feature", "geometry": {"type": "Point", "coordinates": [-119.5364, 37.6168]}, "properties": {"NAME": "W6/SS-603", "TITLE": "Horse Ridge", "REGION": "Southern Sierra", "ASSOCIATION": "USA - CA", "POINTS": "8", "BONUSPOINTS": "3"}}, {"type": "Feature", "geometry": {"type": "Point", "coordinates": [-119.1266, 37.4981]}, "properties": {"NAME": "W6/SS-604", "TITLE": "Rube Benchmark", "REGION": "Southern Sierra", "ASSOCIATION": "USA - CA", "POINTS": "8", "BONUSPOINTS": "3"}}, {"type": "Feature", "geometry": {"type": "Point", "coordinates": [-118.094, 36.0638]}, "properties": {"NAME": "W6/SS-605", "TITLE": "Ball Mountain", "REGION": "Southern Sierra", "ASSOCIATION": "USA - CA", "POINTS": "8", "BONUSPOINTS": "3"}}, {"type": "Feature", "geometry": {"type": "Point", "coordinates": [-118.052, 36.0705]}, "properties": {"NAME": "W6/SS-606", "TITLE": "9220", "REGION": "Southern Sierra", "ASSOCIATION": "USA - CA", "POINTS": "8", "BONUSPOINTS": "3"}}, {"type": "Feature", "geometry": {"type": "Point", "coordinates": [-118.3794, 36.3014]}, "properties": {"NAME": "W6/SS-607", "TITLE": "9196", "REGION": "Southern Sierra", "ASSOCIATION": "USA - CA", "POINTS": "8", "BONUSPOINTS": "3"}}, {"type": "Feature", "geometry": {"type": "Point", "coordinates": [-118.1847, 36.1305]}, "properties": {"NAME": "W6/SS-608", "TITLE": "9156", "REGION": "Southern Sierra", "ASSOCIATION": "USA - CA", "POINTS": "8", "BONUSPOINTS": "3"}}, {"type": "Feature", "geometry": {"type": "Point", "coordinates": [-118.2808, 36.2395]}, "properties": {"NAME": "W6/SS-609", "TITLE": "9097", "REGION": "Southern Sierra", "ASSOCIATION": "USA - CA", "POINTS": "8", "BONUSPOINTS": "3"}}, {"type": "Feature", "geometry": {"type": "Point", "coordinates": [-118.7024, 36.4963]}, "properties": {"NAME": "W6/SS-610", "TITLE": "Amphitheater Dome", "REGION": "Southern Sierra", "ASSOCIATION": "USA - CA", "POINTS": "8", "BONUSPOINTS": "3"}}, {"type": "Feature", "geometry": {"type": "Point", "coordinates": [-118.0342, 36.01]}, "properties": {"NAME": "W6/SS-611", "TITLE": "8820", "REGION": "Southern Sierra", "ASSOCIATION": "USA - CA", "POINTS": "8", "BONUSPOINTS": "3"}}, {"type": "Feature", "geometry": {"type": "Point", "coordinates": [-118.4766, 36.257]}, "properties": {"NAME": "W6/SS-612", "TITLE": "White Mountain", "REGION": "Southern Sierra", "ASSOCIATION": "USA - CA", "POINTS": "8", "BONUSPOINTS": "3"}}, {"type": "Feature", "geometry": {"type": "Point", "coordinates": [-119.2491, 37.5712]}, "properties": {"NAME": "W6/SS-613", "TITLE": "Green Mountain", "REGION": "Southern Sierra", "ASSOCIATION": "USA - CA", "POINTS": "8", "BONUSPOINTS": "3"}}, {"type": "Feature", "geometry": {"type": "Point", "coordinates": [-118.9678, 37.061]}, "properties": {"NAME": "W6/SS-614", "TITLE": "8500", "REGION": "Southern Sierra", "ASSOCIATION": "USA - CA", "POINTS": "8", "BONUSPOINTS": "3"}}, {"type": "Feature", "geometry": {"type": "Point", "coordinates": [-118.716, 36.7731]}, "properties": {"NAME": "W6/SS-615", "TITLE": "Lookout Peak", "REGION": "Southern Sierra", "ASSOCIATION": "USA - CA", "POINTS": "8", "BONUSPOINTS": "3"}}, {"type": "Feature", "geometry": {"type": "Point", "coordinates": [-118.3449, 35.8113]}, "properties": {"NAME": "W6/SS-616", "TITLE": "8443", "REGION": "Southern Sierra", "ASSOCIATION": "USA - CA", "POINTS": "8", "BONUSPOINTS": "3"}}, {"type": "Feature", "geometry": {"type": "Point", "coordinates": [-118.0175, 35.9549]}, "properties": {"NAME": "W6/SS-617", "TITLE": "Wortley Benchmark", "REGION": "Southern Sierra", "ASSOCIATION": "USA - CA", "POINTS": "8", "BONUSPOINTS": "3"}}, {"type": "Feature", "geometry": {"type": "Point", "coordinates": [-118.3594, 35.4799]}, "properties": {"NAME": "W6/SS-618", "TITLE": "Piute Lookout", "REGION": "Southern Sierra", "ASSOCIATION": "USA - CA", "POINTS": "8", "BONUSPOINTS": "3"}}, {"type": "Feature", "geometry": {"type": "Point", "coordinates": [-118.4081, 35.9263]}, "properties": {"NAME": "W6/SS-619", "TITLE": "8180", "REGION": "Southern Sierra", "ASSOCIATION": "USA - CA", "POINTS": "8", "BONUSPOINTS": "3"}}, {"type": "Feature", "geometry": {"type": "Point", "coordinates": [-118.0398, 35.9879]}, "properties": {"NAME": "W6/SS-620", "TITLE": "8137", "REGION": "Southern Sierra", "ASSOCIATION": "USA - CA", "POINTS": "8", "BONUSPOINTS": "3"}}, {"type": "Feature", "geometry": {"type": "Point", "coordinates": [-118.0633, 36.0011]}, "properties": {"NAME": "W6/SS-621", "TITLE": "7540", "REGION": "Southern Sierra", "ASSOCIATION": "USA - CA", "POINTS": "8", "BONUSPOINTS": "3"}}, {"type": "Feature", "geometry": {"type": "Point", "coordinates": [-119.2864, 37.4739]}, "properties": {"NAME": "W6/SS-622", "TITLE": "7435", "REGION": "Southern Sierra", "ASSOCIATION": "USA - CA", "POINTS": "6", "BONUSPOINTS": "3"}}, {"type": "Feature", "geometry": {"type": "Point", "coordinates": [-118.1183, 35.9857]}, "properties": {"NAME": "W6/SS-623", "TITLE": "Kennedy Peak", "REGION": "Southern Sierra", "ASSOCIATION": "USA - CA", "POINTS": "6", "BONUSPOINTS": "3"}}, {"type": "Feature", "geometry": {"type": "Point", "coordinates": [-118.0125, 35.8448]}, "properties": {"NAME": "W6/SS-624", "TITLE": "7125", "REGION": "Southern Sierra", "ASSOCIATION": "USA - CA", "POINTS": "6", "BONUSPOINTS": "3"}}, {"type": "Feature", "geometry": {"type": "Point", "coordinates": [-119.4294, 37.4143]}, "properties": {"NAME": "W6/SS-625", "TITLE": "7005", "REGION": "Southern Sierra", "ASSOCIATION": "USA - CA", "POINTS": "6", "BONUSPOINTS": "3"}}, {"type": "Feature", "geometry": {"type": "Point", "coordinates": [-119.6365, 37.7145]}, "properties": {"NAME": "W6/SS-626", "TITLE": "Cathedral Rocks (HP)", "REGION": "Southern Sierra", "ASSOCIATION": "USA - CA", "POINTS": "6", "BONUSPOINTS": "3"}}, {"type": "Feature", "geometry": {"type": "Point", "coordinates": [-118.4625, 35.921]}, "properties": {"NAME": "W6/SS-627", "TITLE": "6500", "REGION": "Southern Sierra", "ASSOCIATION": "USA - CA", "POINTS": "6", "BONUSPOINTS": "3"}}, {"type": "Feature", "geometry": {"type": "Point", "coordinates": [-118.3417, 35.7444]}, "properties": {"NAME": "W6/SS-628", "TITLE": "6457", "REGION": "Southern Sierra", "ASSOCIATION": "USA - CA", "POINTS": "6", "BONUSPOINTS": "0"}}, {"type": "Feature", "geometry": {"type": "Point", "coordinates": [-118.6559, 35.9412]}, "properties": {"NAME": "W6/SS-629", "TITLE": "Hatchet Peak", "REGION": "Southern Sierra", "ASSOCIATION": "USA - CA", "POINTS": "6", "BONUSPOINTS": "0"}}, {"type": "Feature", "geometry": {"type": "Point", "coordinates": [-118.125, 35.5108]}, "properties": {"NAME": "W6/SS-630", "TITLE": "6244", "REGION": "Southern Sierra", "ASSOCIATION": "USA - CA", "POINTS": "6", "BONUSPOINTS": "0"}}, {"type": "Feature", "geometry": {"type": "Point", "coordinates": [-118.2397, 35.2429]}, "properties": {"NAME": "W6/SS-631", "TITLE": "5866", "REGION": "Southern Sierra", "ASSOCIATION": "USA - CA", "POINTS": "6", "BONUSPOINTS": "0"}}, {"type": "Feature", "geometry": {"type": "Point", "coordinates": [-118.4569, 36.0485]}, "properties": {"NAME": "W6/SS-632", "TITLE": "5851", "REGION": "Southern Sierra", "ASSOCIATION": "USA - CA", "POINTS": "6", "BONUSPOINTS": "0"}}, {"type": "Feature", "geometry": {"type": "Point", "coordinates": [-119.5783, 37.3976]}, "properties": {"NAME": "W6/SS-633", "TITLE": "Sivels Mountain", "REGION": "Southern Sierra", "ASSOCIATION": "USA - CA", "POINTS": "6", "BONUSPOINTS": "0"}}, {"type": "Feature", "geometry": {"type": "Point", "coordinates": [-118.4058, 35.7794]}, "properties": {"NAME": "W6/SS-634", "TITLE": "Powers Peak", "REGION": "Southern Sierra", "ASSOCIATION": "USA - CA", "POINTS": "6", "BONUSPOINTS": "0"}}, {"type": "Feature", "geometry": {"type": "Point", "coordinates": [-118.8415, 36.5271]}, "properties": {"NAME": "W6/SS-635", "TITLE": "Ash Peaks Ridge", "REGION": "Southern Sierra", "ASSOCIATION": "USA - CA", "POINTS": "6", "BONUSPOINTS": "0"}}, {"type": "Feature", "geometry": {"type": "Point", "coordinates": [-118.1185, 36.6358]}, "properties": {"NAME": "W6/SS-636", "TITLE": "Alabama Hills", "REGION": "Southern Sierra", "ASSOCIATION": "USA - CA", "POINTS": "4", "BONUSPOINTS": "0"}}, {"type": "Feature", "geometry": {"type": "Point", "coordinates": [-118.8628, 36.5144]}, "properties": {"NAME": "W6/SS-637", "TITLE": "5112", "REGION": "Southern Sierra", "ASSOCIATION": "USA - CA", "POINTS": "4", "BONUSPOINTS": "0"}}, {"type": "Feature", "geometry": {"type": "Point", "coordinates": [-118.1198, 35.2736]}, "properties": {"NAME": "W6/SS-638", "TITLE": "4762", "REGION": "Southern Sierra", "ASSOCIATION": "USA - CA", "POINTS": "4", "BONUSPOINTS": "0"}}, {"type": "Feature", "geometry": {"type": "Point", "coordinates": [-118.2393, 35.7067]}, "properties": {"NAME": "W6/SS-639", "TITLE": "4752", "REGION": "Southern Sierra", "ASSOCIATION": "USA - CA", "POINTS": "4", "BONUSPOINTS": "0"}}, {"type": "Feature", "geometry": {"type": "Point", "coordinates": [-118.0947, 35.2974]}, "properties": {"NAME": "W6/SS-640", "TITLE": "4354", "REGION": "Southern Sierra", "ASSOCIATION": "USA - CA", "POINTS": "4", "BONUSPOINTS": "0"}}, {"type": "Feature", "geometry": {"type": "Point", "coordinates": [-117.784, 35.5009]}, "properties": {"NAME": "W6/SS-641", "TITLE": "4264", "REGION": "Southern Sierra", "ASSOCIATION": "USA - CA", "POINTS": "4", "BONUSPOINTS": "0"}}, {"type": "Feature", "geometry": {"type": "Point", "coordinates": [-119.9191, 37.594]}, "properties": {"NAME": "W6/SS-642", "TITLE": "Feliciana Mountain", "REGION": "Southern Sierra", "ASSOCIATION": "USA - CA", "POINTS": "4", "BONUSPOINTS": "0"}}, {"type": "Feature", "geometry": {"type": "Point", "coordinates": [-117.7717, 35.4844]}, "properties": {"NAME": "W6/SS-643", "TITLE": "Terese Benchmark", "REGION": "Southern Sierra", "ASSOCIATION": "USA - CA", "POINTS": "2", "BONUSPOINTS": "0"}}, {"type": "Feature", "geometry": {"type": "Point", "coordinates": [-120.1668, 37.7899]}, "properties": {"NAME": "W6/SS-644", "TITLE": "Wagner Ridge", "REGION": "Southern Sierra", "ASSOCIATION": "USA - CA", "POINTS": "2", "BONUSPOINTS": "0"}}, {"type": "Feature", "geometry": {"type": "Point", "coordinates": [-119.2924, 36.9859]}, "properties": {"NAME": "W6/SS-645", "TITLE": "Davis Mountain", "REGION": "Southern Sierra", "ASSOCIATION": "USA - CA", "POINTS": "2", "BONUSPOINTS": "0"}}, {"type": "Feature", "geometry": {"type": "Point", "coordinates": [-119.8679, 37.6516]}, "properties": {"NAME": "W6/SS-646", "TITLE": "3679", "REGION": "Southern Sierra", "ASSOCIATION": "USA - CA", "POINTS": "2", "BONUSPOINTS": "0"}}, {"type": "Feature", "geometry": {"type": "Point", "coordinates": [-118.7374, 35.4409]}, "properties": {"NAME": "W6/SS-647", "TITLE": "3580", "REGION": "Southern Sierra", "ASSOCIATION": "USA - CA", "POINTS": "2", "BONUSPOINTS": "0"}}, {"type": "Feature", "geometry": {"type": "Point", "coordinates": [-118.7994, 36.0003]}, "properties": {"NAME": "W6/SS-648", "TITLE": "Oat Mountain", "REGION": "Southern Sierra", "ASSOCIATION": "USA - CA", "POINTS": "2", "BONUSPOINTS": "0"}}, {"type": "Feature", "geometry": {"type": "Point", "coordinates": [-120.0581, 37.4551]}, "properties": {"NAME": "W6/SS-649", "TITLE": "Guadalupe Mountains (HP)", "REGION": "Southern Sierra", "ASSOCIATION": "USA - CA", "POINTS": "2", "BONUSPOINTS": "0"}}, {"type": "Feature", "geometry": {"type": "Point", "coordinates": [-119.055, 36.5341]}, "properties": {"NAME": "W6/SS-650", "TITLE": "Long Mountain", "REGION": "Southern Sierra", "ASSOCIATION": "USA - CA", "POINTS": "2", "BONUSPOINTS": "0"}}, {"type": "Feature", "geometry": {"type": "Point", "coordinates": [-119.2347, 36.6986]}, "properties": {"NAME": "W6/SS-651", "TITLE": "2155", "REGION": "Southern Sierra", "ASSOCIATION": "USA - CA", "POINTS": "1", "BONUSPOINTS": "0"}}, {"type": "Feature", "geometry": {"type": "Point", "coordinates": [-119.471, 36.9541]}, "properties": {"NAME": "W6/SS-652", "TITLE": "Keys Mountain", "REGION": "Southern Sierra", "ASSOCIATION": "USA - CA", "POINTS": "1", "BONUSPOINTS": "0"}}, {"type": "Feature", "geometry": {"type": "Point", "coordinates": [-119.5447, 37.0031]}, "properties": {"NAME": "W6/SS-653", "TITLE": "Corlew Mountain", "REGION": "Southern Sierra", "ASSOCIATION": "USA - CA", "POINTS": "1", "BONUSPOINTS": "0"}}, {"type": "Feature", "geometry": {"type": "Point", "coordinates": [-118.9725, 36.2793]}, "properties": {"NAME": "W6/SS-654", "TITLE": "1452", "REGION": "Southern Sierra", "ASSOCIATION": "USA - CA", "POINTS": "1", "BONUSPOINTS": "0"}}, {"type": "Feature", "geometry": {"type": "Point", "coordinates": [-119.1545, 36.511]}, "properties": {"NAME": "W6/SS-655", "TITLE": "1418", "REGION": "Southern Sierra", "ASSOCIATION": "USA - CA", "POINTS": "1", "BONUSPOINTS": "0"}}, {"type": "Feature", "geometry": {"type": "Point", "coordinates": [-119.0844, 36.4725]}, "properties": {"NAME": "W6/SS-656", "TITLE": "1396", "REGION": "Southern Sierra", "ASSOCIATION": "USA - CA", "POINTS": "1", "BONUSPOINTS": "0"}}, {"type": "Feature", "geometry": {"type": "Point", "coordinates": [-119.0503, 36.221]}, "properties": {"NAME": "W6/SS-657", "TITLE": "Elephant Back", "REGION": "Southern Sierra", "ASSOCIATION": "USA - CA", "POINTS": "1", "BONUSPOINTS": "0"}}]}