{"type": "FeatureCollection", "name": "W6/NW SUMMITS", "features": [{"type": "Feature", "geometry": {"type": "Point", "coordinates": [-123.0484, 41.0006]}, "properties": {"NAME": "W6/NW-001", "TITLE": "Thompson Peak", "REGION": "Northwestern Ranges", "ASSOCIATION": "USA - CA", "POINTS": "8", "BONUSPOINTS": "3"}}, {"type": "Feature", "geometry": {"type": "Point", "coordinates": [-123.0541, 40.9568]}, "properties": {"NAME": "W6/NW-002", "TITLE": "Mount Hilton", "REGION": "Northwestern Ranges", "ASSOCIATION": "USA - CA", "POINTS": "8", "BONUSPOINTS": "3"}}, {"type": "Feature", "geometry": {"type": "Point", "coordinates": [-123.037, 41.004]}, "properties": {"NAME": "W6/NW-003", "TITLE": "Caesar Peak", "REGION": "Northwestern Ranges", "ASSOCIATION": "USA - CA", "POINTS": "8", "BONUSPOINTS": "3"}}, {"type": "Feature", "geometry": {"type": "Point", "coordinates": [-123.0023, 40.9725]}, "properties": {"NAME": "W6/NW-004", "TITLE": "Sawtooth Mountain", "REGION": "Northwestern Ranges", "ASSOCIATION": "USA - CA", "POINTS": "8", "BONUSPOINTS": "3"}}, {"type": "Feature", "geometry": {"type": "Point", "coordinates": [-122.9598, 41.0295]}, "properties": {"NAME": "W6/NW-005", "TITLE": "Caribou Mountain", "REGION": "Northwestern Ranges", "ASSOCIATION": "USA - CA", "POINTS": "8", "BONUSPOINTS": "3"}}, {"type": "Feature", "geometry": {"type": "Point", "coordinates": [-122.5762, 41.3778]}, "properties": {"NAME": "W6/NW-006", "TITLE": "China Mountain", "REGION": "Northwestern Ranges", "ASSOCIATION": "USA - CA", "POINTS": "8", "BONUSPOINTS": "3"}}, {"type": "Feature", "geometry": {"type": "Point", "coordinates": [-122.8732, 40.9435]}, "properties": {"NAME": "W6/NW-007", "TITLE": "Gibson Peak", "REGION": "Northwestern Ranges", "ASSOCIATION": "USA - CA", "POINTS": "8", "BONUSPOINTS": "3"}}, {"type": "Feature", "geometry": {"type": "Point", "coordinates": [-123.092, 41.5792]}, "properties": {"NAME": "W6/NW-008", "TITLE": "Boulder Peak", "REGION": "Northwestern Ranges", "ASSOCIATION": "USA - CA", "POINTS": "8", "BONUSPOINTS": "3"}}, {"type": "Feature", "geometry": {"type": "Point", "coordinates": [-122.9523, 41.0069]}, "properties": {"NAME": "W6/NW-009", "TITLE": "Sawtooth Ridge", "REGION": "Northwestern Ranges", "ASSOCIATION": "USA - CA", "POINTS": "8", "BONUSPOINTS": "3"}}, {"type": "Feature", "geometry": {"type": "Point", "coordinates": [-123.05, 40.933]}, "properties": {"NAME": "W6/NW-010", "TITLE": "8234", "REGION": "Northwestern Ranges", "ASSOCIATION": "USA - CA", "POINTS": "8", "BONUSPOINTS": "3"}}, {"type": "Feature", "geometry": {"type": "Point", "coordinates": [-122.5909, 41.3609]}, "properties": {"NAME": "W6/NW-011", "TITLE": "South China Mountain", "REGION": "Northwestern Ranges", "ASSOCIATION": "USA - CA", "POINTS": "8", "BONUSPOINTS": "3"}}, {"type": "Feature", "geometry": {"type": "Point", "coordinates": [-122.9909, 40.9554]}, "properties": {"NAME": "W6/NW-012", "TITLE": "8215", "REGION": "Northwestern Ranges", "ASSOCIATION": "USA - CA", "POINTS": "8", "BONUSPOINTS": "3"}}, {"type": "Feature", "geometry": {"type": "Point", "coordinates": [-122.9518, 41.2825]}, "properties": {"NAME": "W6/NW-013", "TITLE": "Russian Peak", "REGION": "Northwestern Ranges", "ASSOCIATION": "USA - CA", "POINTS": "8", "BONUSPOINTS": "3"}}, {"type": "Feature", "geometry": {"type": "Point", "coordinates": [-122.8805, 40.9274]}, "properties": {"NAME": "W6/NW-014", "TITLE": "8169", "REGION": "Northwestern Ranges", "ASSOCIATION": "USA - CA", "POINTS": "8", "BONUSPOINTS": "3"}}, {"type": "Feature", "geometry": {"type": "Point", "coordinates": [-122.9001, 40.9453]}, "properties": {"NAME": "W6/NW-015", "TITLE": "Siligo Peak", "REGION": "Northwestern Ranges", "ASSOCIATION": "USA - CA", "POINTS": "8", "BONUSPOINTS": "3"}}, {"type": "Feature", "geometry": {"type": "Point", "coordinates": [-122.8787, 40.96]}, "properties": {"NAME": "W6/NW-016", "TITLE": "Seven Up Peak", "REGION": "Northwestern Ranges", "ASSOCIATION": "USA - CA", "POINTS": "8", "BONUSPOINTS": "3"}}, {"type": "Feature", "geometry": {"type": "Point", "coordinates": [-122.7811, 41.259]}, "properties": {"NAME": "W6/NW-017", "TITLE": "Craggy Peak", "REGION": "Northwestern Ranges", "ASSOCIATION": "USA - CA", "POINTS": "8", "BONUSPOINTS": "3"}}, {"type": "Feature", "geometry": {"type": "Point", "coordinates": [-122.8543, 40.0364]}, "properties": {"NAME": "W6/NW-018", "TITLE": "South Yolla Bolly", "REGION": "Northwestern Ranges", "ASSOCIATION": "USA - CA", "POINTS": "8", "BONUSPOINTS": "3"}}, {"type": "Feature", "geometry": {"type": "Point", "coordinates": [-122.852, 41.0389]}, "properties": {"NAME": "W6/NW-019", "TITLE": "8081", "REGION": "Northwestern Ranges", "ASSOCIATION": "USA - CA", "POINTS": "8", "BONUSPOINTS": "3"}}, {"type": "Feature", "geometry": {"type": "Point", "coordinates": [-122.853, 41.0514]}, "properties": {"NAME": "W6/NW-020", "TITLE": "8033", "REGION": "Northwestern Ranges", "ASSOCIATION": "USA - CA", "POINTS": "8", "BONUSPOINTS": "3"}}, {"type": "Feature", "geometry": {"type": "Point", "coordinates": [-122.913, 41.0092]}, "properties": {"NAME": "W6/NW-021", "TITLE": "Black Mountain", "REGION": "Northwestern Ranges", "ASSOCIATION": "USA - CA", "POINTS": "8", "BONUSPOINTS": "3"}}, {"type": "Feature", "geometry": {"type": "Point", "coordinates": [-122.9992, 40.9329]}, "properties": {"NAME": "W6/NW-022", "TITLE": "Little Granite Peak", "REGION": "Northwestern Ranges", "ASSOCIATION": "USA - CA", "POINTS": "8", "BONUSPOINTS": "3"}}, {"type": "Feature", "geometry": {"type": "Point", "coordinates": [-122.5001, 41.2915]}, "properties": {"NAME": "W6/NW-023", "TITLE": "8001", "REGION": "Northwestern Ranges", "ASSOCIATION": "USA - CA", "POINTS": "8", "BONUSPOINTS": "3"}}, {"type": "Feature", "geometry": {"type": "Point", "coordinates": [-122.966, 41.3091]}, "properties": {"NAME": "W6/NW-024", "TITLE": "7987", "REGION": "Northwestern Ranges", "ASSOCIATION": "USA - CA", "POINTS": "8", "BONUSPOINTS": "3"}}, {"type": "Feature", "geometry": {"type": "Point", "coordinates": [-123.1153, 41.5566]}, "properties": {"NAME": "W6/NW-025", "TITLE": "7970", "REGION": "Northwestern Ranges", "ASSOCIATION": "USA - CA", "POINTS": "8", "BONUSPOINTS": "3"}}, {"type": "Feature", "geometry": {"type": "Point", "coordinates": [-122.9758, 41.339]}, "properties": {"NAME": "W6/NW-026", "TITLE": "7933", "REGION": "Northwestern Ranges", "ASSOCIATION": "USA - CA", "POINTS": "8", "BONUSPOINTS": "3"}}, {"type": "Feature", "geometry": {"type": "Point", "coordinates": [-122.8967, 40.911]}, "properties": {"NAME": "W6/NW-027", "TITLE": "Red Mountain", "REGION": "Northwestern Ranges", "ASSOCIATION": "USA - CA", "POINTS": "8", "BONUSPOINTS": "3"}}, {"type": "Feature", "geometry": {"type": "Point", "coordinates": [-123.0, 41.2736]}, "properties": {"NAME": "W6/NW-028", "TITLE": "7886", "REGION": "Northwestern Ranges", "ASSOCIATION": "USA - CA", "POINTS": "8", "BONUSPOINTS": "3"}}, {"type": "Feature", "geometry": {"type": "Point", "coordinates": [-122.8834, 40.977]}, "properties": {"NAME": "W6/NW-029", "TITLE": "7864", "REGION": "Northwestern Ranges", "ASSOCIATION": "USA - CA", "POINTS": "8", "BONUSPOINTS": "3"}}, {"type": "Feature", "geometry": {"type": "Point", "coordinates": [-122.9709, 41.0913]}, "properties": {"NAME": "W6/NW-030", "TITLE": "Packers Peak", "REGION": "Northwestern Ranges", "ASSOCIATION": "USA - CA", "POINTS": "8", "BONUSPOINTS": "3"}}, {"type": "Feature", "geometry": {"type": "Point", "coordinates": [-123.0515, 40.9153]}, "properties": {"NAME": "W6/NW-031", "TITLE": "7841", "REGION": "Northwestern Ranges", "ASSOCIATION": "USA - CA", "POINTS": "8", "BONUSPOINTS": "3"}}, {"type": "Feature", "geometry": {"type": "Point", "coordinates": [-123.1257, 41.4979]}, "properties": {"NAME": "W6/NW-032", "TITLE": "7800", "REGION": "Northwestern Ranges", "ASSOCIATION": "USA - CA", "POINTS": "8", "BONUSPOINTS": "3"}}, {"type": "Feature", "geometry": {"type": "Point", "coordinates": [-122.907, 41.1954]}, "properties": {"NAME": "W6/NW-033", "TITLE": "7794", "REGION": "Northwestern Ranges", "ASSOCIATION": "USA - CA", "POINTS": "8", "BONUSPOINTS": "3"}}, {"type": "Feature", "geometry": {"type": "Point", "coordinates": [-123.0097, 40.2046]}, "properties": {"NAME": "W6/NW-034", "TITLE": "Black Rock Mountain", "REGION": "Northwestern Ranges", "ASSOCIATION": "USA - CA", "POINTS": "8", "BONUSPOINTS": "3"}}, {"type": "Feature", "geometry": {"type": "Point", "coordinates": [-122.8016, 41.2036]}, "properties": {"NAME": "W6/NW-035", "TITLE": "Eagle Peak", "REGION": "Northwestern Ranges", "ASSOCIATION": "USA - CA", "POINTS": "8", "BONUSPOINTS": "3"}}, {"type": "Feature", "geometry": {"type": "Point", "coordinates": [-122.9784, 40.8319]}, "properties": {"NAME": "W6/NW-036", "TITLE": "Monument Peak", "REGION": "Northwestern Ranges", "ASSOCIATION": "USA - CA", "POINTS": "8", "BONUSPOINTS": "3"}}, {"type": "Feature", "geometry": {"type": "Point", "coordinates": [-122.9614, 41.1814]}, "properties": {"NAME": "W6/NW-037", "TITLE": "7753", "REGION": "Northwestern Ranges", "ASSOCIATION": "USA - CA", "POINTS": "8", "BONUSPOINTS": "3"}}, {"type": "Feature", "geometry": {"type": "Point", "coordinates": [-122.6041, 41.329]}, "properties": {"NAME": "W6/NW-038", "TITLE": "Cory Peak", "REGION": "Northwestern Ranges", "ASSOCIATION": "USA - CA", "POINTS": "8", "BONUSPOINTS": "3"}}, {"type": "Feature", "geometry": {"type": "Point", "coordinates": [-122.8232, 41.2097]}, "properties": {"NAME": "W6/NW-039", "TITLE": "7706", "REGION": "Northwestern Ranges", "ASSOCIATION": "USA - CA", "POINTS": "8", "BONUSPOINTS": "3"}}, {"type": "Feature", "geometry": {"type": "Point", "coordinates": [-122.8042, 41.1734]}, "properties": {"NAME": "W6/NW-040", "TITLE": "7704", "REGION": "Northwestern Ranges", "ASSOCIATION": "USA - CA", "POINTS": "8", "BONUSPOINTS": "3"}}, {"type": "Feature", "geometry": {"type": "Point", "coordinates": [-122.9658, 41.3684]}, "properties": {"NAME": "W6/NW-041", "TITLE": "7684", "REGION": "Northwestern Ranges", "ASSOCIATION": "USA - CA", "POINTS": "8", "BONUSPOINTS": "3"}}, {"type": "Feature", "geometry": {"type": "Point", "coordinates": [-122.9517, 41.1508]}, "properties": {"NAME": "W6/NW-042", "TITLE": "7678", "REGION": "Northwestern Ranges", "ASSOCIATION": "USA - CA", "POINTS": "8", "BONUSPOINTS": "3"}}, {"type": "Feature", "geometry": {"type": "Point", "coordinates": [-122.932, 41.3065]}, "properties": {"NAME": "W6/NW-043", "TITLE": "Eaton Peak", "REGION": "Northwestern Ranges", "ASSOCIATION": "USA - CA", "POINTS": "8", "BONUSPOINTS": "3"}}, {"type": "Feature", "geometry": {"type": "Point", "coordinates": [-122.9483, 41.2424]}, "properties": {"NAME": "W6/NW-044", "TITLE": "7623", "REGION": "Northwestern Ranges", "ASSOCIATION": "USA - CA", "POINTS": "8", "BONUSPOINTS": "3"}}, {"type": "Feature", "geometry": {"type": "Point", "coordinates": [-123.135, 41.5479]}, "properties": {"NAME": "W6/NW-045", "TITLE": "7620", "REGION": "Northwestern Ranges", "ASSOCIATION": "USA - CA", "POINTS": "8", "BONUSPOINTS": "3"}}, {"type": "Feature", "geometry": {"type": "Point", "coordinates": [-122.9353, 41.1772]}, "properties": {"NAME": "W6/NW-046", "TITLE": "7700", "REGION": "Northwestern Ranges", "ASSOCIATION": "USA - CA", "POINTS": "8", "BONUSPOINTS": "3"}}, {"type": "Feature", "geometry": {"type": "Point", "coordinates": [-122.7957, 41.0287]}, "properties": {"NAME": "W6/NW-047", "TITLE": "Ycatapom Peak", "REGION": "Northwestern Ranges", "ASSOCIATION": "USA - CA", "POINTS": "8", "BONUSPOINTS": "3"}}, {"type": "Feature", "geometry": {"type": "Point", "coordinates": [-122.9559, 40.0208]}, "properties": {"NAME": "W6/NW-048", "TITLE": "Solomon Peak", "REGION": "Northwestern Ranges", "ASSOCIATION": "USA - CA", "POINTS": "8", "BONUSPOINTS": "3"}}, {"type": "Feature", "geometry": {"type": "Point", "coordinates": [-123.122, 41.5148]}, "properties": {"NAME": "W6/NW-049", "TITLE": "7580", "REGION": "Northwestern Ranges", "ASSOCIATION": "USA - CA", "POINTS": "8", "BONUSPOINTS": "3"}}, {"type": "Feature", "geometry": {"type": "Point", "coordinates": [-123.2223, 40.9244]}, "properties": {"NAME": "W6/NW-050", "TITLE": "North Thurston Peaks", "REGION": "Northwestern Ranges", "ASSOCIATION": "USA - CA", "POINTS": "8", "BONUSPOINTS": "3"}}, {"type": "Feature", "geometry": {"type": "Point", "coordinates": [-122.9545, 41.3874]}, "properties": {"NAME": "W6/NW-051", "TITLE": "Etna Mountain", "REGION": "Northwestern Ranges", "ASSOCIATION": "USA - CA", "POINTS": "8", "BONUSPOINTS": "3"}}, {"type": "Feature", "geometry": {"type": "Point", "coordinates": [-123.0158, 41.4551]}, "properties": {"NAME": "W6/NW-052", "TITLE": "7521", "REGION": "Northwestern Ranges", "ASSOCIATION": "USA - CA", "POINTS": "8", "BONUSPOINTS": "3"}}, {"type": "Feature", "geometry": {"type": "Point", "coordinates": [-123.0947, 41.5295]}, "properties": {"NAME": "W6/NW-053", "TITLE": "7500", "REGION": "Northwestern Ranges", "ASSOCIATION": "USA - CA", "POINTS": "8", "BONUSPOINTS": "3"}}, {"type": "Feature", "geometry": {"type": "Point", "coordinates": [-122.9939, 40.8159]}, "properties": {"NAME": "W6/NW-054", "TITLE": "Weaver Bally", "REGION": "Northwestern Ranges", "ASSOCIATION": "USA - CA", "POINTS": "6", "BONUSPOINTS": "3"}}, {"type": "Feature", "geometry": {"type": "Point", "coordinates": [-123.234, 40.948]}, "properties": {"NAME": "W6/NW-055", "TITLE": "Pony Mountain", "REGION": "Northwestern Ranges", "ASSOCIATION": "USA - CA", "POINTS": "6", "BONUSPOINTS": "3"}}, {"type": "Feature", "geometry": {"type": "Point", "coordinates": [-123.2218, 41.615]}, "properties": {"NAME": "W6/NW-056", "TITLE": "Kings Castle", "REGION": "Northwestern Ranges", "ASSOCIATION": "USA - CA", "POINTS": "6", "BONUSPOINTS": "3"}}, {"type": "Feature", "geometry": {"type": "Point", "coordinates": [-122.9535, 40.0458]}, "properties": {"NAME": "W6/NW-057", "TITLE": "Sugarloaf Mountain", "REGION": "Northwestern Ranges", "ASSOCIATION": "USA - CA", "POINTS": "6", "BONUSPOINTS": "3"}}, {"type": "Feature", "geometry": {"type": "Point", "coordinates": [-122.7692, 41.1328]}, "properties": {"NAME": "W6/NW-058", "TITLE": "Billys Peak", "REGION": "Northwestern Ranges", "ASSOCIATION": "USA - CA", "POINTS": "6", "BONUSPOINTS": "3"}}, {"type": "Feature", "geometry": {"type": "Point", "coordinates": [-123.2145, 41.401]}, "properties": {"NAME": "W6/NW-059", "TITLE": "English Peak", "REGION": "Northwestern Ranges", "ASSOCIATION": "USA - CA", "POINTS": "6", "BONUSPOINTS": "3"}}, {"type": "Feature", "geometry": {"type": "Point", "coordinates": [-123.6123, 41.8354]}, "properties": {"NAME": "W6/NW-060", "TITLE": "Preston Peak", "REGION": "Northwestern Ranges", "ASSOCIATION": "USA - CA", "POINTS": "6", "BONUSPOINTS": "3"}}, {"type": "Feature", "geometry": {"type": "Point", "coordinates": [-123.18, 41.5984]}, "properties": {"NAME": "W6/NW-061", "TITLE": "Box Camp Mountain", "REGION": "Northwestern Ranges", "ASSOCIATION": "USA - CA", "POINTS": "6", "BONUSPOINTS": "3"}}, {"type": "Feature", "geometry": {"type": "Point", "coordinates": [-122.5142, 41.3859]}, "properties": {"NAME": "W6/NW-062", "TITLE": "7287", "REGION": "Northwestern Ranges", "ASSOCIATION": "USA - CA", "POINTS": "6", "BONUSPOINTS": "3"}}, {"type": "Feature", "geometry": {"type": "Point", "coordinates": [-122.7464, 41.1216]}, "properties": {"NAME": "W6/NW-063", "TITLE": "Billys Peak Benchmark", "REGION": "Northwestern Ranges", "ASSOCIATION": "USA - CA", "POINTS": "6", "BONUSPOINTS": "3"}}, {"type": "Feature", "geometry": {"type": "Point", "coordinates": [-122.4485, 41.1314]}, "properties": {"NAME": "W6/NW-064", "TITLE": "North Grey Rocks", "REGION": "Northwestern Ranges", "ASSOCIATION": "USA - CA", "POINTS": "6", "BONUSPOINTS": "3"}}, {"type": "Feature", "geometry": {"type": "Point", "coordinates": [-122.9873, 40.9147]}, "properties": {"NAME": "W6/NW-065", "TITLE": "7250", "REGION": "Northwestern Ranges", "ASSOCIATION": "USA - CA", "POINTS": "6", "BONUSPOINTS": "3"}}, {"type": "Feature", "geometry": {"type": "Point", "coordinates": [-122.5405, 41.2206]}, "properties": {"NAME": "W6/NW-066", "TITLE": "Mumbo Benchmark", "REGION": "Northwestern Ranges", "ASSOCIATION": "USA - CA", "POINTS": "6", "BONUSPOINTS": "3"}}, {"type": "Feature", "geometry": {"type": "Point", "coordinates": [-123.0582, 41.4774]}, "properties": {"NAME": "W6/NW-067", "TITLE": "7215", "REGION": "Northwestern Ranges", "ASSOCIATION": "USA - CA", "POINTS": "6", "BONUSPOINTS": "3"}}, {"type": "Feature", "geometry": {"type": "Point", "coordinates": [-122.7152, 41.202]}, "properties": {"NAME": "W6/NW-068", "TITLE": "7208", "REGION": "Northwestern Ranges", "ASSOCIATION": "USA - CA", "POINTS": "6", "BONUSPOINTS": "3"}}, {"type": "Feature", "geometry": {"type": "Point", "coordinates": [-122.4295, 41.2054]}, "properties": {"NAME": "W6/NW-069", "TITLE": "Castle Crags Wilderness HP", "REGION": "Northwestern Ranges", "ASSOCIATION": "USA - CA", "POINTS": "6", "BONUSPOINTS": "3"}}, {"type": "Feature", "geometry": {"type": "Point", "coordinates": [-123.18, 41.4098]}, "properties": {"NAME": "W6/NW-070", "TITLE": "7164", "REGION": "Northwestern Ranges", "ASSOCIATION": "USA - CA", "POINTS": "6", "BONUSPOINTS": "3"}}, {"type": "Feature", "geometry": {"type": "Point", "coordinates": [-122.4948, 41.192]}, "properties": {"NAME": "W6/NW-071", "TITLE": "7149", "REGION": "Northwestern Ranges", "ASSOCIATION": "USA - CA", "POINTS": "6", "BONUSPOINTS": "3"}}, {"type": "Feature", "geometry": {"type": "Point", "coordinates": [-123.0041, 40.0786]}, "properties": {"NAME": "W6/NW-072", "TITLE": "Windy Mountain", "REGION": "Northwestern Ranges", "ASSOCIATION": "USA - CA", "POINTS": "6", "BONUSPOINTS": "3"}}, {"type": "Feature", "geometry": {"type": "Point", "coordinates": [-122.9792, 41.9376]}, "properties": {"NAME": "W6/NW-073", "TITLE": "Condrey Mountain", "REGION": "Northwestern Ranges", "ASSOCIATION": "USA - CA", "POINTS": "6", "BONUSPOINTS": "3"}}, {"type": "Feature", "geometry": {"type": "Point", "coordinates": [-123.0856, 41.498]}, "properties": {"NAME": "W6/NW-074", "TITLE": "7095", "REGION": "Northwestern Ranges", "ASSOCIATION": "USA - CA", "POINTS": "6", "BONUSPOINTS": "3"}}, {"type": "Feature", "geometry": {"type": "Point", "coordinates": [-122.6245, 41.0971]}, "properties": {"NAME": "W6/NW-075", "TITLE": "Bonanza King", "REGION": "Northwestern Ranges", "ASSOCIATION": "USA - CA", "POINTS": "6", "BONUSPOINTS": "3"}}, {"type": "Feature", "geometry": {"type": "Point", "coordinates": [-122.4257, 41.2222]}, "properties": {"NAME": "W6/NW-076", "TITLE": "7070", "REGION": "Northwestern Ranges", "ASSOCIATION": "USA - CA", "POINTS": "6", "BONUSPOINTS": "3"}}, {"type": "Feature", "geometry": {"type": "Point", "coordinates": [-123.0769, 41.7398]}, "properties": {"NAME": "W6/NW-077", "TITLE": "Tom Martin Peak", "REGION": "Northwestern Ranges", "ASSOCIATION": "USA - CA", "POINTS": "6", "BONUSPOINTS": "3"}}, {"type": "Feature", "geometry": {"type": "Point", "coordinates": [-123.1056, 41.0655]}, "properties": {"NAME": "W6/NW-078", "TITLE": "Rays Peak", "REGION": "Northwestern Ranges", "ASSOCIATION": "USA - CA", "POINTS": "6", "BONUSPOINTS": "3"}}, {"type": "Feature", "geometry": {"type": "Point", "coordinates": [-123.0025, 41.9607]}, "properties": {"NAME": "W6/NW-079", "TITLE": "Scraggy Mountain", "REGION": "Northwestern Ranges", "ASSOCIATION": "USA - CA", "POINTS": "6", "BONUSPOINTS": "3"}}, {"type": "Feature", "geometry": {"type": "Point", "coordinates": [-123.2503, 41.5697]}, "properties": {"NAME": "W6/NW-080", "TITLE": "Elk Peak", "REGION": "Northwestern Ranges", "ASSOCIATION": "USA - CA", "POINTS": "6", "BONUSPOINTS": "3"}}, {"type": "Feature", "geometry": {"type": "Point", "coordinates": [-122.9892, 40.8749]}, "properties": {"NAME": "W6/NW-081", "TITLE": "6988", "REGION": "Northwestern Ranges", "ASSOCIATION": "USA - CA", "POINTS": "6", "BONUSPOINTS": "3"}}, {"type": "Feature", "geometry": {"type": "Point", "coordinates": [-123.4108, 41.1832]}, "properties": {"NAME": "W6/NW-082", "TITLE": "Salmon Mountain", "REGION": "Northwestern Ranges", "ASSOCIATION": "USA - CA", "POINTS": "6", "BONUSPOINTS": "3"}}, {"type": "Feature", "geometry": {"type": "Point", "coordinates": [-123.2305, 41.4255]}, "properties": {"NAME": "W6/NW-083", "TITLE": "6927", "REGION": "Northwestern Ranges", "ASSOCIATION": "USA - CA", "POINTS": "6", "BONUSPOINTS": "3"}}, {"type": "Feature", "geometry": {"type": "Point", "coordinates": [-123.1713, 41.4607]}, "properties": {"NAME": "W6/NW-084", "TITLE": "6907", "REGION": "Northwestern Ranges", "ASSOCIATION": "USA - CA", "POINTS": "6", "BONUSPOINTS": "3"}}, {"type": "Feature", "geometry": {"type": "Point", "coordinates": [-123.336, 41.5731]}, "properties": {"NAME": "W6/NW-085", "TITLE": "Tickner Benchmark", "REGION": "Northwestern Ranges", "ASSOCIATION": "USA - CA", "POINTS": "6", "BONUSPOINTS": "3"}}, {"type": "Feature", "geometry": {"type": "Point", "coordinates": [-123.2617, 41.1035]}, "properties": {"NAME": "W6/NW-086", "TITLE": "Dees Peak", "REGION": "Northwestern Ranges", "ASSOCIATION": "USA - CA", "POINTS": "6", "BONUSPOINTS": "3"}}, {"type": "Feature", "geometry": {"type": "Point", "coordinates": [-123.2201, 41.3518]}, "properties": {"NAME": "W6/NW-087", "TITLE": "Crapo Mountain", "REGION": "Northwestern Ranges", "ASSOCIATION": "USA - CA", "POINTS": "6", "BONUSPOINTS": "3"}}, {"type": "Feature", "geometry": {"type": "Point", "coordinates": [-123.2804, 41.5816]}, "properties": {"NAME": "W6/NW-088", "TITLE": "6881", "REGION": "Northwestern Ranges", "ASSOCIATION": "USA - CA", "POINTS": "6", "BONUSPOINTS": "3"}}, {"type": "Feature", "geometry": {"type": "Point", "coordinates": [-123.1334, 41.7486]}, "properties": {"NAME": "W6/NW-089", "TITLE": "Lake Mountain", "REGION": "Northwestern Ranges", "ASSOCIATION": "USA - CA", "POINTS": "6", "BONUSPOINTS": "3"}}, {"type": "Feature", "geometry": {"type": "Point", "coordinates": [-123.2713, 41.3652]}, "properties": {"NAME": "W6/NW-090", "TITLE": "Chimney Rock", "REGION": "Northwestern Ranges", "ASSOCIATION": "USA - CA", "POINTS": "6", "BONUSPOINTS": "3"}}, {"type": "Feature", "geometry": {"type": "Point", "coordinates": [-123.202, 41.0013]}, "properties": {"NAME": "W6/NW-091", "TITLE": "Cabin Peak", "REGION": "Northwestern Ranges", "ASSOCIATION": "USA - CA", "POINTS": "6", "BONUSPOINTS": "3"}}, {"type": "Feature", "geometry": {"type": "Point", "coordinates": [-123.3187, 41.495]}, "properties": {"NAME": "W6/NW-092", "TITLE": "Medicine Mountain", "REGION": "Northwestern Ranges", "ASSOCIATION": "USA - CA", "POINTS": "6", "BONUSPOINTS": "3"}}, {"type": "Feature", "geometry": {"type": "Point", "coordinates": [-122.6773, 41.2797]}, "properties": {"NAME": "W6/NW-093", "TITLE": "Scott Mountain", "REGION": "Northwestern Ranges", "ASSOCIATION": "USA - CA", "POINTS": "6", "BONUSPOINTS": "3"}}, {"type": "Feature", "geometry": {"type": "Point", "coordinates": [-123.6118, 41.8691]}, "properties": {"NAME": "W6/NW-094", "TITLE": "El Capitan", "REGION": "Northwestern Ranges", "ASSOCIATION": "USA - CA", "POINTS": "6", "BONUSPOINTS": "3"}}, {"type": "Feature", "geometry": {"type": "Point", "coordinates": [-122.5483, 41.058]}, "properties": {"NAME": "W6/NW-095", "TITLE": "Red Mountain", "REGION": "Northwestern Ranges", "ASSOCIATION": "USA - CA", "POINTS": "6", "BONUSPOINTS": "3"}}, {"type": "Feature", "geometry": {"type": "Point", "coordinates": [-123.1841, 41.9299]}, "properties": {"NAME": "W6/NW-096", "TITLE": "Red Butte", "REGION": "Northwestern Ranges", "ASSOCIATION": "USA - CA", "POINTS": "6", "BONUSPOINTS": "3"}}, {"type": "Feature", "geometry": {"type": "Point", "coordinates": [-123.3007, 41.5684]}, "properties": {"NAME": "W6/NW-097", "TITLE": "6728", "REGION": "Northwestern Ranges", "ASSOCIATION": "USA - CA", "POINTS": "6", "BONUSPOINTS": "3"}}, {"type": "Feature", "geometry": {"type": "Point", "coordinates": [-123.2119, 40.8895]}, "properties": {"NAME": "W6/NW-098", "TITLE": "6725", "REGION": "Northwestern Ranges", "ASSOCIATION": "USA - CA", "POINTS": "6", "BONUSPOINTS": "3"}}, {"type": "Feature", "geometry": {"type": "Point", "coordinates": [-123.0787, 40.1121]}, "properties": {"NAME": "W6/NW-099", "TITLE": "Shell Mountain", "REGION": "Northwestern Ranges", "ASSOCIATION": "USA - CA", "POINTS": "6", "BONUSPOINTS": "3"}}, {"type": "Feature", "geometry": {"type": "Point", "coordinates": [-122.951, 39.9061]}, "properties": {"NAME": "W6/NW-100", "TITLE": "Buck Rock", "REGION": "Northwestern Ranges", "ASSOCIATION": "USA - CA", "POINTS": "6", "BONUSPOINTS": "3"}}, {"type": "Feature", "geometry": {"type": "Point", "coordinates": [-123.2851, 41.1218]}, "properties": {"NAME": "W6/NW-101", "TITLE": "Potato Mountain", "REGION": "Northwestern Ranges", "ASSOCIATION": "USA - CA", "POINTS": "6", "BONUSPOINTS": "3"}}, {"type": "Feature", "geometry": {"type": "Point", "coordinates": [-123.3754, 41.1511]}, "properties": {"NAME": "W6/NW-102", "TITLE": "6680", "REGION": "Northwestern Ranges", "ASSOCIATION": "USA - CA", "POINTS": "6", "BONUSPOINTS": "3"}}, {"type": "Feature", "geometry": {"type": "Point", "coordinates": [-123.1994, 41.9203]}, "properties": {"NAME": "W6/NW-103", "TITLE": "Kangaroo Mountain", "REGION": "Northwestern Ranges", "ASSOCIATION": "USA - CA", "POINTS": "6", "BONUSPOINTS": "3"}}, {"type": "Feature", "geometry": {"type": "Point", "coordinates": [-123.063, 40.8856]}, "properties": {"NAME": "W6/NW-104", "TITLE": "6660", "REGION": "Northwestern Ranges", "ASSOCIATION": "USA - CA", "POINTS": "6", "BONUSPOINTS": "3"}}, {"type": "Feature", "geometry": {"type": "Point", "coordinates": [-122.6114, 41.1217]}, "properties": {"NAME": "W6/NW-105", "TITLE": "6660", "REGION": "Northwestern Ranges", "ASSOCIATION": "USA - CA", "POINTS": "6", "BONUSPOINTS": "3"}}, {"type": "Feature", "geometry": {"type": "Point", "coordinates": [-123.0846, 39.9236]}, "properties": {"NAME": "W6/NW-106", "TITLE": "Leech Lake Mountain", "REGION": "Northwestern Ranges", "ASSOCIATION": "USA - CA", "POINTS": "6", "BONUSPOINTS": "3"}}, {"type": "Feature", "geometry": {"type": "Point", "coordinates": [-122.3888, 41.219]}, "properties": {"NAME": "W6/NW-107", "TITLE": "6617", "REGION": "Northwestern Ranges", "ASSOCIATION": "USA - CA", "POINTS": "6", "BONUSPOINTS": "3"}}, {"type": "Feature", "geometry": {"type": "Point", "coordinates": [-123.1049, 41.3255]}, "properties": {"NAME": "W6/NW-108", "TITLE": "Tanners Peak", "REGION": "Northwestern Ranges", "ASSOCIATION": "USA - CA", "POINTS": "6", "BONUSPOINTS": "3"}}, {"type": "Feature", "geometry": {"type": "Point", "coordinates": [-122.6468, 41.8875]}, "properties": {"NAME": "W6/NW-109", "TITLE": "Cottonwood Peak", "REGION": "Northwestern Ranges", "ASSOCIATION": "USA - CA", "POINTS": "6", "BONUSPOINTS": "3"}}, {"type": "Feature", "geometry": {"type": "Point", "coordinates": [-122.3703, 41.2056]}, "properties": {"NAME": "W6/NW-110", "TITLE": "6544", "REGION": "Northwestern Ranges", "ASSOCIATION": "USA - CA", "POINTS": "6", "BONUSPOINTS": "3"}}, {"type": "Feature", "geometry": {"type": "Point", "coordinates": [-122.9305, 40.1101]}, "properties": {"NAME": "W6/NW-111", "TITLE": "Lazyman Butte", "REGION": "Northwestern Ranges", "ASSOCIATION": "USA - CA", "POINTS": "6", "BONUSPOINTS": "3"}}, {"type": "Feature", "geometry": {"type": "Point", "coordinates": [-123.1026, 41.2451]}, "properties": {"NAME": "W6/NW-112", "TITLE": "6520", "REGION": "Northwestern Ranges", "ASSOCIATION": "USA - CA", "POINTS": "6", "BONUSPOINTS": "3"}}, {"type": "Feature", "geometry": {"type": "Point", "coordinates": [-122.9684, 40.139]}, "properties": {"NAME": "W6/NW-113", "TITLE": "Devils Hole Ridge", "REGION": "Northwestern Ranges", "ASSOCIATION": "USA - CA", "POINTS": "6", "BONUSPOINTS": "3"}}, {"type": "Feature", "geometry": {"type": "Point", "coordinates": [-123.1086, 41.3584]}, "properties": {"NAME": "W6/NW-114", "TITLE": "6487", "REGION": "Northwestern Ranges", "ASSOCIATION": "USA - CA", "POINTS": "6", "BONUSPOINTS": "0"}}, {"type": "Feature", "geometry": {"type": "Point", "coordinates": [-123.3335, 41.6116]}, "properties": {"NAME": "W6/NW-115", "TITLE": "Titus Ridge", "REGION": "Northwestern Ranges", "ASSOCIATION": "USA - CA", "POINTS": "6", "BONUSPOINTS": "0"}}, {"type": "Feature", "geometry": {"type": "Point", "coordinates": [-123.0568, 41.9542]}, "properties": {"NAME": "W6/NW-116", "TITLE": "White Mountain", "REGION": "Northwestern Ranges", "ASSOCIATION": "USA - CA", "POINTS": "6", "BONUSPOINTS": "0"}}, {"type": "Feature", "geometry": {"type": "Point", "coordinates": [-123.3428, 41.9812]}, "properties": {"NAME": "W6/NW-117", "TITLE": "Pyramid Peak", "REGION": "Northwestern Ranges", "ASSOCIATION": "USA - CA", "POINTS": "6", "BONUSPOINTS": "0"}}, {"type": "Feature", "geometry": {"type": "Point", "coordinates": [-123.1326, 41.0789]}, "properties": {"NAME": "W6/NW-118", "TITLE": "Cecil Lake Benchmark", "REGION": "Northwestern Ranges", "ASSOCIATION": "USA - CA", "POINTS": "6", "BONUSPOINTS": "0"}}, {"type": "Feature", "geometry": {"type": "Point", "coordinates": [-123.672, 41.7962]}, "properties": {"NAME": "W6/NW-119", "TITLE": "Bear Mountain", "REGION": "Northwestern Ranges", "ASSOCIATION": "USA - CA", "POINTS": "6", "BONUSPOINTS": "0"}}, {"type": "Feature", "geometry": {"type": "Point", "coordinates": [-122.9914, 40.4735]}, "properties": {"NAME": "W6/NW-120", "TITLE": "Chanchelulla Peak", "REGION": "Northwestern Ranges", "ASSOCIATION": "USA - CA", "POINTS": "6", "BONUSPOINTS": "0"}}, {"type": "Feature", "geometry": {"type": "Point", "coordinates": [-123.2187, 40.9885]}, "properties": {"NAME": "W6/NW-121", "TITLE": "6397", "REGION": "Northwestern Ranges", "ASSOCIATION": "USA - CA", "POINTS": "6", "BONUSPOINTS": "0"}}, {"type": "Feature", "geometry": {"type": "Point", "coordinates": [-123.3026, 41.9545]}, "properties": {"NAME": "W6/NW-122", "TITLE": "6378", "REGION": "Northwestern Ranges", "ASSOCIATION": "USA - CA", "POINTS": "6", "BONUSPOINTS": "0"}}, {"type": "Feature", "geometry": {"type": "Point", "coordinates": [-123.5937, 41.9062]}, "properties": {"NAME": "W6/NW-123", "TITLE": "Lookout Mountain", "REGION": "Northwestern Ranges", "ASSOCIATION": "USA - CA", "POINTS": "6", "BONUSPOINTS": "0"}}, {"type": "Feature", "geometry": {"type": "Point", "coordinates": [-123.4851, 41.1057]}, "properties": {"NAME": "W6/NW-124", "TITLE": "North Trinity Mountain", "REGION": "Northwestern Ranges", "ASSOCIATION": "USA - CA", "POINTS": "6", "BONUSPOINTS": "0"}}, {"type": "Feature", "geometry": {"type": "Point", "coordinates": [-123.3416, 41.1561]}, "properties": {"NAME": "W6/NW-125", "TITLE": "Youngs Peak", "REGION": "Northwestern Ranges", "ASSOCIATION": "USA - CA", "POINTS": "6", "BONUSPOINTS": "0"}}, {"type": "Feature", "geometry": {"type": "Point", "coordinates": [-123.6402, 41.8904]}, "properties": {"NAME": "W6/NW-126", "TITLE": "Youngs Peak", "REGION": "Northwestern Ranges", "ASSOCIATION": "USA - CA", "POINTS": "6", "BONUSPOINTS": "0"}}, {"type": "Feature", "geometry": {"type": "Point", "coordinates": [-123.2392, 41.9243]}, "properties": {"NAME": "W6/NW-127", "TITLE": "Rattlesnake Mountain", "REGION": "Northwestern Ranges", "ASSOCIATION": "USA - CA", "POINTS": "6", "BONUSPOINTS": "0"}}, {"type": "Feature", "geometry": {"type": "Point", "coordinates": [-122.8293, 41.7378]}, "properties": {"NAME": "W6/NW-128", "TITLE": "Indian Creek Baldy", "REGION": "Northwestern Ranges", "ASSOCIATION": "USA - CA", "POINTS": "6", "BONUSPOINTS": "0"}}, {"type": "Feature", "geometry": {"type": "Point", "coordinates": [-122.7946, 41.7549]}, "properties": {"NAME": "W6/NW-129", "TITLE": "McKinley Mountain", "REGION": "Northwestern Ranges", "ASSOCIATION": "USA - CA", "POINTS": "6", "BONUSPOINTS": "0"}}, {"type": "Feature", "geometry": {"type": "Point", "coordinates": [-122.6567, 41.262]}, "properties": {"NAME": "W6/NW-130", "TITLE": "6210", "REGION": "Northwestern Ranges", "ASSOCIATION": "USA - CA", "POINTS": "6", "BONUSPOINTS": "0"}}, {"type": "Feature", "geometry": {"type": "Point", "coordinates": [-122.9604, 40.4811]}, "properties": {"NAME": "W6/NW-131", "TITLE": "6200", "REGION": "Northwestern Ranges", "ASSOCIATION": "USA - CA", "POINTS": "6", "BONUSPOINTS": "0"}}, {"type": "Feature", "geometry": {"type": "Point", "coordinates": [-122.6508, 40.6028]}, "properties": {"NAME": "W6/NW-132", "TITLE": "Shasta Bally", "REGION": "Northwestern Ranges", "ASSOCIATION": "USA - CA", "POINTS": "6", "BONUSPOINTS": "0"}}, {"type": "Feature", "geometry": {"type": "Point", "coordinates": [-123.4535, 41.2789]}, "properties": {"NAME": "W6/NW-133", "TITLE": "Orleans Mountain", "REGION": "Northwestern Ranges", "ASSOCIATION": "USA - CA", "POINTS": "6", "BONUSPOINTS": "0"}}, {"type": "Feature", "geometry": {"type": "Point", "coordinates": [-123.5859, 41.7908]}, "properties": {"NAME": "W6/NW-134", "TITLE": "Cedar Crest", "REGION": "Northwestern Ranges", "ASSOCIATION": "USA - CA", "POINTS": "6", "BONUSPOINTS": "0"}}, {"type": "Feature", "geometry": {"type": "Point", "coordinates": [-123.2987, 40.8851]}, "properties": {"NAME": "W6/NW-135", "TITLE": "Brushy Mountain", "REGION": "Northwestern Ranges", "ASSOCIATION": "USA - CA", "POINTS": "6", "BONUSPOINTS": "0"}}, {"type": "Feature", "geometry": {"type": "Point", "coordinates": [-123.5367, 41.9782]}, "properties": {"NAME": "W6/NW-136", "TITLE": "Little Grayback", "REGION": "Northwestern Ranges", "ASSOCIATION": "USA - CA", "POINTS": "6", "BONUSPOINTS": "0"}}, {"type": "Feature", "geometry": {"type": "Point", "coordinates": [-122.7754, 41.6906]}, "properties": {"NAME": "W6/NW-137", "TITLE": "6108", "REGION": "Northwestern Ranges", "ASSOCIATION": "USA - CA", "POINTS": "6", "BONUSPOINTS": "0"}}, {"type": "Feature", "geometry": {"type": "Point", "coordinates": [-123.277, 41.9722]}, "properties": {"NAME": "W6/NW-138", "TITLE": "Mount Emily", "REGION": "Northwestern Ranges", "ASSOCIATION": "USA - CA", "POINTS": "6", "BONUSPOINTS": "0"}}, {"type": "Feature", "geometry": {"type": "Point", "coordinates": [-123.4134, 41.0321]}, "properties": {"NAME": "W6/NW-139", "TITLE": "Trinity Mountain", "REGION": "Northwestern Ranges", "ASSOCIATION": "USA - CA", "POINTS": "6", "BONUSPOINTS": "0"}}, {"type": "Feature", "geometry": {"type": "Point", "coordinates": [-123.0252, 41.555]}, "properties": {"NAME": "W6/NW-140", "TITLE": "6084", "REGION": "Northwestern Ranges", "ASSOCIATION": "USA - CA", "POINTS": "6", "BONUSPOINTS": "0"}}, {"type": "Feature", "geometry": {"type": "Point", "coordinates": [-123.2633, 40.2603]}, "properties": {"NAME": "W6/NW-141", "TITLE": "Horse Ridge Lookout", "REGION": "Northwestern Ranges", "ASSOCIATION": "USA - CA", "POINTS": "6", "BONUSPOINTS": "0"}}, {"type": "Feature", "geometry": {"type": "Point", "coordinates": [-122.7229, 41.5268]}, "properties": {"NAME": "W6/NW-142", "TITLE": "Duzel Rock", "REGION": "Northwestern Ranges", "ASSOCIATION": "USA - CA", "POINTS": "6", "BONUSPOINTS": "0"}}, {"type": "Feature", "geometry": {"type": "Point", "coordinates": [-123.0098, 40.2585]}, "properties": {"NAME": "W6/NW-143", "TITLE": "Star Mountain", "REGION": "Northwestern Ranges", "ASSOCIATION": "USA - CA", "POINTS": "6", "BONUSPOINTS": "0"}}, {"type": "Feature", "geometry": {"type": "Point", "coordinates": [-122.6396, 41.5938]}, "properties": {"NAME": "W6/NW-144", "TITLE": "Antelope Mountain", "REGION": "Northwestern Ranges", "ASSOCIATION": "USA - CA", "POINTS": "6", "BONUSPOINTS": "0"}}, {"type": "Feature", "geometry": {"type": "Point", "coordinates": [-122.8715, 41.7406]}, "properties": {"NAME": "W6/NW-145", "TITLE": "6026", "REGION": "Northwestern Ranges", "ASSOCIATION": "USA - CA", "POINTS": "6", "BONUSPOINTS": "0"}}, {"type": "Feature", "geometry": {"type": "Point", "coordinates": [-123.5187, 41.8073]}, "properties": {"NAME": "W6/NW-146", "TITLE": "Boulder Peak", "REGION": "Northwestern Ranges", "ASSOCIATION": "USA - CA", "POINTS": "6", "BONUSPOINTS": "0"}}, {"type": "Feature", "geometry": {"type": "Point", "coordinates": [-123.334, 41.1354]}, "properties": {"NAME": "W6/NW-147", "TITLE": "6013", "REGION": "Northwestern Ranges", "ASSOCIATION": "USA - CA", "POINTS": "6", "BONUSPOINTS": "0"}}, {"type": "Feature", "geometry": {"type": "Point", "coordinates": [-122.6666, 41.4709]}, "properties": {"NAME": "W6/NW-148", "TITLE": "5962", "REGION": "Northwestern Ranges", "ASSOCIATION": "USA - CA", "POINTS": "6", "BONUSPOINTS": "0"}}, {"type": "Feature", "geometry": {"type": "Point", "coordinates": [-123.6853, 41.6602]}, "properties": {"NAME": "W6/NW-149", "TITLE": "5962", "REGION": "Northwestern Ranges", "ASSOCIATION": "USA - CA", "POINTS": "6", "BONUSPOINTS": "0"}}, {"type": "Feature", "geometry": {"type": "Point", "coordinates": [-122.699, 40.5693]}, "properties": {"NAME": "W6/NW-150", "TITLE": "Shoemaker Bally", "REGION": "Northwestern Ranges", "ASSOCIATION": "USA - CA", "POINTS": "6", "BONUSPOINTS": "0"}}, {"type": "Feature", "geometry": {"type": "Point", "coordinates": [-123.188, 41.2724]}, "properties": {"NAME": "W6/NW-151", "TITLE": "Blue Ridge", "REGION": "Northwestern Ranges", "ASSOCIATION": "USA - CA", "POINTS": "6", "BONUSPOINTS": "0"}}, {"type": "Feature", "geometry": {"type": "Point", "coordinates": [-123.6828, 41.8371]}, "properties": {"NAME": "W6/NW-152", "TITLE": "Twin Peaks", "REGION": "Northwestern Ranges", "ASSOCIATION": "USA - CA", "POINTS": "6", "BONUSPOINTS": "0"}}, {"type": "Feature", "geometry": {"type": "Point", "coordinates": [-123.1626, 40.0362]}, "properties": {"NAME": "W6/NW-153", "TITLE": "Big Butte", "REGION": "Northwestern Ranges", "ASSOCIATION": "USA - CA", "POINTS": "6", "BONUSPOINTS": "0"}}, {"type": "Feature", "geometry": {"type": "Point", "coordinates": [-123.2067, 40.8354]}, "properties": {"NAME": "W6/NW-154", "TITLE": "Twin Sisters Mountain", "REGION": "Northwestern Ranges", "ASSOCIATION": "USA - CA", "POINTS": "6", "BONUSPOINTS": "0"}}, {"type": "Feature", "geometry": {"type": "Point", "coordinates": [-123.5606, 40.6146]}, "properties": {"NAME": "W6/NW-155", "TITLE": "Blake Mountain", "REGION": "Northwestern Ranges", "ASSOCIATION": "USA - CA", "POINTS": "6", "BONUSPOINTS": "0"}}, {"type": "Feature", "geometry": {"type": "Point", "coordinates": [-123.0401, 41.6729]}, "properties": {"NAME": "W6/NW-156", "TITLE": "Anderson Peak", "REGION": "Northwestern Ranges", "ASSOCIATION": "USA - CA", "POINTS": "6", "BONUSPOINTS": "0"}}, {"type": "Feature", "geometry": {"type": "Point", "coordinates": [-123.6635, 41.6949]}, "properties": {"NAME": "W6/NW-157", "TITLE": "5896", "REGION": "Northwestern Ranges", "ASSOCIATION": "USA - CA", "POINTS": "6", "BONUSPOINTS": "0"}}, {"type": "Feature", "geometry": {"type": "Point", "coordinates": [-122.6652, 41.451]}, "properties": {"NAME": "W6/NW-158", "TITLE": "5891", "REGION": "Northwestern Ranges", "ASSOCIATION": "USA - CA", "POINTS": "6", "BONUSPOINTS": "0"}}, {"type": "Feature", "geometry": {"type": "Point", "coordinates": [-122.6344, 41.5039]}, "properties": {"NAME": "W6/NW-159", "TITLE": "5882", "REGION": "Northwestern Ranges", "ASSOCIATION": "USA - CA", "POINTS": "6", "BONUSPOINTS": "0"}}, {"type": "Feature", "geometry": {"type": "Point", "coordinates": [-123.2214, 40.8299]}, "properties": {"NAME": "W6/NW-160", "TITLE": "Twin Sisters Benchmark", "REGION": "Northwestern Ranges", "ASSOCIATION": "USA - CA", "POINTS": "6", "BONUSPOINTS": "0"}}, {"type": "Feature", "geometry": {"type": "Point", "coordinates": [-123.1465, 40.384]}, "properties": {"NAME": "W6/NW-161", "TITLE": "Dubakella Mountain", "REGION": "Northwestern Ranges", "ASSOCIATION": "USA - CA", "POINTS": "6", "BONUSPOINTS": "0"}}, {"type": "Feature", "geometry": {"type": "Point", "coordinates": [-123.6739, 41.7344]}, "properties": {"NAME": "W6/NW-162", "TITLE": "Prescott Mountain", "REGION": "Northwestern Ranges", "ASSOCIATION": "USA - CA", "POINTS": "6", "BONUSPOINTS": "0"}}, {"type": "Feature", "geometry": {"type": "Point", "coordinates": [-123.6558, 41.9202]}, "properties": {"NAME": "W6/NW-163", "TITLE": "Sanger Peak", "REGION": "Northwestern Ranges", "ASSOCIATION": "USA - CA", "POINTS": "6", "BONUSPOINTS": "0"}}, {"type": "Feature", "geometry": {"type": "Point", "coordinates": [-123.1266, 40.1379]}, "properties": {"NAME": "W6/NW-164", "TITLE": "Horsehead Mountain", "REGION": "Northwestern Ranges", "ASSOCIATION": "USA - CA", "POINTS": "6", "BONUSPOINTS": "0"}}, {"type": "Feature", "geometry": {"type": "Point", "coordinates": [-123.1072, 40.6498]}, "properties": {"NAME": "W6/NW-165", "TITLE": "Barker Mountain", "REGION": "Northwestern Ranges", "ASSOCIATION": "USA - CA", "POINTS": "6", "BONUSPOINTS": "0"}}, {"type": "Feature", "geometry": {"type": "Point", "coordinates": [-123.6915, 41.8891]}, "properties": {"NAME": "W6/NW-166", "TITLE": "Broken Rib Mountain", "REGION": "Northwestern Ranges", "ASSOCIATION": "USA - CA", "POINTS": "6", "BONUSPOINTS": "0"}}, {"type": "Feature", "geometry": {"type": "Point", "coordinates": [-123.6941, 41.7555]}, "properties": {"NAME": "W6/NW-167", "TITLE": "Jedediah Mountain", "REGION": "Northwestern Ranges", "ASSOCIATION": "USA - CA", "POINTS": "6", "BONUSPOINTS": "0"}}, {"type": "Feature", "geometry": {"type": "Point", "coordinates": [-123.7118, 41.6124]}, "properties": {"NAME": "W6/NW-168", "TITLE": "Sawtooth Mountain", "REGION": "Northwestern Ranges", "ASSOCIATION": "USA - CA", "POINTS": "6", "BONUSPOINTS": "0"}}, {"type": "Feature", "geometry": {"type": "Point", "coordinates": [-123.1528, 39.9965]}, "properties": {"NAME": "W6/NW-169", "TITLE": "5780", "REGION": "Northwestern Ranges", "ASSOCIATION": "USA - CA", "POINTS": "6", "BONUSPOINTS": "0"}}, {"type": "Feature", "geometry": {"type": "Point", "coordinates": [-123.7202, 41.6735]}, "properties": {"NAME": "W6/NW-170", "TITLE": "Baldy Peak", "REGION": "Northwestern Ranges", "ASSOCIATION": "USA - CA", "POINTS": "6", "BONUSPOINTS": "0"}}, {"type": "Feature", "geometry": {"type": "Point", "coordinates": [-123.3633, 40.3458]}, "properties": {"NAME": "W6/NW-171", "TITLE": "Pickett Peak", "REGION": "Northwestern Ranges", "ASSOCIATION": "USA - CA", "POINTS": "6", "BONUSPOINTS": "0"}}, {"type": "Feature", "geometry": {"type": "Point", "coordinates": [-123.4987, 41.8027]}, "properties": {"NAME": "W6/NW-172", "TITLE": "Baldy Mountain", "REGION": "Northwestern Ranges", "ASSOCIATION": "USA - CA", "POINTS": "6", "BONUSPOINTS": "0"}}, {"type": "Feature", "geometry": {"type": "Point", "coordinates": [-122.6903, 41.9304]}, "properties": {"NAME": "W6/NW-173", "TITLE": "Shaft Rock", "REGION": "Northwestern Ranges", "ASSOCIATION": "USA - CA", "POINTS": "6", "BONUSPOINTS": "0"}}, {"type": "Feature", "geometry": {"type": "Point", "coordinates": [-123.5766, 41.6913]}, "properties": {"NAME": "W6/NW-174", "TITLE": "Bear Peak", "REGION": "Northwestern Ranges", "ASSOCIATION": "USA - CA", "POINTS": "6", "BONUSPOINTS": "0"}}, {"type": "Feature", "geometry": {"type": "Point", "coordinates": [-123.1384, 40.7102]}, "properties": {"NAME": "W6/NW-175", "TITLE": "Hayfork Divide", "REGION": "Northwestern Ranges", "ASSOCIATION": "USA - CA", "POINTS": "6", "BONUSPOINTS": "0"}}, {"type": "Feature", "geometry": {"type": "Point", "coordinates": [-122.7827, 40.5059]}, "properties": {"NAME": "W6/NW-176", "TITLE": "Lookout Peak", "REGION": "Northwestern Ranges", "ASSOCIATION": "USA - CA", "POINTS": "6", "BONUSPOINTS": "0"}}, {"type": "Feature", "geometry": {"type": "Point", "coordinates": [-123.6493, 41.8606]}, "properties": {"NAME": "W6/NW-177", "TITLE": "Rocky Knob", "REGION": "Northwestern Ranges", "ASSOCIATION": "USA - CA", "POINTS": "6", "BONUSPOINTS": "0"}}, {"type": "Feature", "geometry": {"type": "Point", "coordinates": [-123.5135, 40.2806]}, "properties": {"NAME": "W6/NW-178", "TITLE": "Coffee Pot", "REGION": "Northwestern Ranges", "ASSOCIATION": "USA - CA", "POINTS": "6", "BONUSPOINTS": "0"}}, {"type": "Feature", "geometry": {"type": "Point", "coordinates": [-122.7481, 41.8068]}, "properties": {"NAME": "W6/NW-179", "TITLE": "Craggy Mountain", "REGION": "Northwestern Ranges", "ASSOCIATION": "USA - CA", "POINTS": "6", "BONUSPOINTS": "0"}}, {"type": "Feature", "geometry": {"type": "Point", "coordinates": [-122.8521, 40.5008]}, "properties": {"NAME": "W6/NW-180", "TITLE": "Bluenose Peak", "REGION": "Northwestern Ranges", "ASSOCIATION": "USA - CA", "POINTS": "6", "BONUSPOINTS": "0"}}, {"type": "Feature", "geometry": {"type": "Point", "coordinates": [-122.8383, 41.2717]}, "properties": {"NAME": "W6/NW-181", "TITLE": "Sugar Hill", "REGION": "Northwestern Ranges", "ASSOCIATION": "USA - CA", "POINTS": "6", "BONUSPOINTS": "0"}}, {"type": "Feature", "geometry": {"type": "Point", "coordinates": [-122.7821, 41.3621]}, "properties": {"NAME": "W6/NW-182", "TITLE": "Hayden Ridge", "REGION": "Northwestern Ranges", "ASSOCIATION": "USA - CA", "POINTS": "6", "BONUSPOINTS": "0"}}, {"type": "Feature", "geometry": {"type": "Point", "coordinates": [-122.5374, 41.0026]}, "properties": {"NAME": "W6/NW-183", "TITLE": "Slate Mountain", "REGION": "Northwestern Ranges", "ASSOCIATION": "USA - CA", "POINTS": "6", "BONUSPOINTS": "0"}}, {"type": "Feature", "geometry": {"type": "Point", "coordinates": [-122.9167, 41.679]}, "properties": {"NAME": "W6/NW-184", "TITLE": "Russell Peak", "REGION": "Northwestern Ranges", "ASSOCIATION": "USA - CA", "POINTS": "6", "BONUSPOINTS": "0"}}, {"type": "Feature", "geometry": {"type": "Point", "coordinates": [-122.7818, 41.3904]}, "properties": {"NAME": "W6/NW-185", "TITLE": "5500", "REGION": "Northwestern Ranges", "ASSOCIATION": "USA - CA", "POINTS": "6", "BONUSPOINTS": "0"}}, {"type": "Feature", "geometry": {"type": "Point", "coordinates": [-122.9515, 41.7751]}, "properties": {"NAME": "W6/NW-186", "TITLE": "Bald Mountain", "REGION": "Northwestern Ranges", "ASSOCIATION": "USA - CA", "POINTS": "4", "BONUSPOINTS": "0"}}, {"type": "Feature", "geometry": {"type": "Point", "coordinates": [-123.3156, 41.9176]}, "properties": {"NAME": "W6/NW-187", "TITLE": "Fourmile Butte", "REGION": "Northwestern Ranges", "ASSOCIATION": "USA - CA", "POINTS": "4", "BONUSPOINTS": "0"}}, {"type": "Feature", "geometry": {"type": "Point", "coordinates": [-123.6339, 41.9355]}, "properties": {"NAME": "W6/NW-188", "TITLE": "Chicago Peak", "REGION": "Northwestern Ranges", "ASSOCIATION": "USA - CA", "POINTS": "4", "BONUSPOINTS": "0"}}, {"type": "Feature", "geometry": {"type": "Point", "coordinates": [-123.6668, 40.7788]}, "properties": {"NAME": "W6/NW-189", "TITLE": "Spike Buck Mountain", "REGION": "Northwestern Ranges", "ASSOCIATION": "USA - CA", "POINTS": "4", "BONUSPOINTS": "0"}}, {"type": "Feature", "geometry": {"type": "Point", "coordinates": [-123.5291, 41.7884]}, "properties": {"NAME": "W6/NW-190", "TITLE": "Five-and-Ten Divide", "REGION": "Northwestern Ranges", "ASSOCIATION": "USA - CA", "POINTS": "4", "BONUSPOINTS": "0"}}, {"type": "Feature", "geometry": {"type": "Point", "coordinates": [-123.5649, 41.6197]}, "properties": {"NAME": "W6/NW-191", "TITLE": "5460", "REGION": "Northwestern Ranges", "ASSOCIATION": "USA - CA", "POINTS": "4", "BONUSPOINTS": "0"}}, {"type": "Feature", "geometry": {"type": "Point", "coordinates": [-123.0055, 40.5579]}, "properties": {"NAME": "W6/NW-192", "TITLE": "Wells Mountain", "REGION": "Northwestern Ranges", "ASSOCIATION": "USA - CA", "POINTS": "4", "BONUSPOINTS": "0"}}, {"type": "Feature", "geometry": {"type": "Point", "coordinates": [-122.7434, 41.4415]}, "properties": {"NAME": "W6/NW-193", "TITLE": "5442", "REGION": "Northwestern Ranges", "ASSOCIATION": "USA - CA", "POINTS": "4", "BONUSPOINTS": "0"}}, {"type": "Feature", "geometry": {"type": "Point", "coordinates": [-123.1908, 40.8177]}, "properties": {"NAME": "W6/NW-194", "TITLE": "Manzanita Ridge", "REGION": "Northwestern Ranges", "ASSOCIATION": "USA - CA", "POINTS": "4", "BONUSPOINTS": "0"}}, {"type": "Feature", "geometry": {"type": "Point", "coordinates": [-123.4341, 41.5209]}, "properties": {"NAME": "W6/NW-195", "TITLE": "5420", "REGION": "Northwestern Ranges", "ASSOCIATION": "USA - CA", "POINTS": "4", "BONUSPOINTS": "0"}}, {"type": "Feature", "geometry": {"type": "Point", "coordinates": [-123.3343, 40.8872]}, "properties": {"NAME": "W6/NW-196", "TITLE": "China Peak", "REGION": "Northwestern Ranges", "ASSOCIATION": "USA - CA", "POINTS": "4", "BONUSPOINTS": "0"}}, {"type": "Feature", "geometry": {"type": "Point", "coordinates": [-123.0989, 41.1971]}, "properties": {"NAME": "W6/NW-197", "TITLE": "Grouse Point", "REGION": "Northwestern Ranges", "ASSOCIATION": "USA - CA", "POINTS": "4", "BONUSPOINTS": "0"}}, {"type": "Feature", "geometry": {"type": "Point", "coordinates": [-122.6404, 40.5709]}, "properties": {"NAME": "W6/NW-198", "TITLE": "Little Bally", "REGION": "Northwestern Ranges", "ASSOCIATION": "USA - CA", "POINTS": "4", "BONUSPOINTS": "0"}}, {"type": "Feature", "geometry": {"type": "Point", "coordinates": [-122.7128, 41.6523]}, "properties": {"NAME": "W6/NW-199", "TITLE": "5367", "REGION": "Northwestern Ranges", "ASSOCIATION": "USA - CA", "POINTS": "4", "BONUSPOINTS": "0"}}, {"type": "Feature", "geometry": {"type": "Point", "coordinates": [-123.4116, 40.7376]}, "properties": {"NAME": "W6/NW-200", "TITLE": "Chaparral Mountain", "REGION": "Northwestern Ranges", "ASSOCIATION": "USA - CA", "POINTS": "4", "BONUSPOINTS": "0"}}, {"type": "Feature", "geometry": {"type": "Point", "coordinates": [-122.6001, 40.9003]}, "properties": {"NAME": "W6/NW-201", "TITLE": "Blue Mountain", "REGION": "Northwestern Ranges", "ASSOCIATION": "USA - CA", "POINTS": "4", "BONUSPOINTS": "0"}}, {"type": "Feature", "geometry": {"type": "Point", "coordinates": [-123.3105, 41.0311]}, "properties": {"NAME": "W6/NW-202", "TITLE": "Bake Oven Ridge", "REGION": "Northwestern Ranges", "ASSOCIATION": "USA - CA", "POINTS": "4", "BONUSPOINTS": "0"}}, {"type": "Feature", "geometry": {"type": "Point", "coordinates": [-123.2975, 40.9523]}, "properties": {"NAME": "W6/NW-203", "TITLE": "Jim Jam Ridge", "REGION": "Northwestern Ranges", "ASSOCIATION": "USA - CA", "POINTS": "4", "BONUSPOINTS": "0"}}, {"type": "Feature", "geometry": {"type": "Point", "coordinates": [-123.4655, 41.3198]}, "properties": {"NAME": "W6/NW-204", "TITLE": "Somes Mountain", "REGION": "Northwestern Ranges", "ASSOCIATION": "USA - CA", "POINTS": "4", "BONUSPOINTS": "0"}}, {"type": "Feature", "geometry": {"type": "Point", "coordinates": [-123.7413, 41.8093]}, "properties": {"NAME": "W6/NW-205", "TITLE": "Bear Basin Butte", "REGION": "Northwestern Ranges", "ASSOCIATION": "USA - CA", "POINTS": "4", "BONUSPOINTS": "0"}}, {"type": "Feature", "geometry": {"type": "Point", "coordinates": [-123.1473, 40.2051]}, "properties": {"NAME": "W6/NW-206", "TITLE": "South Kelsey Peak", "REGION": "Northwestern Ranges", "ASSOCIATION": "USA - CA", "POINTS": "4", "BONUSPOINTS": "0"}}, {"type": "Feature", "geometry": {"type": "Point", "coordinates": [-122.528, 40.96]}, "properties": {"NAME": "W6/NW-207", "TITLE": "Damnation Peak", "REGION": "Northwestern Ranges", "ASSOCIATION": "USA - CA", "POINTS": "4", "BONUSPOINTS": "0"}}, {"type": "Feature", "geometry": {"type": "Point", "coordinates": [-123.7537, 40.6955]}, "properties": {"NAME": "W6/NW-208", "TITLE": "Bug Creek Butte", "REGION": "Northwestern Ranges", "ASSOCIATION": "USA - CA", "POINTS": "4", "BONUSPOINTS": "0"}}, {"type": "Feature", "geometry": {"type": "Point", "coordinates": [-123.4474, 40.8325]}, "properties": {"NAME": "W6/NW-209", "TITLE": "Ironside Mountain", "REGION": "Northwestern Ranges", "ASSOCIATION": "USA - CA", "POINTS": "4", "BONUSPOINTS": "0"}}, {"type": "Feature", "geometry": {"type": "Point", "coordinates": [-123.6955, 41.5488]}, "properties": {"NAME": "W6/NW-210", "TITLE": "5240", "REGION": "Northwestern Ranges", "ASSOCIATION": "USA - CA", "POINTS": "4", "BONUSPOINTS": "0"}}, {"type": "Feature", "geometry": {"type": "Point", "coordinates": [-122.5309, 40.8549]}, "properties": {"NAME": "W6/NW-211", "TITLE": "Schell Mountain", "REGION": "Northwestern Ranges", "ASSOCIATION": "USA - CA", "POINTS": "4", "BONUSPOINTS": "0"}}, {"type": "Feature", "geometry": {"type": "Point", "coordinates": [-123.3184, 40.7292]}, "properties": {"NAME": "W6/NW-212", "TITLE": "Monument Peak", "REGION": "Northwestern Ranges", "ASSOCIATION": "USA - CA", "POINTS": "4", "BONUSPOINTS": "0"}}, {"type": "Feature", "geometry": {"type": "Point", "coordinates": [-123.4651, 40.9631]}, "properties": {"NAME": "W6/NW-213", "TITLE": "Lone Pine Ridge", "REGION": "Northwestern Ranges", "ASSOCIATION": "USA - CA", "POINTS": "4", "BONUSPOINTS": "0"}}, {"type": "Feature", "geometry": {"type": "Point", "coordinates": [-123.6402, 41.5383]}, "properties": {"NAME": "W6/NW-214", "TITLE": "Rock Creek Butte", "REGION": "Northwestern Ranges", "ASSOCIATION": "USA - CA", "POINTS": "4", "BONUSPOINTS": "0"}}, {"type": "Feature", "geometry": {"type": "Point", "coordinates": [-123.7761, 41.5505]}, "properties": {"NAME": "W6/NW-215", "TITLE": "Peak 8", "REGION": "Northwestern Ranges", "ASSOCIATION": "USA - CA", "POINTS": "4", "BONUSPOINTS": "0"}}, {"type": "Feature", "geometry": {"type": "Point", "coordinates": [-123.5886, 40.4426]}, "properties": {"NAME": "W6/NW-216", "TITLE": "Buck Mountain", "REGION": "Northwestern Ranges", "ASSOCIATION": "USA - CA", "POINTS": "4", "BONUSPOINTS": "0"}}, {"type": "Feature", "geometry": {"type": "Point", "coordinates": [-123.3637, 40.405]}, "properties": {"NAME": "W6/NW-217", "TITLE": "Grouse Prairie", "REGION": "Northwestern Ranges", "ASSOCIATION": "USA - CA", "POINTS": "4", "BONUSPOINTS": "0"}}, {"type": "Feature", "geometry": {"type": "Point", "coordinates": [-123.3441, 40.6771]}, "properties": {"NAME": "W6/NW-218", "TITLE": "Pattison Peak", "REGION": "Northwestern Ranges", "ASSOCIATION": "USA - CA", "POINTS": "4", "BONUSPOINTS": "0"}}, {"type": "Feature", "geometry": {"type": "Point", "coordinates": [-122.7978, 41.9197]}, "properties": {"NAME": "W6/NW-219", "TITLE": "Buckhorn Bally", "REGION": "Northwestern Ranges", "ASSOCIATION": "USA - CA", "POINTS": "4", "BONUSPOINTS": "0"}}, {"type": "Feature", "geometry": {"type": "Point", "coordinates": [-123.3437, 41.3208]}, "properties": {"NAME": "W6/NW-220", "TITLE": "Sauerkraut Peak", "REGION": "Northwestern Ranges", "ASSOCIATION": "USA - CA", "POINTS": "4", "BONUSPOINTS": "0"}}, {"type": "Feature", "geometry": {"type": "Point", "coordinates": [-122.8801, 40.5401]}, "properties": {"NAME": "W6/NW-221", "TITLE": "Horse Mane Ridge", "REGION": "Northwestern Ranges", "ASSOCIATION": "USA - CA", "POINTS": "4", "BONUSPOINTS": "0"}}, {"type": "Feature", "geometry": {"type": "Point", "coordinates": [-122.7116, 40.6176]}, "properties": {"NAME": "W6/NW-222", "TITLE": "Buckhorn Bally", "REGION": "Northwestern Ranges", "ASSOCIATION": "USA - CA", "POINTS": "4", "BONUSPOINTS": "0"}}, {"type": "Feature", "geometry": {"type": "Point", "coordinates": [-123.3689, 41.8867]}, "properties": {"NAME": "W6/NW-223", "TITLE": "Jackson Peak", "REGION": "Northwestern Ranges", "ASSOCIATION": "USA - CA", "POINTS": "4", "BONUSPOINTS": "0"}}, {"type": "Feature", "geometry": {"type": "Point", "coordinates": [-123.3774, 41.4614]}, "properties": {"NAME": "W6/NW-224", "TITLE": "Black Mountain", "REGION": "Northwestern Ranges", "ASSOCIATION": "USA - CA", "POINTS": "4", "BONUSPOINTS": "0"}}, {"type": "Feature", "geometry": {"type": "Point", "coordinates": [-123.7082, 41.8337]}, "properties": {"NAME": "W6/NW-225", "TITLE": "5008", "REGION": "Northwestern Ranges", "ASSOCIATION": "USA - CA", "POINTS": "4", "BONUSPOINTS": "0"}}, {"type": "Feature", "geometry": {"type": "Point", "coordinates": [-123.187, 40.6103]}, "properties": {"NAME": "W6/NW-226", "TITLE": "Thompson Peak", "REGION": "Northwestern Ranges", "ASSOCIATION": "USA - CA", "POINTS": "4", "BONUSPOINTS": "0"}}, {"type": "Feature", "geometry": {"type": "Point", "coordinates": [-123.6526, 41.5971]}, "properties": {"NAME": "W6/NW-227", "TITLE": "Little Medicine Mountain", "REGION": "Northwestern Ranges", "ASSOCIATION": "USA - CA", "POINTS": "4", "BONUSPOINTS": "0"}}, {"type": "Feature", "geometry": {"type": "Point", "coordinates": [-123.0327, 40.3213]}, "properties": {"NAME": "W6/NW-228", "TITLE": "4960", "REGION": "Northwestern Ranges", "ASSOCIATION": "USA - CA", "POINTS": "4", "BONUSPOINTS": "0"}}, {"type": "Feature", "geometry": {"type": "Point", "coordinates": [-123.0839, 40.6294]}, "properties": {"NAME": "W6/NW-229", "TITLE": "4960", "REGION": "Northwestern Ranges", "ASSOCIATION": "USA - CA", "POINTS": "4", "BONUSPOINTS": "0"}}, {"type": "Feature", "geometry": {"type": "Point", "coordinates": [-122.5754, 40.9833]}, "properties": {"NAME": "W6/NW-230", "TITLE": "4954", "REGION": "Northwestern Ranges", "ASSOCIATION": "USA - CA", "POINTS": "4", "BONUSPOINTS": "0"}}, {"type": "Feature", "geometry": {"type": "Point", "coordinates": [-123.2472, 41.7544]}, "properties": {"NAME": "W6/NW-231", "TITLE": "Grider Ridge", "REGION": "Northwestern Ranges", "ASSOCIATION": "USA - CA", "POINTS": "4", "BONUSPOINTS": "0"}}, {"type": "Feature", "geometry": {"type": "Point", "coordinates": [-123.7564, 41.3919]}, "properties": {"NAME": "W6/NW-232", "TITLE": "Blue Creek Mountain", "REGION": "Northwestern Ranges", "ASSOCIATION": "USA - CA", "POINTS": "4", "BONUSPOINTS": "0"}}, {"type": "Feature", "geometry": {"type": "Point", "coordinates": [-122.7078, 40.7718]}, "properties": {"NAME": "W6/NW-233", "TITLE": "Lookout Ridge", "REGION": "Northwestern Ranges", "ASSOCIATION": "USA - CA", "POINTS": "4", "BONUSPOINTS": "0"}}, {"type": "Feature", "geometry": {"type": "Point", "coordinates": [-122.72, 40.7401]}, "properties": {"NAME": "W6/NW-234", "TITLE": "Eastman Benchmark", "REGION": "Northwestern Ranges", "ASSOCIATION": "USA - CA", "POINTS": "4", "BONUSPOINTS": "0"}}, {"type": "Feature", "geometry": {"type": "Point", "coordinates": [-123.4797, 40.7354]}, "properties": {"NAME": "W6/NW-235", "TITLE": "Underwood Mountain", "REGION": "Northwestern Ranges", "ASSOCIATION": "USA - CA", "POINTS": "4", "BONUSPOINTS": "0"}}, {"type": "Feature", "geometry": {"type": "Point", "coordinates": [-123.6502, 41.4212]}, "properties": {"NAME": "W6/NW-236", "TITLE": "Vans Benchmark", "REGION": "Northwestern Ranges", "ASSOCIATION": "USA - CA", "POINTS": "4", "BONUSPOINTS": "0"}}, {"type": "Feature", "geometry": {"type": "Point", "coordinates": [-123.3017, 41.8953]}, "properties": {"NAME": "W6/NW-237", "TITLE": "Tims Peak", "REGION": "Northwestern Ranges", "ASSOCIATION": "USA - CA", "POINTS": "4", "BONUSPOINTS": "0"}}, {"type": "Feature", "geometry": {"type": "Point", "coordinates": [-123.3015, 40.6796]}, "properties": {"NAME": "W6/NW-238", "TITLE": "4868", "REGION": "Northwestern Ranges", "ASSOCIATION": "USA - CA", "POINTS": "4", "BONUSPOINTS": "0"}}, {"type": "Feature", "geometry": {"type": "Point", "coordinates": [-123.6762, 41.3512]}, "properties": {"NAME": "W6/NW-239", "TITLE": "Slate Creek Butte", "REGION": "Northwestern Ranges", "ASSOCIATION": "USA - CA", "POINTS": "4", "BONUSPOINTS": "0"}}, {"type": "Feature", "geometry": {"type": "Point", "coordinates": [-122.8065, 41.4498]}, "properties": {"NAME": "W6/NW-240", "TITLE": "Denny Point", "REGION": "Northwestern Ranges", "ASSOCIATION": "USA - CA", "POINTS": "4", "BONUSPOINTS": "0"}}, {"type": "Feature", "geometry": {"type": "Point", "coordinates": [-123.7237, 41.5135]}, "properties": {"NAME": "W6/NW-241", "TITLE": "4840", "REGION": "Northwestern Ranges", "ASSOCIATION": "USA - CA", "POINTS": "4", "BONUSPOINTS": "0"}}, {"type": "Feature", "geometry": {"type": "Point", "coordinates": [-123.4341, 41.5514]}, "properties": {"NAME": "W6/NW-242", "TITLE": "Ten Bear Mountain", "REGION": "Northwestern Ranges", "ASSOCIATION": "USA - CA", "POINTS": "4", "BONUSPOINTS": "0"}}, {"type": "Feature", "geometry": {"type": "Point", "coordinates": [-122.9564, 40.3996]}, "properties": {"NAME": "W6/NW-243", "TITLE": "Knob Peak", "REGION": "Northwestern Ranges", "ASSOCIATION": "USA - CA", "POINTS": "4", "BONUSPOINTS": "0"}}, {"type": "Feature", "geometry": {"type": "Point", "coordinates": [-122.8587, 41.8926]}, "properties": {"NAME": "W6/NW-244", "TITLE": "Round Mountain", "REGION": "Northwestern Ranges", "ASSOCIATION": "USA - CA", "POINTS": "4", "BONUSPOINTS": "0"}}, {"type": "Feature", "geometry": {"type": "Point", "coordinates": [-123.4982, 40.7608]}, "properties": {"NAME": "W6/NW-245", "TITLE": "4767", "REGION": "Northwestern Ranges", "ASSOCIATION": "USA - CA", "POINTS": "4", "BONUSPOINTS": "0"}}, {"type": "Feature", "geometry": {"type": "Point", "coordinates": [-122.9314, 40.4454]}, "properties": {"NAME": "W6/NW-246", "TITLE": "4757", "REGION": "Northwestern Ranges", "ASSOCIATION": "USA - CA", "POINTS": "4", "BONUSPOINTS": "0"}}, {"type": "Feature", "geometry": {"type": "Point", "coordinates": [-123.3795, 40.2842]}, "properties": {"NAME": "W6/NW-247", "TITLE": "Mad River Ridge", "REGION": "Northwestern Ranges", "ASSOCIATION": "USA - CA", "POINTS": "4", "BONUSPOINTS": "0"}}, {"type": "Feature", "geometry": {"type": "Point", "coordinates": [-122.5964, 40.9531]}, "properties": {"NAME": "W6/NW-248", "TITLE": "Brown Mountain", "REGION": "Northwestern Ranges", "ASSOCIATION": "USA - CA", "POINTS": "4", "BONUSPOINTS": "0"}}, {"type": "Feature", "geometry": {"type": "Point", "coordinates": [-122.8729, 41.3394]}, "properties": {"NAME": "W6/NW-249", "TITLE": "Smith Hill", "REGION": "Northwestern Ranges", "ASSOCIATION": "USA - CA", "POINTS": "4", "BONUSPOINTS": "0"}}, {"type": "Feature", "geometry": {"type": "Point", "coordinates": [-122.7434, 41.5643]}, "properties": {"NAME": "W6/NW-250", "TITLE": "4671", "REGION": "Northwestern Ranges", "ASSOCIATION": "USA - CA", "POINTS": "4", "BONUSPOINTS": "0"}}, {"type": "Feature", "geometry": {"type": "Point", "coordinates": [-123.1212, 40.5321]}, "properties": {"NAME": "W6/NW-251", "TITLE": "4668", "REGION": "Northwestern Ranges", "ASSOCIATION": "USA - CA", "POINTS": "4", "BONUSPOINTS": "0"}}, {"type": "Feature", "geometry": {"type": "Point", "coordinates": [-123.574, 41.5299]}, "properties": {"NAME": "W6/NW-252", "TITLE": "Dillon Mountain", "REGION": "Northwestern Ranges", "ASSOCIATION": "USA - CA", "POINTS": "4", "BONUSPOINTS": "0"}}, {"type": "Feature", "geometry": {"type": "Point", "coordinates": [-123.3535, 41.858]}, "properties": {"NAME": "W6/NW-253", "TITLE": "Slater Butte", "REGION": "Northwestern Ranges", "ASSOCIATION": "USA - CA", "POINTS": "4", "BONUSPOINTS": "0"}}, {"type": "Feature", "geometry": {"type": "Point", "coordinates": [-123.3861, 40.2585]}, "properties": {"NAME": "W6/NW-254", "TITLE": "Hettenshaw Peak", "REGION": "Northwestern Ranges", "ASSOCIATION": "USA - CA", "POINTS": "4", "BONUSPOINTS": "0"}}, {"type": "Feature", "geometry": {"type": "Point", "coordinates": [-123.1422, 40.8896]}, "properties": {"NAME": "W6/NW-255", "TITLE": "Backbone Ridge", "REGION": "Northwestern Ranges", "ASSOCIATION": "USA - CA", "POINTS": "4", "BONUSPOINTS": "0"}}, {"type": "Feature", "geometry": {"type": "Point", "coordinates": [-122.5484, 40.7356]}, "properties": {"NAME": "W6/NW-256", "TITLE": "East Shirt Benchmark", "REGION": "Northwestern Ranges", "ASSOCIATION": "USA - CA", "POINTS": "4", "BONUSPOINTS": "0"}}, {"type": "Feature", "geometry": {"type": "Point", "coordinates": [-122.78, 41.8843]}, "properties": {"NAME": "W6/NW-257", "TITLE": "4645", "REGION": "Northwestern Ranges", "ASSOCIATION": "USA - CA", "POINTS": "4", "BONUSPOINTS": "0"}}, {"type": "Feature", "geometry": {"type": "Point", "coordinates": [-122.7112, 40.7109]}, "properties": {"NAME": "W6/NW-258", "TITLE": "4635", "REGION": "Northwestern Ranges", "ASSOCIATION": "USA - CA", "POINTS": "4", "BONUSPOINTS": "0"}}, {"type": "Feature", "geometry": {"type": "Point", "coordinates": [-123.2074, 40.0559]}, "properties": {"NAME": "W6/NW-259", "TITLE": "4635", "REGION": "Northwestern Ranges", "ASSOCIATION": "USA - CA", "POINTS": "4", "BONUSPOINTS": "0"}}, {"type": "Feature", "geometry": {"type": "Point", "coordinates": [-122.7351, 41.6226]}, "properties": {"NAME": "W6/NW-260", "TITLE": "Piney Mountain", "REGION": "Northwestern Ranges", "ASSOCIATION": "USA - CA", "POINTS": "4", "BONUSPOINTS": "0"}}, {"type": "Feature", "geometry": {"type": "Point", "coordinates": [-123.366, 40.9197]}, "properties": {"NAME": "W6/NW-261", "TITLE": "Beartooth Mountain", "REGION": "Northwestern Ranges", "ASSOCIATION": "USA - CA", "POINTS": "4", "BONUSPOINTS": "0"}}, {"type": "Feature", "geometry": {"type": "Point", "coordinates": [-123.4772, 40.3734]}, "properties": {"NAME": "W6/NW-262", "TITLE": "Mad River Rock", "REGION": "Northwestern Ranges", "ASSOCIATION": "USA - CA", "POINTS": "4", "BONUSPOINTS": "0"}}, {"type": "Feature", "geometry": {"type": "Point", "coordinates": [-123.4679, 41.5541]}, "properties": {"NAME": "W6/NW-263", "TITLE": "4580", "REGION": "Northwestern Ranges", "ASSOCIATION": "USA - CA", "POINTS": "4", "BONUSPOINTS": "0"}}, {"type": "Feature", "geometry": {"type": "Point", "coordinates": [-122.7525, 40.6892]}, "properties": {"NAME": "W6/NW-264", "TITLE": "North Hoadley Peaks", "REGION": "Northwestern Ranges", "ASSOCIATION": "USA - CA", "POINTS": "4", "BONUSPOINTS": "0"}}, {"type": "Feature", "geometry": {"type": "Point", "coordinates": [-122.671, 40.7725]}, "properties": {"NAME": "W6/NW-265", "TITLE": "4563", "REGION": "Northwestern Ranges", "ASSOCIATION": "USA - CA", "POINTS": "4", "BONUSPOINTS": "0"}}, {"type": "Feature", "geometry": {"type": "Point", "coordinates": [-123.4797, 40.9236]}, "properties": {"NAME": "W6/NW-266", "TITLE": "4563", "REGION": "Northwestern Ranges", "ASSOCIATION": "USA - CA", "POINTS": "4", "BONUSPOINTS": "0"}}, {"type": "Feature", "geometry": {"type": "Point", "coordinates": [-122.9151, 40.4881]}, "properties": {"NAME": "W6/NW-267", "TITLE": "4560", "REGION": "Northwestern Ranges", "ASSOCIATION": "USA - CA", "POINTS": "4", "BONUSPOINTS": "0"}}, {"type": "Feature", "geometry": {"type": "Point", "coordinates": [-122.6172, 41.8169]}, "properties": {"NAME": "W6/NW-268", "TITLE": "Riverview", "REGION": "Northwestern Ranges", "ASSOCIATION": "USA - CA", "POINTS": "4", "BONUSPOINTS": "0"}}, {"type": "Feature", "geometry": {"type": "Point", "coordinates": [-122.6319, 40.9608]}, "properties": {"NAME": "W6/NW-269", "TITLE": "Jackass Peak", "REGION": "Northwestern Ranges", "ASSOCIATION": "USA - CA", "POINTS": "4", "BONUSPOINTS": "0"}}, {"type": "Feature", "geometry": {"type": "Point", "coordinates": [-122.7386, 41.3327]}, "properties": {"NAME": "W6/NW-270", "TITLE": "Schneider Hill", "REGION": "Northwestern Ranges", "ASSOCIATION": "USA - CA", "POINTS": "4", "BONUSPOINTS": "0"}}, {"type": "Feature", "geometry": {"type": "Point", "coordinates": [-123.6591, 40.3922]}, "properties": {"NAME": "W6/NW-271", "TITLE": "Charles Mountain", "REGION": "Northwestern Ranges", "ASSOCIATION": "USA - CA", "POINTS": "4", "BONUSPOINTS": "0"}}, {"type": "Feature", "geometry": {"type": "Point", "coordinates": [-123.4346, 41.425]}, "properties": {"NAME": "W6/NW-272", "TITLE": "Merrill Mountain", "REGION": "Northwestern Ranges", "ASSOCIATION": "USA - CA", "POINTS": "4", "BONUSPOINTS": "0"}}, {"type": "Feature", "geometry": {"type": "Point", "coordinates": [-122.5323, 40.7521]}, "properties": {"NAME": "W6/NW-273", "TITLE": "4494", "REGION": "Northwestern Ranges", "ASSOCIATION": "USA - CA", "POINTS": "4", "BONUSPOINTS": "0"}}, {"type": "Feature", "geometry": {"type": "Point", "coordinates": [-123.6078, 40.7447]}, "properties": {"NAME": "W6/NW-274", "TITLE": "Sims Mountain", "REGION": "Northwestern Ranges", "ASSOCIATION": "USA - CA", "POINTS": "4", "BONUSPOINTS": "0"}}, {"type": "Feature", "geometry": {"type": "Point", "coordinates": [-123.5756, 41.3921]}, "properties": {"NAME": "W6/NW-275", "TITLE": "Bald Mountain", "REGION": "Northwestern Ranges", "ASSOCIATION": "USA - CA", "POINTS": "4", "BONUSPOINTS": "0"}}, {"type": "Feature", "geometry": {"type": "Point", "coordinates": [-123.6198, 41.5626]}, "properties": {"NAME": "W6/NW-276", "TITLE": "4430", "REGION": "Northwestern Ranges", "ASSOCIATION": "USA - CA", "POINTS": "4", "BONUSPOINTS": "0"}}, {"type": "Feature", "geometry": {"type": "Point", "coordinates": [-123.6974, 40.5787]}, "properties": {"NAME": "W6/NW-277", "TITLE": "Showers Mountain", "REGION": "Northwestern Ranges", "ASSOCIATION": "USA - CA", "POINTS": "4", "BONUSPOINTS": "0"}}, {"type": "Feature", "geometry": {"type": "Point", "coordinates": [-123.1585, 41.9762]}, "properties": {"NAME": "W6/NW-278", "TITLE": "Abney Butte", "REGION": "Northwestern Ranges", "ASSOCIATION": "USA - CA", "POINTS": "4", "BONUSPOINTS": "0"}}, {"type": "Feature", "geometry": {"type": "Point", "coordinates": [-122.9979, 40.6963]}, "properties": {"NAME": "W6/NW-279", "TITLE": "4377", "REGION": "Northwestern Ranges", "ASSOCIATION": "USA - CA", "POINTS": "4", "BONUSPOINTS": "0"}}, {"type": "Feature", "geometry": {"type": "Point", "coordinates": [-123.6131, 40.36]}, "properties": {"NAME": "W6/NW-280", "TITLE": "4376", "REGION": "Northwestern Ranges", "ASSOCIATION": "USA - CA", "POINTS": "4", "BONUSPOINTS": "0"}}, {"type": "Feature", "geometry": {"type": "Point", "coordinates": [-123.735, 41.2852]}, "properties": {"NAME": "W6/NW-281", "TITLE": "Bee Mountain", "REGION": "Northwestern Ranges", "ASSOCIATION": "USA - CA", "POINTS": "4", "BONUSPOINTS": "0"}}, {"type": "Feature", "geometry": {"type": "Point", "coordinates": [-123.394, 40.8768]}, "properties": {"NAME": "W6/NW-282", "TITLE": "Big Mountain", "REGION": "Northwestern Ranges", "ASSOCIATION": "USA - CA", "POINTS": "4", "BONUSPOINTS": "0"}}, {"type": "Feature", "geometry": {"type": "Point", "coordinates": [-123.6025, 41.6442]}, "properties": {"NAME": "W6/NW-283", "TITLE": "4360", "REGION": "Northwestern Ranges", "ASSOCIATION": "USA - CA", "POINTS": "4", "BONUSPOINTS": "0"}}, {"type": "Feature", "geometry": {"type": "Point", "coordinates": [-122.8325, 41.7016]}, "properties": {"NAME": "W6/NW-284", "TITLE": "4356", "REGION": "Northwestern Ranges", "ASSOCIATION": "USA - CA", "POINTS": "4", "BONUSPOINTS": "0"}}, {"type": "Feature", "geometry": {"type": "Point", "coordinates": [-123.7137, 41.2368]}, "properties": {"NAME": "W6/NW-285", "TITLE": "Burrill Peak", "REGION": "Northwestern Ranges", "ASSOCIATION": "USA - CA", "POINTS": "4", "BONUSPOINTS": "0"}}, {"type": "Feature", "geometry": {"type": "Point", "coordinates": [-122.8137, 41.3017]}, "properties": {"NAME": "W6/NW-286", "TITLE": "4325", "REGION": "Northwestern Ranges", "ASSOCIATION": "USA - CA", "POINTS": "4", "BONUSPOINTS": "0"}}, {"type": "Feature", "geometry": {"type": "Point", "coordinates": [-122.8712, 41.6689]}, "properties": {"NAME": "W6/NW-287", "TITLE": "4324", "REGION": "Northwestern Ranges", "ASSOCIATION": "USA - CA", "POINTS": "4", "BONUSPOINTS": "0"}}, {"type": "Feature", "geometry": {"type": "Point", "coordinates": [-122.4661, 40.8962]}, "properties": {"NAME": "W6/NW-288", "TITLE": "4308", "REGION": "Northwestern Ranges", "ASSOCIATION": "USA - CA", "POINTS": "4", "BONUSPOINTS": "0"}}, {"type": "Feature", "geometry": {"type": "Point", "coordinates": [-123.3204, 41.2875]}, "properties": {"NAME": "W6/NW-289", "TITLE": "Hog Range", "REGION": "Northwestern Ranges", "ASSOCIATION": "USA - CA", "POINTS": "4", "BONUSPOINTS": "0"}}, {"type": "Feature", "geometry": {"type": "Point", "coordinates": [-122.8202, 41.5182]}, "properties": {"NAME": "W6/NW-290", "TITLE": "4304", "REGION": "Northwestern Ranges", "ASSOCIATION": "USA - CA", "POINTS": "4", "BONUSPOINTS": "0"}}, {"type": "Feature", "geometry": {"type": "Point", "coordinates": [-122.8507, 41.6428]}, "properties": {"NAME": "W6/NW-291", "TITLE": "4284", "REGION": "Northwestern Ranges", "ASSOCIATION": "USA - CA", "POINTS": "4", "BONUSPOINTS": "0"}}, {"type": "Feature", "geometry": {"type": "Point", "coordinates": [-123.1051, 41.8346]}, "properties": {"NAME": "W6/NW-292", "TITLE": "Johnny O'Neil Ridge", "REGION": "Northwestern Ranges", "ASSOCIATION": "USA - CA", "POINTS": "4", "BONUSPOINTS": "0"}}, {"type": "Feature", "geometry": {"type": "Point", "coordinates": [-123.267, 41.8331]}, "properties": {"NAME": "W6/NW-293", "TITLE": "Evans Mountain", "REGION": "Northwestern Ranges", "ASSOCIATION": "USA - CA", "POINTS": "4", "BONUSPOINTS": "0"}}, {"type": "Feature", "geometry": {"type": "Point", "coordinates": [-122.8772, 41.5958]}, "properties": {"NAME": "W6/NW-294", "TITLE": "Chaparral Hill", "REGION": "Northwestern Ranges", "ASSOCIATION": "USA - CA", "POINTS": "4", "BONUSPOINTS": "0"}}, {"type": "Feature", "geometry": {"type": "Point", "coordinates": [-123.7144, 40.9787]}, "properties": {"NAME": "W6/NW-295", "TITLE": "4260", "REGION": "Northwestern Ranges", "ASSOCIATION": "USA - CA", "POINTS": "4", "BONUSPOINTS": "0"}}, {"type": "Feature", "geometry": {"type": "Point", "coordinates": [-123.9082, 41.5244]}, "properties": {"NAME": "W6/NW-296", "TITLE": "Red Mountain", "REGION": "Northwestern Ranges", "ASSOCIATION": "USA - CA", "POINTS": "4", "BONUSPOINTS": "0"}}, {"type": "Feature", "geometry": {"type": "Point", "coordinates": [-123.0599, 41.8705]}, "properties": {"NAME": "W6/NW-297", "TITLE": "White Cloud Mountain", "REGION": "Northwestern Ranges", "ASSOCIATION": "USA - CA", "POINTS": "4", "BONUSPOINTS": "0"}}, {"type": "Feature", "geometry": {"type": "Point", "coordinates": [-122.9337, 41.5996]}, "properties": {"NAME": "W6/NW-298", "TITLE": "Quartz Hill", "REGION": "Northwestern Ranges", "ASSOCIATION": "USA - CA", "POINTS": "4", "BONUSPOINTS": "0"}}, {"type": "Feature", "geometry": {"type": "Point", "coordinates": [-122.5691, 40.789]}, "properties": {"NAME": "W6/NW-299", "TITLE": "4232", "REGION": "Northwestern Ranges", "ASSOCIATION": "USA - CA", "POINTS": "4", "BONUSPOINTS": "0"}}, {"type": "Feature", "geometry": {"type": "Point", "coordinates": [-123.3006, 40.1807]}, "properties": {"NAME": "W6/NW-300", "TITLE": "4220", "REGION": "Northwestern Ranges", "ASSOCIATION": "USA - CA", "POINTS": "4", "BONUSPOINTS": "0"}}, {"type": "Feature", "geometry": {"type": "Point", "coordinates": [-123.3406, 40.2293]}, "properties": {"NAME": "W6/NW-301", "TITLE": "Smith Peak", "REGION": "Northwestern Ranges", "ASSOCIATION": "USA - CA", "POINTS": "4", "BONUSPOINTS": "0"}}, {"type": "Feature", "geometry": {"type": "Point", "coordinates": [-122.7331, 40.8945]}, "properties": {"NAME": "W6/NW-302", "TITLE": "Bowerman Peak", "REGION": "Northwestern Ranges", "ASSOCIATION": "USA - CA", "POINTS": "4", "BONUSPOINTS": "0"}}, {"type": "Feature", "geometry": {"type": "Point", "coordinates": [-123.8678, 41.8028]}, "properties": {"NAME": "W6/NW-303", "TITLE": "Gordon Mountain", "REGION": "Northwestern Ranges", "ASSOCIATION": "USA - CA", "POINTS": "4", "BONUSPOINTS": "0"}}, {"type": "Feature", "geometry": {"type": "Point", "coordinates": [-123.731, 40.6019]}, "properties": {"NAME": "W6/NW-304", "TITLE": "4200", "REGION": "Northwestern Ranges", "ASSOCIATION": "USA - CA", "POINTS": "4", "BONUSPOINTS": "0"}}, {"type": "Feature", "geometry": {"type": "Point", "coordinates": [-123.3678, 41.2659]}, "properties": {"NAME": "W6/NW-305", "TITLE": "4119", "REGION": "Northwestern Ranges", "ASSOCIATION": "USA - CA", "POINTS": "4", "BONUSPOINTS": "0"}}, {"type": "Feature", "geometry": {"type": "Point", "coordinates": [-123.4711, 41.4235]}, "properties": {"NAME": "W6/NW-306", "TITLE": "Offield Mountain", "REGION": "Northwestern Ranges", "ASSOCIATION": "USA - CA", "POINTS": "4", "BONUSPOINTS": "0"}}, {"type": "Feature", "geometry": {"type": "Point", "coordinates": [-122.717, 40.947]}, "properties": {"NAME": "W6/NW-307", "TITLE": "4104", "REGION": "Northwestern Ranges", "ASSOCIATION": "USA - CA", "POINTS": "4", "BONUSPOINTS": "0"}}, {"type": "Feature", "geometry": {"type": "Point", "coordinates": [-123.3804, 40.7774]}, "properties": {"NAME": "W6/NW-308", "TITLE": "4101", "REGION": "Northwestern Ranges", "ASSOCIATION": "USA - CA", "POINTS": "4", "BONUSPOINTS": "0"}}, {"type": "Feature", "geometry": {"type": "Point", "coordinates": [-123.8051, 41.0703]}, "properties": {"NAME": "W6/NW-309", "TITLE": "Hupa Mountain", "REGION": "Northwestern Ranges", "ASSOCIATION": "USA - CA", "POINTS": "4", "BONUSPOINTS": "0"}}, {"type": "Feature", "geometry": {"type": "Point", "coordinates": [-122.8228, 41.6089]}, "properties": {"NAME": "W6/NW-310", "TITLE": "4087", "REGION": "Northwestern Ranges", "ASSOCIATION": "USA - CA", "POINTS": "4", "BONUSPOINTS": "0"}}, {"type": "Feature", "geometry": {"type": "Point", "coordinates": [-123.7766, 41.0188]}, "properties": {"NAME": "W6/NW-311", "TITLE": "4076", "REGION": "Northwestern Ranges", "ASSOCIATION": "USA - CA", "POINTS": "4", "BONUSPOINTS": "0"}}, {"type": "Feature", "geometry": {"type": "Point", "coordinates": [-123.6198, 40.7887]}, "properties": {"NAME": "W6/NW-312", "TITLE": "4074", "REGION": "Northwestern Ranges", "ASSOCIATION": "USA - CA", "POINTS": "4", "BONUSPOINTS": "0"}}, {"type": "Feature", "geometry": {"type": "Point", "coordinates": [-123.4443, 40.2916]}, "properties": {"NAME": "W6/NW-313", "TITLE": "Hetten Rock", "REGION": "Northwestern Ranges", "ASSOCIATION": "USA - CA", "POINTS": "4", "BONUSPOINTS": "0"}}, {"type": "Feature", "geometry": {"type": "Point", "coordinates": [-123.3127, 41.4359]}, "properties": {"NAME": "W6/NW-314", "TITLE": "4041", "REGION": "Northwestern Ranges", "ASSOCIATION": "USA - CA", "POINTS": "4", "BONUSPOINTS": "0"}}, {"type": "Feature", "geometry": {"type": "Point", "coordinates": [-123.8709, 41.6157]}, "properties": {"NAME": "W6/NW-315", "TITLE": "Lems Ridge", "REGION": "Northwestern Ranges", "ASSOCIATION": "USA - CA", "POINTS": "4", "BONUSPOINTS": "0"}}, {"type": "Feature", "geometry": {"type": "Point", "coordinates": [-123.6184, 41.2145]}, "properties": {"NAME": "W6/NW-316", "TITLE": "Hopkins Butte", "REGION": "Northwestern Ranges", "ASSOCIATION": "USA - CA", "POINTS": "4", "BONUSPOINTS": "0"}}, {"type": "Feature", "geometry": {"type": "Point", "coordinates": [-123.759, 41.474]}, "properties": {"NAME": "W6/NW-317", "TITLE": "Nickowitz Peak", "REGION": "Northwestern Ranges", "ASSOCIATION": "USA - CA", "POINTS": "4", "BONUSPOINTS": "0"}}, {"type": "Feature", "geometry": {"type": "Point", "coordinates": [-122.9318, 40.5075]}, "properties": {"NAME": "W6/NW-318", "TITLE": "Sugarloaf Peak", "REGION": "Northwestern Ranges", "ASSOCIATION": "USA - CA", "POINTS": "4", "BONUSPOINTS": "0"}}, {"type": "Feature", "geometry": {"type": "Point", "coordinates": [-123.6691, 40.9147]}, "properties": {"NAME": "W6/NW-319", "TITLE": "Brush Mountain", "REGION": "Northwestern Ranges", "ASSOCIATION": "USA - CA", "POINTS": "2", "BONUSPOINTS": "0"}}, {"type": "Feature", "geometry": {"type": "Point", "coordinates": [-123.4266, 41.596]}, "properties": {"NAME": "W6/NW-320", "TITLE": "3971", "REGION": "Northwestern Ranges", "ASSOCIATION": "USA - CA", "POINTS": "2", "BONUSPOINTS": "0"}}, {"type": "Feature", "geometry": {"type": "Point", "coordinates": [-123.088, 40.803]}, "properties": {"NAME": "W6/NW-321", "TITLE": "3969", "REGION": "Northwestern Ranges", "ASSOCIATION": "USA - CA", "POINTS": "2", "BONUSPOINTS": "0"}}, {"type": "Feature", "geometry": {"type": "Point", "coordinates": [-123.3271, 41.8377]}, "properties": {"NAME": "W6/NW-322", "TITLE": "Cade Mountain", "REGION": "Northwestern Ranges", "ASSOCIATION": "USA - CA", "POINTS": "2", "BONUSPOINTS": "0"}}, {"type": "Feature", "geometry": {"type": "Point", "coordinates": [-123.624, 41.1794]}, "properties": {"NAME": "W6/NW-323", "TITLE": "Bunch Grass Ridge", "REGION": "Northwestern Ranges", "ASSOCIATION": "USA - CA", "POINTS": "2", "BONUSPOINTS": "0"}}, {"type": "Feature", "geometry": {"type": "Point", "coordinates": [-123.5514, 40.4838]}, "properties": {"NAME": "W6/NW-324", "TITLE": "3960", "REGION": "Northwestern Ranges", "ASSOCIATION": "USA - CA", "POINTS": "2", "BONUSPOINTS": "0"}}, {"type": "Feature", "geometry": {"type": "Point", "coordinates": [-123.7533, 41.0396]}, "properties": {"NAME": "W6/NW-325", "TITLE": "Sugar Pine Mountain", "REGION": "Northwestern Ranges", "ASSOCIATION": "USA - CA", "POINTS": "2", "BONUSPOINTS": "0"}}, {"type": "Feature", "geometry": {"type": "Point", "coordinates": [-123.4387, 41.3959]}, "properties": {"NAME": "W6/NW-326", "TITLE": "East Peak", "REGION": "Northwestern Ranges", "ASSOCIATION": "USA - CA", "POINTS": "2", "BONUSPOINTS": "0"}}, {"type": "Feature", "geometry": {"type": "Point", "coordinates": [-123.6063, 41.3123]}, "properties": {"NAME": "W6/NW-327", "TITLE": "3862", "REGION": "Northwestern Ranges", "ASSOCIATION": "USA - CA", "POINTS": "2", "BONUSPOINTS": "0"}}, {"type": "Feature", "geometry": {"type": "Point", "coordinates": [-123.0651, 41.7982]}, "properties": {"NAME": "W6/NW-328", "TITLE": "3855", "REGION": "Northwestern Ranges", "ASSOCIATION": "USA - CA", "POINTS": "2", "BONUSPOINTS": "0"}}, {"type": "Feature", "geometry": {"type": "Point", "coordinates": [-123.4169, 40.256]}, "properties": {"NAME": "W6/NW-329", "TITLE": "Hetten Ridge", "REGION": "Northwestern Ranges", "ASSOCIATION": "USA - CA", "POINTS": "2", "BONUSPOINTS": "0"}}, {"type": "Feature", "geometry": {"type": "Point", "coordinates": [-122.8732, 40.7385]}, "properties": {"NAME": "W6/NW-330", "TITLE": "Browns Mountain", "REGION": "Northwestern Ranges", "ASSOCIATION": "USA - CA", "POINTS": "2", "BONUSPOINTS": "0"}}, {"type": "Feature", "geometry": {"type": "Point", "coordinates": [-123.7672, 41.974]}, "properties": {"NAME": "W6/NW-331", "TITLE": "Monkey Creek Ridge", "REGION": "Northwestern Ranges", "ASSOCIATION": "USA - CA", "POINTS": "2", "BONUSPOINTS": "0"}}, {"type": "Feature", "geometry": {"type": "Point", "coordinates": [-123.4141, 41.6997]}, "properties": {"NAME": "W6/NW-332", "TITLE": "3860", "REGION": "Northwestern Ranges", "ASSOCIATION": "USA - CA", "POINTS": "2", "BONUSPOINTS": "0"}}, {"type": "Feature", "geometry": {"type": "Point", "coordinates": [-122.6698, 41.7261]}, "properties": {"NAME": "W6/NW-333", "TITLE": "3786", "REGION": "Northwestern Ranges", "ASSOCIATION": "USA - CA", "POINTS": "2", "BONUSPOINTS": "0"}}, {"type": "Feature", "geometry": {"type": "Point", "coordinates": [-123.1103, 41.1384]}, "properties": {"NAME": "W6/NW-334", "TITLE": "3747", "REGION": "Northwestern Ranges", "ASSOCIATION": "USA - CA", "POINTS": "2", "BONUSPOINTS": "0"}}, {"type": "Feature", "geometry": {"type": "Point", "coordinates": [-123.8956, 41.8939]}, "properties": {"NAME": "W6/NW-335", "TITLE": "Cold Spring Mountain", "REGION": "Northwestern Ranges", "ASSOCIATION": "USA - CA", "POINTS": "2", "BONUSPOINTS": "0"}}, {"type": "Feature", "geometry": {"type": "Point", "coordinates": [-123.7826, 41.9288]}, "properties": {"NAME": "W6/NW-336", "TITLE": "Monkey Benchmark", "REGION": "Northwestern Ranges", "ASSOCIATION": "USA - CA", "POINTS": "2", "BONUSPOINTS": "0"}}, {"type": "Feature", "geometry": {"type": "Point", "coordinates": [-123.5301, 40.8397]}, "properties": {"NAME": "W6/NW-337", "TITLE": "Hennessy Ridge", "REGION": "Northwestern Ranges", "ASSOCIATION": "USA - CA", "POINTS": "2", "BONUSPOINTS": "0"}}, {"type": "Feature", "geometry": {"type": "Point", "coordinates": [-123.8439, 41.7647]}, "properties": {"NAME": "W6/NW-338", "TITLE": "Fox Ridge", "REGION": "Northwestern Ranges", "ASSOCIATION": "USA - CA", "POINTS": "2", "BONUSPOINTS": "0"}}, {"type": "Feature", "geometry": {"type": "Point", "coordinates": [-123.1406, 40.8159]}, "properties": {"NAME": "W6/NW-339", "TITLE": "3664", "REGION": "Northwestern Ranges", "ASSOCIATION": "USA - CA", "POINTS": "2", "BONUSPOINTS": "0"}}, {"type": "Feature", "geometry": {"type": "Point", "coordinates": [-123.9487, 41.6246]}, "properties": {"NAME": "W6/NW-340", "TITLE": "Rattlesnake Mountain", "REGION": "Northwestern Ranges", "ASSOCIATION": "USA - CA", "POINTS": "2", "BONUSPOINTS": "0"}}, {"type": "Feature", "geometry": {"type": "Point", "coordinates": [-123.5167, 41.2004]}, "properties": {"NAME": "W6/NW-341", "TITLE": "Black Mountain", "REGION": "Northwestern Ranges", "ASSOCIATION": "USA - CA", "POINTS": "2", "BONUSPOINTS": "0"}}, {"type": "Feature", "geometry": {"type": "Point", "coordinates": [-123.0039, 40.6425]}, "properties": {"NAME": "W6/NW-342", "TITLE": "3582", "REGION": "Northwestern Ranges", "ASSOCIATION": "USA - CA", "POINTS": "2", "BONUSPOINTS": "0"}}, {"type": "Feature", "geometry": {"type": "Point", "coordinates": [-123.3232, 40.0456]}, "properties": {"NAME": "W6/NW-343", "TITLE": "Long Ridge", "REGION": "Northwestern Ranges", "ASSOCIATION": "USA - CA", "POINTS": "2", "BONUSPOINTS": "0"}}, {"type": "Feature", "geometry": {"type": "Point", "coordinates": [-123.6357, 41.0977]}, "properties": {"NAME": "W6/NW-344", "TITLE": "Big Hill", "REGION": "Northwestern Ranges", "ASSOCIATION": "USA - CA", "POINTS": "2", "BONUSPOINTS": "0"}}, {"type": "Feature", "geometry": {"type": "Point", "coordinates": [-123.6273, 41.0657]}, "properties": {"NAME": "W6/NW-345", "TITLE": "Captain John Mountain", "REGION": "Northwestern Ranges", "ASSOCIATION": "USA - CA", "POINTS": "2", "BONUSPOINTS": "0"}}, {"type": "Feature", "geometry": {"type": "Point", "coordinates": [-122.5995, 40.6962]}, "properties": {"NAME": "W6/NW-346", "TITLE": "3541", "REGION": "Northwestern Ranges", "ASSOCIATION": "USA - CA", "POINTS": "2", "BONUSPOINTS": "0"}}, {"type": "Feature", "geometry": {"type": "Point", "coordinates": [-123.9261, 41.917]}, "properties": {"NAME": "W6/NW-347", "TITLE": "High Plateau Mountain", "REGION": "Northwestern Ranges", "ASSOCIATION": "USA - CA", "POINTS": "2", "BONUSPOINTS": "0"}}, {"type": "Feature", "geometry": {"type": "Point", "coordinates": [-123.4836, 40.6752]}, "properties": {"NAME": "W6/NW-348", "TITLE": "3484", "REGION": "Northwestern Ranges", "ASSOCIATION": "USA - CA", "POINTS": "2", "BONUSPOINTS": "0"}}, {"type": "Feature", "geometry": {"type": "Point", "coordinates": [-123.3968, 41.3192]}, "properties": {"NAME": "W6/NW-349", "TITLE": "Butler Mountain", "REGION": "Northwestern Ranges", "ASSOCIATION": "USA - CA", "POINTS": "2", "BONUSPOINTS": "0"}}, {"type": "Feature", "geometry": {"type": "Point", "coordinates": [-123.844, 41.6725]}, "properties": {"NAME": "W6/NW-350", "TITLE": "Muslatt Mountain", "REGION": "Northwestern Ranges", "ASSOCIATION": "USA - CA", "POINTS": "2", "BONUSPOINTS": "0"}}, {"type": "Feature", "geometry": {"type": "Point", "coordinates": [-123.4053, 41.8409]}, "properties": {"NAME": "W6/NW-351", "TITLE": "3420", "REGION": "Northwestern Ranges", "ASSOCIATION": "USA - CA", "POINTS": "2", "BONUSPOINTS": "0"}}, {"type": "Feature", "geometry": {"type": "Point", "coordinates": [-123.0635, 40.5768]}, "properties": {"NAME": "W6/NW-352", "TITLE": "3408", "REGION": "Northwestern Ranges", "ASSOCIATION": "USA - CA", "POINTS": "2", "BONUSPOINTS": "0"}}, {"type": "Feature", "geometry": {"type": "Point", "coordinates": [-122.9069, 40.6983]}, "properties": {"NAME": "W6/NW-353", "TITLE": "3385", "REGION": "Northwestern Ranges", "ASSOCIATION": "USA - CA", "POINTS": "2", "BONUSPOINTS": "0"}}, {"type": "Feature", "geometry": {"type": "Point", "coordinates": [-122.6744, 40.9331]}, "properties": {"NAME": "W6/NW-354", "TITLE": "3359", "REGION": "Northwestern Ranges", "ASSOCIATION": "USA - CA", "POINTS": "2", "BONUSPOINTS": "0"}}, {"type": "Feature", "geometry": {"type": "Point", "coordinates": [-123.5366, 41.0052]}, "properties": {"NAME": "W6/NW-355", "TITLE": "North Lone Pine Ridge", "REGION": "Northwestern Ranges", "ASSOCIATION": "USA - CA", "POINTS": "2", "BONUSPOINTS": "0"}}, {"type": "Feature", "geometry": {"type": "Point", "coordinates": [-123.8171, 41.9446]}, "properties": {"NAME": "W6/NW-356", "TITLE": "Shelly Creek Ridge", "REGION": "Northwestern Ranges", "ASSOCIATION": "USA - CA", "POINTS": "2", "BONUSPOINTS": "0"}}, {"type": "Feature", "geometry": {"type": "Point", "coordinates": [-123.6823, 40.4714]}, "properties": {"NAME": "W6/NW-357", "TITLE": "3300", "REGION": "Northwestern Ranges", "ASSOCIATION": "USA - CA", "POINTS": "2", "BONUSPOINTS": "0"}}, {"type": "Feature", "geometry": {"type": "Point", "coordinates": [-122.8337, 40.6898]}, "properties": {"NAME": "W6/NW-358", "TITLE": "3248", "REGION": "Northwestern Ranges", "ASSOCIATION": "USA - CA", "POINTS": "2", "BONUSPOINTS": "0"}}, {"type": "Feature", "geometry": {"type": "Point", "coordinates": [-123.5499, 41.3437]}, "properties": {"NAME": "W6/NW-359", "TITLE": "Black Mountain", "REGION": "Northwestern Ranges", "ASSOCIATION": "USA - CA", "POINTS": "2", "BONUSPOINTS": "0"}}, {"type": "Feature", "geometry": {"type": "Point", "coordinates": [-122.9222, 40.6187]}, "properties": {"NAME": "W6/NW-360", "TITLE": "3185", "REGION": "Northwestern Ranges", "ASSOCIATION": "USA - CA", "POINTS": "2", "BONUSPOINTS": "0"}}, {"type": "Feature", "geometry": {"type": "Point", "coordinates": [-123.7294, 41.1572]}, "properties": {"NAME": "W6/NW-361", "TITLE": "3160", "REGION": "Northwestern Ranges", "ASSOCIATION": "USA - CA", "POINTS": "2", "BONUSPOINTS": "0"}}, {"type": "Feature", "geometry": {"type": "Point", "coordinates": [-123.1581, 41.8439]}, "properties": {"NAME": "W6/NW-362", "TITLE": "3159", "REGION": "Northwestern Ranges", "ASSOCIATION": "USA - CA", "POINTS": "2", "BONUSPOINTS": "0"}}, {"type": "Feature", "geometry": {"type": "Point", "coordinates": [-122.9684, 40.6425]}, "properties": {"NAME": "W6/NW-363", "TITLE": "South Browns Mountain", "REGION": "Northwestern Ranges", "ASSOCIATION": "USA - CA", "POINTS": "2", "BONUSPOINTS": "0"}}, {"type": "Feature", "geometry": {"type": "Point", "coordinates": [-122.9033, 40.7435]}, "properties": {"NAME": "W6/NW-364", "TITLE": "Musser Hill", "REGION": "Northwestern Ranges", "ASSOCIATION": "USA - CA", "POINTS": "2", "BONUSPOINTS": "0"}}, {"type": "Feature", "geometry": {"type": "Point", "coordinates": [-123.8159, 41.2381]}, "properties": {"NAME": "W6/NW-365", "TITLE": "3090", "REGION": "Northwestern Ranges", "ASSOCIATION": "USA - CA", "POINTS": "2", "BONUSPOINTS": "0"}}, {"type": "Feature", "geometry": {"type": "Point", "coordinates": [-122.6957, 40.4876]}, "properties": {"NAME": "W6/NW-366", "TITLE": "Musselbeck Benchmark", "REGION": "Northwestern Ranges", "ASSOCIATION": "USA - CA", "POINTS": "2", "BONUSPOINTS": "0"}}, {"type": "Feature", "geometry": {"type": "Point", "coordinates": [-123.3715, 40.1665]}, "properties": {"NAME": "W6/NW-367", "TITLE": "Shannon Butte", "REGION": "Northwestern Ranges", "ASSOCIATION": "USA - CA", "POINTS": "2", "BONUSPOINTS": "0"}}, {"type": "Feature", "geometry": {"type": "Point", "coordinates": [-122.8232, 40.4112]}, "properties": {"NAME": "W6/NW-368", "TITLE": "3051", "REGION": "Northwestern Ranges", "ASSOCIATION": "USA - CA", "POINTS": "2", "BONUSPOINTS": "0"}}, {"type": "Feature", "geometry": {"type": "Point", "coordinates": [-123.3318, 40.6277]}, "properties": {"NAME": "W6/NW-369", "TITLE": "3021", "REGION": "Northwestern Ranges", "ASSOCIATION": "USA - CA", "POINTS": "2", "BONUSPOINTS": "0"}}, {"type": "Feature", "geometry": {"type": "Point", "coordinates": [-123.8531, 41.1985]}, "properties": {"NAME": "W6/NW-370", "TITLE": "Williams Ridge", "REGION": "Northwestern Ranges", "ASSOCIATION": "USA - CA", "POINTS": "2", "BONUSPOINTS": "0"}}, {"type": "Feature", "geometry": {"type": "Point", "coordinates": [-123.5791, 41.2411]}, "properties": {"NAME": "W6/NW-371", "TITLE": "2913", "REGION": "Northwestern Ranges", "ASSOCIATION": "USA - CA", "POINTS": "2", "BONUSPOINTS": "0"}}, {"type": "Feature", "geometry": {"type": "Point", "coordinates": [-122.6775, 40.6616]}, "properties": {"NAME": "W6/NW-372", "TITLE": "2901", "REGION": "Northwestern Ranges", "ASSOCIATION": "USA - CA", "POINTS": "2", "BONUSPOINTS": "0"}}, {"type": "Feature", "geometry": {"type": "Point", "coordinates": [-123.8361, 41.9166]}, "properties": {"NAME": "W6/NW-373", "TITLE": "2870", "REGION": "Northwestern Ranges", "ASSOCIATION": "USA - CA", "POINTS": "2", "BONUSPOINTS": "0"}}, {"type": "Feature", "geometry": {"type": "Point", "coordinates": [-123.8407, 41.8584]}, "properties": {"NAME": "W6/NW-374", "TITLE": "Kelly Peak", "REGION": "Northwestern Ranges", "ASSOCIATION": "USA - CA", "POINTS": "2", "BONUSPOINTS": "0"}}, {"type": "Feature", "geometry": {"type": "Point", "coordinates": [-123.552, 41.4972]}, "properties": {"NAME": "W6/NW-375", "TITLE": "2840", "REGION": "Northwestern Ranges", "ASSOCIATION": "USA - CA", "POINTS": "2", "BONUSPOINTS": "0"}}, {"type": "Feature", "geometry": {"type": "Point", "coordinates": [-123.9698, 41.7705]}, "properties": {"NAME": "W6/NW-376", "TITLE": "2822", "REGION": "Northwestern Ranges", "ASSOCIATION": "USA - CA", "POINTS": "2", "BONUSPOINTS": "0"}}, {"type": "Feature", "geometry": {"type": "Point", "coordinates": [-122.3672, 40.7329]}, "properties": {"NAME": "W6/NW-377", "TITLE": "Bass Mountain", "REGION": "Northwestern Ranges", "ASSOCIATION": "USA - CA", "POINTS": "2", "BONUSPOINTS": "0"}}, {"type": "Feature", "geometry": {"type": "Point", "coordinates": [-123.9158, 41.6077]}, "properties": {"NAME": "W6/NW-378", "TITLE": "2760", "REGION": "Northwestern Ranges", "ASSOCIATION": "USA - CA", "POINTS": "2", "BONUSPOINTS": "0"}}, {"type": "Feature", "geometry": {"type": "Point", "coordinates": [-123.904, 41.2588]}, "properties": {"NAME": "W6/NW-379", "TITLE": "Mettah Benchmark", "REGION": "Northwestern Ranges", "ASSOCIATION": "USA - CA", "POINTS": "2", "BONUSPOINTS": "0"}}, {"type": "Feature", "geometry": {"type": "Point", "coordinates": [-123.4432, 40.8902]}, "properties": {"NAME": "W6/NW-380", "TITLE": "2683", "REGION": "Northwestern Ranges", "ASSOCIATION": "USA - CA", "POINTS": "2", "BONUSPOINTS": "0"}}, {"type": "Feature", "geometry": {"type": "Point", "coordinates": [-123.9854, 41.8778]}, "properties": {"NAME": "W6/NW-381", "TITLE": "Gasquet Mountain", "REGION": "Northwestern Ranges", "ASSOCIATION": "USA - CA", "POINTS": "2", "BONUSPOINTS": "0"}}, {"type": "Feature", "geometry": {"type": "Point", "coordinates": [-122.3932, 40.8397]}, "properties": {"NAME": "W6/NW-382", "TITLE": "Elmore Mountain", "REGION": "Northwestern Ranges", "ASSOCIATION": "USA - CA", "POINTS": "1", "BONUSPOINTS": "0"}}, {"type": "Feature", "geometry": {"type": "Point", "coordinates": [-122.4866, 40.6511]}, "properties": {"NAME": "W6/NW-383", "TITLE": "Democrat Mountain", "REGION": "Northwestern Ranges", "ASSOCIATION": "USA - CA", "POINTS": "1", "BONUSPOINTS": "0"}}, {"type": "Feature", "geometry": {"type": "Point", "coordinates": [-124.0498, 41.9121]}, "properties": {"NAME": "W6/NW-384", "TITLE": "High Divide", "REGION": "Northwestern Ranges", "ASSOCIATION": "USA - CA", "POINTS": "1", "BONUSPOINTS": "0"}}, {"type": "Feature", "geometry": {"type": "Point", "coordinates": [-124.0231, 41.7041]}, "properties": {"NAME": "W6/NW-385", "TITLE": "Childs Hill", "REGION": "Northwestern Ranges", "ASSOCIATION": "USA - CA", "POINTS": "1", "BONUSPOINTS": "0"}}, {"type": "Feature", "geometry": {"type": "Point", "coordinates": [-122.5147, 40.5527]}, "properties": {"NAME": "W6/NW-386", "TITLE": "Mule Mountain", "REGION": "Northwestern Ranges", "ASSOCIATION": "USA - CA", "POINTS": "1", "BONUSPOINTS": "0"}}, {"type": "Feature", "geometry": {"type": "Point", "coordinates": [-123.9172, 41.3073]}, "properties": {"NAME": "W6/NW-387", "TITLE": "2200", "REGION": "Northwestern Ranges", "ASSOCIATION": "USA - CA", "POINTS": "1", "BONUSPOINTS": "0"}}, {"type": "Feature", "geometry": {"type": "Point", "coordinates": [-122.5209, 40.6]}, "properties": {"NAME": "W6/NW-388", "TITLE": "2197", "REGION": "Northwestern Ranges", "ASSOCIATION": "USA - CA", "POINTS": "1", "BONUSPOINTS": "0"}}, {"type": "Feature", "geometry": {"type": "Point", "coordinates": [-122.3395, 40.7349]}, "properties": {"NAME": "W6/NW-389", "TITLE": "2188", "REGION": "Northwestern Ranges", "ASSOCIATION": "USA - CA", "POINTS": "1", "BONUSPOINTS": "0"}}, {"type": "Feature", "geometry": {"type": "Point", "coordinates": [-124.0066, 41.7389]}, "properties": {"NAME": "W6/NW-390", "TITLE": "Bald Hill", "REGION": "Northwestern Ranges", "ASSOCIATION": "USA - CA", "POINTS": "1", "BONUSPOINTS": "0"}}, {"type": "Feature", "geometry": {"type": "Point", "coordinates": [-122.417, 40.7007]}, "properties": {"NAME": "W6/NW-391", "TITLE": "1913", "REGION": "Northwestern Ranges", "ASSOCIATION": "USA - CA", "POINTS": "1", "BONUSPOINTS": "0"}}, {"type": "Feature", "geometry": {"type": "Point", "coordinates": [-123.5877, 41.2675]}, "properties": {"NAME": "W6/NW-392", "TITLE": "Sarvorum Mountain", "REGION": "Northwestern Ranges", "ASSOCIATION": "USA - CA", "POINTS": "1", "BONUSPOINTS": "0"}}, {"type": "Feature", "geometry": {"type": "Point", "coordinates": [-122.5589, 40.5122]}, "properties": {"NAME": "W6/NW-393", "TITLE": "Petty Butte", "REGION": "Northwestern Ranges", "ASSOCIATION": "USA - CA", "POINTS": "1", "BONUSPOINTS": "0"}}, {"type": "Feature", "geometry": {"type": "Point", "coordinates": [-123.0558, 40.9685]}, "properties": {"NAME": "W6/NW-394", "TITLE": "8891", "REGION": "Northwestern Ranges", "ASSOCIATION": "USA - CA", "POINTS": "8", "BONUSPOINTS": "3"}}, {"type": "Feature", "geometry": {"type": "Point", "coordinates": [-122.854, 41.0531]}, "properties": {"NAME": "W6/NW-395", "TITLE": "8033", "REGION": "Northwestern Ranges", "ASSOCIATION": "USA - CA", "POINTS": "8", "BONUSPOINTS": "3"}}, {"type": "Feature", "geometry": {"type": "Point", "coordinates": [-122.8981, 41.0311]}, "properties": {"NAME": "W6/NW-396", "TITLE": "Red Rock Mountain", "REGION": "Northwestern Ranges", "ASSOCIATION": "USA - CA", "POINTS": "8", "BONUSPOINTS": "3"}}, {"type": "Feature", "geometry": {"type": "Point", "coordinates": [-122.962, 41.1763]}, "properties": {"NAME": "W6/NW-397", "TITLE": "7753", "REGION": "Northwestern Ranges", "ASSOCIATION": "USA - CA", "POINTS": "8", "BONUSPOINTS": "3"}}, {"type": "Feature", "geometry": {"type": "Point", "coordinates": [-122.8229, 41.0274]}, "properties": {"NAME": "W6/NW-398", "TITLE": "7735", "REGION": "Northwestern Ranges", "ASSOCIATION": "USA - CA", "POINTS": "8", "BONUSPOINTS": "3"}}, {"type": "Feature", "geometry": {"type": "Point", "coordinates": [-122.7649, 41.2353]}, "properties": {"NAME": "W6/NW-399", "TITLE": "7732", "REGION": "Northwestern Ranges", "ASSOCIATION": "USA - CA", "POINTS": "8", "BONUSPOINTS": "3"}}, {"type": "Feature", "geometry": {"type": "Point", "coordinates": [-122.9737, 41.2591]}, "properties": {"NAME": "W6/NW-400", "TITLE": "7731", "REGION": "Northwestern Ranges", "ASSOCIATION": "USA - CA", "POINTS": "8", "BONUSPOINTS": "3"}}, {"type": "Feature", "geometry": {"type": "Point", "coordinates": [-122.9279, 41.1802]}, "properties": {"NAME": "W6/NW-401", "TITLE": "7700", "REGION": "Northwestern Ranges", "ASSOCIATION": "USA - CA", "POINTS": "8", "BONUSPOINTS": "3"}}, {"type": "Feature", "geometry": {"type": "Point", "coordinates": [-122.8619, 41.2019]}, "properties": {"NAME": "W6/NW-402", "TITLE": "7649", "REGION": "Northwestern Ranges", "ASSOCIATION": "USA - CA", "POINTS": "8", "BONUSPOINTS": "3"}}, {"type": "Feature", "geometry": {"type": "Point", "coordinates": [-123.0719, 41.4898]}, "properties": {"NAME": "W6/NW-403", "TITLE": "7080", "REGION": "Northwestern Ranges", "ASSOCIATION": "USA - CA", "POINTS": "6", "BONUSPOINTS": "3"}}, {"type": "Feature", "geometry": {"type": "Point", "coordinates": [-123.1576, 41.4674]}, "properties": {"NAME": "W6/NW-404", "TITLE": "6840", "REGION": "Northwestern Ranges", "ASSOCIATION": "USA - CA", "POINTS": "6", "BONUSPOINTS": "3"}}, {"type": "Feature", "geometry": {"type": "Point", "coordinates": [-123.3182, 41.5601]}, "properties": {"NAME": "W6/NW-405", "TITLE": "6820", "REGION": "Northwestern Ranges", "ASSOCIATION": "USA - CA", "POINTS": "6", "BONUSPOINTS": "3"}}, {"type": "Feature", "geometry": {"type": "Point", "coordinates": [-122.5394, 41.1821]}, "properties": {"NAME": "W6/NW-406", "TITLE": "6779", "REGION": "Northwestern Ranges", "ASSOCIATION": "USA - CA", "POINTS": "6", "BONUSPOINTS": "3"}}, {"type": "Feature", "geometry": {"type": "Point", "coordinates": [-123.2254, 41.0762]}, "properties": {"NAME": "W6/NW-407", "TITLE": "6620", "REGION": "Northwestern Ranges", "ASSOCIATION": "USA - CA", "POINTS": "6", "BONUSPOINTS": "3"}}, {"type": "Feature", "geometry": {"type": "Point", "coordinates": [-122.6526, 41.289]}, "properties": {"NAME": "W6/NW-408", "TITLE": "6597", "REGION": "Northwestern Ranges", "ASSOCIATION": "USA - CA", "POINTS": "6", "BONUSPOINTS": "3"}}, {"type": "Feature", "geometry": {"type": "Point", "coordinates": [-123.162, 41.705]}, "properties": {"NAME": "W6/NW-409", "TITLE": "6460", "REGION": "Northwestern Ranges", "ASSOCIATION": "USA - CA", "POINTS": "6", "BONUSPOINTS": "0"}}, {"type": "Feature", "geometry": {"type": "Point", "coordinates": [-123.6123, 41.8497]}, "properties": {"NAME": "W6/NW-410", "TITLE": "Copper Mountain", "REGION": "Northwestern Ranges", "ASSOCIATION": "USA - CA", "POINTS": "6", "BONUSPOINTS": "0"}}, {"type": "Feature", "geometry": {"type": "Point", "coordinates": [-122.9834, 42.0025]}, "properties": {"NAME": "W6/NW-411", "TITLE": "Lilly Mountain", "REGION": "Northwestern Ranges", "ASSOCIATION": "USA - CA", "POINTS": "6", "BONUSPOINTS": "0"}}, {"type": "Feature", "geometry": {"type": "Point", "coordinates": [-123.5062, 40.5201]}, "properties": {"NAME": "W6/NW-412", "TITLE": "5640", "REGION": "Northwestern Ranges", "ASSOCIATION": "USA - CA", "POINTS": "6", "BONUSPOINTS": "0"}}, {"type": "Feature", "geometry": {"type": "Point", "coordinates": [-122.6883, 41.6278]}, "properties": {"NAME": "W6/NW-413", "TITLE": "Bally Mountain", "REGION": "Northwestern Ranges", "ASSOCIATION": "USA - CA", "POINTS": "6", "BONUSPOINTS": "0"}}, {"type": "Feature", "geometry": {"type": "Point", "coordinates": [-123.321, 40.8532]}, "properties": {"NAME": "W6/NW-414", "TITLE": "5406", "REGION": "Northwestern Ranges", "ASSOCIATION": "USA - CA", "POINTS": "4", "BONUSPOINTS": "0"}}, {"type": "Feature", "geometry": {"type": "Point", "coordinates": [-123.1461, 40.1027]}, "properties": {"NAME": "W6/NW-415", "TITLE": "5396", "REGION": "Northwestern Ranges", "ASSOCIATION": "USA - CA", "POINTS": "4", "BONUSPOINTS": "0"}}, {"type": "Feature", "geometry": {"type": "Point", "coordinates": [-123.1699, 40.2084]}, "properties": {"NAME": "W6/NW-416", "TITLE": "North Kelsey Peak", "REGION": "Northwestern Ranges", "ASSOCIATION": "USA - CA", "POINTS": "4", "BONUSPOINTS": "0"}}, {"type": "Feature", "geometry": {"type": "Point", "coordinates": [-123.4367, 41.092]}, "properties": {"NAME": "W6/NW-417", "TITLE": "5180", "REGION": "Northwestern Ranges", "ASSOCIATION": "USA - CA", "POINTS": "4", "BONUSPOINTS": "0"}}, {"type": "Feature", "geometry": {"type": "Point", "coordinates": [-123.3744, 40.7431]}, "properties": {"NAME": "W6/NW-418", "TITLE": "5085", "REGION": "Northwestern Ranges", "ASSOCIATION": "USA - CA", "POINTS": "4", "BONUSPOINTS": "0"}}, {"type": "Feature", "geometry": {"type": "Point", "coordinates": [-123.14, 40.9719]}, "properties": {"NAME": "W6/NW-419", "TITLE": "5065", "REGION": "Northwestern Ranges", "ASSOCIATION": "USA - CA", "POINTS": "4", "BONUSPOINTS": "0"}}, {"type": "Feature", "geometry": {"type": "Point", "coordinates": [-122.7754, 41.5233]}, "properties": {"NAME": "W6/NW-420", "TITLE": "4904", "REGION": "Northwestern Ranges", "ASSOCIATION": "USA - CA", "POINTS": "4", "BONUSPOINTS": "0"}}, {"type": "Feature", "geometry": {"type": "Point", "coordinates": [-123.2892, 40.5235]}, "properties": {"NAME": "W6/NW-421", "TITLE": "4895", "REGION": "Northwestern Ranges", "ASSOCIATION": "USA - CA", "POINTS": "4", "BONUSPOINTS": "0"}}, {"type": "Feature", "geometry": {"type": "Point", "coordinates": [-122.8297, 40.6465]}, "properties": {"NAME": "W6/NW-422", "TITLE": "Tylers Peak", "REGION": "Northwestern Ranges", "ASSOCIATION": "USA - CA", "POINTS": "4", "BONUSPOINTS": "0"}}, {"type": "Feature", "geometry": {"type": "Point", "coordinates": [-122.7255, 41.8348]}, "properties": {"NAME": "W6/NW-423", "TITLE": "China Peak", "REGION": "Northwestern Ranges", "ASSOCIATION": "USA - CA", "POINTS": "4", "BONUSPOINTS": "0"}}, {"type": "Feature", "geometry": {"type": "Point", "coordinates": [-123.253, 40.1201]}, "properties": {"NAME": "W6/NW-424", "TITLE": "Hayden Roughs", "REGION": "Northwestern Ranges", "ASSOCIATION": "USA - CA", "POINTS": "4", "BONUSPOINTS": "0"}}, {"type": "Feature", "geometry": {"type": "Point", "coordinates": [-123.3335, 40.5828]}, "properties": {"NAME": "W6/NW-425", "TITLE": "4412", "REGION": "Northwestern Ranges", "ASSOCIATION": "USA - CA", "POINTS": "4", "BONUSPOINTS": "0"}}, {"type": "Feature", "geometry": {"type": "Point", "coordinates": [-123.3148, 41.0732]}, "properties": {"NAME": "W6/NW-426", "TITLE": "Carey Ridge", "REGION": "Northwestern Ranges", "ASSOCIATION": "USA - CA", "POINTS": "4", "BONUSPOINTS": "0"}}, {"type": "Feature", "geometry": {"type": "Point", "coordinates": [-123.1941, 40.7167]}, "properties": {"NAME": "W6/NW-427", "TITLE": "4229", "REGION": "Northwestern Ranges", "ASSOCIATION": "USA - CA", "POINTS": "4", "BONUSPOINTS": "0"}}, {"type": "Feature", "geometry": {"type": "Point", "coordinates": [-123.3889, 40.5968]}, "properties": {"NAME": "W6/NW-428", "TITLE": "4074", "REGION": "Northwestern Ranges", "ASSOCIATION": "USA - CA", "POINTS": "4", "BONUSPOINTS": "0"}}, {"type": "Feature", "geometry": {"type": "Point", "coordinates": [-122.8045, 41.5907]}, "properties": {"NAME": "W6/NW-429", "TITLE": "4051", "REGION": "Northwestern Ranges", "ASSOCIATION": "USA - CA", "POINTS": "4", "BONUSPOINTS": "0"}}, {"type": "Feature", "geometry": {"type": "Point", "coordinates": [-122.887, 41.3715]}, "properties": {"NAME": "W6/NW-430", "TITLE": "4008", "REGION": "Northwestern Ranges", "ASSOCIATION": "USA - CA", "POINTS": "4", "BONUSPOINTS": "0"}}, {"type": "Feature", "geometry": {"type": "Point", "coordinates": [-123.417, 40.9306]}, "properties": {"NAME": "W6/NW-431", "TITLE": "3963", "REGION": "Northwestern Ranges", "ASSOCIATION": "USA - CA", "POINTS": "2", "BONUSPOINTS": "0"}}, {"type": "Feature", "geometry": {"type": "Point", "coordinates": [-122.4984, 40.7128]}, "properties": {"NAME": "W6/NW-432", "TITLE": "3932", "REGION": "Northwestern Ranges", "ASSOCIATION": "USA - CA", "POINTS": "2", "BONUSPOINTS": "0"}}, {"type": "Feature", "geometry": {"type": "Point", "coordinates": [-123.3983, 41.7054]}, "properties": {"NAME": "W6/NW-433", "TITLE": "3860", "REGION": "Northwestern Ranges", "ASSOCIATION": "USA - CA", "POINTS": "2", "BONUSPOINTS": "0"}}, {"type": "Feature", "geometry": {"type": "Point", "coordinates": [-123.2828, 41.2123]}, "properties": {"NAME": "W6/NW-434", "TITLE": "Hotelling Ridge", "REGION": "Northwestern Ranges", "ASSOCIATION": "USA - CA", "POINTS": "2", "BONUSPOINTS": "0"}}, {"type": "Feature", "geometry": {"type": "Point", "coordinates": [-122.7672, 40.639]}, "properties": {"NAME": "W6/NW-435", "TITLE": "3707", "REGION": "Northwestern Ranges", "ASSOCIATION": "USA - CA", "POINTS": "2", "BONUSPOINTS": "0"}}, {"type": "Feature", "geometry": {"type": "Point", "coordinates": [-123.1507, 40.7833]}, "properties": {"NAME": "W6/NW-436", "TITLE": "3645", "REGION": "Northwestern Ranges", "ASSOCIATION": "USA - CA", "POINTS": "2", "BONUSPOINTS": "0"}}, {"type": "Feature", "geometry": {"type": "Point", "coordinates": [-122.7834, 40.8106]}, "properties": {"NAME": "W6/NW-437", "TITLE": "Low Benchmark", "REGION": "Northwestern Ranges", "ASSOCIATION": "USA - CA", "POINTS": "2", "BONUSPOINTS": "0"}}, {"type": "Feature", "geometry": {"type": "Point", "coordinates": [-122.6639, 41.0075]}, "properties": {"NAME": "W6/NW-438", "TITLE": "3276", "REGION": "Northwestern Ranges", "ASSOCIATION": "USA - CA", "POINTS": "2", "BONUSPOINTS": "0"}}, {"type": "Feature", "geometry": {"type": "Point", "coordinates": [-123.0577, 40.7455]}, "properties": {"NAME": "W6/NW-439", "TITLE": "Canyon Benchmark", "REGION": "Northwestern Ranges", "ASSOCIATION": "USA - CA", "POINTS": "1", "BONUSPOINTS": "0"}}, {"type": "Feature", "geometry": {"type": "Point", "coordinates": [-123.3286, 41.7902]}, "properties": {"NAME": "W6/NW-440", "TITLE": "Williams Point", "REGION": "Northwestern Ranges", "ASSOCIATION": "USA - CA", "POINTS": "1", "BONUSPOINTS": "0"}}, {"type": "Feature", "geometry": {"type": "Point", "coordinates": [-122.3965, 40.7708]}, "properties": {"NAME": "W6/NW-441", "TITLE": "1820", "REGION": "Northwestern Ranges", "ASSOCIATION": "USA - CA", "POINTS": "1", "BONUSPOINTS": "0"}}]}