{"type": "FeatureCollection", "name": "W6/CV SUMMITS", "features": [{"type": "Feature", "geometry": {"type": "Point", "coordinates": [-121.821, 39.2063]}, "properties": {"NAME": "W6/CV-001", "TITLE": "South Butte", "REGION": "Central Valley", "ASSOCIATION": "USA - CA", "POINTS": "1", "BONUSPOINTS": "0"}}, {"type": "Feature", "geometry": {"type": "Point", "coordinates": [-119.4077, 36.7359]}, "properties": {"NAME": "W6/CV-002", "TITLE": "Jesse Morrow Mountain", "REGION": "Central Valley", "ASSOCIATION": "USA - CA", "POINTS": "1", "BONUSPOINTS": "0"}}, {"type": "Feature", "geometry": {"type": "Point", "coordinates": [-118.9081, 36.0462]}, "properties": {"NAME": "W6/CV-003", "TITLE": "1869", "REGION": "Central Valley", "ASSOCIATION": "USA - CA", "POINTS": "1", "BONUSPOINTS": "0"}}, {"type": "Feature", "geometry": {"type": "Point", "coordinates": [-121.7861, 39.2357]}, "properties": {"NAME": "W6/CV-004", "TITLE": "North Butte", "REGION": "Central Valley", "ASSOCIATION": "USA - CA", "POINTS": "1", "BONUSPOINTS": "0"}}, {"type": "Feature", "geometry": {"type": "Point", "coordinates": [-118.9639, 36.0851]}, "properties": {"NAME": "W6/CV-005", "TITLE": "Rocky Hill", "REGION": "Central Valley", "ASSOCIATION": "USA - CA", "POINTS": "1", "BONUSPOINTS": "0"}}, {"type": "Feature", "geometry": {"type": "Point", "coordinates": [-119.4213, 36.6956]}, "properties": {"NAME": "W6/CV-006", "TITLE": "Campbell Mountain", "REGION": "Central Valley", "ASSOCIATION": "USA - CA", "POINTS": "1", "BONUSPOINTS": "0"}}, {"type": "Feature", "geometry": {"type": "Point", "coordinates": [-121.8472, 39.2177]}, "properties": {"NAME": "W6/CV-007", "TITLE": "West Butte", "REGION": "Central Valley", "ASSOCIATION": "USA - CA", "POINTS": "1", "BONUSPOINTS": "0"}}, {"type": "Feature", "geometry": {"type": "Point", "coordinates": [-121.8226, 39.2353]}, "properties": {"NAME": "W6/CV-008", "TITLE": "1676", "REGION": "Central Valley", "ASSOCIATION": "USA - CA", "POINTS": "1", "BONUSPOINTS": "0"}}, {"type": "Feature", "geometry": {"type": "Point", "coordinates": [-118.9784, 36.1036]}, "properties": {"NAME": "W6/CV-009", "TITLE": "1629", "REGION": "Central Valley", "ASSOCIATION": "USA - CA", "POINTS": "1", "BONUSPOINTS": "0"}}, {"type": "Feature", "geometry": {"type": "Point", "coordinates": [-119.1505, 36.4526]}, "properties": {"NAME": "W6/CV-010", "TITLE": "Colvin Mountain", "REGION": "Central Valley", "ASSOCIATION": "USA - CA", "POINTS": "1", "BONUSPOINTS": "0"}}, {"type": "Feature", "geometry": {"type": "Point", "coordinates": [-121.7842, 39.2165]}, "properties": {"NAME": "W6/CV-011", "TITLE": "1557", "REGION": "Central Valley", "ASSOCIATION": "USA - CA", "POINTS": "1", "BONUSPOINTS": "0"}}, {"type": "Feature", "geometry": {"type": "Point", "coordinates": [-118.9633, 36.0274]}, "properties": {"NAME": "W6/CV-012", "TITLE": "1544", "REGION": "Central Valley", "ASSOCIATION": "USA - CA", "POINTS": "1", "BONUSPOINTS": "0"}}, {"type": "Feature", "geometry": {"type": "Point", "coordinates": [-118.9552, 35.9791]}, "properties": {"NAME": "W6/CV-013", "TITLE": "Tennessee Knob", "REGION": "Central Valley", "ASSOCIATION": "USA - CA", "POINTS": "1", "BONUSPOINTS": "0"}}, {"type": "Feature", "geometry": {"type": "Point", "coordinates": [-120.0571, 36.0038]}, "properties": {"NAME": "W6/CV-014", "TITLE": "La Cima", "REGION": "Central Valley", "ASSOCIATION": "USA - CA", "POINTS": "1", "BONUSPOINTS": "0"}}, {"type": "Feature", "geometry": {"type": "Point", "coordinates": [-122.0424, 38.4453]}, "properties": {"NAME": "W6/CV-015", "TITLE": "Putnam Peak", "REGION": "Central Valley", "ASSOCIATION": "USA - CA", "POINTS": "1", "BONUSPOINTS": "0"}}, {"type": "Feature", "geometry": {"type": "Point", "coordinates": [-119.3459, 36.5819]}, "properties": {"NAME": "W6/CV-016", "TITLE": "Smith Mountain", "REGION": "Central Valley", "ASSOCIATION": "USA - CA", "POINTS": "1", "BONUSPOINTS": "0"}}, {"type": "Feature", "geometry": {"type": "Point", "coordinates": [-121.9928, 38.3191]}, "properties": {"NAME": "W6/CV-017", "TITLE": "968", "REGION": "Central Valley", "ASSOCIATION": "USA - CA", "POINTS": "1", "BONUSPOINTS": "0"}}]}