{"type": "FeatureCollection", "name": "W6/CT SUMMITS", "features": [{"type": "Feature", "geometry": {"type": "Point", "coordinates": [-116.8286, 34.1006]}, "properties": {"NAME": "W6/CT-001", "TITLE": "San Gorgonio Mountain", "REGION": "Transverse Ranges", "ASSOCIATION": "USA - CA", "POINTS": "10", "BONUSPOINTS": "3"}}, {"type": "Feature", "geometry": {"type": "Point", "coordinates": [-116.6795, 33.8147]}, "properties": {"NAME": "W6/CT-002", "TITLE": "San Jacinto Peak", "REGION": "Transverse Ranges", "ASSOCIATION": "USA - CA", "POINTS": "8", "BONUSPOINTS": "3"}}, {"type": "Feature", "geometry": {"type": "Point", "coordinates": [-117.6462, 34.2891]}, "properties": {"NAME": "W6/CT-003", "TITLE": "Mount San Antonio", "REGION": "Transverse Ranges", "ASSOCIATION": "USA - CA", "POINTS": "8", "BONUSPOINTS": "3"}}, {"type": "Feature", "geometry": {"type": "Point", "coordinates": [-117.7644, 34.3586]}, "properties": {"NAME": "W6/CT-004", "TITLE": "Mount Baden-Powell", "REGION": "Transverse Ranges", "ASSOCIATION": "USA - CA", "POINTS": "8", "BONUSPOINTS": "3"}}, {"type": "Feature", "geometry": {"type": "Point", "coordinates": [-117.7992, 34.3506]}, "properties": {"NAME": "W6/CT-005", "TITLE": "Throop Peak", "REGION": "Transverse Ranges", "ASSOCIATION": "USA - CA", "POINTS": "8", "BONUSPOINTS": "3"}}, {"type": "Feature", "geometry": {"type": "Point", "coordinates": [-117.5853, 34.2228]}, "properties": {"NAME": "W6/CT-006", "TITLE": "Cucamonga Peak", "REGION": "Transverse Ranges", "ASSOCIATION": "USA - CA", "POINTS": "8", "BONUSPOINTS": "3"}}, {"type": "Feature", "geometry": {"type": "Point", "coordinates": [-116.677, 33.7553]}, "properties": {"NAME": "W6/CT-007", "TITLE": "Tahquitz Peak", "REGION": "Transverse Ranges", "ASSOCIATION": "USA - CA", "POINTS": "8", "BONUSPOINTS": "3"}}, {"type": "Feature", "geometry": {"type": "Point", "coordinates": [-116.4258, 33.5234]}, "properties": {"NAME": "W6/CT-008", "TITLE": "Toro Peak", "REGION": "Transverse Ranges", "ASSOCIATION": "USA - CA", "POINTS": "8", "BONUSPOINTS": "3"}}, {"type": "Feature", "geometry": {"type": "Point", "coordinates": [-117.0077, 34.2568]}, "properties": {"NAME": "W6/CT-009", "TITLE": "Butler Peak", "REGION": "Transverse Ranges", "ASSOCIATION": "USA - CA", "POINTS": "8", "BONUSPOINTS": "3"}}, {"type": "Feature", "geometry": {"type": "Point", "coordinates": [-117.8397, 34.345]}, "properties": {"NAME": "W6/CT-010", "TITLE": "Mount Islip", "REGION": "Transverse Ranges", "ASSOCIATION": "USA - CA", "POINTS": "8", "BONUSPOINTS": "3"}}, {"type": "Feature", "geometry": {"type": "Point", "coordinates": [-117.8578, 34.3711]}, "properties": {"NAME": "W6/CT-011", "TITLE": "Mount Williamson", "REGION": "Transverse Ranges", "ASSOCIATION": "USA - CA", "POINTS": "8", "BONUSPOINTS": "3"}}, {"type": "Feature", "geometry": {"type": "Point", "coordinates": [-117.9368, 34.3365]}, "properties": {"NAME": "W6/CT-012", "TITLE": "Waterman Mountain", "REGION": "Transverse Ranges", "ASSOCIATION": "USA - CA", "POINTS": "8", "BONUSPOINTS": "3"}}, {"type": "Feature", "geometry": {"type": "Point", "coordinates": [-117.0495, 34.1961]}, "properties": {"NAME": "W6/CT-013", "TITLE": "Keller Peak", "REGION": "Transverse Ranges", "ASSOCIATION": "USA - CA", "POINTS": "8", "BONUSPOINTS": "3"}}, {"type": "Feature", "geometry": {"type": "Point", "coordinates": [-117.8996, 34.3468]}, "properties": {"NAME": "W6/CT-014", "TITLE": "Kratka Ridge", "REGION": "Transverse Ranges", "ASSOCIATION": "USA - CA", "POINTS": "8", "BONUSPOINTS": "3"}}, {"type": "Feature", "geometry": {"type": "Point", "coordinates": [-118.0346, 34.3821]}, "properties": {"NAME": "W6/CT-015", "TITLE": "Pacifico Mountain", "REGION": "Transverse Ranges", "ASSOCIATION": "USA - CA", "POINTS": "6", "BONUSPOINTS": "3"}}, {"type": "Feature", "geometry": {"type": "Point", "coordinates": [-116.6826, 33.6213]}, "properties": {"NAME": "W6/CT-016", "TITLE": "Thomas Mountain", "REGION": "Transverse Ranges", "ASSOCIATION": "USA - CA", "POINTS": "6", "BONUSPOINTS": "3"}}, {"type": "Feature", "geometry": {"type": "Point", "coordinates": [-118.1774, 34.3766]}, "properties": {"NAME": "W6/CT-017", "TITLE": "Mount Gleason", "REGION": "Transverse Ranges", "ASSOCIATION": "USA - CA", "POINTS": "6", "BONUSPOINTS": "3"}}, {"type": "Feature", "geometry": {"type": "Point", "coordinates": [-118.1205, 34.2834]}, "properties": {"NAME": "W6/CT-018", "TITLE": "Strawberry Peak", "REGION": "Transverse Ranges", "ASSOCIATION": "USA - CA", "POINTS": "6", "BONUSPOINTS": "0"}}, {"type": "Feature", "geometry": {"type": "Point", "coordinates": [-118.0986, 34.2433]}, "properties": {"NAME": "W6/CT-019", "TITLE": "San Gabriel Peak", "REGION": "Transverse Ranges", "ASSOCIATION": "USA - CA", "POINTS": "6", "BONUSPOINTS": "0"}}, {"type": "Feature", "geometry": {"type": "Point", "coordinates": [-116.8363, 33.3635]}, "properties": {"NAME": "W6/CT-020", "TITLE": "Palomar Mountain", "REGION": "Transverse Ranges", "ASSOCIATION": "USA - CA", "POINTS": "6", "BONUSPOINTS": "0"}}, {"type": "Feature", "geometry": {"type": "Point", "coordinates": [-118.0287, 34.2972]}, "properties": {"NAME": "W6/CT-021", "TITLE": "Vetter Mountain", "REGION": "Transverse Ranges", "ASSOCIATION": "USA - CA", "POINTS": "6", "BONUSPOINTS": "0"}}, {"type": "Feature", "geometry": {"type": "Point", "coordinates": [-117.6894, 34.2166]}, "properties": {"NAME": "W6/CT-022", "TITLE": "Sunset Peak", "REGION": "Transverse Ranges", "ASSOCIATION": "USA - CA", "POINTS": "6", "BONUSPOINTS": "0"}}, {"type": "Feature", "geometry": {"type": "Point", "coordinates": [-117.5342, 33.7107]}, "properties": {"NAME": "W6/CT-023", "TITLE": "Santiago Peak", "REGION": "Transverse Ranges", "ASSOCIATION": "USA - CA", "POINTS": "6", "BONUSPOINTS": "0"}}, {"type": "Feature", "geometry": {"type": "Point", "coordinates": [-118.2291, 34.3488]}, "properties": {"NAME": "W6/CT-024", "TITLE": "Iron Mountain", "REGION": "Transverse Ranges", "ASSOCIATION": "USA - CA", "POINTS": "6", "BONUSPOINTS": "0"}}, {"type": "Feature", "geometry": {"type": "Point", "coordinates": [-118.1538, 34.2857]}, "properties": {"NAME": "W6/CT-025", "TITLE": "Josephine Peak", "REGION": "Transverse Ranges", "ASSOCIATION": "USA - CA", "POINTS": "6", "BONUSPOINTS": "0"}}, {"type": "Feature", "geometry": {"type": "Point", "coordinates": [-117.544, 33.7201]}, "properties": {"NAME": "W6/CT-026", "TITLE": "Modjeska Peak", "REGION": "Transverse Ranges", "ASSOCIATION": "USA - CA", "POINTS": "4", "BONUSPOINTS": "0"}}, {"type": "Feature", "geometry": {"type": "Point", "coordinates": [-118.2192, 34.3256]}, "properties": {"NAME": "W6/CT-027", "TITLE": "Condor Peak", "REGION": "Transverse Ranges", "ASSOCIATION": "USA - CA", "POINTS": "4", "BONUSPOINTS": "0"}}, {"type": "Feature", "geometry": {"type": "Point", "coordinates": [-117.9696, 34.2132]}, "properties": {"NAME": "W6/CT-028", "TITLE": "Monrovia Peak", "REGION": "Transverse Ranges", "ASSOCIATION": "USA - CA", "POINTS": "4", "BONUSPOINTS": "0"}}, {"type": "Feature", "geometry": {"type": "Point", "coordinates": [-118.0691, 34.4605]}, "properties": {"NAME": "W6/CT-029", "TITLE": "Mount Emma", "REGION": "Transverse Ranges", "ASSOCIATION": "USA - CA", "POINTS": "4", "BONUSPOINTS": "0"}}, {"type": "Feature", "geometry": {"type": "Point", "coordinates": [-118.239, 34.2689]}, "properties": {"NAME": "W6/CT-030", "TITLE": "Mount Lukens", "REGION": "Transverse Ranges", "ASSOCIATION": "USA - CA", "POINTS": "4", "BONUSPOINTS": "0"}}, {"type": "Feature", "geometry": {"type": "Point", "coordinates": [-117.4753, 33.7023]}, "properties": {"NAME": "W6/CT-031", "TITLE": "Trabuco Peak", "REGION": "Transverse Ranges", "ASSOCIATION": "USA - CA", "POINTS": "4", "BONUSPOINTS": "0"}}, {"type": "Feature", "geometry": {"type": "Point", "coordinates": [-118.601, 34.3298]}, "properties": {"NAME": "W6/CT-032", "TITLE": "Oat Mountain", "REGION": "Transverse Ranges", "ASSOCIATION": "USA - CA", "POINTS": "2", "BONUSPOINTS": "0"}}, {"type": "Feature", "geometry": {"type": "Point", "coordinates": [-117.0664, 34.0633]}, "properties": {"NAME": "W6/CT-033", "TITLE": "Zanja Peak", "REGION": "Transverse Ranges", "ASSOCIATION": "USA - CA", "POINTS": "2", "BONUSPOINTS": "0"}}, {"type": "Feature", "geometry": {"type": "Point", "coordinates": [-118.2831, 34.2172]}, "properties": {"NAME": "W6/CT-034", "TITLE": "Verdugo Mountains (HP)", "REGION": "Transverse Ranges", "ASSOCIATION": "USA - CA", "POINTS": "2", "BONUSPOINTS": "0"}}, {"type": "Feature", "geometry": {"type": "Point", "coordinates": [-118.6584, 34.0758]}, "properties": {"NAME": "W6/CT-035", "TITLE": "Saddle Peak", "REGION": "Transverse Ranges", "ASSOCIATION": "USA - CA", "POINTS": "2", "BONUSPOINTS": "0"}}, {"type": "Feature", "geometry": {"type": "Point", "coordinates": [-118.6405, 34.2571]}, "properties": {"NAME": "W6/CT-036", "TITLE": "Chatsworth Peak", "REGION": "Transverse Ranges", "ASSOCIATION": "USA - CA", "POINTS": "1", "BONUSPOINTS": "0"}}, {"type": "Feature", "geometry": {"type": "Point", "coordinates": [-118.3259, 34.137]}, "properties": {"NAME": "W6/CT-037", "TITLE": "Cahuenga Peak", "REGION": "Transverse Ranges", "ASSOCIATION": "USA - CA", "POINTS": "1", "BONUSPOINTS": "0"}}, {"type": "Feature", "geometry": {"type": "Point", "coordinates": [-116.8942, 34.1246]}, "properties": {"NAME": "W6/CT-038", "TITLE": "Anderson Peak", "REGION": "Transverse Ranges", "ASSOCIATION": "USA - CA", "POINTS": "8", "BONUSPOINTS": "3"}}, {"type": "Feature", "geometry": {"type": "Point", "coordinates": [-116.8145, 34.1989]}, "properties": {"NAME": "W6/CT-039", "TITLE": "Sugarloaf Mountain", "REGION": "Transverse Ranges", "ASSOCIATION": "USA - CA", "POINTS": "8", "BONUSPOINTS": "3"}}, {"type": "Feature", "geometry": {"type": "Point", "coordinates": [-117.6443, 34.3137]}, "properties": {"NAME": "W6/CT-040", "TITLE": "Pine Mountain", "REGION": "Transverse Ranges", "ASSOCIATION": "USA - CA", "POINTS": "8", "BONUSPOINTS": "3"}}, {"type": "Feature", "geometry": {"type": "Point", "coordinates": [-116.7578, 34.2004]}, "properties": {"NAME": "W6/CT-041", "TITLE": "9465", "REGION": "Transverse Ranges", "ASSOCIATION": "USA - CA", "POINTS": "8", "BONUSPOINTS": "3"}}, {"type": "Feature", "geometry": {"type": "Point", "coordinates": [-116.8489, 34.0703]}, "properties": {"NAME": "W6/CT-042", "TITLE": "9340", "REGION": "Transverse Ranges", "ASSOCIATION": "USA - CA", "POINTS": "8", "BONUSPOINTS": "3"}}, {"type": "Feature", "geometry": {"type": "Point", "coordinates": [-116.8847, 34.0604]}, "properties": {"NAME": "W6/CT-043", "TITLE": "Little San Gorgonio Peak", "REGION": "Transverse Ranges", "ASSOCIATION": "USA - CA", "POINTS": "8", "BONUSPOINTS": "3"}}, {"type": "Feature", "geometry": {"type": "Point", "coordinates": [-116.7091, 34.1921]}, "properties": {"NAME": "W6/CT-044", "TITLE": "Onyx Peak", "REGION": "Transverse Ranges", "ASSOCIATION": "USA - CA", "POINTS": "8", "BONUSPOINTS": "3"}}, {"type": "Feature", "geometry": {"type": "Point", "coordinates": [-116.7002, 34.1584]}, "properties": {"NAME": "W6/CT-045", "TITLE": "9070", "REGION": "Transverse Ranges", "ASSOCIATION": "USA - CA", "POINTS": "8", "BONUSPOINTS": "3"}}, {"type": "Feature", "geometry": {"type": "Point", "coordinates": [-117.5986, 34.2616]}, "properties": {"NAME": "W6/CT-046", "TITLE": "Telegraph Peak", "REGION": "Transverse Ranges", "ASSOCIATION": "USA - CA", "POINTS": "8", "BONUSPOINTS": "3"}}, {"type": "Feature", "geometry": {"type": "Point", "coordinates": [-116.7389, 34.144]}, "properties": {"NAME": "W6/CT-047", "TITLE": "8828", "REGION": "Transverse Ranges", "ASSOCIATION": "USA - CA", "POINTS": "8", "BONUSPOINTS": "3"}}, {"type": "Feature", "geometry": {"type": "Point", "coordinates": [-117.624, 34.2278]}, "properties": {"NAME": "W6/CT-048", "TITLE": "Ontario Peak", "REGION": "Transverse Ranges", "ASSOCIATION": "USA - CA", "POINTS": "8", "BONUSPOINTS": "3"}}, {"type": "Feature", "geometry": {"type": "Point", "coordinates": [-116.7348, 34.0994]}, "properties": {"NAME": "W6/CT-049", "TITLE": "8491", "REGION": "Transverse Ranges", "ASSOCIATION": "USA - CA", "POINTS": "8", "BONUSPOINTS": "3"}}, {"type": "Feature", "geometry": {"type": "Point", "coordinates": [-116.9454, 34.291]}, "properties": {"NAME": "W6/CT-050", "TITLE": "Delamar Mountain", "REGION": "Transverse Ranges", "ASSOCIATION": "USA - CA", "POINTS": "8", "BONUSPOINTS": "3"}}, {"type": "Feature", "geometry": {"type": "Point", "coordinates": [-116.8917, 34.3186]}, "properties": {"NAME": "W6/CT-051", "TITLE": "Arctic Point", "REGION": "Transverse Ranges", "ASSOCIATION": "USA - CA", "POINTS": "8", "BONUSPOINTS": "3"}}, {"type": "Feature", "geometry": {"type": "Point", "coordinates": [-117.5936, 34.2451]}, "properties": {"NAME": "W6/CT-052", "TITLE": "Timber Mountain", "REGION": "Transverse Ranges", "ASSOCIATION": "USA - CA", "POINTS": "8", "BONUSPOINTS": "3"}}, {"type": "Feature", "geometry": {"type": "Point", "coordinates": [-116.8394, 34.2884]}, "properties": {"NAME": "W6/CT-053", "TITLE": "Gold Mountain", "REGION": "Transverse Ranges", "ASSOCIATION": "USA - CA", "POINTS": "8", "BONUSPOINTS": "3"}}, {"type": "Feature", "geometry": {"type": "Point", "coordinates": [-116.8993, 34.2829]}, "properties": {"NAME": "W6/CT-054", "TITLE": "Bertha Peak", "REGION": "Transverse Ranges", "ASSOCIATION": "USA - CA", "POINTS": "8", "BONUSPOINTS": "3"}}, {"type": "Feature", "geometry": {"type": "Point", "coordinates": [-116.6493, 34.1446]}, "properties": {"NAME": "W6/CT-055", "TITLE": "West Three Sisters Peaks", "REGION": "Transverse Ranges", "ASSOCIATION": "USA - CA", "POINTS": "8", "BONUSPOINTS": "3"}}, {"type": "Feature", "geometry": {"type": "Point", "coordinates": [-117.7134, 34.2884]}, "properties": {"NAME": "W6/CT-056", "TITLE": "Iron Mountain", "REGION": "Transverse Ranges", "ASSOCIATION": "USA - CA", "POINTS": "8", "BONUSPOINTS": "3"}}, {"type": "Feature", "geometry": {"type": "Point", "coordinates": [-118.4867, 35.0332]}, "properties": {"NAME": "W6/CT-057", "TITLE": "Double Mountain", "REGION": "Transverse Ranges", "ASSOCIATION": "USA - CA", "POINTS": "8", "BONUSPOINTS": "3"}}, {"type": "Feature", "geometry": {"type": "Point", "coordinates": [-117.9094, 34.39]}, "properties": {"NAME": "W6/CT-058", "TITLE": "Pallett Benchmark", "REGION": "Transverse Ranges", "ASSOCIATION": "USA - CA", "POINTS": "8", "BONUSPOINTS": "3"}}, {"type": "Feature", "geometry": {"type": "Point", "coordinates": [-118.4848, 35.0469]}, "properties": {"NAME": "W6/CT-059", "TITLE": "Tehachapi Mountain", "REGION": "Transverse Ranges", "ASSOCIATION": "USA - CA", "POINTS": "8", "BONUSPOINTS": "3"}}, {"type": "Feature", "geometry": {"type": "Point", "coordinates": [-116.9487, 34.3292]}, "properties": {"NAME": "W6/CT-060", "TITLE": "7940", "REGION": "Transverse Ranges", "ASSOCIATION": "USA - CA", "POINTS": "8", "BONUSPOINTS": "3"}}, {"type": "Feature", "geometry": {"type": "Point", "coordinates": [-116.8145, 34.0379]}, "properties": {"NAME": "W6/CT-061", "TITLE": "Snow Peak", "REGION": "Transverse Ranges", "ASSOCIATION": "USA - CA", "POINTS": "8", "BONUSPOINTS": "3"}}, {"type": "Feature", "geometry": {"type": "Point", "coordinates": [-118.4747, 35.0143]}, "properties": {"NAME": "W6/CT-062", "TITLE": "Covington Mountain", "REGION": "Transverse Ranges", "ASSOCIATION": "USA - CA", "POINTS": "8", "BONUSPOINTS": "3"}}, {"type": "Feature", "geometry": {"type": "Point", "coordinates": [-118.5714, 35.0415]}, "properties": {"NAME": "W6/CT-063", "TITLE": "Cummings Mountain", "REGION": "Transverse Ranges", "ASSOCIATION": "USA - CA", "POINTS": "8", "BONUSPOINTS": "3"}}, {"type": "Feature", "geometry": {"type": "Point", "coordinates": [-117.9267, 34.3158]}, "properties": {"NAME": "W6/CT-064", "TITLE": "East Twin Peaks", "REGION": "Transverse Ranges", "ASSOCIATION": "USA - CA", "POINTS": "8", "BONUSPOINTS": "3"}}, {"type": "Feature", "geometry": {"type": "Point", "coordinates": [-116.6916, 34.2518]}, "properties": {"NAME": "W6/CT-065", "TITLE": "Tip Top Mountain", "REGION": "Transverse Ranges", "ASSOCIATION": "USA - CA", "POINTS": "8", "BONUSPOINTS": "3"}}, {"type": "Feature", "geometry": {"type": "Point", "coordinates": [-116.7265, 34.2977]}, "properties": {"NAME": "W6/CT-066", "TITLE": "East Granite Peaks", "REGION": "Transverse Ranges", "ASSOCIATION": "USA - CA", "POINTS": "8", "BONUSPOINTS": "3"}}, {"type": "Feature", "geometry": {"type": "Point", "coordinates": [-117.6853, 34.383]}, "properties": {"NAME": "W6/CT-067", "TITLE": "Table Mountain", "REGION": "Transverse Ranges", "ASSOCIATION": "USA - CA", "POINTS": "8", "BONUSPOINTS": "3"}}, {"type": "Feature", "geometry": {"type": "Point", "coordinates": [-116.5911, 33.6795]}, "properties": {"NAME": "W6/CT-068", "TITLE": "Palm View Peak", "REGION": "Transverse Ranges", "ASSOCIATION": "USA - CA", "POINTS": "6", "BONUSPOINTS": "3"}}, {"type": "Feature", "geometry": {"type": "Point", "coordinates": [-116.7533, 34.0327]}, "properties": {"NAME": "W6/CT-069", "TITLE": "7054", "REGION": "Transverse Ranges", "ASSOCIATION": "USA - CA", "POINTS": "6", "BONUSPOINTS": "3"}}, {"type": "Feature", "geometry": {"type": "Point", "coordinates": [-118.6393, 35.2065]}, "properties": {"NAME": "W6/CT-070", "TITLE": "Bear Mountain", "REGION": "Transverse Ranges", "ASSOCIATION": "USA - CA", "POINTS": "6", "BONUSPOINTS": "3"}}, {"type": "Feature", "geometry": {"type": "Point", "coordinates": [-117.586, 34.3431]}, "properties": {"NAME": "W6/CT-071", "TITLE": "Circle Mountain", "REGION": "Transverse Ranges", "ASSOCIATION": "USA - CA", "POINTS": "6", "BONUSPOINTS": "3"}}, {"type": "Feature", "geometry": {"type": "Point", "coordinates": [-118.5902, 34.9473]}, "properties": {"NAME": "W6/CT-072", "TITLE": "6803", "REGION": "Transverse Ranges", "ASSOCIATION": "USA - CA", "POINTS": "6", "BONUSPOINTS": "3"}}, {"type": "Feature", "geometry": {"type": "Point", "coordinates": [-116.8106, 34.3378]}, "properties": {"NAME": "W6/CT-073", "TITLE": "Silver Peak", "REGION": "Transverse Ranges", "ASSOCIATION": "USA - CA", "POINTS": "6", "BONUSPOINTS": "3"}}, {"type": "Feature", "geometry": {"type": "Point", "coordinates": [-117.0864, 34.3084]}, "properties": {"NAME": "W6/CT-074", "TITLE": "Shay Mountain", "REGION": "Transverse Ranges", "ASSOCIATION": "USA - CA", "POINTS": "6", "BONUSPOINTS": "3"}}, {"type": "Feature", "geometry": {"type": "Point", "coordinates": [-116.2395, 33.4334]}, "properties": {"NAME": "W6/CT-075", "TITLE": "Rabbit Peak", "REGION": "Transverse Ranges", "ASSOCIATION": "USA - CA", "POINTS": "6", "BONUSPOINTS": "3"}}, {"type": "Feature", "geometry": {"type": "Point", "coordinates": [-116.997, 34.1384]}, "properties": {"NAME": "W6/CT-076", "TITLE": "Constance Peak", "REGION": "Transverse Ranges", "ASSOCIATION": "USA - CA", "POINTS": "6", "BONUSPOINTS": "3"}}, {"type": "Feature", "geometry": {"type": "Point", "coordinates": [-116.7406, 33.9992]}, "properties": {"NAME": "W6/CT-077", "TITLE": "Kitching Peak", "REGION": "Transverse Ranges", "ASSOCIATION": "USA - CA", "POINTS": "6", "BONUSPOINTS": "3"}}, {"type": "Feature", "geometry": {"type": "Point", "coordinates": [-116.3124, 33.4594]}, "properties": {"NAME": "W6/CT-078", "TITLE": "Lorenzens Peak", "REGION": "Transverse Ranges", "ASSOCIATION": "USA - CA", "POINTS": "6", "BONUSPOINTS": "3"}}, {"type": "Feature", "geometry": {"type": "Point", "coordinates": [-116.345, 33.5567]}, "properties": {"NAME": "W6/CT-079", "TITLE": "Martinez Mountain", "REGION": "Transverse Ranges", "ASSOCIATION": "USA - CA", "POINTS": "6", "BONUSPOINTS": "3"}}, {"type": "Feature", "geometry": {"type": "Point", "coordinates": [-117.5426, 34.2159]}, "properties": {"NAME": "W6/CT-080", "TITLE": "Buck Point", "REGION": "Transverse Ranges", "ASSOCIATION": "USA - CA", "POINTS": "6", "BONUSPOINTS": "0"}}, {"type": "Feature", "geometry": {"type": "Point", "coordinates": [-118.6068, 34.9825]}, "properties": {"NAME": "W6/CT-081", "TITLE": "6422", "REGION": "Transverse Ranges", "ASSOCIATION": "USA - CA", "POINTS": "6", "BONUSPOINTS": "0"}}, {"type": "Feature", "geometry": {"type": "Point", "coordinates": [-117.9918, 34.3983]}, "properties": {"NAME": "W6/CT-082", "TITLE": "Bare Mountain", "REGION": "Transverse Ranges", "ASSOCIATION": "USA - CA", "POINTS": "6", "BONUSPOINTS": "0"}}, {"type": "Feature", "geometry": {"type": "Point", "coordinates": [-117.8917, 34.3347]}, "properties": {"NAME": "W6/CT-083", "TITLE": "6340", "REGION": "Transverse Ranges", "ASSOCIATION": "USA - CA", "POINTS": "6", "BONUSPOINTS": "0"}}, {"type": "Feature", "geometry": {"type": "Point", "coordinates": [-116.599, 34.1148]}, "properties": {"NAME": "W6/CT-084", "TITLE": "6305", "REGION": "Transverse Ranges", "ASSOCIATION": "USA - CA", "POINTS": "6", "BONUSPOINTS": "0"}}, {"type": "Feature", "geometry": {"type": "Point", "coordinates": [-116.6175, 34.2578]}, "properties": {"NAME": "W6/CT-085", "TITLE": "Meeks Benchmark", "REGION": "Transverse Ranges", "ASSOCIATION": "USA - CA", "POINTS": "6", "BONUSPOINTS": "0"}}, {"type": "Feature", "geometry": {"type": "Point", "coordinates": [-117.2345, 34.2319]}, "properties": {"NAME": "W6/CT-086", "TITLE": "Strawberry Peak", "REGION": "Transverse Ranges", "ASSOCIATION": "USA - CA", "POINTS": "6", "BONUSPOINTS": "0"}}, {"type": "Feature", "geometry": {"type": "Point", "coordinates": [-118.1285, 34.384]}, "properties": {"NAME": "W6/CT-087", "TITLE": "6020", "REGION": "Transverse Ranges", "ASSOCIATION": "USA - CA", "POINTS": "6", "BONUSPOINTS": "0"}}, {"type": "Feature", "geometry": {"type": "Point", "coordinates": [-117.1281, 34.3443]}, "properties": {"NAME": "W6/CT-088", "TITLE": "Luna Mountain", "REGION": "Transverse Ranges", "ASSOCIATION": "USA - CA", "POINTS": "6", "BONUSPOINTS": "0"}}, {"type": "Feature", "geometry": {"type": "Point", "coordinates": [-118.1039, 34.2706]}, "properties": {"NAME": "W6/CT-089", "TITLE": "Mount Lawlor", "REGION": "Transverse Ranges", "ASSOCIATION": "USA - CA", "POINTS": "6", "BONUSPOINTS": "0"}}, {"type": "Feature", "geometry": {"type": "Point", "coordinates": [-116.9966, 34.1205]}, "properties": {"NAME": "W6/CT-090", "TITLE": "Mountain Home Peak", "REGION": "Transverse Ranges", "ASSOCIATION": "USA - CA", "POINTS": "6", "BONUSPOINTS": "0"}}, {"type": "Feature", "geometry": {"type": "Point", "coordinates": [-117.777, 34.272]}, "properties": {"NAME": "W6/CT-091", "TITLE": "Rattlesnake Peak", "REGION": "Transverse Ranges", "ASSOCIATION": "USA - CA", "POINTS": "6", "BONUSPOINTS": "0"}}, {"type": "Feature", "geometry": {"type": "Point", "coordinates": [-116.9867, 34.0805]}, "properties": {"NAME": "W6/CT-092", "TITLE": "Allen Peak", "REGION": "Transverse Ranges", "ASSOCIATION": "USA - CA", "POINTS": "6", "BONUSPOINTS": "0"}}, {"type": "Feature", "geometry": {"type": "Point", "coordinates": [-118.5769, 34.6825]}, "properties": {"NAME": "W6/CT-093", "TITLE": "Burnt Peak", "REGION": "Transverse Ranges", "ASSOCIATION": "USA - CA", "POINTS": "6", "BONUSPOINTS": "0"}}, {"type": "Feature", "geometry": {"type": "Point", "coordinates": [-116.7885, 33.7818]}, "properties": {"NAME": "W6/CT-094", "TITLE": "Indian Mountain", "REGION": "Transverse Ranges", "ASSOCIATION": "USA - CA", "POINTS": "6", "BONUSPOINTS": "0"}}, {"type": "Feature", "geometry": {"type": "Point", "coordinates": [-118.6647, 34.7167]}, "properties": {"NAME": "W6/CT-095", "TITLE": "Liebre Mountain", "REGION": "Transverse Ranges", "ASSOCIATION": "USA - CA", "POINTS": "6", "BONUSPOINTS": "0"}}, {"type": "Feature", "geometry": {"type": "Point", "coordinates": [-116.2189, 33.3884]}, "properties": {"NAME": "W6/CT-096", "TITLE": "Villager Peak", "REGION": "Transverse Ranges", "ASSOCIATION": "USA - CA", "POINTS": "6", "BONUSPOINTS": "0"}}, {"type": "Feature", "geometry": {"type": "Point", "coordinates": [-117.2281, 34.3072]}, "properties": {"NAME": "W6/CT-097", "TITLE": "The Pinnacles", "REGION": "Transverse Ranges", "ASSOCIATION": "USA - CA", "POINTS": "6", "BONUSPOINTS": "0"}}, {"type": "Feature", "geometry": {"type": "Point", "coordinates": [-118.0838, 34.235]}, "properties": {"NAME": "W6/CT-098", "TITLE": "Occidental Peak", "REGION": "Transverse Ranges", "ASSOCIATION": "USA - CA", "POINTS": "6", "BONUSPOINTS": "0"}}, {"type": "Feature", "geometry": {"type": "Point", "coordinates": [-117.3667, 34.2583]}, "properties": {"NAME": "W6/CT-099", "TITLE": "Bailey Peak", "REGION": "Transverse Ranges", "ASSOCIATION": "USA - CA", "POINTS": "6", "BONUSPOINTS": "0"}}, {"type": "Feature", "geometry": {"type": "Point", "coordinates": [-116.7168, 33.9999]}, "properties": {"NAME": "W6/CT-100", "TITLE": "5695", "REGION": "Transverse Ranges", "ASSOCIATION": "USA - CA", "POINTS": "6", "BONUSPOINTS": "0"}}, {"type": "Feature", "geometry": {"type": "Point", "coordinates": [-118.5284, 35.163]}, "properties": {"NAME": "W6/CT-101", "TITLE": "Black Mountain", "REGION": "Transverse Ranges", "ASSOCIATION": "USA - CA", "POINTS": "6", "BONUSPOINTS": "0"}}, {"type": "Feature", "geometry": {"type": "Point", "coordinates": [-116.9196, 33.3665]}, "properties": {"NAME": "W6/CT-102", "TITLE": "Gordon Point", "REGION": "Transverse Ranges", "ASSOCIATION": "USA - CA", "POINTS": "6", "BONUSPOINTS": "0"}}, {"type": "Feature", "geometry": {"type": "Point", "coordinates": [-116.7828, 33.5737]}, "properties": {"NAME": "W6/CT-103", "TITLE": "Cahuilla Mountain", "REGION": "Transverse Ranges", "ASSOCIATION": "USA - CA", "POINTS": "6", "BONUSPOINTS": "0"}}, {"type": "Feature", "geometry": {"type": "Point", "coordinates": [-116.5741, 33.5532]}, "properties": {"NAME": "W6/CT-104", "TITLE": "Lookout Mountain", "REGION": "Transverse Ranges", "ASSOCIATION": "USA - CA", "POINTS": "6", "BONUSPOINTS": "0"}}, {"type": "Feature", "geometry": {"type": "Point", "coordinates": [-116.7159, 33.6859]}, "properties": {"NAME": "W6/CT-105", "TITLE": "Baldy Mountain", "REGION": "Transverse Ranges", "ASSOCIATION": "USA - CA", "POINTS": "6", "BONUSPOINTS": "0"}}, {"type": "Feature", "geometry": {"type": "Point", "coordinates": [-117.2397, 34.2845]}, "properties": {"NAME": "W6/CT-106", "TITLE": "Mount Marie Louise", "REGION": "Transverse Ranges", "ASSOCIATION": "USA - CA", "POINTS": "6", "BONUSPOINTS": "0"}}, {"type": "Feature", "geometry": {"type": "Point", "coordinates": [-116.9536, 34.0386]}, "properties": {"NAME": "W6/CT-107", "TITLE": "Pisgah Peak", "REGION": "Transverse Ranges", "ASSOCIATION": "USA - CA", "POINTS": "4", "BONUSPOINTS": "0"}}, {"type": "Feature", "geometry": {"type": "Point", "coordinates": [-118.7829, 34.8415]}, "properties": {"NAME": "W6/CT-108", "TITLE": "5420", "REGION": "Transverse Ranges", "ASSOCIATION": "USA - CA", "POINTS": "4", "BONUSPOINTS": "0"}}, {"type": "Feature", "geometry": {"type": "Point", "coordinates": [-117.3318, 34.2573]}, "properties": {"NAME": "W6/CT-109", "TITLE": "Jobs Peak", "REGION": "Transverse Ranges", "ASSOCIATION": "USA - CA", "POINTS": "4", "BONUSPOINTS": "0"}}, {"type": "Feature", "geometry": {"type": "Point", "coordinates": [-118.3663, 35.0106]}, "properties": {"NAME": "W6/CT-110", "TITLE": "Limestone Benchmark", "REGION": "Transverse Ranges", "ASSOCIATION": "USA - CA", "POINTS": "4", "BONUSPOINTS": "0"}}, {"type": "Feature", "geometry": {"type": "Point", "coordinates": [-116.1916, 33.3753]}, "properties": {"NAME": "W6/CT-111", "TITLE": "Mile High Mountain", "REGION": "Transverse Ranges", "ASSOCIATION": "USA - CA", "POINTS": "4", "BONUSPOINTS": "0"}}, {"type": "Feature", "geometry": {"type": "Point", "coordinates": [-117.4125, 34.2942]}, "properties": {"NAME": "W6/CT-112", "TITLE": "Cleghorn Mountain", "REGION": "Transverse Ranges", "ASSOCIATION": "USA - CA", "POINTS": "4", "BONUSPOINTS": "0"}}, {"type": "Feature", "geometry": {"type": "Point", "coordinates": [-118.6457, 35.1391]}, "properties": {"NAME": "W6/CT-113", "TITLE": "Flannagan Benchmark", "REGION": "Transverse Ranges", "ASSOCIATION": "USA - CA", "POINTS": "4", "BONUSPOINTS": "0"}}, {"type": "Feature", "geometry": {"type": "Point", "coordinates": [-118.6702, 35.1379]}, "properties": {"NAME": "W6/CT-114", "TITLE": "Black Spring Benchmark", "REGION": "Transverse Ranges", "ASSOCIATION": "USA - CA", "POINTS": "4", "BONUSPOINTS": "0"}}, {"type": "Feature", "geometry": {"type": "Point", "coordinates": [-116.459, 33.6276]}, "properties": {"NAME": "W6/CT-115", "TITLE": "Asbestos Mountain", "REGION": "Transverse Ranges", "ASSOCIATION": "USA - CA", "POINTS": "4", "BONUSPOINTS": "0"}}, {"type": "Feature", "geometry": {"type": "Point", "coordinates": [-118.2322, 34.5439]}, "properties": {"NAME": "W6/CT-116", "TITLE": "Sierra Pelona", "REGION": "Transverse Ranges", "ASSOCIATION": "USA - CA", "POINTS": "4", "BONUSPOINTS": "0"}}, {"type": "Feature", "geometry": {"type": "Point", "coordinates": [-118.5523, 34.6609]}, "properties": {"NAME": "W6/CT-117", "TITLE": "Sawtooth Mountain", "REGION": "Transverse Ranges", "ASSOCIATION": "USA - CA", "POINTS": "4", "BONUSPOINTS": "0"}}, {"type": "Feature", "geometry": {"type": "Point", "coordinates": [-118.2751, 34.5664]}, "properties": {"NAME": "W6/CT-118", "TITLE": "Mount McDill", "REGION": "Transverse Ranges", "ASSOCIATION": "USA - CA", "POINTS": "4", "BONUSPOINTS": "0"}}, {"type": "Feature", "geometry": {"type": "Point", "coordinates": [-116.7733, 33.6727]}, "properties": {"NAME": "W6/CT-119", "TITLE": "Rouse Hill", "REGION": "Transverse Ranges", "ASSOCIATION": "USA - CA", "POINTS": "4", "BONUSPOINTS": "0"}}, {"type": "Feature", "geometry": {"type": "Point", "coordinates": [-117.8637, 34.2813]}, "properties": {"NAME": "W6/CT-120", "TITLE": "Smith Mountain", "REGION": "Transverse Ranges", "ASSOCIATION": "USA - CA", "POINTS": "4", "BONUSPOINTS": "0"}}, {"type": "Feature", "geometry": {"type": "Point", "coordinates": [-118.272, 34.396]}, "properties": {"NAME": "W6/CT-121", "TITLE": "Snow Benchmark", "REGION": "Transverse Ranges", "ASSOCIATION": "USA - CA", "POINTS": "4", "BONUSPOINTS": "0"}}, {"type": "Feature", "geometry": {"type": "Point", "coordinates": [-118.8629, 34.8049]}, "properties": {"NAME": "W6/CT-122", "TITLE": "Lebec B-9 Benchmark", "REGION": "Transverse Ranges", "ASSOCIATION": "USA - CA", "POINTS": "4", "BONUSPOINTS": "0"}}, {"type": "Feature", "geometry": {"type": "Point", "coordinates": [-118.9043, 34.903]}, "properties": {"NAME": "W6/CT-123", "TITLE": "Grapevine Peak", "REGION": "Transverse Ranges", "ASSOCIATION": "USA - CA", "POINTS": "4", "BONUSPOINTS": "0"}}, {"type": "Feature", "geometry": {"type": "Point", "coordinates": [-116.9822, 33.4099]}, "properties": {"NAME": "W6/CT-124", "TITLE": "Agua Tibia Mountain", "REGION": "Transverse Ranges", "ASSOCIATION": "USA - CA", "POINTS": "4", "BONUSPOINTS": "0"}}, {"type": "Feature", "geometry": {"type": "Point", "coordinates": [-117.1599, 34.1647]}, "properties": {"NAME": "W6/CT-125", "TITLE": "Harrison Mountain", "REGION": "Transverse Ranges", "ASSOCIATION": "USA - CA", "POINTS": "4", "BONUSPOINTS": "0"}}, {"type": "Feature", "geometry": {"type": "Point", "coordinates": [-118.164, 34.5258]}, "properties": {"NAME": "W6/CT-126", "TITLE": "Harold Beacon Benchmark", "REGION": "Transverse Ranges", "ASSOCIATION": "USA - CA", "POINTS": "4", "BONUSPOINTS": "0"}}, {"type": "Feature", "geometry": {"type": "Point", "coordinates": [-117.9322, 34.2686]}, "properties": {"NAME": "W6/CT-127", "TITLE": "4654", "REGION": "Transverse Ranges", "ASSOCIATION": "USA - CA", "POINTS": "4", "BONUSPOINTS": "0"}}, {"type": "Feature", "geometry": {"type": "Point", "coordinates": [-117.0407, 34.1027]}, "properties": {"NAME": "W6/CT-128", "TITLE": "Morton Peak", "REGION": "Transverse Ranges", "ASSOCIATION": "USA - CA", "POINTS": "4", "BONUSPOINTS": "0"}}, {"type": "Feature", "geometry": {"type": "Point", "coordinates": [-118.8586, 34.8555]}, "properties": {"NAME": "W6/CT-129", "TITLE": "4620", "REGION": "Transverse Ranges", "ASSOCIATION": "USA - CA", "POINTS": "4", "BONUSPOINTS": "0"}}, {"type": "Feature", "geometry": {"type": "Point", "coordinates": [-118.4137, 34.6412]}, "properties": {"NAME": "W6/CT-130", "TITLE": "Grass Mountain", "REGION": "Transverse Ranges", "ASSOCIATION": "USA - CA", "POINTS": "4", "BONUSPOINTS": "0"}}, {"type": "Feature", "geometry": {"type": "Point", "coordinates": [-116.7068, 34.0394]}, "properties": {"NAME": "W6/CT-131", "TITLE": "4602", "REGION": "Transverse Ranges", "ASSOCIATION": "USA - CA", "POINTS": "4", "BONUSPOINTS": "0"}}, {"type": "Feature", "geometry": {"type": "Point", "coordinates": [-118.3144, 34.5977]}, "properties": {"NAME": "W6/CT-132", "TITLE": "Granite Benchmark", "REGION": "Transverse Ranges", "ASSOCIATION": "USA - CA", "POINTS": "4", "BONUSPOINTS": "0"}}, {"type": "Feature", "geometry": {"type": "Point", "coordinates": [-116.8479, 33.6302]}, "properties": {"NAME": "W6/CT-133", "TITLE": "Red Mountain", "REGION": "Transverse Ranges", "ASSOCIATION": "USA - CA", "POINTS": "4", "BONUSPOINTS": "0"}}, {"type": "Feature", "geometry": {"type": "Point", "coordinates": [-117.4962, 34.3025]}, "properties": {"NAME": "W6/CT-134", "TITLE": "Ralston Peak", "REGION": "Transverse Ranges", "ASSOCIATION": "USA - CA", "POINTS": "4", "BONUSPOINTS": "0"}}, {"type": "Feature", "geometry": {"type": "Point", "coordinates": [-116.7717, 33.2131]}, "properties": {"NAME": "W6/CT-135", "TITLE": "Angel Mountain", "REGION": "Transverse Ranges", "ASSOCIATION": "USA - CA", "POINTS": "4", "BONUSPOINTS": "0"}}, {"type": "Feature", "geometry": {"type": "Point", "coordinates": [-118.3639, 34.6209]}, "properties": {"NAME": "W6/CT-136", "TITLE": "Burn Benchmark", "REGION": "Transverse Ranges", "ASSOCIATION": "USA - CA", "POINTS": "4", "BONUSPOINTS": "0"}}, {"type": "Feature", "geometry": {"type": "Point", "coordinates": [-116.7743, 33.8826]}, "properties": {"NAME": "W6/CT-137", "TITLE": "Cabazon Peak", "REGION": "Transverse Ranges", "ASSOCIATION": "USA - CA", "POINTS": "4", "BONUSPOINTS": "0"}}, {"type": "Feature", "geometry": {"type": "Point", "coordinates": [-117.4712, 33.665]}, "properties": {"NAME": "W6/CT-138", "TITLE": "Los Pinos Peak", "REGION": "Transverse Ranges", "ASSOCIATION": "USA - CA", "POINTS": "4", "BONUSPOINTS": "0"}}, {"type": "Feature", "geometry": {"type": "Point", "coordinates": [-118.6373, 34.6624]}, "properties": {"NAME": "W6/CT-139", "TITLE": "Redrock Mountain", "REGION": "Transverse Ranges", "ASSOCIATION": "USA - CA", "POINTS": "4", "BONUSPOINTS": "0"}}, {"type": "Feature", "geometry": {"type": "Point", "coordinates": [-118.3981, 34.5997]}, "properties": {"NAME": "W6/CT-140", "TITLE": "Jupiter Mountain", "REGION": "Transverse Ranges", "ASSOCIATION": "USA - CA", "POINTS": "4", "BONUSPOINTS": "0"}}, {"type": "Feature", "geometry": {"type": "Point", "coordinates": [-116.7409, 33.1893]}, "properties": {"NAME": "W6/CT-141", "TITLE": "4481", "REGION": "Transverse Ranges", "ASSOCIATION": "USA - CA", "POINTS": "4", "BONUSPOINTS": "0"}}, {"type": "Feature", "geometry": {"type": "Point", "coordinates": [-116.3786, 33.4448]}, "properties": {"NAME": "W6/CT-142", "TITLE": "Buck Ridge", "REGION": "Transverse Ranges", "ASSOCIATION": "USA - CA", "POINTS": "4", "BONUSPOINTS": "0"}}, {"type": "Feature", "geometry": {"type": "Point", "coordinates": [-116.2458, 33.4644]}, "properties": {"NAME": "W6/CT-143", "TITLE": "4460", "REGION": "Transverse Ranges", "ASSOCIATION": "USA - CA", "POINTS": "4", "BONUSPOINTS": "0"}}, {"type": "Feature", "geometry": {"type": "Point", "coordinates": [-118.1244, 34.4595]}, "properties": {"NAME": "W6/CT-144", "TITLE": "4460", "REGION": "Transverse Ranges", "ASSOCIATION": "USA - CA", "POINTS": "4", "BONUSPOINTS": "0"}}, {"type": "Feature", "geometry": {"type": "Point", "coordinates": [-118.4658, 34.6148]}, "properties": {"NAME": "W6/CT-145", "TITLE": "Tule Ridge", "REGION": "Transverse Ranges", "ASSOCIATION": "USA - CA", "POINTS": "4", "BONUSPOINTS": "0"}}, {"type": "Feature", "geometry": {"type": "Point", "coordinates": [-118.1773, 34.2695]}, "properties": {"NAME": "W6/CT-146", "TITLE": "Hoyt Mountain", "REGION": "Transverse Ranges", "ASSOCIATION": "USA - CA", "POINTS": "4", "BONUSPOINTS": "0"}}, {"type": "Feature", "geometry": {"type": "Point", "coordinates": [-117.4912, 34.2662]}, "properties": {"NAME": "W6/CT-147", "TITLE": "North Lower Lytle Creek Ridge", "REGION": "Transverse Ranges", "ASSOCIATION": "USA - CA", "POINTS": "4", "BONUSPOINTS": "0"}}, {"type": "Feature", "geometry": {"type": "Point", "coordinates": [-116.3147, 33.5167]}, "properties": {"NAME": "W6/CT-148", "TITLE": "4345", "REGION": "Transverse Ranges", "ASSOCIATION": "USA - CA", "POINTS": "4", "BONUSPOINTS": "0"}}, {"type": "Feature", "geometry": {"type": "Point", "coordinates": [-116.8592, 33.2347]}, "properties": {"NAME": "W6/CT-149", "TITLE": "Pine Mountain", "REGION": "Transverse Ranges", "ASSOCIATION": "USA - CA", "POINTS": "4", "BONUSPOINTS": "0"}}, {"type": "Feature", "geometry": {"type": "Point", "coordinates": [-118.1587, 34.2655]}, "properties": {"NAME": "W6/CT-150", "TITLE": "4202", "REGION": "Transverse Ranges", "ASSOCIATION": "USA - CA", "POINTS": "4", "BONUSPOINTS": "0"}}, {"type": "Feature", "geometry": {"type": "Point", "coordinates": [-117.6566, 34.1754]}, "properties": {"NAME": "W6/CT-151", "TITLE": "Frankish Peak", "REGION": "Transverse Ranges", "ASSOCIATION": "USA - CA", "POINTS": "4", "BONUSPOINTS": "0"}}, {"type": "Feature", "geometry": {"type": "Point", "coordinates": [-116.6938, 33.1646]}, "properties": {"NAME": "W6/CT-152", "TITLE": "4131", "REGION": "Transverse Ranges", "ASSOCIATION": "USA - CA", "POINTS": "4", "BONUSPOINTS": "0"}}, {"type": "Feature", "geometry": {"type": "Point", "coordinates": [-118.2188, 34.4599]}, "properties": {"NAME": "W6/CT-153", "TITLE": "Parker Mountain", "REGION": "Transverse Ranges", "ASSOCIATION": "USA - CA", "POINTS": "4", "BONUSPOINTS": "0"}}, {"type": "Feature", "geometry": {"type": "Point", "coordinates": [-116.9049, 33.8271]}, "properties": {"NAME": "W6/CT-154", "TITLE": "4106", "REGION": "Transverse Ranges", "ASSOCIATION": "USA - CA", "POINTS": "4", "BONUSPOINTS": "0"}}, {"type": "Feature", "geometry": {"type": "Point", "coordinates": [-116.926, 33.8238]}, "properties": {"NAME": "W6/CT-155", "TITLE": "Dellamont", "REGION": "Transverse Ranges", "ASSOCIATION": "USA - CA", "POINTS": "4", "BONUSPOINTS": "0"}}, {"type": "Feature", "geometry": {"type": "Point", "coordinates": [-118.3055, 34.4183]}, "properties": {"NAME": "W6/CT-156", "TITLE": "4054", "REGION": "Transverse Ranges", "ASSOCIATION": "USA - CA", "POINTS": "4", "BONUSPOINTS": "0"}}, {"type": "Feature", "geometry": {"type": "Point", "coordinates": [-116.8082, 33.1599]}, "properties": {"NAME": "W6/CT-157", "TITLE": "Black Mountain", "REGION": "Transverse Ranges", "ASSOCIATION": "USA - CA", "POINTS": "4", "BONUSPOINTS": "0"}}, {"type": "Feature", "geometry": {"type": "Point", "coordinates": [-118.4173, 34.3531]}, "properties": {"NAME": "W6/CT-158", "TITLE": "4020", "REGION": "Transverse Ranges", "ASSOCIATION": "USA - CA", "POINTS": "4", "BONUSPOINTS": "0"}}, {"type": "Feature", "geometry": {"type": "Point", "coordinates": [-118.5798, 34.5955]}, "properties": {"NAME": "W6/CT-159", "TITLE": "Warm Springs Mountain", "REGION": "Transverse Ranges", "ASSOCIATION": "USA - CA", "POINTS": "4", "BONUSPOINTS": "0"}}, {"type": "Feature", "geometry": {"type": "Point", "coordinates": [-117.6067, 33.7964]}, "properties": {"NAME": "W6/CT-160", "TITLE": "Pleasants Peak", "REGION": "Transverse Ranges", "ASSOCIATION": "USA - CA", "POINTS": "4", "BONUSPOINTS": "0"}}, {"type": "Feature", "geometry": {"type": "Point", "coordinates": [-118.295, 34.6364]}, "properties": {"NAME": "W6/CT-161", "TITLE": "East Portal Ridge", "REGION": "Transverse Ranges", "ASSOCIATION": "USA - CA", "POINTS": "4", "BONUSPOINTS": "0"}}, {"type": "Feature", "geometry": {"type": "Point", "coordinates": [-118.5234, 34.5867]}, "properties": {"NAME": "W6/CT-162", "TITLE": "Red Mountain", "REGION": "Transverse Ranges", "ASSOCIATION": "USA - CA", "POINTS": "2", "BONUSPOINTS": "0"}}, {"type": "Feature", "geometry": {"type": "Point", "coordinates": [-118.2982, 34.3039]}, "properties": {"NAME": "W6/CT-163", "TITLE": "Yerba Buena Ridge", "REGION": "Transverse Ranges", "ASSOCIATION": "USA - CA", "POINTS": "2", "BONUSPOINTS": "0"}}, {"type": "Feature", "geometry": {"type": "Point", "coordinates": [-116.903, 33.2341]}, "properties": {"NAME": "W6/CT-164", "TITLE": "Rodriguez Mountain", "REGION": "Transverse Ranges", "ASSOCIATION": "USA - CA", "POINTS": "2", "BONUSPOINTS": "0"}}, {"type": "Feature", "geometry": {"type": "Point", "coordinates": [-118.2911, 34.5385]}, "properties": {"NAME": "W6/CT-165", "TITLE": "3853", "REGION": "Transverse Ranges", "ASSOCIATION": "USA - CA", "POINTS": "2", "BONUSPOINTS": "0"}}, {"type": "Feature", "geometry": {"type": "Point", "coordinates": [-117.2034, 34.1662]}, "properties": {"NAME": "W6/CT-166", "TITLE": "3808", "REGION": "Transverse Ranges", "ASSOCIATION": "USA - CA", "POINTS": "2", "BONUSPOINTS": "0"}}, {"type": "Feature", "geometry": {"type": "Point", "coordinates": [-118.1665, 34.4522]}, "properties": {"NAME": "W6/CT-167", "TITLE": "3788", "REGION": "Transverse Ranges", "ASSOCIATION": "USA - CA", "POINTS": "2", "BONUSPOINTS": "0"}}, {"type": "Feature", "geometry": {"type": "Point", "coordinates": [-118.244, 34.4958]}, "properties": {"NAME": "W6/CT-168", "TITLE": "3784", "REGION": "Transverse Ranges", "ASSOCIATION": "USA - CA", "POINTS": "2", "BONUSPOINTS": "0"}}, {"type": "Feature", "geometry": {"type": "Point", "coordinates": [-118.4127, 34.5671]}, "properties": {"NAME": "W6/CT-169", "TITLE": "Bee Benchmark", "REGION": "Transverse Ranges", "ASSOCIATION": "USA - CA", "POINTS": "2", "BONUSPOINTS": "0"}}, {"type": "Feature", "geometry": {"type": "Point", "coordinates": [-118.3848, 34.3336]}, "properties": {"NAME": "W6/CT-170", "TITLE": "Kagel Mountain", "REGION": "Transverse Ranges", "ASSOCIATION": "USA - CA", "POINTS": "2", "BONUSPOINTS": "0"}}, {"type": "Feature", "geometry": {"type": "Point", "coordinates": [-116.9265, 33.6878]}, "properties": {"NAME": "W6/CT-171", "TITLE": "Polly Butte", "REGION": "Transverse Ranges", "ASSOCIATION": "USA - CA", "POINTS": "2", "BONUSPOINTS": "0"}}, {"type": "Feature", "geometry": {"type": "Point", "coordinates": [-117.4461, 33.5872]}, "properties": {"NAME": "W6/CT-172", "TITLE": "Sitton Peak", "REGION": "Transverse Ranges", "ASSOCIATION": "USA - CA", "POINTS": "2", "BONUSPOINTS": "0"}}, {"type": "Feature", "geometry": {"type": "Point", "coordinates": [-116.7809, 33.1323]}, "properties": {"NAME": "W6/CT-173", "TITLE": "Corral Mountain", "REGION": "Transverse Ranges", "ASSOCIATION": "USA - CA", "POINTS": "2", "BONUSPOINTS": "0"}}, {"type": "Feature", "geometry": {"type": "Point", "coordinates": [-116.9078, 33.2702]}, "properties": {"NAME": "W6/CT-174", "TITLE": "3232", "REGION": "Transverse Ranges", "ASSOCIATION": "USA - CA", "POINTS": "2", "BONUSPOINTS": "0"}}, {"type": "Feature", "geometry": {"type": "Point", "coordinates": [-117.3906, 33.4445]}, "properties": {"NAME": "W6/CT-175", "TITLE": "Margarita Peak", "REGION": "Transverse Ranges", "ASSOCIATION": "USA - CA", "POINTS": "2", "BONUSPOINTS": "0"}}, {"type": "Feature", "geometry": {"type": "Point", "coordinates": [-117.7978, 34.1609]}, "properties": {"NAME": "W6/CT-176", "TITLE": "Johnstone Peak", "REGION": "Transverse Ranges", "ASSOCIATION": "USA - CA", "POINTS": "2", "BONUSPOINTS": "0"}}, {"type": "Feature", "geometry": {"type": "Point", "coordinates": [-116.2434, 33.4953]}, "properties": {"NAME": "W6/CT-177", "TITLE": "3180", "REGION": "Transverse Ranges", "ASSOCIATION": "USA - CA", "POINTS": "2", "BONUSPOINTS": "0"}}, {"type": "Feature", "geometry": {"type": "Point", "coordinates": [-117.7629, 34.1871]}, "properties": {"NAME": "W6/CT-178", "TITLE": "3126", "REGION": "Transverse Ranges", "ASSOCIATION": "USA - CA", "POINTS": "2", "BONUSPOINTS": "0"}}, {"type": "Feature", "geometry": {"type": "Point", "coordinates": [-117.2476, 33.9895]}, "properties": {"NAME": "W6/CT-179", "TITLE": "Reche Benchmark", "REGION": "Transverse Ranges", "ASSOCIATION": "USA - CA", "POINTS": "2", "BONUSPOINTS": "0"}}, {"type": "Feature", "geometry": {"type": "Point", "coordinates": [-117.2804, 33.9616]}, "properties": {"NAME": "W6/CT-180", "TITLE": "Box Springs Mountains (HP)", "REGION": "Transverse Ranges", "ASSOCIATION": "USA - CA", "POINTS": "2", "BONUSPOINTS": "0"}}, {"type": "Feature", "geometry": {"type": "Point", "coordinates": [-117.0014, 33.6192]}, "properties": {"NAME": "W6/CT-181", "TITLE": "Black Mountain", "REGION": "Transverse Ranges", "ASSOCIATION": "USA - CA", "POINTS": "2", "BONUSPOINTS": "0"}}, {"type": "Feature", "geometry": {"type": "Point", "coordinates": [-118.7329, 34.3619]}, "properties": {"NAME": "W6/CT-182", "TITLE": "Oak Ridge", "REGION": "Transverse Ranges", "ASSOCIATION": "USA - CA", "POINTS": "2", "BONUSPOINTS": "0"}}, {"type": "Feature", "geometry": {"type": "Point", "coordinates": [-117.2158, 33.9674]}, "properties": {"NAME": "W6/CT-183", "TITLE": "Olive Hill", "REGION": "Transverse Ranges", "ASSOCIATION": "USA - CA", "POINTS": "2", "BONUSPOINTS": "0"}}, {"type": "Feature", "geometry": {"type": "Point", "coordinates": [-117.3916, 33.5014]}, "properties": {"NAME": "W6/CT-184", "TITLE": "Miller Mountain", "REGION": "Transverse Ranges", "ASSOCIATION": "USA - CA", "POINTS": "2", "BONUSPOINTS": "0"}}, {"type": "Feature", "geometry": {"type": "Point", "coordinates": [-117.3661, 33.5225]}, "properties": {"NAME": "W6/CT-185", "TITLE": "2903", "REGION": "Transverse Ranges", "ASSOCIATION": "USA - CA", "POINTS": "2", "BONUSPOINTS": "0"}}, {"type": "Feature", "geometry": {"type": "Point", "coordinates": [-117.3454, 33.4919]}, "properties": {"NAME": "W6/CT-186", "TITLE": "Redonda Mesa", "REGION": "Transverse Ranges", "ASSOCIATION": "USA - CA", "POINTS": "2", "BONUSPOINTS": "0"}}, {"type": "Feature", "geometry": {"type": "Point", "coordinates": [-117.422, 33.7674]}, "properties": {"NAME": "W6/CT-187", "TITLE": "Estelle Mountain", "REGION": "Transverse Ranges", "ASSOCIATION": "USA - CA", "POINTS": "2", "BONUSPOINTS": "0"}}, {"type": "Feature", "geometry": {"type": "Point", "coordinates": [-117.15, 33.9003]}, "properties": {"NAME": "W6/CT-188", "TITLE": "Mount Russell", "REGION": "Transverse Ranges", "ASSOCIATION": "USA - CA", "POINTS": "2", "BONUSPOINTS": "0"}}, {"type": "Feature", "geometry": {"type": "Point", "coordinates": [-117.1544, 33.8478]}, "properties": {"NAME": "W6/CT-189", "TITLE": "North Bernasconi Hills", "REGION": "Transverse Ranges", "ASSOCIATION": "USA - CA", "POINTS": "2", "BONUSPOINTS": "0"}}, {"type": "Feature", "geometry": {"type": "Point", "coordinates": [-117.1182, 33.78]}, "properties": {"NAME": "W6/CT-190", "TITLE": "Lakeview Mountains (HP)", "REGION": "Transverse Ranges", "ASSOCIATION": "USA - CA", "POINTS": "2", "BONUSPOINTS": "0"}}, {"type": "Feature", "geometry": {"type": "Point", "coordinates": [-117.0237, 33.6535]}, "properties": {"NAME": "W6/CT-191", "TITLE": "2672", "REGION": "Transverse Ranges", "ASSOCIATION": "USA - CA", "POINTS": "2", "BONUSPOINTS": "0"}}, {"type": "Feature", "geometry": {"type": "Point", "coordinates": [-118.6886, 35.253]}, "properties": {"NAME": "W6/CT-192", "TITLE": "2629", "REGION": "Transverse Ranges", "ASSOCIATION": "USA - CA", "POINTS": "2", "BONUSPOINTS": "0"}}, {"type": "Feature", "geometry": {"type": "Point", "coordinates": [-116.3476, 33.6503]}, "properties": {"NAME": "W6/CT-193", "TITLE": "Coyote Benchmark", "REGION": "Transverse Ranges", "ASSOCIATION": "USA - CA", "POINTS": "2", "BONUSPOINTS": "0"}}, {"type": "Feature", "geometry": {"type": "Point", "coordinates": [-117.1234, 33.7239]}, "properties": {"NAME": "W6/CT-194", "TITLE": "West Double Butte", "REGION": "Transverse Ranges", "ASSOCIATION": "USA - CA", "POINTS": "2", "BONUSPOINTS": "0"}}, {"type": "Feature", "geometry": {"type": "Point", "coordinates": [-117.1914, 33.8742]}, "properties": {"NAME": "W6/CT-195", "TITLE": "2569", "REGION": "Transverse Ranges", "ASSOCIATION": "USA - CA", "POINTS": "2", "BONUSPOINTS": "0"}}, {"type": "Feature", "geometry": {"type": "Point", "coordinates": [-117.0623, 33.6054]}, "properties": {"NAME": "W6/CT-196", "TITLE": "Bachelor Mountain", "REGION": "Transverse Ranges", "ASSOCIATION": "USA - CA", "POINTS": "2", "BONUSPOINTS": "0"}}, {"type": "Feature", "geometry": {"type": "Point", "coordinates": [-117.1715, 33.8327]}, "properties": {"NAME": "W6/CT-197", "TITLE": "South Bernasconi Hills", "REGION": "Transverse Ranges", "ASSOCIATION": "USA - CA", "POINTS": "2", "BONUSPOINTS": "0"}}, {"type": "Feature", "geometry": {"type": "Point", "coordinates": [-116.2268, 33.5445]}, "properties": {"NAME": "W6/CT-198", "TITLE": "2516", "REGION": "Transverse Ranges", "ASSOCIATION": "USA - CA", "POINTS": "2", "BONUSPOINTS": "0"}}, {"type": "Feature", "geometry": {"type": "Point", "coordinates": [-117.093, 33.7257]}, "properties": {"NAME": "W6/CT-199", "TITLE": "East Double Butte", "REGION": "Transverse Ranges", "ASSOCIATION": "USA - CA", "POINTS": "1", "BONUSPOINTS": "0"}}, {"type": "Feature", "geometry": {"type": "Point", "coordinates": [-117.0425, 33.7815]}, "properties": {"NAME": "W6/CT-200", "TITLE": "2473", "REGION": "Transverse Ranges", "ASSOCIATION": "USA - CA", "POINTS": "1", "BONUSPOINTS": "0"}}, {"type": "Feature", "geometry": {"type": "Point", "coordinates": [-116.2497, 33.5513]}, "properties": {"NAME": "W6/CT-201", "TITLE": "2449", "REGION": "Transverse Ranges", "ASSOCIATION": "USA - CA", "POINTS": "1", "BONUSPOINTS": "0"}}, {"type": "Feature", "geometry": {"type": "Point", "coordinates": [-117.1322, 33.8763]}, "properties": {"NAME": "W6/CT-202", "TITLE": "2444", "REGION": "Transverse Ranges", "ASSOCIATION": "USA - CA", "POINTS": "1", "BONUSPOINTS": "0"}}, {"type": "Feature", "geometry": {"type": "Point", "coordinates": [-117.2508, 33.6386]}, "properties": {"NAME": "W6/CT-203", "TITLE": "2432", "REGION": "Transverse Ranges", "ASSOCIATION": "USA - CA", "POINTS": "1", "BONUSPOINTS": "0"}}, {"type": "Feature", "geometry": {"type": "Point", "coordinates": [-116.9836, 33.1976]}, "properties": {"NAME": "W6/CT-204", "TITLE": "Bear Ridge", "REGION": "Transverse Ranges", "ASSOCIATION": "USA - CA", "POINTS": "1", "BONUSPOINTS": "0"}}, {"type": "Feature", "geometry": {"type": "Point", "coordinates": [-117.2964, 34.0222]}, "properties": {"NAME": "W6/CT-205", "TITLE": "Blue Mountain", "REGION": "Transverse Ranges", "ASSOCIATION": "USA - CA", "POINTS": "1", "BONUSPOINTS": "0"}}, {"type": "Feature", "geometry": {"type": "Point", "coordinates": [-117.1254, 33.4431]}, "properties": {"NAME": "W6/CT-206", "TITLE": "Nielson Benchmark", "REGION": "Transverse Ranges", "ASSOCIATION": "USA - CA", "POINTS": "1", "BONUSPOINTS": "0"}}, {"type": "Feature", "geometry": {"type": "Point", "coordinates": [-118.7808, 34.2045]}, "properties": {"NAME": "W6/CT-207", "TITLE": "Simi Peak", "REGION": "Transverse Ranges", "ASSOCIATION": "USA - CA", "POINTS": "1", "BONUSPOINTS": "0"}}, {"type": "Feature", "geometry": {"type": "Point", "coordinates": [-117.1444, 33.451]}, "properties": {"NAME": "W6/CT-208", "TITLE": "2349", "REGION": "Transverse Ranges", "ASSOCIATION": "USA - CA", "POINTS": "1", "BONUSPOINTS": "0"}}, {"type": "Feature", "geometry": {"type": "Point", "coordinates": [-117.2089, 33.6258]}, "properties": {"NAME": "W6/CT-209", "TITLE": "2281", "REGION": "Transverse Ranges", "ASSOCIATION": "USA - CA", "POINTS": "1", "BONUSPOINTS": "0"}}, {"type": "Feature", "geometry": {"type": "Point", "coordinates": [-117.2288, 33.7182]}, "properties": {"NAME": "W6/CT-210", "TITLE": "2250", "REGION": "Transverse Ranges", "ASSOCIATION": "USA - CA", "POINTS": "1", "BONUSPOINTS": "0"}}, {"type": "Feature", "geometry": {"type": "Point", "coordinates": [-116.3428, 33.6711]}, "properties": {"NAME": "W6/CT-211", "TITLE": "Indio Mountain", "REGION": "Transverse Ranges", "ASSOCIATION": "USA - CA", "POINTS": "1", "BONUSPOINTS": "0"}}, {"type": "Feature", "geometry": {"type": "Point", "coordinates": [-117.4427, 34.0323]}, "properties": {"NAME": "W6/CT-212", "TITLE": "Mount Jurupa", "REGION": "Transverse Ranges", "ASSOCIATION": "USA - CA", "POINTS": "1", "BONUSPOINTS": "0"}}, {"type": "Feature", "geometry": {"type": "Point", "coordinates": [-117.1036, 33.6822]}, "properties": {"NAME": "W6/CT-213", "TITLE": "2167", "REGION": "Transverse Ranges", "ASSOCIATION": "USA - CA", "POINTS": "1", "BONUSPOINTS": "0"}}, {"type": "Feature", "geometry": {"type": "Point", "coordinates": [-118.6524, 34.112]}, "properties": {"NAME": "W6/CT-214", "TITLE": "Calabasas Peak", "REGION": "Transverse Ranges", "ASSOCIATION": "USA - CA", "POINTS": "1", "BONUSPOINTS": "0"}}, {"type": "Feature", "geometry": {"type": "Point", "coordinates": [-117.0423, 33.3392]}, "properties": {"NAME": "W6/CT-215", "TITLE": "Pala Mountain", "REGION": "Transverse Ranges", "ASSOCIATION": "USA - CA", "POINTS": "1", "BONUSPOINTS": "0"}}, {"type": "Feature", "geometry": {"type": "Point", "coordinates": [-117.1662, 33.7101]}, "properties": {"NAME": "W6/CT-216", "TITLE": "2141", "REGION": "Transverse Ranges", "ASSOCIATION": "USA - CA", "POINTS": "1", "BONUSPOINTS": "0"}}, {"type": "Feature", "geometry": {"type": "Point", "coordinates": [-117.0659, 33.203]}, "properties": {"NAME": "W6/CT-217", "TITLE": "Burnt Mountain", "REGION": "Transverse Ranges", "ASSOCIATION": "USA - CA", "POINTS": "1", "BONUSPOINTS": "0"}}, {"type": "Feature", "geometry": {"type": "Point", "coordinates": [-118.5537, 34.1023]}, "properties": {"NAME": "W6/CT-218", "TITLE": "Temescal Peak", "REGION": "Transverse Ranges", "ASSOCIATION": "USA - CA", "POINTS": "1", "BONUSPOINTS": "0"}}, {"type": "Feature", "geometry": {"type": "Point", "coordinates": [-117.1232, 33.414]}, "properties": {"NAME": "W6/CT-219", "TITLE": "2103", "REGION": "Transverse Ranges", "ASSOCIATION": "USA - CA", "POINTS": "1", "BONUSPOINTS": "0"}}, {"type": "Feature", "geometry": {"type": "Point", "coordinates": [-117.0302, 33.7609]}, "properties": {"NAME": "W6/CT-220", "TITLE": "West Tres Cerritos", "REGION": "Transverse Ranges", "ASSOCIATION": "USA - CA", "POINTS": "1", "BONUSPOINTS": "0"}}, {"type": "Feature", "geometry": {"type": "Point", "coordinates": [-117.1821, 33.4798]}, "properties": {"NAME": "W6/CT-221", "TITLE": "2000", "REGION": "Transverse Ranges", "ASSOCIATION": "USA - CA", "POINTS": "1", "BONUSPOINTS": "0"}}, {"type": "Feature", "geometry": {"type": "Point", "coordinates": [-117.114, 33.8656]}, "properties": {"NAME": "W6/CT-222", "TITLE": "1981", "REGION": "Transverse Ranges", "ASSOCIATION": "USA - CA", "POINTS": "1", "BONUSPOINTS": "0"}}, {"type": "Feature", "geometry": {"type": "Point", "coordinates": [-117.4259, 34.0373]}, "properties": {"NAME": "W6/CT-223", "TITLE": "1913", "REGION": "Transverse Ranges", "ASSOCIATION": "USA - CA", "POINTS": "1", "BONUSPOINTS": "0"}}, {"type": "Feature", "geometry": {"type": "Point", "coordinates": [-116.2106, 33.5064]}, "properties": {"NAME": "W6/CT-224", "TITLE": "1890", "REGION": "Transverse Ranges", "ASSOCIATION": "USA - CA", "POINTS": "1", "BONUSPOINTS": "0"}}, {"type": "Feature", "geometry": {"type": "Point", "coordinates": [-118.1967, 34.1636]}, "properties": {"NAME": "W6/CT-225", "TITLE": "Flint Peak", "REGION": "Transverse Ranges", "ASSOCIATION": "USA - CA", "POINTS": "1", "BONUSPOINTS": "0"}}, {"type": "Feature", "geometry": {"type": "Point", "coordinates": [-118.2077, 34.1875]}, "properties": {"NAME": "W6/CT-226", "TITLE": "Cerro Negro Benchmark", "REGION": "Transverse Ranges", "ASSOCIATION": "USA - CA", "POINTS": "1", "BONUSPOINTS": "0"}}, {"type": "Feature", "geometry": {"type": "Point", "coordinates": [-117.0984, 33.3445]}, "properties": {"NAME": "W6/CT-227", "TITLE": "1844", "REGION": "Transverse Ranges", "ASSOCIATION": "USA - CA", "POINTS": "1", "BONUSPOINTS": "0"}}, {"type": "Feature", "geometry": {"type": "Point", "coordinates": [-118.7983, 34.1772]}, "properties": {"NAME": "W6/CT-228", "TITLE": "1821", "REGION": "Transverse Ranges", "ASSOCIATION": "USA - CA", "POINTS": "1", "BONUSPOINTS": "0"}}, {"type": "Feature", "geometry": {"type": "Point", "coordinates": [-117.0792, 33.2468]}, "properties": {"NAME": "W6/CT-229", "TITLE": "Red Mountain", "REGION": "Transverse Ranges", "ASSOCIATION": "USA - CA", "POINTS": "1", "BONUSPOINTS": "0"}}, {"type": "Feature", "geometry": {"type": "Point", "coordinates": [-117.738, 33.9138]}, "properties": {"NAME": "W6/CT-230", "TITLE": "San Juan Hill", "REGION": "Transverse Ranges", "ASSOCIATION": "USA - CA", "POINTS": "1", "BONUSPOINTS": "0"}}, {"type": "Feature", "geometry": {"type": "Point", "coordinates": [-117.4731, 34.0305]}, "properties": {"NAME": "W6/CT-231", "TITLE": "1768", "REGION": "Transverse Ranges", "ASSOCIATION": "USA - CA", "POINTS": "1", "BONUSPOINTS": "0"}}, {"type": "Feature", "geometry": {"type": "Point", "coordinates": [-117.408, 34.0164]}, "properties": {"NAME": "W6/CT-232", "TITLE": "1739", "REGION": "Transverse Ranges", "ASSOCIATION": "USA - CA", "POINTS": "1", "BONUSPOINTS": "0"}}, {"type": "Feature", "geometry": {"type": "Point", "coordinates": [-117.191, 33.4002]}, "properties": {"NAME": "W6/CT-233", "TITLE": "Red Mountain", "REGION": "Transverse Ranges", "ASSOCIATION": "USA - CA", "POINTS": "1", "BONUSPOINTS": "0"}}, {"type": "Feature", "geometry": {"type": "Point", "coordinates": [-116.2957, 33.6463]}, "properties": {"NAME": "W6/CT-234", "TITLE": "1601", "REGION": "Transverse Ranges", "ASSOCIATION": "USA - CA", "POINTS": "1", "BONUSPOINTS": "0"}}, {"type": "Feature", "geometry": {"type": "Point", "coordinates": [-117.1482, 33.3722]}, "properties": {"NAME": "W6/CT-235", "TITLE": "Monserate Mountain", "REGION": "Transverse Ranges", "ASSOCIATION": "USA - CA", "POINTS": "1", "BONUSPOINTS": "0"}}, {"type": "Feature", "geometry": {"type": "Point", "coordinates": [-117.5113, 33.9439]}, "properties": {"NAME": "W6/CT-236", "TITLE": "1510", "REGION": "Transverse Ranges", "ASSOCIATION": "USA - CA", "POINTS": "1", "BONUSPOINTS": "0"}}, {"type": "Feature", "geometry": {"type": "Point", "coordinates": [-117.2807, 33.4343]}, "properties": {"NAME": "W6/CT-237", "TITLE": "1490", "REGION": "Transverse Ranges", "ASSOCIATION": "USA - CA", "POINTS": "1", "BONUSPOINTS": "0"}}, {"type": "Feature", "geometry": {"type": "Point", "coordinates": [-117.1345, 33.3222]}, "properties": {"NAME": "W6/CT-238", "TITLE": "Lancaster Mountain", "REGION": "Transverse Ranges", "ASSOCIATION": "USA - CA", "POINTS": "1", "BONUSPOINTS": "0"}}, {"type": "Feature", "geometry": {"type": "Point", "coordinates": [-117.3418, 34.0308]}, "properties": {"NAME": "W6/CT-239", "TITLE": "La Loma Hills", "REGION": "Transverse Ranges", "ASSOCIATION": "USA - CA", "POINTS": "1", "BONUSPOINTS": "0"}}, {"type": "Feature", "geometry": {"type": "Point", "coordinates": [-117.8949, 33.9557]}, "properties": {"NAME": "W6/CT-240", "TITLE": "1428", "REGION": "Transverse Ranges", "ASSOCIATION": "USA - CA", "POINTS": "1", "BONUSPOINTS": "0"}}, {"type": "Feature", "geometry": {"type": "Point", "coordinates": [-117.437, 33.997]}, "properties": {"NAME": "W6/CT-241", "TITLE": "Pedley Hills", "REGION": "Transverse Ranges", "ASSOCIATION": "USA - CA", "POINTS": "1", "BONUSPOINTS": "0"}}, {"type": "Feature", "geometry": {"type": "Point", "coordinates": [-117.9429, 33.9734]}, "properties": {"NAME": "W6/CT-242", "TITLE": "1416", "REGION": "Transverse Ranges", "ASSOCIATION": "USA - CA", "POINTS": "1", "BONUSPOINTS": "0"}}, {"type": "Feature", "geometry": {"type": "Point", "coordinates": [-117.3931, 33.9839]}, "properties": {"NAME": "W6/CT-243", "TITLE": "Mount Rubidoux", "REGION": "Transverse Ranges", "ASSOCIATION": "USA - CA", "POINTS": "1", "BONUSPOINTS": "0"}}, {"type": "Feature", "geometry": {"type": "Point", "coordinates": [-118.0029, 33.9918]}, "properties": {"NAME": "W6/CT-244", "TITLE": "Workman Hill", "REGION": "Transverse Ranges", "ASSOCIATION": "USA - CA", "POINTS": "1", "BONUSPOINTS": "0"}}, {"type": "Feature", "geometry": {"type": "Point", "coordinates": [-116.825, 34.0991]}, "properties": {"NAME": "W6/CT-245", "TITLE": "San Gorgonio Mountain", "REGION": "Transverse Ranges", "ASSOCIATION": "USA - CA", "POINTS": "10", "BONUSPOINTS": "3"}}, {"type": "Feature", "geometry": {"type": "Point", "coordinates": [-117.8059, 34.3719]}, "properties": {"NAME": "W6/CT-246", "TITLE": "Mount Lewis", "REGION": "Transverse Ranges", "ASSOCIATION": "USA - CA", "POINTS": "8", "BONUSPOINTS": "3"}}, {"type": "Feature", "geometry": {"type": "Point", "coordinates": [-117.8639, 34.3753]}, "properties": {"NAME": "W6/CT-247", "TITLE": "Mount Williamson", "REGION": "Transverse Ranges", "ASSOCIATION": "USA - CA", "POINTS": "8", "BONUSPOINTS": "3"}}, {"type": "Feature", "geometry": {"type": "Point", "coordinates": [-116.6414, 33.73]}, "properties": {"NAME": "W6/CT-248", "TITLE": "Antsell Rock", "REGION": "Transverse Ranges", "ASSOCIATION": "USA - CA", "POINTS": "8", "BONUSPOINTS": "3"}}, {"type": "Feature", "geometry": {"type": "Point", "coordinates": [-116.6267, 33.7186]}, "properties": {"NAME": "W6/CT-249", "TITLE": "Apache Peak", "REGION": "Transverse Ranges", "ASSOCIATION": "USA - CA", "POINTS": "8", "BONUSPOINTS": "3"}}, {"type": "Feature", "geometry": {"type": "Point", "coordinates": [-118.6734, 34.9462]}, "properties": {"NAME": "W6/CT-250", "TITLE": "Winters Ridge", "REGION": "Transverse Ranges", "ASSOCIATION": "USA - CA", "POINTS": "6", "BONUSPOINTS": "0"}}, {"type": "Feature", "geometry": {"type": "Point", "coordinates": [-118.431, 35.0023]}, "properties": {"NAME": "W6/CT-251", "TITLE": "6362", "REGION": "Transverse Ranges", "ASSOCIATION": "USA - CA", "POINTS": "6", "BONUSPOINTS": "0"}}, {"type": "Feature", "geometry": {"type": "Point", "coordinates": [-118.7032, 34.9298]}, "properties": {"NAME": "W6/CT-252", "TITLE": "5475", "REGION": "Transverse Ranges", "ASSOCIATION": "USA - CA", "POINTS": "4", "BONUSPOINTS": "0"}}, {"type": "Feature", "geometry": {"type": "Point", "coordinates": [-116.8103, 33.6067]}, "properties": {"NAME": "W6/CT-253", "TITLE": "Little Cahuilla Mountain", "REGION": "Transverse Ranges", "ASSOCIATION": "USA - CA", "POINTS": "4", "BONUSPOINTS": "0"}}, {"type": "Feature", "geometry": {"type": "Point", "coordinates": [-118.199, 34.3144]}, "properties": {"NAME": "W6/CT-254", "TITLE": "Fox Benchmark", "REGION": "Transverse Ranges", "ASSOCIATION": "USA - CA", "POINTS": "4", "BONUSPOINTS": "0"}}, {"type": "Feature", "geometry": {"type": "Point", "coordinates": [-118.3297, 34.3864]}, "properties": {"NAME": "W6/CT-255", "TITLE": "Magic Mountain", "REGION": "Transverse Ranges", "ASSOCIATION": "USA - CA", "POINTS": "4", "BONUSPOINTS": "0"}}, {"type": "Feature", "geometry": {"type": "Point", "coordinates": [-116.4347, 33.5884]}, "properties": {"NAME": "W6/CT-256", "TITLE": "Sugarloaf Mountain", "REGION": "Transverse Ranges", "ASSOCIATION": "USA - CA", "POINTS": "4", "BONUSPOINTS": "0"}}, {"type": "Feature", "geometry": {"type": "Point", "coordinates": [-116.4769, 33.4532]}, "properties": {"NAME": "W6/CT-257", "TITLE": "4673", "REGION": "Transverse Ranges", "ASSOCIATION": "USA - CA", "POINTS": "4", "BONUSPOINTS": "0"}}, {"type": "Feature", "geometry": {"type": "Point", "coordinates": [-118.845, 34.8701]}, "properties": {"NAME": "W6/CT-258", "TITLE": "4580", "REGION": "Transverse Ranges", "ASSOCIATION": "USA - CA", "POINTS": "4", "BONUSPOINTS": "0"}}, {"type": "Feature", "geometry": {"type": "Point", "coordinates": [-118.7279, 34.7442]}, "properties": {"NAME": "W6/CT-259", "TITLE": "Bald Mountain", "REGION": "Transverse Ranges", "ASSOCIATION": "USA - CA", "POINTS": "4", "BONUSPOINTS": "0"}}, {"type": "Feature", "geometry": {"type": "Point", "coordinates": [-118.4642, 34.6424]}, "properties": {"NAME": "W6/CT-260", "TITLE": "4501", "REGION": "Transverse Ranges", "ASSOCIATION": "USA - CA", "POINTS": "4", "BONUSPOINTS": "0"}}, {"type": "Feature", "geometry": {"type": "Point", "coordinates": [-116.4757, 34.027]}, "properties": {"NAME": "W6/CT-261", "TITLE": "4331", "REGION": "Transverse Ranges", "ASSOCIATION": "USA - CA", "POINTS": "4", "BONUSPOINTS": "0"}}, {"type": "Feature", "geometry": {"type": "Point", "coordinates": [-118.1245, 34.4446]}, "properties": {"NAME": "W6/CT-262", "TITLE": "4300", "REGION": "Transverse Ranges", "ASSOCIATION": "USA - CA", "POINTS": "4", "BONUSPOINTS": "0"}}, {"type": "Feature", "geometry": {"type": "Point", "coordinates": [-118.7339, 34.5931]}, "properties": {"NAME": "W6/CT-263", "TITLE": "4020", "REGION": "Transverse Ranges", "ASSOCIATION": "USA - CA", "POINTS": "4", "BONUSPOINTS": "0"}}, {"type": "Feature", "geometry": {"type": "Point", "coordinates": [-116.9911, 33.9961]}, "properties": {"NAME": "W6/CT-264", "TITLE": "3980", "REGION": "Transverse Ranges", "ASSOCIATION": "USA - CA", "POINTS": "2", "BONUSPOINTS": "0"}}, {"type": "Feature", "geometry": {"type": "Point", "coordinates": [-118.1625, 34.4371]}, "properties": {"NAME": "W6/CT-265", "TITLE": "3819", "REGION": "Transverse Ranges", "ASSOCIATION": "USA - CA", "POINTS": "2", "BONUSPOINTS": "0"}}, {"type": "Feature", "geometry": {"type": "Point", "coordinates": [-117.9506, 34.1845]}, "properties": {"NAME": "W6/CT-266", "TITLE": "Mount Bliss", "REGION": "Transverse Ranges", "ASSOCIATION": "USA - CA", "POINTS": "2", "BONUSPOINTS": "0"}}, {"type": "Feature", "geometry": {"type": "Point", "coordinates": [-116.4117, 33.6272]}, "properties": {"NAME": "W6/CT-267", "TITLE": "Black Hill", "REGION": "Transverse Ranges", "ASSOCIATION": "USA - CA", "POINTS": "2", "BONUSPOINTS": "0"}}, {"type": "Feature", "geometry": {"type": "Point", "coordinates": [-117.38, 33.6134]}, "properties": {"NAME": "W6/CT-268", "TITLE": "Elsinore Mountains (HP)", "REGION": "Transverse Ranges", "ASSOCIATION": "USA - CA", "POINTS": "2", "BONUSPOINTS": "0"}}, {"type": "Feature", "geometry": {"type": "Point", "coordinates": [-118.2799, 34.2152]}, "properties": {"NAME": "W6/CT-269", "TITLE": "Verdugo Mountains (HP)", "REGION": "Transverse Ranges", "ASSOCIATION": "USA - CA", "POINTS": "2", "BONUSPOINTS": "0"}}, {"type": "Feature", "geometry": {"type": "Point", "coordinates": [-118.1803, 34.8836]}, "properties": {"NAME": "W6/CT-270", "TITLE": "3110", "REGION": "Transverse Ranges", "ASSOCIATION": "USA - CA", "POINTS": "2", "BONUSPOINTS": "0"}}, {"type": "Feature", "geometry": {"type": "Point", "coordinates": [-118.3977, 34.4946]}, "properties": {"NAME": "W6/CT-271", "TITLE": "Burn Benchmark", "REGION": "Transverse Ranges", "ASSOCIATION": "USA - CA", "POINTS": "2", "BONUSPOINTS": "0"}}, {"type": "Feature", "geometry": {"type": "Point", "coordinates": [-117.8968, 34.1798]}, "properties": {"NAME": "W6/CT-272", "TITLE": "2843", "REGION": "Transverse Ranges", "ASSOCIATION": "USA - CA", "POINTS": "2", "BONUSPOINTS": "0"}}, {"type": "Feature", "geometry": {"type": "Point", "coordinates": [-118.3426, 34.4448]}, "properties": {"NAME": "W6/CT-273", "TITLE": "Agua Dulce Benchmark", "REGION": "Transverse Ranges", "ASSOCIATION": "USA - CA", "POINTS": "2", "BONUSPOINTS": "0"}}, {"type": "Feature", "geometry": {"type": "Point", "coordinates": [-118.6552, 34.0783]}, "properties": {"NAME": "W6/CT-274", "TITLE": "Saddle Peak", "REGION": "Transverse Ranges", "ASSOCIATION": "USA - CA", "POINTS": "2", "BONUSPOINTS": "0"}}, {"type": "Feature", "geometry": {"type": "Point", "coordinates": [-117.3773, 33.7734]}, "properties": {"NAME": "W6/CT-275", "TITLE": "2729", "REGION": "Transverse Ranges", "ASSOCIATION": "USA - CA", "POINTS": "2", "BONUSPOINTS": "0"}}, {"type": "Feature", "geometry": {"type": "Point", "coordinates": [-117.0254, 33.659]}, "properties": {"NAME": "W6/CT-276", "TITLE": "2672", "REGION": "Transverse Ranges", "ASSOCIATION": "USA - CA", "POINTS": "2", "BONUSPOINTS": "0"}}, {"type": "Feature", "geometry": {"type": "Point", "coordinates": [-117.0548, 33.8]}, "properties": {"NAME": "W6/CT-277", "TITLE": "2651", "REGION": "Transverse Ranges", "ASSOCIATION": "USA - CA", "POINTS": "2", "BONUSPOINTS": "0"}}, {"type": "Feature", "geometry": {"type": "Point", "coordinates": [-118.7062, 34.4535]}, "properties": {"NAME": "W6/CT-278", "TITLE": "2361", "REGION": "Transverse Ranges", "ASSOCIATION": "USA - CA", "POINTS": "1", "BONUSPOINTS": "0"}}, {"type": "Feature", "geometry": {"type": "Point", "coordinates": [-117.0369, 33.6903]}, "properties": {"NAME": "W6/CT-279", "TITLE": "2275", "REGION": "Transverse Ranges", "ASSOCIATION": "USA - CA", "POINTS": "1", "BONUSPOINTS": "0"}}, {"type": "Feature", "geometry": {"type": "Point", "coordinates": [-117.2409, 33.6709]}, "properties": {"NAME": "W6/CT-280", "TITLE": "2001", "REGION": "Transverse Ranges", "ASSOCIATION": "USA - CA", "POINTS": "1", "BONUSPOINTS": "0"}}, {"type": "Feature", "geometry": {"type": "Point", "coordinates": [-118.4797, 33.4176]}, "properties": {"NAME": "W6/CT-281", "TITLE": "1236", "REGION": "Transverse Ranges", "ASSOCIATION": "USA - CA", "POINTS": "1", "BONUSPOINTS": "0"}}]}