{"type": "FeatureCollection", "name": "W6/CN SUMMITS", "features": [{"type": "Feature", "geometry": {"type": "Point", "coordinates": [-122.1949, 41.409]}, "properties": {"NAME": "W6/CN-001", "TITLE": "Mount Shasta", "REGION": "Northern Ranges", "ASSOCIATION": "USA - CA", "POINTS": "10", "BONUSPOINTS": "3"}}, {"type": "Feature", "geometry": {"type": "Point", "coordinates": [-121.5048, 40.4882]}, "properties": {"NAME": "W6/CN-002", "TITLE": "Lassen Peak", "REGION": "Northern Ranges", "ASSOCIATION": "USA - CA", "POINTS": "8", "BONUSPOINTS": "3"}}, {"type": "Feature", "geometry": {"type": "Point", "coordinates": [-121.5595, 40.4456]}, "properties": {"NAME": "W6/CN-003", "TITLE": "Brokeoff Mountain", "REGION": "Northern Ranges", "ASSOCIATION": "USA - CA", "POINTS": "8", "BONUSPOINTS": "3"}}, {"type": "Feature", "geometry": {"type": "Point", "coordinates": [-121.6189, 40.698]}, "properties": {"NAME": "W6/CN-004", "TITLE": "Crater Peak", "REGION": "Northern Ranges", "ASSOCIATION": "USA - CA", "POINTS": "8", "BONUSPOINTS": "3"}}, {"type": "Feature", "geometry": {"type": "Point", "coordinates": [-120.6274, 39.9941]}, "properties": {"NAME": "W6/CN-005", "TITLE": "Mount Ingalls", "REGION": "Northern Ranges", "ASSOCIATION": "USA - CA", "POINTS": "8", "BONUSPOINTS": "3"}}, {"type": "Feature", "geometry": {"type": "Point", "coordinates": [-120.2852, 39.9388]}, "properties": {"NAME": "W6/CN-006", "TITLE": "Dixie Mountain", "REGION": "Northern Ranges", "ASSOCIATION": "USA - CA", "POINTS": "8", "BONUSPOINTS": "3"}}, {"type": "Feature", "geometry": {"type": "Point", "coordinates": [-121.3014, 40.431]}, "properties": {"NAME": "W6/CN-007", "TITLE": "Mount Harkness", "REGION": "Northern Ranges", "ASSOCIATION": "USA - CA", "POINTS": "8", "BONUSPOINTS": "3"}}, {"type": "Feature", "geometry": {"type": "Point", "coordinates": [-120.5985, 40.6878]}, "properties": {"NAME": "W6/CN-008", "TITLE": "Fredonyer Peak", "REGION": "Northern Ranges", "ASSOCIATION": "USA - CA", "POINTS": "8", "BONUSPOINTS": "3"}}, {"type": "Feature", "geometry": {"type": "Point", "coordinates": [-121.6278, 40.8066]}, "properties": {"NAME": "W6/CN-009", "TITLE": "Burney Mountain", "REGION": "Northern Ranges", "ASSOCIATION": "USA - CA", "POINTS": "8", "BONUSPOINTS": "3"}}, {"type": "Feature", "geometry": {"type": "Point", "coordinates": [-121.0353, 40.7408]}, "properties": {"NAME": "W6/CN-010", "TITLE": "Harvey Mountain", "REGION": "Northern Ranges", "ASSOCIATION": "USA - CA", "POINTS": "6", "BONUSPOINTS": "3"}}, {"type": "Feature", "geometry": {"type": "Point", "coordinates": [-120.8859, 40.0443]}, "properties": {"NAME": "W6/CN-011", "TITLE": "Mount Hough", "REGION": "Northern Ranges", "ASSOCIATION": "USA - CA", "POINTS": "6", "BONUSPOINTS": "3"}}, {"type": "Feature", "geometry": {"type": "Point", "coordinates": [-121.2358, 39.9379]}, "properties": {"NAME": "W6/CN-012", "TITLE": "Bald Eagle Mountain", "REGION": "Northern Ranges", "ASSOCIATION": "USA - CA", "POINTS": "6", "BONUSPOINTS": "3"}}, {"type": "Feature", "geometry": {"type": "Point", "coordinates": [-120.9525, 40.4068]}, "properties": {"NAME": "W6/CN-013", "TITLE": "Pegleg Mountain", "REGION": "Northern Ranges", "ASSOCIATION": "USA - CA", "POINTS": "6", "BONUSPOINTS": "3"}}, {"type": "Feature", "geometry": {"type": "Point", "coordinates": [-121.1073, 40.4214]}, "properties": {"NAME": "W6/CN-014", "TITLE": "Swain Mountain", "REGION": "Northern Ranges", "ASSOCIATION": "USA - CA", "POINTS": "6", "BONUSPOINTS": "3"}}, {"type": "Feature", "geometry": {"type": "Point", "coordinates": [-121.882, 41.5144]}, "properties": {"NAME": "W6/CN-015", "TITLE": "Stephens Butte", "REGION": "Northern Ranges", "ASSOCIATION": "USA - CA", "POINTS": "6", "BONUSPOINTS": "3"}}, {"type": "Feature", "geometry": {"type": "Point", "coordinates": [-120.3579, 40.4465]}, "properties": {"NAME": "W6/CN-016", "TITLE": "Shaffer Mountain", "REGION": "Northern Ranges", "ASSOCIATION": "USA - CA", "POINTS": "6", "BONUSPOINTS": "3"}}, {"type": "Feature", "geometry": {"type": "Point", "coordinates": [-120.8949, 40.185]}, "properties": {"NAME": "W6/CN-017", "TITLE": "Keddie Ridge", "REGION": "Northern Ranges", "ASSOCIATION": "USA - CA", "POINTS": "6", "BONUSPOINTS": "3"}}, {"type": "Feature", "geometry": {"type": "Point", "coordinates": [-121.4966, 40.6937]}, "properties": {"NAME": "W6/CN-018", "TITLE": "Wilcox Peak", "REGION": "Northern Ranges", "ASSOCIATION": "USA - CA", "POINTS": "6", "BONUSPOINTS": "0"}}, {"type": "Feature", "geometry": {"type": "Point", "coordinates": [-121.1177, 40.0663]}, "properties": {"NAME": "W6/CN-019", "TITLE": "Rush Creek Hill", "REGION": "Northern Ranges", "ASSOCIATION": "USA - CA", "POINTS": "6", "BONUSPOINTS": "0"}}, {"type": "Feature", "geometry": {"type": "Point", "coordinates": [-121.9748, 41.6675]}, "properties": {"NAME": "W6/CN-020", "TITLE": "Orr Mountain", "REGION": "Northern Ranges", "ASSOCIATION": "USA - CA", "POINTS": "6", "BONUSPOINTS": "0"}}, {"type": "Feature", "geometry": {"type": "Point", "coordinates": [-121.8336, 40.906]}, "properties": {"NAME": "W6/CN-021", "TITLE": "Hatchet Mountain", "REGION": "Northern Ranges", "ASSOCIATION": "USA - CA", "POINTS": "6", "BONUSPOINTS": "0"}}, {"type": "Feature", "geometry": {"type": "Point", "coordinates": [-121.5629, 41.0743]}, "properties": {"NAME": "W6/CN-022", "TITLE": "Soldier Mountain", "REGION": "Northern Ranges", "ASSOCIATION": "USA - CA", "POINTS": "6", "BONUSPOINTS": "0"}}, {"type": "Feature", "geometry": {"type": "Point", "coordinates": [-122.2637, 40.8988]}, "properties": {"NAME": "W6/CN-023", "TITLE": "Hirz Mountain", "REGION": "Northern Ranges", "ASSOCIATION": "USA - CA", "POINTS": "2", "BONUSPOINTS": "0"}}, {"type": "Feature", "geometry": {"type": "Point", "coordinates": [-121.4634, 39.6532]}, "properties": {"NAME": "W6/CN-024", "TITLE": "Bloomer Hill", "REGION": "Northern Ranges", "ASSOCIATION": "USA - CA", "POINTS": "2", "BONUSPOINTS": "0"}}, {"type": "Feature", "geometry": {"type": "Point", "coordinates": [-121.4268, 39.7028]}, "properties": {"NAME": "W6/CN-025", "TITLE": "Big Bend Mountain", "REGION": "Northern Ranges", "ASSOCIATION": "USA - CA", "POINTS": "2", "BONUSPOINTS": "0"}}, {"type": "Feature", "geometry": {"type": "Point", "coordinates": [-122.3394, 40.8034]}, "properties": {"NAME": "W6/CN-026", "TITLE": "O'Brien Mountain", "REGION": "Northern Ranges", "ASSOCIATION": "USA - CA", "POINTS": "2", "BONUSPOINTS": "0"}}, {"type": "Feature", "geometry": {"type": "Point", "coordinates": [-122.3761, 40.871]}, "properties": {"NAME": "W6/CN-027", "TITLE": "Haycock Peak", "REGION": "Northern Ranges", "ASSOCIATION": "USA - CA", "POINTS": "1", "BONUSPOINTS": "0"}}, {"type": "Feature", "geometry": {"type": "Point", "coordinates": [-121.829, 40.9062]}, "properties": {"NAME": "W6/CN-028", "TITLE": "Hatchet Mountain", "REGION": "Northern Ranges", "ASSOCIATION": "USA - CA", "POINTS": "6", "BONUSPOINTS": "0"}}]}