{"type": "FeatureCollection", "name": "W6/CD SUMMITS", "features": [{"type": "Feature", "geometry": {"type": "Point", "coordinates": [-118.2557, 37.6341]}, "properties": {"NAME": "W6/CD-001", "TITLE": "White Mountain Peak", "REGION": "Desert Ranges", "ASSOCIATION": "USA - CA", "POINTS": "10", "BONUSPOINTS": "3"}}, {"type": "Feature", "geometry": {"type": "Point", "coordinates": [-118.0078, 37.0218]}, "properties": {"NAME": "W6/CD-002", "TITLE": "Waucoba Mountain", "REGION": "Desert Ranges", "ASSOCIATION": "USA - CA", "POINTS": "10", "BONUSPOINTS": "3"}}, {"type": "Feature", "geometry": {"type": "Point", "coordinates": [-117.0892, 36.17]}, "properties": {"NAME": "W6/CD-003", "TITLE": "Telescope Peak", "REGION": "Desert Ranges", "ASSOCIATION": "USA - CA", "POINTS": "10", "BONUSPOINTS": "3"}}, {"type": "Feature", "geometry": {"type": "Point", "coordinates": [-118.0173, 37.0527]}, "properties": {"NAME": "W6/CD-004", "TITLE": "WÃ¼nÃ¼pÃ¼ Peak", "REGION": "Desert Ranges", "ASSOCIATION": "USA - CA", "POINTS": "8", "BONUSPOINTS": "3"}}, {"type": "Feature", "geometry": {"type": "Point", "coordinates": [-118.1216, 36.9773]}, "properties": {"NAME": "W6/CD-005", "TITLE": "Mazourka Peak", "REGION": "Desert Ranges", "ASSOCIATION": "USA - CA", "POINTS": "8", "BONUSPOINTS": "3"}}, {"type": "Feature", "geometry": {"type": "Point", "coordinates": [-115.5887, 35.5256]}, "properties": {"NAME": "W6/CD-006", "TITLE": "Clark Mountain", "REGION": "Desert Ranges", "ASSOCIATION": "USA - CA", "POINTS": "8", "BONUSPOINTS": "3"}}, {"type": "Feature", "geometry": {"type": "Point", "coordinates": [-117.741, 36.4389]}, "properties": {"NAME": "W6/CD-007", "TITLE": "Malpais Mesa", "REGION": "Desert Ranges", "ASSOCIATION": "USA - CA", "POINTS": "8", "BONUSPOINTS": "3"}}, {"type": "Feature", "geometry": {"type": "Point", "coordinates": [-115.5362, 34.9556]}, "properties": {"NAME": "W6/CD-008", "TITLE": "Edgar Peak", "REGION": "Desert Ranges", "ASSOCIATION": "USA - CA", "POINTS": "6", "BONUSPOINTS": "3"}}, {"type": "Feature", "geometry": {"type": "Point", "coordinates": [-117.6196, 36.0466]}, "properties": {"NAME": "W6/CD-009", "TITLE": "Louisiana Butte", "REGION": "Desert Ranges", "ASSOCIATION": "USA - CA", "POINTS": "6", "BONUSPOINTS": "3"}}, {"type": "Feature", "geometry": {"type": "Point", "coordinates": [-116.5799, 33.3152]}, "properties": {"NAME": "W6/CD-010", "TITLE": "Hot Springs Mountain", "REGION": "Desert Ranges", "ASSOCIATION": "USA - CA", "POINTS": "6", "BONUSPOINTS": "3"}}, {"type": "Feature", "geometry": {"type": "Point", "coordinates": [-116.4986, 33.2539]}, "properties": {"NAME": "W6/CD-011", "TITLE": "San Ysidro Mountain", "REGION": "Desert Ranges", "ASSOCIATION": "USA - CA", "POINTS": "6", "BONUSPOINTS": "3"}}, {"type": "Feature", "geometry": {"type": "Point", "coordinates": [-116.2415, 34.0073]}, "properties": {"NAME": "W6/CD-012", "TITLE": "Quail Mountain", "REGION": "Desert Ranges", "ASSOCIATION": "USA - CA", "POINTS": "6", "BONUSPOINTS": "3"}}, {"type": "Feature", "geometry": {"type": "Point", "coordinates": [-115.5638, 35.3001]}, "properties": {"NAME": "W6/CD-013", "TITLE": "Teutonia Peak", "REGION": "Desert Ranges", "ASSOCIATION": "USA - CA", "POINTS": "6", "BONUSPOINTS": "3"}}, {"type": "Feature", "geometry": {"type": "Point", "coordinates": [-117.586, 36.6908]}, "properties": {"NAME": "W6/CD-014", "TITLE": "Ubehebe Peak", "REGION": "Desert Ranges", "ASSOCIATION": "USA - CA", "POINTS": "6", "BONUSPOINTS": "3"}}, {"type": "Feature", "geometry": {"type": "Point", "coordinates": [-115.4528, 35.0467]}, "properties": {"NAME": "W6/CD-015", "TITLE": "Wild Horse Mesa", "REGION": "Desert Ranges", "ASSOCIATION": "USA - CA", "POINTS": "6", "BONUSPOINTS": "3"}}, {"type": "Feature", "geometry": {"type": "Point", "coordinates": [-116.1346, 33.9863]}, "properties": {"NAME": "W6/CD-016", "TITLE": "Ryan Mountain", "REGION": "Desert Ranges", "ASSOCIATION": "USA - CA", "POINTS": "4", "BONUSPOINTS": "3"}}, {"type": "Feature", "geometry": {"type": "Point", "coordinates": [-116.8385, 34.9956]}, "properties": {"NAME": "W6/CD-017", "TITLE": "Calico Peak", "REGION": "Desert Ranges", "ASSOCIATION": "USA - CA", "POINTS": "4", "BONUSPOINTS": "3"}}, {"type": "Feature", "geometry": {"type": "Point", "coordinates": [-116.4668, 33.1205]}, "properties": {"NAME": "W6/CD-018", "TITLE": "Grapevine Mountain", "REGION": "Desert Ranges", "ASSOCIATION": "USA - CA", "POINTS": "2", "BONUSPOINTS": "3"}}, {"type": "Feature", "geometry": {"type": "Point", "coordinates": [-115.7181, 34.9035]}, "properties": {"NAME": "W6/CD-019", "TITLE": "Kelso Dunes (HP)", "REGION": "Desert Ranges", "ASSOCIATION": "USA - CA", "POINTS": "2", "BONUSPOINTS": "3"}}, {"type": "Feature", "geometry": {"type": "Point", "coordinates": [-115.825, 32.9545]}, "properties": {"NAME": "W6/CD-020", "TITLE": "Superstition Mtn", "REGION": "Desert Ranges", "ASSOCIATION": "USA - CA", "POINTS": "1", "BONUSPOINTS": "3"}}, {"type": "Feature", "geometry": {"type": "Point", "coordinates": [-115.839, 32.9581]}, "properties": {"NAME": "W6/CD-021", "TITLE": "Superstition Mountain", "REGION": "Desert Ranges", "ASSOCIATION": "USA - CA", "POINTS": "1", "BONUSPOINTS": "3"}}]}