{"type": "FeatureCollection", "name": "W6/WH SUMMITS", "features": [{"type": "Feature", "geometry": {"type": "Point", "coordinates": [-118.3433, 37.7832]}, "properties": {"NAME": "W6/WH-001", "TITLE": "Mount Dubois", "REGION": "White Mountains", "ASSOCIATION": "USA - CA", "POINTS": "10", "BONUSPOINTS": "3"}}, {"type": "Feature", "geometry": {"type": "Point", "coordinates": [-118.3568, 37.8383]}, "properties": {"NAME": "W6/WH-002", "TITLE": "Montgomery Peak", "REGION": "White Mountains", "ASSOCIATION": "USA - CA", "POINTS": "10", "BONUSPOINTS": "3"}}, {"type": "Feature", "geometry": {"type": "Point", "coordinates": [-118.2326, 37.5374]}, "properties": {"NAME": "W6/WH-003", "TITLE": "Piute Mountain", "REGION": "White Mountains", "ASSOCIATION": "USA - CA", "POINTS": "10", "BONUSPOINTS": "3"}}, {"type": "Feature", "geometry": {"type": "Point", "coordinates": [-118.2013, 37.4988]}, "properties": {"NAME": "W6/WH-004", "TITLE": "Campito Mountain", "REGION": "White Mountains", "ASSOCIATION": "USA - CA", "POINTS": "10", "BONUSPOINTS": "3"}}, {"type": "Feature", "geometry": {"type": "Point", "coordinates": [-118.1631, 37.4657]}, "properties": {"NAME": "W6/WH-005", "TITLE": "Blanco Mountain", "REGION": "White Mountains", "ASSOCIATION": "USA - CA", "POINTS": "10", "BONUSPOINTS": "3"}}, {"type": "Feature", "geometry": {"type": "Point", "coordinates": [-118.1846, 37.4724]}, "properties": {"NAME": "W6/WH-006", "TITLE": "County Line Hill", "REGION": "White Mountains", "ASSOCIATION": "USA - CA", "POINTS": "10", "BONUSPOINTS": "3"}}, {"type": "Feature", "geometry": {"type": "Point", "coordinates": [-118.1732, 37.3952]}, "properties": {"NAME": "W6/WH-007", "TITLE": "Clem Nelson Peak", "REGION": "White Mountains", "ASSOCIATION": "USA - CA", "POINTS": "10", "BONUSPOINTS": "3"}}, {"type": "Feature", "geometry": {"type": "Point", "coordinates": [-118.1964, 37.439]}, "properties": {"NAME": "W6/WH-008", "TITLE": "10940", "REGION": "White Mountains", "ASSOCIATION": "USA - CA", "POINTS": "8", "BONUSPOINTS": "3"}}, {"type": "Feature", "geometry": {"type": "Point", "coordinates": [-118.1778, 37.3782]}, "properties": {"NAME": "W6/WH-009", "TITLE": "10660", "REGION": "White Mountains", "ASSOCIATION": "USA - CA", "POINTS": "8", "BONUSPOINTS": "3"}}, {"type": "Feature", "geometry": {"type": "Point", "coordinates": [-118.1078, 37.5131]}, "properties": {"NAME": "W6/WH-010", "TITLE": "Station Peak", "REGION": "White Mountains", "ASSOCIATION": "USA - CA", "POINTS": "8", "BONUSPOINTS": "3"}}, {"type": "Feature", "geometry": {"type": "Point", "coordinates": [-118.221, 37.4395]}, "properties": {"NAME": "W6/WH-011", "TITLE": "10140", "REGION": "White Mountains", "ASSOCIATION": "USA - CA", "POINTS": "8", "BONUSPOINTS": "3"}}, {"type": "Feature", "geometry": {"type": "Point", "coordinates": [-118.2253, 37.2669]}, "properties": {"NAME": "W6/WH-012", "TITLE": "Black Mountain", "REGION": "White Mountains", "ASSOCIATION": "USA - CA", "POINTS": "8", "BONUSPOINTS": "3"}}, {"type": "Feature", "geometry": {"type": "Point", "coordinates": [-118.235, 37.3406]}, "properties": {"NAME": "W6/WH-013", "TITLE": "8860", "REGION": "White Mountains", "ASSOCIATION": "USA - CA", "POINTS": "8", "BONUSPOINTS": "3"}}, {"type": "Feature", "geometry": {"type": "Point", "coordinates": [-118.2544, 37.3917]}, "properties": {"NAME": "W6/WH-014", "TITLE": "Dan Benchmark", "REGION": "White Mountains", "ASSOCIATION": "USA - CA", "POINTS": "8", "BONUSPOINTS": "3"}}]}