{"type": "FeatureCollection", "name": "W6/CC SUMMITS", "features": [{"type": "Feature", "geometry": {"type": "Point", "coordinates": [-122.4792, 41.3197]}, "properties": {"NAME": "W6/CC-001", "TITLE": "Mount Eddy", "REGION": "Coastal Ranges", "ASSOCIATION": "USA - CA", "POINTS": "8", "BONUSPOINTS": "0"}}, {"type": "Feature", "geometry": {"type": "Point", "coordinates": [-119.1455, 34.8128]}, "properties": {"NAME": "W6/CC-002", "TITLE": "Mount Pinos", "REGION": "Coastal Ranges", "ASSOCIATION": "USA - CA", "POINTS": "8", "BONUSPOINTS": "0"}}, {"type": "Feature", "geometry": {"type": "Point", "coordinates": [-118.9692, 34.7749]}, "properties": {"NAME": "W6/CC-003", "TITLE": "Frazier Mountain", "REGION": "Coastal Ranges", "ASSOCIATION": "USA - CA", "POINTS": "8", "BONUSPOINTS": "0"}}, {"type": "Feature", "geometry": {"type": "Point", "coordinates": [-122.9737, 40.1961]}, "properties": {"NAME": "W6/CC-004", "TITLE": "North Yolla Bolly", "REGION": "Coastal Ranges", "ASSOCIATION": "USA - CA", "POINTS": "8", "BONUSPOINTS": "0"}}, {"type": "Feature", "geometry": {"type": "Point", "coordinates": [-119.2815, 34.6308]}, "properties": {"NAME": "W6/CC-005", "TITLE": "Reyes Peak", "REGION": "Coastal Ranges", "ASSOCIATION": "USA - CA", "POINTS": "8", "BONUSPOINTS": "0"}}, {"type": "Feature", "geometry": {"type": "Point", "coordinates": [-122.8725, 39.7268]}, "properties": {"NAME": "W6/CC-006", "TITLE": "Black Butte", "REGION": "Coastal Ranges", "ASSOCIATION": "USA - CA", "POINTS": "6", "BONUSPOINTS": "0"}}, {"type": "Feature", "geometry": {"type": "Point", "coordinates": [-123.2042, 41.5778]}, "properties": {"NAME": "W6/CC-007", "TITLE": "Black Marble Mountain", "REGION": "Coastal Ranges", "ASSOCIATION": "USA - CA", "POINTS": "6", "BONUSPOINTS": "0"}}, {"type": "Feature", "geometry": {"type": "Point", "coordinates": [-118.9595, 34.6667]}, "properties": {"NAME": "W6/CC-008", "TITLE": "Alamo Mountain", "REGION": "Coastal Ranges", "ASSOCIATION": "USA - CA", "POINTS": "6", "BONUSPOINTS": "0"}}, {"type": "Feature", "geometry": {"type": "Point", "coordinates": [-122.7671, 40.5552]}, "properties": {"NAME": "W6/CC-009", "TITLE": "Bully Choop Mountain", "REGION": "Coastal Ranges", "ASSOCIATION": "USA - CA", "POINTS": "6", "BONUSPOINTS": "0"}}, {"type": "Feature", "geometry": {"type": "Point", "coordinates": [-122.9645, 39.8463]}, "properties": {"NAME": "W6/CC-010", "TITLE": "Anthony Peak", "REGION": "Coastal Ranges", "ASSOCIATION": "USA - CA", "POINTS": "6", "BONUSPOINTS": "0"}}, {"type": "Feature", "geometry": {"type": "Point", "coordinates": [-122.9368, 39.5219]}, "properties": {"NAME": "W6/CC-011", "TITLE": "Hull Mountain", "REGION": "Coastal Ranges", "ASSOCIATION": "USA - CA", "POINTS": "6", "BONUSPOINTS": "0"}}, {"type": "Feature", "geometry": {"type": "Point", "coordinates": [-119.6543, 34.6973]}, "properties": {"NAME": "W6/CC-012", "TITLE": "Big Pine Mountain", "REGION": "Coastal Ranges", "ASSOCIATION": "USA - CA", "POINTS": "6", "BONUSPOINTS": "0"}}, {"type": "Feature", "geometry": {"type": "Point", "coordinates": [-122.7383, 39.9666]}, "properties": {"NAME": "W6/CC-013", "TITLE": "Ball Rock", "REGION": "Coastal Ranges", "ASSOCIATION": "USA - CA", "POINTS": "6", "BONUSPOINTS": "0"}}, {"type": "Feature", "geometry": {"type": "Point", "coordinates": [-116.6066, 32.9467]}, "properties": {"NAME": "W6/CC-014", "TITLE": "Cuyamaca Peak", "REGION": "Coastal Ranges", "ASSOCIATION": "USA - CA", "POINTS": "6", "BONUSPOINTS": "0"}}, {"type": "Feature", "geometry": {"type": "Point", "coordinates": [-123.2192, 40.6588]}, "properties": {"NAME": "W6/CC-015", "TITLE": "Hayfork Bally", "REGION": "Coastal Ranges", "ASSOCIATION": "USA - CA", "POINTS": "6", "BONUSPOINTS": "0"}}, {"type": "Feature", "geometry": {"type": "Point", "coordinates": [-122.8044, 39.5722]}, "properties": {"NAME": "W6/CC-016", "TITLE": "Kneecap", "REGION": "Coastal Ranges", "ASSOCIATION": "USA - CA", "POINTS": "6", "BONUSPOINTS": "0"}}, {"type": "Feature", "geometry": {"type": "Point", "coordinates": [-123.5411, 40.3401]}, "properties": {"NAME": "W6/CC-017", "TITLE": "Black Lassic", "REGION": "Coastal Ranges", "ASSOCIATION": "USA - CA", "POINTS": "6", "BONUSPOINTS": "0"}}, {"type": "Feature", "geometry": {"type": "Point", "coordinates": [-119.4752, 34.7541]}, "properties": {"NAME": "W6/CC-018", "TITLE": "Cuyama Peak", "REGION": "Coastal Ranges", "ASSOCIATION": "USA - CA", "POINTS": "6", "BONUSPOINTS": "0"}}, {"type": "Feature", "geometry": {"type": "Point", "coordinates": [-122.8962, 40.2477]}, "properties": {"NAME": "W6/CC-019", "TITLE": "Tedoc Mountain", "REGION": "Coastal Ranges", "ASSOCIATION": "USA - CA", "POINTS": "4", "BONUSPOINTS": "0"}}, {"type": "Feature", "geometry": {"type": "Point", "coordinates": [-121.3812, 36.1686]}, "properties": {"NAME": "W6/CC-020", "TITLE": "Pinyon Peak", "REGION": "Coastal Ranges", "ASSOCIATION": "USA - CA", "POINTS": "4", "BONUSPOINTS": "0"}}, {"type": "Feature", "geometry": {"type": "Point", "coordinates": [-120.6446, 36.3697]}, "properties": {"NAME": "W6/CC-021", "TITLE": "San Benito Mountain", "REGION": "Coastal Ranges", "ASSOCIATION": "USA - CA", "POINTS": "4", "BONUSPOINTS": "0"}}, {"type": "Feature", "geometry": {"type": "Point", "coordinates": [-120.6019, 36.3468]}, "properties": {"NAME": "W6/CC-022", "TITLE": "Santa Rita Peak", "REGION": "Coastal Ranges", "ASSOCIATION": "USA - CA", "POINTS": "4", "BONUSPOINTS": "0"}}, {"type": "Feature", "geometry": {"type": "Point", "coordinates": [-121.4963, 36.0519]}, "properties": {"NAME": "W6/CC-023", "TITLE": "Cone Peak", "REGION": "Coastal Ranges", "ASSOCIATION": "USA - CA", "POINTS": "4", "BONUSPOINTS": "0"}}, {"type": "Feature", "geometry": {"type": "Point", "coordinates": [-122.638, 41.7999]}, "properties": {"NAME": "W6/CC-024", "TITLE": "Badger Mountain", "REGION": "Coastal Ranges", "ASSOCIATION": "USA - CA", "POINTS": "4", "BONUSPOINTS": "0"}}, {"type": "Feature", "geometry": {"type": "Point", "coordinates": [-116.5744, 32.8437]}, "properties": {"NAME": "W6/CC-025", "TITLE": "Guatay Mountain", "REGION": "Coastal Ranges", "ASSOCIATION": "USA - CA", "POINTS": "4", "BONUSPOINTS": "0"}}, {"type": "Feature", "geometry": {"type": "Point", "coordinates": [-116.5911, 32.7576]}, "properties": {"NAME": "W6/CC-026", "TITLE": "Corte Madera Mountain", "REGION": "Coastal Ranges", "ASSOCIATION": "USA - CA", "POINTS": "4", "BONUSPOINTS": "0"}}, {"type": "Feature", "geometry": {"type": "Point", "coordinates": [-123.4759, 41.5841]}, "properties": {"NAME": "W6/CC-027", "TITLE": "Ukonom Mountain", "REGION": "Coastal Ranges", "ASSOCIATION": "USA - CA", "POINTS": "4", "BONUSPOINTS": "0"}}, {"type": "Feature", "geometry": {"type": "Point", "coordinates": [-119.985, 34.7434]}, "properties": {"NAME": "W6/CC-028", "TITLE": "Figueroa Mountain", "REGION": "Coastal Ranges", "ASSOCIATION": "USA - CA", "POINTS": "4", "BONUSPOINTS": "0"}}, {"type": "Feature", "geometry": {"type": "Point", "coordinates": [-120.8094, 36.3391]}, "properties": {"NAME": "W6/CC-029", "TITLE": "Laguna Mountain", "REGION": "Coastal Ranges", "ASSOCIATION": "USA - CA", "POINTS": "4", "BONUSPOINTS": "0"}}, {"type": "Feature", "geometry": {"type": "Point", "coordinates": [-119.2422, 34.4984]}, "properties": {"NAME": "W6/CC-030", "TITLE": "Nordhoff Peak", "REGION": "Coastal Ranges", "ASSOCIATION": "USA - CA", "POINTS": "4", "BONUSPOINTS": "0"}}, {"type": "Feature", "geometry": {"type": "Point", "coordinates": [-123.4813, 39.8085]}, "properties": {"NAME": "W6/CC-031", "TITLE": "Iron Peak", "REGION": "Coastal Ranges", "ASSOCIATION": "USA - CA", "POINTS": "4", "BONUSPOINTS": "0"}}, {"type": "Feature", "geometry": {"type": "Point", "coordinates": [-121.4924, 36.405]}, "properties": {"NAME": "W6/CC-032", "TITLE": "Palo Escrito Peak", "REGION": "Coastal Ranges", "ASSOCIATION": "USA - CA", "POINTS": "4", "BONUSPOINTS": "0"}}, {"type": "Feature", "geometry": {"type": "Point", "coordinates": [-122.474, 40.7847]}, "properties": {"NAME": "W6/CC-033", "TITLE": "Bohemotash Mountain", "REGION": "Coastal Ranges", "ASSOCIATION": "USA - CA", "POINTS": "4", "BONUSPOINTS": "0"}}, {"type": "Feature", "geometry": {"type": "Point", "coordinates": [-123.2, 40.4929]}, "properties": {"NAME": "W6/CC-034", "TITLE": "Plummer Peak", "REGION": "Coastal Ranges", "ASSOCIATION": "USA - CA", "POINTS": "4", "BONUSPOINTS": "0"}}, {"type": "Feature", "geometry": {"type": "Point", "coordinates": [-122.7658, 38.9746]}, "properties": {"NAME": "W6/CC-035", "TITLE": "Mount Konocti", "REGION": "Coastal Ranges", "ASSOCIATION": "USA - CA", "POINTS": "4", "BONUSPOINTS": "0"}}, {"type": "Feature", "geometry": {"type": "Point", "coordinates": [-119.9785, 34.5269]}, "properties": {"NAME": "W6/CC-036", "TITLE": "Santa Ynez Peak", "REGION": "Coastal Ranges", "ASSOCIATION": "USA - CA", "POINTS": "4", "BONUSPOINTS": "0"}}, {"type": "Feature", "geometry": {"type": "Point", "coordinates": [-121.4349, 36.3646]}, "properties": {"NAME": "W6/CC-037", "TITLE": "Ell Peak", "REGION": "Coastal Ranges", "ASSOCIATION": "USA - CA", "POINTS": "4", "BONUSPOINTS": "0"}}, {"type": "Feature", "geometry": {"type": "Point", "coordinates": [-123.5795, 39.6866]}, "properties": {"NAME": "W6/CC-038", "TITLE": "Cahto Peak", "REGION": "Coastal Ranges", "ASSOCIATION": "USA - CA", "POINTS": "4", "BONUSPOINTS": "0"}}, {"type": "Feature", "geometry": {"type": "Point", "coordinates": [-116.7261, 32.8612]}, "properties": {"NAME": "W6/CC-039", "TITLE": "Viejas Mountain", "REGION": "Coastal Ranges", "ASSOCIATION": "USA - CA", "POINTS": "4", "BONUSPOINTS": "0"}}, {"type": "Feature", "geometry": {"type": "Point", "coordinates": [-123.4698, 40.1454]}, "properties": {"NAME": "W6/CC-040", "TITLE": "Kettenpom Peak", "REGION": "Coastal Ranges", "ASSOCIATION": "USA - CA", "POINTS": "4", "BONUSPOINTS": "0"}}, {"type": "Feature", "geometry": {"type": "Point", "coordinates": [-124.1243, 40.1567]}, "properties": {"NAME": "W6/CC-041", "TITLE": "King Peak", "REGION": "Coastal Ranges", "ASSOCIATION": "USA - CA", "POINTS": "4", "BONUSPOINTS": "0"}}, {"type": "Feature", "geometry": {"type": "Point", "coordinates": [-120.5311, 36.1782]}, "properties": {"NAME": "W6/CC-042", "TITLE": "Flag Peak", "REGION": "Coastal Ranges", "ASSOCIATION": "USA - CA", "POINTS": "2", "BONUSPOINTS": "0"}}, {"type": "Feature", "geometry": {"type": "Point", "coordinates": [-123.6929, 40.12]}, "properties": {"NAME": "W6/CC-043", "TITLE": "Pratt Mountain", "REGION": "Coastal Ranges", "ASSOCIATION": "USA - CA", "POINTS": "2", "BONUSPOINTS": "0"}}, {"type": "Feature", "geometry": {"type": "Point", "coordinates": [-116.6889, 32.5795]}, "properties": {"NAME": "W6/CC-044", "TITLE": "Tecate Peak", "REGION": "Coastal Ranges", "ASSOCIATION": "USA - CA", "POINTS": "2", "BONUSPOINTS": "0"}}, {"type": "Feature", "geometry": {"type": "Point", "coordinates": [-121.9142, 37.8817]}, "properties": {"NAME": "W6/CC-045", "TITLE": "Mount Diablo", "REGION": "Coastal Ranges", "ASSOCIATION": "USA - CA", "POINTS": "2", "BONUSPOINTS": "0"}}, {"type": "Feature", "geometry": {"type": "Point", "coordinates": [-121.8441, 37.111]}, "properties": {"NAME": "W6/CC-046", "TITLE": "Loma Prieta", "REGION": "Coastal Ranges", "ASSOCIATION": "USA - CA", "POINTS": "2", "BONUSPOINTS": "0"}}, {"type": "Feature", "geometry": {"type": "Point", "coordinates": [-122.6822, 38.8152]}, "properties": {"NAME": "W6/CC-047", "TITLE": "Boggs Mountain", "REGION": "Coastal Ranges", "ASSOCIATION": "USA - CA", "POINTS": "2", "BONUSPOINTS": "0"}}, {"type": "Feature", "geometry": {"type": "Point", "coordinates": [-122.867, 40.4]}, "properties": {"NAME": "W6/CC-048", "TITLE": "Arbuckle Mountain", "REGION": "Coastal Ranges", "ASSOCIATION": "USA - CA", "POINTS": "2", "BONUSPOINTS": "0"}}, {"type": "Feature", "geometry": {"type": "Point", "coordinates": [-122.4891, 39.0977]}, "properties": {"NAME": "W6/CC-049", "TITLE": "Cold Spring Mountain", "REGION": "Coastal Ranges", "ASSOCIATION": "USA - CA", "POINTS": "2", "BONUSPOINTS": "0"}}, {"type": "Feature", "geometry": {"type": "Point", "coordinates": [-123.6326, 41.2382]}, "properties": {"NAME": "W6/CC-050", "TITLE": "Shelton Butte", "REGION": "Coastal Ranges", "ASSOCIATION": "USA - CA", "POINTS": "2", "BONUSPOINTS": "0"}}, {"type": "Feature", "geometry": {"type": "Point", "coordinates": [-121.9003, 37.893]}, "properties": {"NAME": "W6/CC-051", "TITLE": "North Peak", "REGION": "Coastal Ranges", "ASSOCIATION": "USA - CA", "POINTS": "2", "BONUSPOINTS": "0"}}, {"type": "Feature", "geometry": {"type": "Point", "coordinates": [-121.8986, 37.1605]}, "properties": {"NAME": "W6/CC-052", "TITLE": "Mount Umunhum", "REGION": "Coastal Ranges", "ASSOCIATION": "USA - CA", "POINTS": "2", "BONUSPOINTS": "0"}}, {"type": "Feature", "geometry": {"type": "Point", "coordinates": [-121.2117, 36.9572]}, "properties": {"NAME": "W6/CC-053", "TITLE": "Mariposa Peak", "REGION": "Coastal Ranges", "ASSOCIATION": "USA - CA", "POINTS": "2", "BONUSPOINTS": "0"}}, {"type": "Feature", "geometry": {"type": "Point", "coordinates": [-124.1205, 40.4172]}, "properties": {"NAME": "W6/CC-054", "TITLE": "Mount Pierce", "REGION": "Coastal Ranges", "ASSOCIATION": "USA - CA", "POINTS": "2", "BONUSPOINTS": "0"}}, {"type": "Feature", "geometry": {"type": "Point", "coordinates": [-121.504, 36.7573]}, "properties": {"NAME": "W6/CC-055", "TITLE": "Fremont Peak", "REGION": "Coastal Ranges", "ASSOCIATION": "USA - CA", "POINTS": "2", "BONUSPOINTS": "0"}}, {"type": "Feature", "geometry": {"type": "Point", "coordinates": [-118.932, 34.1204]}, "properties": {"NAME": "W6/CC-056", "TITLE": "Sandstone Peak", "REGION": "Coastal Ranges", "ASSOCIATION": "USA - CA", "POINTS": "2", "BONUSPOINTS": "0"}}, {"type": "Feature", "geometry": {"type": "Point", "coordinates": [-118.7857, 34.0857]}, "properties": {"NAME": "W6/CC-057", "TITLE": "Castro Peak", "REGION": "Coastal Ranges", "ASSOCIATION": "USA - CA", "POINTS": "2", "BONUSPOINTS": "0"}}, {"type": "Feature", "geometry": {"type": "Point", "coordinates": [-124.0287, 41.1615]}, "properties": {"NAME": "W6/CC-058", "TITLE": "Rodgers Peak", "REGION": "Coastal Ranges", "ASSOCIATION": "USA - CA", "POINTS": "2", "BONUSPOINTS": "0"}}, {"type": "Feature", "geometry": {"type": "Point", "coordinates": [-121.2877, 37.0079]}, "properties": {"NAME": "W6/CC-059", "TITLE": "Pacheco Peak", "REGION": "Coastal Ranges", "ASSOCIATION": "USA - CA", "POINTS": "2", "BONUSPOINTS": "0"}}, {"type": "Feature", "geometry": {"type": "Point", "coordinates": [-122.5094, 38.4574]}, "properties": {"NAME": "W6/CC-060", "TITLE": "Bald Mountain", "REGION": "Coastal Ranges", "ASSOCIATION": "USA - CA", "POINTS": "2", "BONUSPOINTS": "0"}}, {"type": "Feature", "geometry": {"type": "Point", "coordinates": [-121.3407, 35.8126]}, "properties": {"NAME": "W6/CC-061", "TITLE": "Mount Mars", "REGION": "Coastal Ranges", "ASSOCIATION": "USA - CA", "POINTS": "2", "BONUSPOINTS": "0"}}, {"type": "Feature", "geometry": {"type": "Point", "coordinates": [-121.8559, 37.0724]}, "properties": {"NAME": "W6/CC-062", "TITLE": "Santa Rosalia Mountain", "REGION": "Coastal Ranges", "ASSOCIATION": "USA - CA", "POINTS": "2", "BONUSPOINTS": "0"}}, {"type": "Feature", "geometry": {"type": "Point", "coordinates": [-122.597, 37.924]}, "properties": {"NAME": "W6/CC-063", "TITLE": "Mount Tamalpais", "REGION": "Coastal Ranges", "ASSOCIATION": "USA - CA", "POINTS": "2", "BONUSPOINTS": "0"}}, {"type": "Feature", "geometry": {"type": "Point", "coordinates": [-116.9363, 32.6964]}, "properties": {"NAME": "W6/CC-064", "TITLE": "San Miguel Mountain", "REGION": "Coastal Ranges", "ASSOCIATION": "USA - CA", "POINTS": "2", "BONUSPOINTS": "0"}}, {"type": "Feature", "geometry": {"type": "Point", "coordinates": [-119.4212, 34.3723]}, "properties": {"NAME": "W6/CC-065", "TITLE": "Rincon Mountain", "REGION": "Coastal Ranges", "ASSOCIATION": "USA - CA", "POINTS": "1", "BONUSPOINTS": "0"}}, {"type": "Feature", "geometry": {"type": "Point", "coordinates": [-118.4197, 33.3753]}, "properties": {"NAME": "W6/CC-066", "TITLE": "Mount Orizaba", "REGION": "Coastal Ranges", "ASSOCIATION": "USA - CA", "POINTS": "1", "BONUSPOINTS": "0"}}, {"type": "Feature", "geometry": {"type": "Point", "coordinates": [-121.8777, 37.8305]}, "properties": {"NAME": "W6/CC-067", "TITLE": "Oyster Point", "REGION": "Coastal Ranges", "ASSOCIATION": "USA - CA", "POINTS": "1", "BONUSPOINTS": "0"}}, {"type": "Feature", "geometry": {"type": "Point", "coordinates": [-118.5687, 33.4599]}, "properties": {"NAME": "W6/CC-068", "TITLE": "Silver Peak", "REGION": "Coastal Ranges", "ASSOCIATION": "USA - CA", "POINTS": "1", "BONUSPOINTS": "0"}}, {"type": "Feature", "geometry": {"type": "Point", "coordinates": [-117.4951, 33.3641]}, "properties": {"NAME": "W6/CC-069", "TITLE": "San Onofre Mountain", "REGION": "Coastal Ranges", "ASSOCIATION": "USA - CA", "POINTS": "1", "BONUSPOINTS": "0"}}, {"type": "Feature", "geometry": {"type": "Point", "coordinates": [-122.7165, 38.0277]}, "properties": {"NAME": "W6/CC-070", "TITLE": "Barnabe Mountain", "REGION": "Coastal Ranges", "ASSOCIATION": "USA - CA", "POINTS": "1", "BONUSPOINTS": "0"}}, {"type": "Feature", "geometry": {"type": "Point", "coordinates": [-122.8686, 38.0797]}, "properties": {"NAME": "W6/CC-071", "TITLE": "Point Reyes Hill", "REGION": "Coastal Ranges", "ASSOCIATION": "USA - CA", "POINTS": "1", "BONUSPOINTS": "0"}}, {"type": "Feature", "geometry": {"type": "Point", "coordinates": [-122.4357, 37.6874]}, "properties": {"NAME": "W6/CC-072", "TITLE": "San Bruno Mountain", "REGION": "Coastal Ranges", "ASSOCIATION": "USA - CA", "POINTS": "1", "BONUSPOINTS": "0"}}, {"type": "Feature", "geometry": {"type": "Point", "coordinates": [-122.3328, 39.7527]}, "properties": {"NAME": "W6/CC-073", "TITLE": "South Orland Buttes", "REGION": "Coastal Ranges", "ASSOCIATION": "USA - CA", "POINTS": "1", "BONUSPOINTS": "0"}}, {"type": "Feature", "geometry": {"type": "Point", "coordinates": [-124.0652, 41.3003]}, "properties": {"NAME": "W6/CC-074", "TITLE": "Orick Hill", "REGION": "Coastal Ranges", "ASSOCIATION": "USA - CA", "POINTS": "1", "BONUSPOINTS": "0"}}, {"type": "Feature", "geometry": {"type": "Point", "coordinates": [-122.4307, 37.8615]}, "properties": {"NAME": "W6/CC-075", "TITLE": "Mount Caroline Livermore", "REGION": "Coastal Ranges", "ASSOCIATION": "USA - CA", "POINTS": "1", "BONUSPOINTS": "0"}}, {"type": "Feature", "geometry": {"type": "Point", "coordinates": [-121.4919, 36.4052]}, "properties": {"NAME": "W6/CC-076", "TITLE": "Palo Escrito Peak", "REGION": "Coastal Ranges", "ASSOCIATION": "USA - CA", "POINTS": "4", "BONUSPOINTS": "0"}}]}