{"type": "FeatureCollection", "name": "W6/IN SUMMITS", "features": [{"type": "Feature", "geometry": {"type": "Point", "coordinates": [-117.9626, 36.7075]}, "properties": {"NAME": "W6/IN-001", "TITLE": "Keynot Peak", "REGION": "Inyo Mountains", "ASSOCIATION": "USA - CA", "POINTS": "10", "BONUSPOINTS": "3"}}, {"type": "Feature", "geometry": {"type": "Point", "coordinates": [-117.9857, 36.7353]}, "properties": {"NAME": "W6/IN-002", "TITLE": "Mount Inyo", "REGION": "Inyo Mountains", "ASSOCIATION": "USA - CA", "POINTS": "8", "BONUSPOINTS": "3"}}, {"type": "Feature", "geometry": {"type": "Point", "coordinates": [-118.0351, 36.9592]}, "properties": {"NAME": "W6/IN-003", "TITLE": "10961", "REGION": "Inyo Mountains", "ASSOCIATION": "USA - CA", "POINTS": "8", "BONUSPOINTS": "3"}}, {"type": "Feature", "geometry": {"type": "Point", "coordinates": [-117.9327, 36.6479]}, "properties": {"NAME": "W6/IN-004", "TITLE": "New York Butte", "REGION": "Inyo Mountains", "ASSOCIATION": "USA - CA", "POINTS": "8", "BONUSPOINTS": "3"}}, {"type": "Feature", "geometry": {"type": "Point", "coordinates": [-117.961, 36.6823]}, "properties": {"NAME": "W6/IN-005", "TITLE": "10460", "REGION": "Inyo Mountains", "ASSOCIATION": "USA - CA", "POINTS": "8", "BONUSPOINTS": "3"}}, {"type": "Feature", "geometry": {"type": "Point", "coordinates": [-118.0033, 36.7898]}, "properties": {"NAME": "W6/IN-006", "TITLE": "10088", "REGION": "Inyo Mountains", "ASSOCIATION": "USA - CA", "POINTS": "8", "BONUSPOINTS": "3"}}, {"type": "Feature", "geometry": {"type": "Point", "coordinates": [-117.8128, 36.5707]}, "properties": {"NAME": "W6/IN-007", "TITLE": "Pleasant Point", "REGION": "Inyo Mountains", "ASSOCIATION": "USA - CA", "POINTS": "8", "BONUSPOINTS": "3"}}, {"type": "Feature", "geometry": {"type": "Point", "coordinates": [-118.0829, 37.077]}, "properties": {"NAME": "W6/IN-008", "TITLE": "Andrews Mountain", "REGION": "Inyo Mountains", "ASSOCIATION": "USA - CA", "POINTS": "8", "BONUSPOINTS": "3"}}, {"type": "Feature", "geometry": {"type": "Point", "coordinates": [-118.0801, 37.0179]}, "properties": {"NAME": "W6/IN-009", "TITLE": "9380", "REGION": "Inyo Mountains", "ASSOCIATION": "USA - CA", "POINTS": "8", "BONUSPOINTS": "3"}}, {"type": "Feature", "geometry": {"type": "Point", "coordinates": [-117.7868, 36.5377]}, "properties": {"NAME": "W6/IN-010", "TITLE": "Cerro Gordo Peak", "REGION": "Inyo Mountains", "ASSOCIATION": "USA - CA", "POINTS": "8", "BONUSPOINTS": "3"}}, {"type": "Feature", "geometry": {"type": "Point", "coordinates": [-118.0456, 37.0744]}, "properties": {"NAME": "W6/IN-011", "TITLE": "8980", "REGION": "Inyo Mountains", "ASSOCIATION": "USA - CA", "POINTS": "8", "BONUSPOINTS": "3"}}, {"type": "Feature", "geometry": {"type": "Point", "coordinates": [-118.0388, 37.1895]}, "properties": {"NAME": "W6/IN-012", "TITLE": "Juniper Benchmark", "REGION": "Inyo Mountains", "ASSOCIATION": "USA - CA", "POINTS": "8", "BONUSPOINTS": "3"}}, {"type": "Feature", "geometry": {"type": "Point", "coordinates": [-118.1073, 37.2052]}, "properties": {"NAME": "W6/IN-013", "TITLE": "8940", "REGION": "Inyo Mountains", "ASSOCIATION": "USA - CA", "POINTS": "8", "BONUSPOINTS": "3"}}, {"type": "Feature", "geometry": {"type": "Point", "coordinates": [-118.0641, 37.1474]}, "properties": {"NAME": "W6/IN-014", "TITLE": "8500", "REGION": "Inyo Mountains", "ASSOCIATION": "USA - CA", "POINTS": "8", "BONUSPOINTS": "3"}}, {"type": "Feature", "geometry": {"type": "Point", "coordinates": [-118.1652, 37.2374]}, "properties": {"NAME": "W6/IN-015", "TITLE": "Tollhouse Benchmark", "REGION": "Inyo Mountains", "ASSOCIATION": "USA - CA", "POINTS": "8", "BONUSPOINTS": "3"}}, {"type": "Feature", "geometry": {"type": "Point", "coordinates": [-117.9769, 37.1411]}, "properties": {"NAME": "W6/IN-016", "TITLE": "8060", "REGION": "Inyo Mountains", "ASSOCIATION": "USA - CA", "POINTS": "8", "BONUSPOINTS": "3"}}, {"type": "Feature", "geometry": {"type": "Point", "coordinates": [-118.0006, 37.1741]}, "properties": {"NAME": "W6/IN-017", "TITLE": "7900", "REGION": "Inyo Mountains", "ASSOCIATION": "USA - CA", "POINTS": "8", "BONUSPOINTS": "3"}}, {"type": "Feature", "geometry": {"type": "Point", "coordinates": [-118.1299, 37.1218]}, "properties": {"NAME": "W6/IN-018", "TITLE": "7900", "REGION": "Inyo Mountains", "ASSOCIATION": "USA - CA", "POINTS": "8", "BONUSPOINTS": "3"}}, {"type": "Feature", "geometry": {"type": "Point", "coordinates": [-117.9594, 37.1909]}, "properties": {"NAME": "W6/IN-019", "TITLE": "7848", "REGION": "Inyo Mountains", "ASSOCIATION": "USA - CA", "POINTS": "8", "BONUSPOINTS": "3"}}, {"type": "Feature", "geometry": {"type": "Point", "coordinates": [-117.993, 37.2841]}, "properties": {"NAME": "W6/IN-020", "TITLE": "Mount Nunn", "REGION": "Inyo Mountains", "ASSOCIATION": "USA - CA", "POINTS": "8", "BONUSPOINTS": "3"}}, {"type": "Feature", "geometry": {"type": "Point", "coordinates": [-117.9812, 37.3294]}, "properties": {"NAME": "W6/IN-021", "TITLE": "7045", "REGION": "Inyo Mountains", "ASSOCIATION": "USA - CA", "POINTS": "6", "BONUSPOINTS": "3"}}, {"type": "Feature", "geometry": {"type": "Point", "coordinates": [-118.6256, 37.1405]}, "properties": {"NAME": "W6/IN-022", "TITLE": "Point Powell", "REGION": "Inyo Mountains", "ASSOCIATION": "USA - CA", "POINTS": "10", "BONUSPOINTS": "3"}}, {"type": "Feature", "geometry": {"type": "Point", "coordinates": [-118.6724, 37.2913]}, "properties": {"NAME": "W6/IN-023", "TITLE": "South Basin", "REGION": "Inyo Mountains", "ASSOCIATION": "USA - CA", "POINTS": "10", "BONUSPOINTS": "3"}}, {"type": "Feature", "geometry": {"type": "Point", "coordinates": [-118.2424, 36.5505]}, "properties": {"NAME": "W6/IN-024", "TITLE": "13074", "REGION": "Inyo Mountains", "ASSOCIATION": "USA - CA", "POINTS": "10", "BONUSPOINTS": "3"}}, {"type": "Feature", "geometry": {"type": "Point", "coordinates": [-118.5014, 37.1438]}, "properties": {"NAME": "W6/IN-025", "TITLE": "Sky Haven", "REGION": "Inyo Mountains", "ASSOCIATION": "USA - CA", "POINTS": "10", "BONUSPOINTS": "3"}}, {"type": "Feature", "geometry": {"type": "Point", "coordinates": [-118.5023, 37.1675]}, "properties": {"NAME": "W6/IN-026", "TITLE": "12362", "REGION": "Inyo Mountains", "ASSOCIATION": "USA - CA", "POINTS": "10", "BONUSPOINTS": "3"}}, {"type": "Feature", "geometry": {"type": "Point", "coordinates": [-118.6785, 37.3281]}, "properties": {"NAME": "W6/IN-027", "TITLE": "12260", "REGION": "Inyo Mountains", "ASSOCIATION": "USA - CA", "POINTS": "10", "BONUSPOINTS": "3"}}, {"type": "Feature", "geometry": {"type": "Point", "coordinates": [-118.6545, 37.2795]}, "properties": {"NAME": "W6/IN-028", "TITLE": "Peaklet", "REGION": "Inyo Mountains", "ASSOCIATION": "USA - CA", "POINTS": "10", "BONUSPOINTS": "3"}}, {"type": "Feature", "geometry": {"type": "Point", "coordinates": [-118.566, 37.1407]}, "properties": {"NAME": "W6/IN-029", "TITLE": "Hurd Peak", "REGION": "Inyo Mountains", "ASSOCIATION": "USA - CA", "POINTS": "10", "BONUSPOINTS": "3"}}, {"type": "Feature", "geometry": {"type": "Point", "coordinates": [-118.6869, 37.4437]}, "properties": {"NAME": "W6/IN-030", "TITLE": "11980", "REGION": "Inyo Mountains", "ASSOCIATION": "USA - CA", "POINTS": "10", "BONUSPOINTS": "3"}}, {"type": "Feature", "geometry": {"type": "Point", "coordinates": [-118.7223, 37.3612]}, "properties": {"NAME": "W6/IN-031", "TITLE": "11532", "REGION": "Inyo Mountains", "ASSOCIATION": "USA - CA", "POINTS": "10", "BONUSPOINTS": "3"}}, {"type": "Feature", "geometry": {"type": "Point", "coordinates": [-117.9623, 36.6851]}, "properties": {"NAME": "W6/IN-032", "TITLE": "10460", "REGION": "Inyo Mountains", "ASSOCIATION": "USA - CA", "POINTS": "8", "BONUSPOINTS": "3"}}, {"type": "Feature", "geometry": {"type": "Point", "coordinates": [-118.1334, 37.0504]}, "properties": {"NAME": "W6/IN-033", "TITLE": "9207", "REGION": "Inyo Mountains", "ASSOCIATION": "USA - CA", "POINTS": "8", "BONUSPOINTS": "3"}}, {"type": "Feature", "geometry": {"type": "Point", "coordinates": [-117.8064, 36.5911]}, "properties": {"NAME": "W6/IN-034", "TITLE": "8492", "REGION": "Inyo Mountains", "ASSOCIATION": "USA - CA", "POINTS": "8", "BONUSPOINTS": "3"}}, {"type": "Feature", "geometry": {"type": "Point", "coordinates": [-117.5808, 36.9761]}, "properties": {"NAME": "W6/IN-035", "TITLE": "8129", "REGION": "Inyo Mountains", "ASSOCIATION": "USA - CA", "POINTS": "8", "BONUSPOINTS": "3"}}, {"type": "Feature", "geometry": {"type": "Point", "coordinates": [-118.0172, 37.1684]}, "properties": {"NAME": "W6/IN-036", "TITLE": "7900", "REGION": "Inyo Mountains", "ASSOCIATION": "USA - CA", "POINTS": "8", "BONUSPOINTS": "3"}}, {"type": "Feature", "geometry": {"type": "Point", "coordinates": [-117.7302, 36.1307]}, "properties": {"NAME": "W6/IN-037", "TITLE": "6771", "REGION": "Inyo Mountains", "ASSOCIATION": "USA - CA", "POINTS": "6", "BONUSPOINTS": "3"}}, {"type": "Feature", "geometry": {"type": "Point", "coordinates": [-117.5402, 36.6184]}, "properties": {"NAME": "W6/IN-038", "TITLE": "6683", "REGION": "Inyo Mountains", "ASSOCIATION": "USA - CA", "POINTS": "6", "BONUSPOINTS": "3"}}, {"type": "Feature", "geometry": {"type": "Point", "coordinates": [-117.5486, 35.9292]}, "properties": {"NAME": "W6/IN-039", "TITLE": "6420", "REGION": "Inyo Mountains", "ASSOCIATION": "USA - CA", "POINTS": "6", "BONUSPOINTS": "0"}}, {"type": "Feature", "geometry": {"type": "Point", "coordinates": [-116.0842, 36.0175]}, "properties": {"NAME": "W6/IN-040", "TITLE": "Nopah Peak", "REGION": "Inyo Mountains", "ASSOCIATION": "USA - CA", "POINTS": "6", "BONUSPOINTS": "0"}}, {"type": "Feature", "geometry": {"type": "Point", "coordinates": [-116.6029, 36.4122]}, "properties": {"NAME": "W6/IN-041", "TITLE": "6259", "REGION": "Inyo Mountains", "ASSOCIATION": "USA - CA", "POINTS": "6", "BONUSPOINTS": "0"}}, {"type": "Feature", "geometry": {"type": "Point", "coordinates": [-118.3002, 37.1136]}, "properties": {"NAME": "W6/IN-042", "TITLE": "Crater Mountain", "REGION": "Inyo Mountains", "ASSOCIATION": "USA - CA", "POINTS": "6", "BONUSPOINTS": "0"}}, {"type": "Feature", "geometry": {"type": "Point", "coordinates": [-117.001, 36.0636]}, "properties": {"NAME": "W6/IN-043", "TITLE": "5580", "REGION": "Inyo Mountains", "ASSOCIATION": "USA - CA", "POINTS": "6", "BONUSPOINTS": "0"}}, {"type": "Feature", "geometry": {"type": "Point", "coordinates": [-117.5054, 36.6652]}, "properties": {"NAME": "W6/IN-044", "TITLE": "5460", "REGION": "Inyo Mountains", "ASSOCIATION": "USA - CA", "POINTS": "4", "BONUSPOINTS": "0"}}, {"type": "Feature", "geometry": {"type": "Point", "coordinates": [-118.1247, 36.5853]}, "properties": {"NAME": "W6/IN-045", "TITLE": "5396", "REGION": "Inyo Mountains", "ASSOCIATION": "USA - CA", "POINTS": "4", "BONUSPOINTS": "0"}}, {"type": "Feature", "geometry": {"type": "Point", "coordinates": [-116.5705, 36.3749]}, "properties": {"NAME": "W6/IN-046", "TITLE": "Funeral Mountains Wilderness HP", "REGION": "Inyo Mountains", "ASSOCIATION": "USA - CA", "POINTS": "4", "BONUSPOINTS": "0"}}, {"type": "Feature", "geometry": {"type": "Point", "coordinates": [-117.5535, 36.7729]}, "properties": {"NAME": "W6/IN-047", "TITLE": "5260", "REGION": "Inyo Mountains", "ASSOCIATION": "USA - CA", "POINTS": "4", "BONUSPOINTS": "0"}}, {"type": "Feature", "geometry": {"type": "Point", "coordinates": [-118.1082, 36.6228]}, "properties": {"NAME": "W6/IN-048", "TITLE": "5213", "REGION": "Inyo Mountains", "ASSOCIATION": "USA - CA", "POINTS": "4", "BONUSPOINTS": "0"}}, {"type": "Feature", "geometry": {"type": "Point", "coordinates": [-118.2883, 37.0288]}, "properties": {"NAME": "W6/IN-049", "TITLE": "Red Mountain", "REGION": "Inyo Mountains", "ASSOCIATION": "USA - CA", "POINTS": "4", "BONUSPOINTS": "0"}}, {"type": "Feature", "geometry": {"type": "Point", "coordinates": [-118.2619, 37.0544]}, "properties": {"NAME": "W6/IN-050", "TITLE": "Poverty Hills", "REGION": "Inyo Mountains", "ASSOCIATION": "USA - CA", "POINTS": "4", "BONUSPOINTS": "0"}}, {"type": "Feature", "geometry": {"type": "Point", "coordinates": [-116.4868, 35.9871]}, "properties": {"NAME": "W6/IN-051", "TITLE": "Calico Peaks (HP)", "REGION": "Inyo Mountains", "ASSOCIATION": "USA - CA", "POINTS": "4", "BONUSPOINTS": "0"}}, {"type": "Feature", "geometry": {"type": "Point", "coordinates": [-117.4255, 35.811]}, "properties": {"NAME": "W6/IN-052", "TITLE": "4122", "REGION": "Inyo Mountains", "ASSOCIATION": "USA - CA", "POINTS": "4", "BONUSPOINTS": "0"}}, {"type": "Feature", "geometry": {"type": "Point", "coordinates": [-117.3273, 36.5917]}, "properties": {"NAME": "W6/IN-053", "TITLE": "3689", "REGION": "Inyo Mountains", "ASSOCIATION": "USA - CA", "POINTS": "2", "BONUSPOINTS": "0"}}, {"type": "Feature", "geometry": {"type": "Point", "coordinates": [-117.6754, 37.0958]}, "properties": {"NAME": "W6/IN-054", "TITLE": "Eureka Dunes", "REGION": "Inyo Mountains", "ASSOCIATION": "USA - CA", "POINTS": "2", "BONUSPOINTS": "0"}}, {"type": "Feature", "geometry": {"type": "Point", "coordinates": [-117.3004, 36.6992]}, "properties": {"NAME": "W6/IN-055", "TITLE": "1940", "REGION": "Inyo Mountains", "ASSOCIATION": "USA - CA", "POINTS": "1", "BONUSPOINTS": "0"}}]}