{"type": "FeatureCollection", "name": "W6/SN SUMMITS", "features": [{"type": "Feature", "geometry": {"type": "Point", "coordinates": [-118.2924, 36.5785]}, "properties": {"NAME": "W6/SN-001", "TITLE": "Mount Whitney", "REGION": "Sierra Nevada", "ASSOCIATION": "USA - CA", "POINTS": "10", "BONUSPOINTS": "3"}}, {"type": "Feature", "geometry": {"type": "Point", "coordinates": [-118.311, 36.6558]}, "properties": {"NAME": "W6/SN-002", "TITLE": "Mount Williamson", "REGION": "Sierra Nevada", "ASSOCIATION": "USA - CA", "POINTS": "10", "BONUSPOINTS": "3"}}, {"type": "Feature", "geometry": {"type": "Point", "coordinates": [-118.2395, 36.5235]}, "properties": {"NAME": "W6/SN-003", "TITLE": "Mount Langley", "REGION": "Sierra Nevada", "ASSOCIATION": "USA - CA", "POINTS": "10", "BONUSPOINTS": "3"}}, {"type": "Feature", "geometry": {"type": "Point", "coordinates": [-118.3373, 36.6554]}, "properties": {"NAME": "W6/SN-004", "TITLE": "Mount Tyndall", "REGION": "Sierra Nevada", "ASSOCIATION": "USA - CA", "POINTS": "10", "BONUSPOINTS": "3"}}, {"type": "Feature", "geometry": {"type": "Point", "coordinates": [-118.3214, 36.6283]}, "properties": {"NAME": "W6/SN-005", "TITLE": "Mount Barnard", "REGION": "Sierra Nevada", "ASSOCIATION": "USA - CA", "POINTS": "10", "BONUSPOINTS": "3"}}, {"type": "Feature", "geometry": {"type": "Point", "coordinates": [-118.6717, 37.2699]}, "properties": {"NAME": "W6/SN-006", "TITLE": "Mount Humphreys", "REGION": "Sierra Nevada", "ASSOCIATION": "USA - CA", "POINTS": "10", "BONUSPOINTS": "3"}}, {"type": "Feature", "geometry": {"type": "Point", "coordinates": [-118.3956, 36.7039]}, "properties": {"NAME": "W6/SN-007", "TITLE": "Mount Stanford", "REGION": "Sierra Nevada", "ASSOCIATION": "USA - CA", "POINTS": "10", "BONUSPOINTS": "3"}}, {"type": "Feature", "geometry": {"type": "Point", "coordinates": [-118.6722, 37.167]}, "properties": {"NAME": "W6/SN-008", "TITLE": "Mount Darwin", "REGION": "Sierra Nevada", "ASSOCIATION": "USA - CA", "POINTS": "10", "BONUSPOINTS": "3"}}, {"type": "Feature", "geometry": {"type": "Point", "coordinates": [-118.5259, 37.1033]}, "properties": {"NAME": "W6/SN-009", "TITLE": "Mount Winchell", "REGION": "Sierra Nevada", "ASSOCIATION": "USA - CA", "POINTS": "10", "BONUSPOINTS": "3"}}, {"type": "Feature", "geometry": {"type": "Point", "coordinates": [-118.5159, 36.5454]}, "properties": {"NAME": "W6/SN-010", "TITLE": "Black Kaweah", "REGION": "Sierra Nevada", "ASSOCIATION": "USA - CA", "POINTS": "10", "BONUSPOINTS": "3"}}, {"type": "Feature", "geometry": {"type": "Point", "coordinates": [-118.682, 37.1747]}, "properties": {"NAME": "W6/SN-011", "TITLE": "Mount Mendel", "REGION": "Sierra Nevada", "ASSOCIATION": "USA - CA", "POINTS": "10", "BONUSPOINTS": "3"}}, {"type": "Feature", "geometry": {"type": "Point", "coordinates": [-118.6134, 37.1427]}, "properties": {"NAME": "W6/SN-012", "TITLE": "Mount Thompson", "REGION": "Sierra Nevada", "ASSOCIATION": "USA - CA", "POINTS": "10", "BONUSPOINTS": "3"}}, {"type": "Feature", "geometry": {"type": "Point", "coordinates": [-118.7781, 37.3259]}, "properties": {"NAME": "W6/SN-013", "TITLE": "Feather Peak", "REGION": "Sierra Nevada", "ASSOCIATION": "USA - CA", "POINTS": "10", "BONUSPOINTS": "3"}}, {"type": "Feature", "geometry": {"type": "Point", "coordinates": [-118.6541, 37.2426]}, "properties": {"NAME": "W6/SN-014", "TITLE": "Mount Emerson", "REGION": "Sierra Nevada", "ASSOCIATION": "USA - CA", "POINTS": "10", "BONUSPOINTS": "3"}}, {"type": "Feature", "geometry": {"type": "Point", "coordinates": [-119.199, 37.6894]}, "properties": {"NAME": "W6/SN-015", "TITLE": "Mount Ritter", "REGION": "Sierra Nevada", "ASSOCIATION": "USA - CA", "POINTS": "10", "BONUSPOINTS": "3"}}, {"type": "Feature", "geometry": {"type": "Point", "coordinates": [-119.2717, 37.7395]}, "properties": {"NAME": "W6/SN-016", "TITLE": "Mount Lyell", "REGION": "Sierra Nevada", "ASSOCIATION": "USA - CA", "POINTS": "10", "BONUSPOINTS": "3"}}, {"type": "Feature", "geometry": {"type": "Point", "coordinates": [-118.7653, 37.3091]}, "properties": {"NAME": "W6/SN-017", "TITLE": "Merriam Peak", "REGION": "Sierra Nevada", "ASSOCIATION": "USA - CA", "POINTS": "10", "BONUSPOINTS": "3"}}, {"type": "Feature", "geometry": {"type": "Point", "coordinates": [-118.5679, 37.123]}, "properties": {"NAME": "W6/SN-018", "TITLE": "Mount Goode", "REGION": "Sierra Nevada", "ASSOCIATION": "USA - CA", "POINTS": "10", "BONUSPOINTS": "3"}}, {"type": "Feature", "geometry": {"type": "Point", "coordinates": [-118.8331, 37.3108]}, "properties": {"NAME": "W6/SN-019", "TITLE": "Seven Gables", "REGION": "Sierra Nevada", "ASSOCIATION": "USA - CA", "POINTS": "10", "BONUSPOINTS": "3"}}, {"type": "Feature", "geometry": {"type": "Point", "coordinates": [-119.2211, 37.8998]}, "properties": {"NAME": "W6/SN-020", "TITLE": "Mount Dana", "REGION": "Sierra Nevada", "ASSOCIATION": "USA - CA", "POINTS": "10", "BONUSPOINTS": "3"}}, {"type": "Feature", "geometry": {"type": "Point", "coordinates": [-119.1947, 37.6965]}, "properties": {"NAME": "W6/SN-021", "TITLE": "Banner Peak", "REGION": "Sierra Nevada", "ASSOCIATION": "USA - CA", "POINTS": "10", "BONUSPOINTS": "3"}}, {"type": "Feature", "geometry": {"type": "Point", "coordinates": [-118.4416, 36.8188]}, "properties": {"NAME": "W6/SN-022", "TITLE": "Mount Cotter", "REGION": "Sierra Nevada", "ASSOCIATION": "USA - CA", "POINTS": "10", "BONUSPOINTS": "3"}}, {"type": "Feature", "geometry": {"type": "Point", "coordinates": [-118.3471, 36.7895]}, "properties": {"NAME": "W6/SN-023", "TITLE": "Kearsarge Peak", "REGION": "Sierra Nevada", "ASSOCIATION": "USA - CA", "POINTS": "10", "BONUSPOINTS": "3"}}, {"type": "Feature", "geometry": {"type": "Point", "coordinates": [-119.3214, 37.967]}, "properties": {"NAME": "W6/SN-024", "TITLE": "Mount Conness", "REGION": "Sierra Nevada", "ASSOCIATION": "USA - CA", "POINTS": "10", "BONUSPOINTS": "3"}}, {"type": "Feature", "geometry": {"type": "Point", "coordinates": [-118.3963, 37.0364]}, "properties": {"NAME": "W6/SN-025", "TITLE": "Mount Tinemaha", "REGION": "Sierra Nevada", "ASSOCIATION": "USA - CA", "POINTS": "10", "BONUSPOINTS": "3"}}, {"type": "Feature", "geometry": {"type": "Point", "coordinates": [-118.8558, 37.5542]}, "properties": {"NAME": "W6/SN-026", "TITLE": "12352", "REGION": "Sierra Nevada", "ASSOCIATION": "USA - CA", "POINTS": "10", "BONUSPOINTS": "3"}}, {"type": "Feature", "geometry": {"type": "Point", "coordinates": [-119.3818, 38.0931]}, "properties": {"NAME": "W6/SN-027", "TITLE": "Matterhorn Peak", "REGION": "Sierra Nevada", "ASSOCIATION": "USA - CA", "POINTS": "10", "BONUSPOINTS": "3"}}, {"type": "Feature", "geometry": {"type": "Point", "coordinates": [-119.3148, 37.9822]}, "properties": {"NAME": "W6/SN-028", "TITLE": "North Peak", "REGION": "Sierra Nevada", "ASSOCIATION": "USA - CA", "POINTS": "10", "BONUSPOINTS": "3"}}, {"type": "Feature", "geometry": {"type": "Point", "coordinates": [-118.1181, 36.2651]}, "properties": {"NAME": "W6/SN-029", "TITLE": "Olancha Peak", "REGION": "Sierra Nevada", "ASSOCIATION": "USA - CA", "POINTS": "10", "BONUSPOINTS": "3"}}, {"type": "Feature", "geometry": {"type": "Point", "coordinates": [-119.6512, 38.2862]}, "properties": {"NAME": "W6/SN-030", "TITLE": "Leavitt Peak", "REGION": "Sierra Nevada", "ASSOCIATION": "USA - CA", "POINTS": "10", "BONUSPOINTS": "3"}}, {"type": "Feature", "geometry": {"type": "Point", "coordinates": [-118.2878, 36.3084]}, "properties": {"NAME": "W6/SN-031", "TITLE": "Kern Peak", "REGION": "Sierra Nevada", "ASSOCIATION": "USA - CA", "POINTS": "10", "BONUSPOINTS": "3"}}, {"type": "Feature", "geometry": {"type": "Point", "coordinates": [-119.6355, 38.3539]}, "properties": {"NAME": "W6/SN-032", "TITLE": "Sonora Peak", "REGION": "Sierra Nevada", "ASSOCIATION": "USA - CA", "POINTS": "10", "BONUSPOINTS": "3"}}, {"type": "Feature", "geometry": {"type": "Point", "coordinates": [-119.0329, 37.6304]}, "properties": {"NAME": "W6/SN-033", "TITLE": "Mammoth Mountain", "REGION": "Sierra Nevada", "ASSOCIATION": "USA - CA", "POINTS": "10", "BONUSPOINTS": "3"}}, {"type": "Feature", "geometry": {"type": "Point", "coordinates": [-119.9, 38.8574]}, "properties": {"NAME": "W6/SN-034", "TITLE": "Freel Peak", "REGION": "Sierra Nevada", "ASSOCIATION": "USA - CA", "POINTS": "8", "BONUSPOINTS": "3"}}, {"type": "Feature", "geometry": {"type": "Point", "coordinates": [-119.788, 38.5219]}, "properties": {"NAME": "W6/SN-035", "TITLE": "Tryon Peak", "REGION": "Sierra Nevada", "ASSOCIATION": "USA - CA", "POINTS": "8", "BONUSPOINTS": "3"}}, {"type": "Feature", "geometry": {"type": "Point", "coordinates": [-120.099, 38.9058]}, "properties": {"NAME": "W6/SN-036", "TITLE": "Mount Tallac", "REGION": "Sierra Nevada", "ASSOCIATION": "USA - CA", "POINTS": "8", "BONUSPOINTS": "3"}}, {"type": "Feature", "geometry": {"type": "Point", "coordinates": [-118.3614, 35.8651]}, "properties": {"NAME": "W6/SN-037", "TITLE": "Cannell Peak", "REGION": "Sierra Nevada", "ASSOCIATION": "USA - CA", "POINTS": "8", "BONUSPOINTS": "3"}}, {"type": "Feature", "geometry": {"type": "Point", "coordinates": [-120.3493, 39.3653]}, "properties": {"NAME": "W6/SN-038", "TITLE": "Castle Peak", "REGION": "Sierra Nevada", "ASSOCIATION": "USA - CA", "POINTS": "8", "BONUSPOINTS": "3"}}, {"type": "Feature", "geometry": {"type": "Point", "coordinates": [-119.6118, 38.6832]}, "properties": {"NAME": "W6/SN-039", "TITLE": "Leviathan Peak", "REGION": "Sierra Nevada", "ASSOCIATION": "USA - CA", "POINTS": "8", "BONUSPOINTS": "3"}}, {"type": "Feature", "geometry": {"type": "Point", "coordinates": [-119.533, 37.746]}, "properties": {"NAME": "W6/SN-040", "TITLE": "Half Dome", "REGION": "Sierra Nevada", "ASSOCIATION": "USA - CA", "POINTS": "8", "BONUSPOINTS": "3"}}, {"type": "Feature", "geometry": {"type": "Point", "coordinates": [-118.5843, 35.4511]}, "properties": {"NAME": "W6/SN-041", "TITLE": "Breckenridge Mountain", "REGION": "Sierra Nevada", "ASSOCIATION": "USA - CA", "POINTS": "8", "BONUSPOINTS": "3"}}, {"type": "Feature", "geometry": {"type": "Point", "coordinates": [-118.1268, 35.5668]}, "properties": {"NAME": "W6/SN-042", "TITLE": "Skinner Peak", "REGION": "Sierra Nevada", "ASSOCIATION": "USA - CA", "POINTS": "6", "BONUSPOINTS": "3"}}, {"type": "Feature", "geometry": {"type": "Point", "coordinates": [-118.438, 35.6217]}, "properties": {"NAME": "W6/SN-043", "TITLE": "Cook Peak", "REGION": "Sierra Nevada", "ASSOCIATION": "USA - CA", "POINTS": "4", "BONUSPOINTS": "0"}}, {"type": "Feature", "geometry": {"type": "Point", "coordinates": [-119.8614, 37.6878]}, "properties": {"NAME": "W6/SN-044", "TITLE": "Trumbull Peak", "REGION": "Sierra Nevada", "ASSOCIATION": "USA - CA", "POINTS": "4", "BONUSPOINTS": "0"}}, {"type": "Feature", "geometry": {"type": "Point", "coordinates": [-119.7452, 37.4193]}, "properties": {"NAME": "W6/SN-045", "TITLE": "Miami Mountain", "REGION": "Sierra Nevada", "ASSOCIATION": "USA - CA", "POINTS": "4", "BONUSPOINTS": "0"}}, {"type": "Feature", "geometry": {"type": "Point", "coordinates": [-120.508, 39.1444]}, "properties": {"NAME": "W6/SN-046", "TITLE": "Little Bald Mountain", "REGION": "Sierra Nevada", "ASSOCIATION": "USA - CA", "POINTS": "6", "BONUSPOINTS": "3"}}, {"type": "Feature", "geometry": {"type": "Point", "coordinates": [-120.705, 38.9039]}, "properties": {"NAME": "W6/SN-047", "TITLE": "Bald Mountain", "REGION": "Sierra Nevada", "ASSOCIATION": "USA - CA", "POINTS": "4", "BONUSPOINTS": "0"}}, {"type": "Feature", "geometry": {"type": "Point", "coordinates": [-120.9652, 39.2457]}, "properties": {"NAME": "W6/SN-048", "TITLE": "Banner Mountain", "REGION": "Sierra Nevada", "ASSOCIATION": "USA - CA", "POINTS": "2", "BONUSPOINTS": "0"}}, {"type": "Feature", "geometry": {"type": "Point", "coordinates": [-120.6843, 38.8233]}, "properties": {"NAME": "W6/SN-049", "TITLE": "Slate Mountain", "REGION": "Sierra Nevada", "ASSOCIATION": "USA - CA", "POINTS": "2", "BONUSPOINTS": "0"}}, {"type": "Feature", "geometry": {"type": "Point", "coordinates": [-118.5261, 37.1046]}, "properties": {"NAME": "W6/SN-050", "TITLE": "Mount Winchell", "REGION": "Sierra Nevada", "ASSOCIATION": "USA - CA", "POINTS": "10", "BONUSPOINTS": "3"}}, {"type": "Feature", "geometry": {"type": "Point", "coordinates": [-119.1995, 37.689]}, "properties": {"NAME": "W6/SN-051", "TITLE": "Mount Ritter", "REGION": "Sierra Nevada", "ASSOCIATION": "USA - CA", "POINTS": "10", "BONUSPOINTS": "3"}}, {"type": "Feature", "geometry": {"type": "Point", "coordinates": [-118.587, 35.4512]}, "properties": {"NAME": "W6/SN-052", "TITLE": "Breckenridge Mountain", "REGION": "Sierra Nevada", "ASSOCIATION": "USA - CA", "POINTS": "8", "BONUSPOINTS": "3"}}]}