{"type": "FeatureCollection", "name": "W6/NE SUMMITS", "features": [{"type": "Feature", "geometry": {"type": "Point", "coordinates": [-120.1999, 41.2852]}, "properties": {"NAME": "W6/NE-001", "TITLE": "Eagle Peak", "REGION": "Northeastern Ranges", "ASSOCIATION": "USA - CA", "POINTS": "8", "BONUSPOINTS": "3"}}, {"type": "Feature", "geometry": {"type": "Point", "coordinates": [-120.22, 41.3785]}, "properties": {"NAME": "W6/NE-002", "TITLE": "Warren Peak", "REGION": "Northeastern Ranges", "ASSOCIATION": "USA - CA", "POINTS": "8", "BONUSPOINTS": "3"}}, {"type": "Feature", "geometry": {"type": "Point", "coordinates": [-121.5447, 40.4641]}, "properties": {"NAME": "W6/NE-003", "TITLE": "Mount Diller", "REGION": "Northeastern Ranges", "ASSOCIATION": "USA - CA", "POINTS": "8", "BONUSPOINTS": "3"}}, {"type": "Feature", "geometry": {"type": "Point", "coordinates": [-120.1639, 41.2379]}, "properties": {"NAME": "W6/NE-004", "TITLE": "Emerson Peak", "REGION": "Northeastern Ranges", "ASSOCIATION": "USA - CA", "POINTS": "8", "BONUSPOINTS": "3"}}, {"type": "Feature", "geometry": {"type": "Point", "coordinates": [-120.1676, 41.277]}, "properties": {"NAME": "W6/NE-005", "TITLE": "Cole Peak", "REGION": "Northeastern Ranges", "ASSOCIATION": "USA - CA", "POINTS": "8", "BONUSPOINTS": "3"}}, {"type": "Feature", "geometry": {"type": "Point", "coordinates": [-120.1266, 41.1491]}, "properties": {"NAME": "W6/NE-006", "TITLE": "Hat Mountain", "REGION": "Northeastern Ranges", "ASSOCIATION": "USA - CA", "POINTS": "8", "BONUSPOINTS": "3"}}, {"type": "Feature", "geometry": {"type": "Point", "coordinates": [-121.4648, 40.4705]}, "properties": {"NAME": "W6/NE-007", "TITLE": "Reading Peak", "REGION": "Northeastern Ranges", "ASSOCIATION": "USA - CA", "POINTS": "8", "BONUSPOINTS": "3"}}, {"type": "Feature", "geometry": {"type": "Point", "coordinates": [-121.544, 40.4877]}, "properties": {"NAME": "W6/NE-008", "TITLE": "Loomis Peak", "REGION": "Northeastern Ranges", "ASSOCIATION": "USA - CA", "POINTS": "8", "BONUSPOINTS": "3"}}, {"type": "Feature", "geometry": {"type": "Point", "coordinates": [-121.5227, 40.5244]}, "properties": {"NAME": "W6/NE-009", "TITLE": "Middle Chaos Crags", "REGION": "Northeastern Ranges", "ASSOCIATION": "USA - CA", "POINTS": "8", "BONUSPOINTS": "3"}}, {"type": "Feature", "geometry": {"type": "Point", "coordinates": [-122.1406, 41.5282]}, "properties": {"NAME": "W6/NE-010", "TITLE": "The Whaleback", "REGION": "Northeastern Ranges", "ASSOCIATION": "USA - CA", "POINTS": "8", "BONUSPOINTS": "3"}}, {"type": "Feature", "geometry": {"type": "Point", "coordinates": [-120.1348, 41.2176]}, "properties": {"NAME": "W6/NE-011", "TITLE": "Horse Mountain", "REGION": "Northeastern Ranges", "ASSOCIATION": "USA - CA", "POINTS": "8", "BONUSPOINTS": "3"}}, {"type": "Feature", "geometry": {"type": "Point", "coordinates": [-122.0489, 41.4474]}, "properties": {"NAME": "W6/NE-012", "TITLE": "Ash Creek Butte", "REGION": "Northeastern Ranges", "ASSOCIATION": "USA - CA", "POINTS": "8", "BONUSPOINTS": "3"}}, {"type": "Feature", "geometry": {"type": "Point", "coordinates": [-121.247, 40.4959]}, "properties": {"NAME": "W6/NE-013", "TITLE": "Red Cinder", "REGION": "Northeastern Ranges", "ASSOCIATION": "USA - CA", "POINTS": "8", "BONUSPOINTS": "3"}}, {"type": "Feature", "geometry": {"type": "Point", "coordinates": [-121.3458, 40.5729]}, "properties": {"NAME": "W6/NE-014", "TITLE": "Prospect Peak", "REGION": "Northeastern Ranges", "ASSOCIATION": "USA - CA", "POINTS": "8", "BONUSPOINTS": "3"}}, {"type": "Feature", "geometry": {"type": "Point", "coordinates": [-120.1665, 41.9657]}, "properties": {"NAME": "W6/NE-015", "TITLE": "Mount Bidwell", "REGION": "Northeastern Ranges", "ASSOCIATION": "USA - CA", "POINTS": "8", "BONUSPOINTS": "3"}}, {"type": "Feature", "geometry": {"type": "Point", "coordinates": [-122.2228, 41.7202]}, "properties": {"NAME": "W6/NE-016", "TITLE": "Goosenest", "REGION": "Northeastern Ranges", "ASSOCIATION": "USA - CA", "POINTS": "8", "BONUSPOINTS": "3"}}, {"type": "Feature", "geometry": {"type": "Point", "coordinates": [-120.2701, 41.6099]}, "properties": {"NAME": "W6/NE-017", "TITLE": "Bald Mountain", "REGION": "Northeastern Ranges", "ASSOCIATION": "USA - CA", "POINTS": "8", "BONUSPOINTS": "3"}}, {"type": "Feature", "geometry": {"type": "Point", "coordinates": [-120.2251, 41.9347]}, "properties": {"NAME": "W6/NE-018", "TITLE": "Mount Vida", "REGION": "Northeastern Ranges", "ASSOCIATION": "USA - CA", "POINTS": "8", "BONUSPOINTS": "3"}}, {"type": "Feature", "geometry": {"type": "Point", "coordinates": [-121.5017, 40.4288]}, "properties": {"NAME": "W6/NE-019", "TITLE": "Mount Conard", "REGION": "Northeastern Ranges", "ASSOCIATION": "USA - CA", "POINTS": "8", "BONUSPOINTS": "3"}}, {"type": "Feature", "geometry": {"type": "Point", "coordinates": [-121.3795, 40.594]}, "properties": {"NAME": "W6/NE-020", "TITLE": "West Prospect Peak", "REGION": "Northeastern Ranges", "ASSOCIATION": "USA - CA", "POINTS": "8", "BONUSPOINTS": "3"}}, {"type": "Feature", "geometry": {"type": "Point", "coordinates": [-122.1141, 41.5325]}, "properties": {"NAME": "W6/NE-021", "TITLE": "8122", "REGION": "Northeastern Ranges", "ASSOCIATION": "USA - CA", "POINTS": "8", "BONUSPOINTS": "3"}}, {"type": "Feature", "geometry": {"type": "Point", "coordinates": [-121.9632, 41.5303]}, "properties": {"NAME": "W6/NE-022", "TITLE": "Haight Mountain", "REGION": "Northeastern Ranges", "ASSOCIATION": "USA - CA", "POINTS": "8", "BONUSPOINTS": "3"}}, {"type": "Feature", "geometry": {"type": "Point", "coordinates": [-122.0035, 41.5409]}, "properties": {"NAME": "W6/NE-023", "TITLE": "West Haight Mountain", "REGION": "Northeastern Ranges", "ASSOCIATION": "USA - CA", "POINTS": "8", "BONUSPOINTS": "3"}}, {"type": "Feature", "geometry": {"type": "Point", "coordinates": [-121.2283, 40.5432]}, "properties": {"NAME": "W6/NE-024", "TITLE": "Black Butte", "REGION": "Northeastern Ranges", "ASSOCIATION": "USA - CA", "POINTS": "8", "BONUSPOINTS": "3"}}, {"type": "Feature", "geometry": {"type": "Point", "coordinates": [-120.1714, 40.7742]}, "properties": {"NAME": "W6/NE-025", "TITLE": "Observation Peak", "REGION": "Northeastern Ranges", "ASSOCIATION": "USA - CA", "POINTS": "8", "BONUSPOINTS": "3"}}, {"type": "Feature", "geometry": {"type": "Point", "coordinates": [-120.2786, 41.716]}, "properties": {"NAME": "W6/NE-026", "TITLE": "Buck Mountain", "REGION": "Northeastern Ranges", "ASSOCIATION": "USA - CA", "POINTS": "8", "BONUSPOINTS": "3"}}, {"type": "Feature", "geometry": {"type": "Point", "coordinates": [-120.4127, 40.941]}, "properties": {"NAME": "W6/NE-027", "TITLE": "McDonald Peak", "REGION": "Northeastern Ranges", "ASSOCIATION": "USA - CA", "POINTS": "8", "BONUSPOINTS": "3"}}, {"type": "Feature", "geometry": {"type": "Point", "coordinates": [-121.231, 40.5618]}, "properties": {"NAME": "W6/NE-028", "TITLE": "7923", "REGION": "Northeastern Ranges", "ASSOCIATION": "USA - CA", "POINTS": "8", "BONUSPOINTS": "3"}}, {"type": "Feature", "geometry": {"type": "Point", "coordinates": [-121.5536, 41.611]}, "properties": {"NAME": "W6/NE-029", "TITLE": "Mount Hoffman", "REGION": "Northeastern Ranges", "ASSOCIATION": "USA - CA", "POINTS": "8", "BONUSPOINTS": "3"}}, {"type": "Feature", "geometry": {"type": "Point", "coordinates": [-121.5072, 41.5793]}, "properties": {"NAME": "W6/NE-030", "TITLE": "Lyons Peak", "REGION": "Northeastern Ranges", "ASSOCIATION": "USA - CA", "POINTS": "8", "BONUSPOINTS": "3"}}, {"type": "Feature", "geometry": {"type": "Point", "coordinates": [-122.2426, 41.8156]}, "properties": {"NAME": "W6/NE-031", "TITLE": "Willow Creek Mountain", "REGION": "Northeastern Ranges", "ASSOCIATION": "USA - CA", "POINTS": "8", "BONUSPOINTS": "3"}}, {"type": "Feature", "geometry": {"type": "Point", "coordinates": [-121.2878, 40.4976]}, "properties": {"NAME": "W6/NE-032", "TITLE": "Mount Hoffman", "REGION": "Northeastern Ranges", "ASSOCIATION": "USA - CA", "POINTS": "8", "BONUSPOINTS": "3"}}, {"type": "Feature", "geometry": {"type": "Point", "coordinates": [-120.2478, 41.8893]}, "properties": {"NAME": "W6/NE-033", "TITLE": "7820", "REGION": "Northeastern Ranges", "ASSOCIATION": "USA - CA", "POINTS": "8", "BONUSPOINTS": "3"}}, {"type": "Feature", "geometry": {"type": "Point", "coordinates": [-121.1859, 40.477]}, "properties": {"NAME": "W6/NE-034", "TITLE": "North Caribou", "REGION": "Northeastern Ranges", "ASSOCIATION": "USA - CA", "POINTS": "8", "BONUSPOINTS": "3"}}, {"type": "Feature", "geometry": {"type": "Point", "coordinates": [-121.2667, 40.4418]}, "properties": {"NAME": "W6/NE-035", "TITLE": "Bonte Peak", "REGION": "Northeastern Ranges", "ASSOCIATION": "USA - CA", "POINTS": "8", "BONUSPOINTS": "3"}}, {"type": "Feature", "geometry": {"type": "Point", "coordinates": [-122.1556, 41.7952]}, "properties": {"NAME": "W6/NE-036", "TITLE": "Ball Mountain", "REGION": "Northeastern Ranges", "ASSOCIATION": "USA - CA", "POINTS": "8", "BONUSPOINTS": "3"}}, {"type": "Feature", "geometry": {"type": "Point", "coordinates": [-120.1034, 41.0677]}, "properties": {"NAME": "W6/NE-037", "TITLE": "Little Hat Mountain", "REGION": "Northeastern Ranges", "ASSOCIATION": "USA - CA", "POINTS": "8", "BONUSPOINTS": "3"}}, {"type": "Feature", "geometry": {"type": "Point", "coordinates": [-121.2807, 40.4637]}, "properties": {"NAME": "W6/NE-038", "TITLE": "7742", "REGION": "Northeastern Ranges", "ASSOCIATION": "USA - CA", "POINTS": "8", "BONUSPOINTS": "3"}}, {"type": "Feature", "geometry": {"type": "Point", "coordinates": [-121.415, 40.5065]}, "properties": {"NAME": "W6/NE-039", "TITLE": "Hat Mountain", "REGION": "Northeastern Ranges", "ASSOCIATION": "USA - CA", "POINTS": "8", "BONUSPOINTS": "3"}}, {"type": "Feature", "geometry": {"type": "Point", "coordinates": [-120.9104, 40.5923]}, "properties": {"NAME": "W6/NE-040", "TITLE": "Antelope Mountain", "REGION": "Northeastern Ranges", "ASSOCIATION": "USA - CA", "POINTS": "8", "BONUSPOINTS": "3"}}, {"type": "Feature", "geometry": {"type": "Point", "coordinates": [-120.1215, 40.3749]}, "properties": {"NAME": "W6/NE-041", "TITLE": "Hot Springs Peak", "REGION": "Northeastern Ranges", "ASSOCIATION": "USA - CA", "POINTS": "8", "BONUSPOINTS": "3"}}, {"type": "Feature", "geometry": {"type": "Point", "coordinates": [-121.9563, 41.4739]}, "properties": {"NAME": "W6/NE-042", "TITLE": "Rainbow Mountain", "REGION": "Northeastern Ranges", "ASSOCIATION": "USA - CA", "POINTS": "8", "BONUSPOINTS": "3"}}, {"type": "Feature", "geometry": {"type": "Point", "coordinates": [-121.3469, 40.4527]}, "properties": {"NAME": "W6/NE-043", "TITLE": "Saddle Mountain", "REGION": "Northeastern Ranges", "ASSOCIATION": "USA - CA", "POINTS": "8", "BONUSPOINTS": "3"}}, {"type": "Feature", "geometry": {"type": "Point", "coordinates": [-120.2416, 40.7463]}, "properties": {"NAME": "W6/NE-044", "TITLE": "Spanish Springs Peak", "REGION": "Northeastern Ranges", "ASSOCIATION": "USA - CA", "POINTS": "8", "BONUSPOINTS": "3"}}, {"type": "Feature", "geometry": {"type": "Point", "coordinates": [-121.505, 41.6015]}, "properties": {"NAME": "W6/NE-045", "TITLE": "Glass Mountain", "REGION": "Northeastern Ranges", "ASSOCIATION": "USA - CA", "POINTS": "8", "BONUSPOINTS": "3"}}, {"type": "Feature", "geometry": {"type": "Point", "coordinates": [-120.2774, 41.5414]}, "properties": {"NAME": "W6/NE-046", "TITLE": "Payne Peak", "REGION": "Northeastern Ranges", "ASSOCIATION": "USA - CA", "POINTS": "8", "BONUSPOINTS": "3"}}, {"type": "Feature", "geometry": {"type": "Point", "coordinates": [-120.8065, 40.4637]}, "properties": {"NAME": "W6/NE-047", "TITLE": "Roop Mountain", "REGION": "Northeastern Ranges", "ASSOCIATION": "USA - CA", "POINTS": "8", "BONUSPOINTS": "3"}}, {"type": "Feature", "geometry": {"type": "Point", "coordinates": [-121.9891, 41.4878]}, "properties": {"NAME": "W6/NE-048", "TITLE": "7590", "REGION": "Northeastern Ranges", "ASSOCIATION": "USA - CA", "POINTS": "8", "BONUSPOINTS": "3"}}, {"type": "Feature", "geometry": {"type": "Point", "coordinates": [-121.6112, 41.5643]}, "properties": {"NAME": "W6/NE-049", "TITLE": "Medicine Mountain", "REGION": "Northeastern Ranges", "ASSOCIATION": "USA - CA", "POINTS": "8", "BONUSPOINTS": "3"}}, {"type": "Feature", "geometry": {"type": "Point", "coordinates": [-121.1531, 40.5924]}, "properties": {"NAME": "W6/NE-050", "TITLE": "West Bogard Buttes", "REGION": "Northeastern Ranges", "ASSOCIATION": "USA - CA", "POINTS": "8", "BONUSPOINTS": "3"}}, {"type": "Feature", "geometry": {"type": "Point", "coordinates": [-120.2136, 40.6913]}, "properties": {"NAME": "W6/NE-051", "TITLE": "Shinn Mountain", "REGION": "Northeastern Ranges", "ASSOCIATION": "USA - CA", "POINTS": "8", "BONUSPOINTS": "3"}}, {"type": "Feature", "geometry": {"type": "Point", "coordinates": [-121.5686, 40.7386]}, "properties": {"NAME": "W6/NE-052", "TITLE": "Freaner Peak", "REGION": "Northeastern Ranges", "ASSOCIATION": "USA - CA", "POINTS": "6", "BONUSPOINTS": "3"}}, {"type": "Feature", "geometry": {"type": "Point", "coordinates": [-121.4697, 40.5328]}, "properties": {"NAME": "W6/NE-053", "TITLE": "Raker Peak", "REGION": "Northeastern Ranges", "ASSOCIATION": "USA - CA", "POINTS": "6", "BONUSPOINTS": "3"}}, {"type": "Feature", "geometry": {"type": "Point", "coordinates": [-121.0353, 40.6327]}, "properties": {"NAME": "W6/NE-054", "TITLE": "Crater Mountain", "REGION": "Northeastern Ranges", "ASSOCIATION": "USA - CA", "POINTS": "6", "BONUSPOINTS": "3"}}, {"type": "Feature", "geometry": {"type": "Point", "coordinates": [-121.4122, 40.4154]}, "properties": {"NAME": "W6/NE-055", "TITLE": "Sifford Mountain", "REGION": "Northeastern Ranges", "ASSOCIATION": "USA - CA", "POINTS": "6", "BONUSPOINTS": "3"}}, {"type": "Feature", "geometry": {"type": "Point", "coordinates": [-120.5638, 41.1552]}, "properties": {"NAME": "W6/NE-056", "TITLE": "Likely Mountain", "REGION": "Northeastern Ranges", "ASSOCIATION": "USA - CA", "POINTS": "6", "BONUSPOINTS": "3"}}, {"type": "Feature", "geometry": {"type": "Point", "coordinates": [-120.0671, 40.9728]}, "properties": {"NAME": "W6/NE-057", "TITLE": "Dodge Benchmark", "REGION": "Northeastern Ranges", "ASSOCIATION": "USA - CA", "POINTS": "6", "BONUSPOINTS": "3"}}, {"type": "Feature", "geometry": {"type": "Point", "coordinates": [-121.1908, 40.7752]}, "properties": {"NAME": "W6/NE-058", "TITLE": "Blacks Mountain", "REGION": "Northeastern Ranges", "ASSOCIATION": "USA - CA", "POINTS": "6", "BONUSPOINTS": "3"}}, {"type": "Feature", "geometry": {"type": "Point", "coordinates": [-120.3262, 41.8039]}, "properties": {"NAME": "W6/NE-059", "TITLE": "Sugar Hill", "REGION": "Northeastern Ranges", "ASSOCIATION": "USA - CA", "POINTS": "6", "BONUSPOINTS": "3"}}, {"type": "Feature", "geometry": {"type": "Point", "coordinates": [-121.3533, 40.5196]}, "properties": {"NAME": "W6/NE-060", "TITLE": "Fairfield Peak", "REGION": "Northeastern Ranges", "ASSOCIATION": "USA - CA", "POINTS": "6", "BONUSPOINTS": "3"}}, {"type": "Feature", "geometry": {"type": "Point", "coordinates": [-121.3546, 40.489]}, "properties": {"NAME": "W6/NE-061", "TITLE": "Crater Butte", "REGION": "Northeastern Ranges", "ASSOCIATION": "USA - CA", "POINTS": "6", "BONUSPOINTS": "3"}}, {"type": "Feature", "geometry": {"type": "Point", "coordinates": [-121.809, 41.5919]}, "properties": {"NAME": "W6/NE-062", "TITLE": "Garner Mountain", "REGION": "Northeastern Ranges", "ASSOCIATION": "USA - CA", "POINTS": "6", "BONUSPOINTS": "3"}}, {"type": "Feature", "geometry": {"type": "Point", "coordinates": [-121.5318, 40.6825]}, "properties": {"NAME": "W6/NE-063", "TITLE": "Logan Mountain", "REGION": "Northeastern Ranges", "ASSOCIATION": "USA - CA", "POINTS": "6", "BONUSPOINTS": "3"}}, {"type": "Feature", "geometry": {"type": "Point", "coordinates": [-120.736, 40.5463]}, "properties": {"NAME": "W6/NE-064", "TITLE": "Mahogany Peak", "REGION": "Northeastern Ranges", "ASSOCIATION": "USA - CA", "POINTS": "6", "BONUSPOINTS": "3"}}, {"type": "Feature", "geometry": {"type": "Point", "coordinates": [-121.3744, 40.4641]}, "properties": {"NAME": "W6/NE-065", "TITLE": "Pilot Mountain", "REGION": "Northeastern Ranges", "ASSOCIATION": "USA - CA", "POINTS": "6", "BONUSPOINTS": "3"}}, {"type": "Feature", "geometry": {"type": "Point", "coordinates": [-120.8555, 40.8241]}, "properties": {"NAME": "W6/NE-066", "TITLE": "Slate Mountain", "REGION": "Northeastern Ranges", "ASSOCIATION": "USA - CA", "POINTS": "6", "BONUSPOINTS": "3"}}, {"type": "Feature", "geometry": {"type": "Point", "coordinates": [-120.7055, 40.5069]}, "properties": {"NAME": "W6/NE-067", "TITLE": "Greens Peak", "REGION": "Northeastern Ranges", "ASSOCIATION": "USA - CA", "POINTS": "6", "BONUSPOINTS": "3"}}, {"type": "Feature", "geometry": {"type": "Point", "coordinates": [-121.4391, 40.5718]}, "properties": {"NAME": "W6/NE-068", "TITLE": "Badger Mountain", "REGION": "Northeastern Ranges", "ASSOCIATION": "USA - CA", "POINTS": "6", "BONUSPOINTS": "3"}}, {"type": "Feature", "geometry": {"type": "Point", "coordinates": [-120.0214, 40.0205]}, "properties": {"NAME": "W6/NE-069", "TITLE": "7121", "REGION": "Northeastern Ranges", "ASSOCIATION": "USA - CA", "POINTS": "6", "BONUSPOINTS": "3"}}, {"type": "Feature", "geometry": {"type": "Point", "coordinates": [-120.9814, 40.74]}, "properties": {"NAME": "W6/NE-070", "TITLE": "Ashurst Mountain", "REGION": "Northeastern Ranges", "ASSOCIATION": "USA - CA", "POINTS": "6", "BONUSPOINTS": "3"}}, {"type": "Feature", "geometry": {"type": "Point", "coordinates": [-121.7459, 41.5452]}, "properties": {"NAME": "W6/NE-071", "TITLE": "Red Cap Mountain", "REGION": "Northeastern Ranges", "ASSOCIATION": "USA - CA", "POINTS": "6", "BONUSPOINTS": "3"}}, {"type": "Feature", "geometry": {"type": "Point", "coordinates": [-120.4525, 41.1398]}, "properties": {"NAME": "W6/NE-072", "TITLE": "Tule Mountain", "REGION": "Northeastern Ranges", "ASSOCIATION": "USA - CA", "POINTS": "6", "BONUSPOINTS": "3"}}, {"type": "Feature", "geometry": {"type": "Point", "coordinates": [-120.6998, 41.1835]}, "properties": {"NAME": "W6/NE-073", "TITLE": "Knox Mountain", "REGION": "Northeastern Ranges", "ASSOCIATION": "USA - CA", "POINTS": "6", "BONUSPOINTS": "3"}}, {"type": "Feature", "geometry": {"type": "Point", "coordinates": [-122.2333, 41.6398]}, "properties": {"NAME": "W6/NE-074", "TITLE": "Miller Mountain", "REGION": "Northeastern Ranges", "ASSOCIATION": "USA - CA", "POINTS": "6", "BONUSPOINTS": "3"}}, {"type": "Feature", "geometry": {"type": "Point", "coordinates": [-121.6525, 40.6392]}, "properties": {"NAME": "W6/NE-075", "TITLE": "Huckleberry Mountain", "REGION": "Northeastern Ranges", "ASSOCIATION": "USA - CA", "POINTS": "6", "BONUSPOINTS": "3"}}, {"type": "Feature", "geometry": {"type": "Point", "coordinates": [-120.8004, 41.2774]}, "properties": {"NAME": "W6/NE-076", "TITLE": "Manzanita Mountain", "REGION": "Northeastern Ranges", "ASSOCIATION": "USA - CA", "POINTS": "6", "BONUSPOINTS": "3"}}, {"type": "Feature", "geometry": {"type": "Point", "coordinates": [-121.1215, 40.5263]}, "properties": {"NAME": "W6/NE-077", "TITLE": "7060", "REGION": "Northeastern Ranges", "ASSOCIATION": "USA - CA", "POINTS": "6", "BONUSPOINTS": "3"}}, {"type": "Feature", "geometry": {"type": "Point", "coordinates": [-120.6525, 40.9621]}, "properties": {"NAME": "W6/NE-078", "TITLE": "Whitinger Mountain", "REGION": "Northeastern Ranges", "ASSOCIATION": "USA - CA", "POINTS": "6", "BONUSPOINTS": "3"}}, {"type": "Feature", "geometry": {"type": "Point", "coordinates": [-120.5266, 41.0811]}, "properties": {"NAME": "W6/NE-079", "TITLE": "Arrowhead Benchmark", "REGION": "Northeastern Ranges", "ASSOCIATION": "USA - CA", "POINTS": "6", "BONUSPOINTS": "3"}}, {"type": "Feature", "geometry": {"type": "Point", "coordinates": [-122.1291, 41.6061]}, "properties": {"NAME": "W6/NE-080", "TITLE": "Deer Mountain", "REGION": "Northeastern Ranges", "ASSOCIATION": "USA - CA", "POINTS": "6", "BONUSPOINTS": "3"}}, {"type": "Feature", "geometry": {"type": "Point", "coordinates": [-120.9333, 40.6433]}, "properties": {"NAME": "W6/NE-081", "TITLE": "Logan Mountain", "REGION": "Northeastern Ranges", "ASSOCIATION": "USA - CA", "POINTS": "6", "BONUSPOINTS": "3"}}, {"type": "Feature", "geometry": {"type": "Point", "coordinates": [-122.2425, 41.8773]}, "properties": {"NAME": "W6/NE-082", "TITLE": "Eagle Rock", "REGION": "Northeastern Ranges", "ASSOCIATION": "USA - CA", "POINTS": "6", "BONUSPOINTS": "3"}}, {"type": "Feature", "geometry": {"type": "Point", "coordinates": [-120.2543, 41.0273]}, "properties": {"NAME": "W6/NE-083", "TITLE": "Cold Spring Mountain", "REGION": "Northeastern Ranges", "ASSOCIATION": "USA - CA", "POINTS": "6", "BONUSPOINTS": "3"}}, {"type": "Feature", "geometry": {"type": "Point", "coordinates": [-121.48, 41.5296]}, "properties": {"NAME": "W6/NE-084", "TITLE": "Black Mountain", "REGION": "Northeastern Ranges", "ASSOCIATION": "USA - CA", "POINTS": "6", "BONUSPOINTS": "3"}}, {"type": "Feature", "geometry": {"type": "Point", "coordinates": [-121.6175, 40.3676]}, "properties": {"NAME": "W6/NE-085", "TITLE": "6964", "REGION": "Northeastern Ranges", "ASSOCIATION": "USA - CA", "POINTS": "6", "BONUSPOINTS": "3"}}, {"type": "Feature", "geometry": {"type": "Point", "coordinates": [-120.0433, 41.1105]}, "properties": {"NAME": "W6/NE-086", "TITLE": "Mahogany Mountain", "REGION": "Northeastern Ranges", "ASSOCIATION": "USA - CA", "POINTS": "6", "BONUSPOINTS": "3"}}, {"type": "Feature", "geometry": {"type": "Point", "coordinates": [-120.8677, 40.6319]}, "properties": {"NAME": "W6/NE-087", "TITLE": "Whaleback Mountain", "REGION": "Northeastern Ranges", "ASSOCIATION": "USA - CA", "POINTS": "6", "BONUSPOINTS": "3"}}, {"type": "Feature", "geometry": {"type": "Point", "coordinates": [-120.8497, 41.3277]}, "properties": {"NAME": "W6/NE-088", "TITLE": "Grouse Mountain", "REGION": "Northeastern Ranges", "ASSOCIATION": "USA - CA", "POINTS": "6", "BONUSPOINTS": "3"}}, {"type": "Feature", "geometry": {"type": "Point", "coordinates": [-120.0492, 40.3754]}, "properties": {"NAME": "W6/NE-089", "TITLE": "6923", "REGION": "Northeastern Ranges", "ASSOCIATION": "USA - CA", "POINTS": "6", "BONUSPOINTS": "3"}}, {"type": "Feature", "geometry": {"type": "Point", "coordinates": [-121.5504, 40.5568]}, "properties": {"NAME": "W6/NE-090", "TITLE": "Table Mountain", "REGION": "Northeastern Ranges", "ASSOCIATION": "USA - CA", "POINTS": "6", "BONUSPOINTS": "3"}}, {"type": "Feature", "geometry": {"type": "Point", "coordinates": [-121.3515, 40.4116]}, "properties": {"NAME": "W6/NE-091", "TITLE": "Kelly Mountain", "REGION": "Northeastern Ranges", "ASSOCIATION": "USA - CA", "POINTS": "6", "BONUSPOINTS": "3"}}, {"type": "Feature", "geometry": {"type": "Point", "coordinates": [-121.6171, 40.2989]}, "properties": {"NAME": "W6/NE-092", "TITLE": "Turner Mountain", "REGION": "Northeastern Ranges", "ASSOCIATION": "USA - CA", "POINTS": "6", "BONUSPOINTS": "3"}}, {"type": "Feature", "geometry": {"type": "Point", "coordinates": [-121.1184, 40.7532]}, "properties": {"NAME": "W6/NE-093", "TITLE": "Patterson Mountain", "REGION": "Northeastern Ranges", "ASSOCIATION": "USA - CA", "POINTS": "6", "BONUSPOINTS": "3"}}, {"type": "Feature", "geometry": {"type": "Point", "coordinates": [-120.7459, 40.953]}, "properties": {"NAME": "W6/NE-094", "TITLE": "South Knob", "REGION": "Northeastern Ranges", "ASSOCIATION": "USA - CA", "POINTS": "6", "BONUSPOINTS": "3"}}, {"type": "Feature", "geometry": {"type": "Point", "coordinates": [-120.516, 40.7848]}, "properties": {"NAME": "W6/NE-095", "TITLE": "6820", "REGION": "Northeastern Ranges", "ASSOCIATION": "USA - CA", "POINTS": "6", "BONUSPOINTS": "3"}}, {"type": "Feature", "geometry": {"type": "Point", "coordinates": [-121.7974, 40.763]}, "properties": {"NAME": "W6/NE-096", "TITLE": "Snow Mountain", "REGION": "Northeastern Ranges", "ASSOCIATION": "USA - CA", "POINTS": "6", "BONUSPOINTS": "3"}}, {"type": "Feature", "geometry": {"type": "Point", "coordinates": [-121.5238, 40.371]}, "properties": {"NAME": "W6/NE-097", "TITLE": "Morgan Mountain", "REGION": "Northeastern Ranges", "ASSOCIATION": "USA - CA", "POINTS": "6", "BONUSPOINTS": "3"}}, {"type": "Feature", "geometry": {"type": "Point", "coordinates": [-120.8274, 40.7484]}, "properties": {"NAME": "W6/NE-098", "TITLE": "Dow Butte", "REGION": "Northeastern Ranges", "ASSOCIATION": "USA - CA", "POINTS": "6", "BONUSPOINTS": "3"}}, {"type": "Feature", "geometry": {"type": "Point", "coordinates": [-120.435, 41.0059]}, "properties": {"NAME": "W6/NE-099", "TITLE": "Olson Mountain", "REGION": "Northeastern Ranges", "ASSOCIATION": "USA - CA", "POINTS": "6", "BONUSPOINTS": "3"}}, {"type": "Feature", "geometry": {"type": "Point", "coordinates": [-121.7892, 40.7423]}, "properties": {"NAME": "W6/NE-100", "TITLE": "Clover Mountain", "REGION": "Northeastern Ranges", "ASSOCIATION": "USA - CA", "POINTS": "6", "BONUSPOINTS": "3"}}, {"type": "Feature", "geometry": {"type": "Point", "coordinates": [-120.5726, 40.7445]}, "properties": {"NAME": "W6/NE-101", "TITLE": "6780", "REGION": "Northeastern Ranges", "ASSOCIATION": "USA - CA", "POINTS": "6", "BONUSPOINTS": "3"}}, {"type": "Feature", "geometry": {"type": "Point", "coordinates": [-120.974, 40.5592]}, "properties": {"NAME": "W6/NE-102", "TITLE": "Campbell Mountain", "REGION": "Northeastern Ranges", "ASSOCIATION": "USA - CA", "POINTS": "6", "BONUSPOINTS": "3"}}, {"type": "Feature", "geometry": {"type": "Point", "coordinates": [-120.6043, 40.9931]}, "properties": {"NAME": "W6/NE-103", "TITLE": "Anderson Mountain", "REGION": "Northeastern Ranges", "ASSOCIATION": "USA - CA", "POINTS": "6", "BONUSPOINTS": "3"}}, {"type": "Feature", "geometry": {"type": "Point", "coordinates": [-121.7088, 40.6078]}, "properties": {"NAME": "W6/NE-104", "TITLE": "Latour Butte", "REGION": "Northeastern Ranges", "ASSOCIATION": "USA - CA", "POINTS": "6", "BONUSPOINTS": "3"}}, {"type": "Feature", "geometry": {"type": "Point", "coordinates": [-120.4302, 40.775]}, "properties": {"NAME": "W6/NE-105", "TITLE": "6737", "REGION": "Northeastern Ranges", "ASSOCIATION": "USA - CA", "POINTS": "6", "BONUSPOINTS": "3"}}, {"type": "Feature", "geometry": {"type": "Point", "coordinates": [-120.1248, 40.332]}, "properties": {"NAME": "W6/NE-106", "TITLE": "Amadee Mountains (HP)", "REGION": "Northeastern Ranges", "ASSOCIATION": "USA - CA", "POINTS": "6", "BONUSPOINTS": "3"}}, {"type": "Feature", "geometry": {"type": "Point", "coordinates": [-120.0802, 41.1855]}, "properties": {"NAME": "W6/NE-107", "TITLE": "6704", "REGION": "Northeastern Ranges", "ASSOCIATION": "USA - CA", "POINTS": "6", "BONUSPOINTS": "3"}}, {"type": "Feature", "geometry": {"type": "Point", "coordinates": [-121.674, 40.6715]}, "properties": {"NAME": "W6/NE-108", "TITLE": "Jacks Backbone", "REGION": "Northeastern Ranges", "ASSOCIATION": "USA - CA", "POINTS": "6", "BONUSPOINTS": "3"}}, {"type": "Feature", "geometry": {"type": "Point", "coordinates": [-121.5935, 40.5711]}, "properties": {"NAME": "W6/NE-109", "TITLE": "Red Lake Mountain", "REGION": "Northeastern Ranges", "ASSOCIATION": "USA - CA", "POINTS": "6", "BONUSPOINTS": "3"}}, {"type": "Feature", "geometry": {"type": "Point", "coordinates": [-120.8219, 40.9487]}, "properties": {"NAME": "W6/NE-110", "TITLE": "Spring Benchmark", "REGION": "Northeastern Ranges", "ASSOCIATION": "USA - CA", "POINTS": "6", "BONUSPOINTS": "3"}}, {"type": "Feature", "geometry": {"type": "Point", "coordinates": [-120.0062, 39.7739]}, "properties": {"NAME": "W6/NE-111", "TITLE": "Late Benchmark", "REGION": "Northeastern Ranges", "ASSOCIATION": "USA - CA", "POINTS": "6", "BONUSPOINTS": "3"}}, {"type": "Feature", "geometry": {"type": "Point", "coordinates": [-120.4316, 40.7123]}, "properties": {"NAME": "W6/NE-112", "TITLE": "6651", "REGION": "Northeastern Ranges", "ASSOCIATION": "USA - CA", "POINTS": "6", "BONUSPOINTS": "3"}}, {"type": "Feature", "geometry": {"type": "Point", "coordinates": [-120.3463, 41.4993]}, "properties": {"NAME": "W6/NE-113", "TITLE": "6620", "REGION": "Northeastern Ranges", "ASSOCIATION": "USA - CA", "POINTS": "6", "BONUSPOINTS": "3"}}, {"type": "Feature", "geometry": {"type": "Point", "coordinates": [-120.1288, 41.0211]}, "properties": {"NAME": "W6/NE-114", "TITLE": "Head Benchmark", "REGION": "Northeastern Ranges", "ASSOCIATION": "USA - CA", "POINTS": "6", "BONUSPOINTS": "3"}}, {"type": "Feature", "geometry": {"type": "Point", "coordinates": [-120.8586, 40.7017]}, "properties": {"NAME": "W6/NE-115", "TITLE": "Cave Mountain", "REGION": "Northeastern Ranges", "ASSOCIATION": "USA - CA", "POINTS": "6", "BONUSPOINTS": "3"}}, {"type": "Feature", "geometry": {"type": "Point", "coordinates": [-121.4599, 40.6963]}, "properties": {"NAME": "W6/NE-116", "TITLE": "Sugarloaf Peak", "REGION": "Northeastern Ranges", "ASSOCIATION": "USA - CA", "POINTS": "6", "BONUSPOINTS": "3"}}, {"type": "Feature", "geometry": {"type": "Point", "coordinates": [-120.3595, 40.6403]}, "properties": {"NAME": "W6/NE-117", "TITLE": "Snowstorm Mountain", "REGION": "Northeastern Ranges", "ASSOCIATION": "USA - CA", "POINTS": "6", "BONUSPOINTS": "3"}}, {"type": "Feature", "geometry": {"type": "Point", "coordinates": [-120.915, 41.3636]}, "properties": {"NAME": "W6/NE-118", "TITLE": "Schaffer Mountain", "REGION": "Northeastern Ranges", "ASSOCIATION": "USA - CA", "POINTS": "6", "BONUSPOINTS": "3"}}, {"type": "Feature", "geometry": {"type": "Point", "coordinates": [-121.1653, 40.669]}, "properties": {"NAME": "W6/NE-119", "TITLE": "Cal Mountain", "REGION": "Northeastern Ranges", "ASSOCIATION": "USA - CA", "POINTS": "6", "BONUSPOINTS": "3"}}, {"type": "Feature", "geometry": {"type": "Point", "coordinates": [-121.8594, 41.4897]}, "properties": {"NAME": "W6/NE-120", "TITLE": "Horse Peak", "REGION": "Northeastern Ranges", "ASSOCIATION": "USA - CA", "POINTS": "6", "BONUSPOINTS": "3"}}, {"type": "Feature", "geometry": {"type": "Point", "coordinates": [-121.835, 41.3746]}, "properties": {"NAME": "W6/NE-121", "TITLE": "Buck Mountain", "REGION": "Northeastern Ranges", "ASSOCIATION": "USA - CA", "POINTS": "6", "BONUSPOINTS": "3"}}, {"type": "Feature", "geometry": {"type": "Point", "coordinates": [-121.6876, 41.8097]}, "properties": {"NAME": "W6/NE-122", "TITLE": "Mount Dome", "REGION": "Northeastern Ranges", "ASSOCIATION": "USA - CA", "POINTS": "6", "BONUSPOINTS": "3"}}, {"type": "Feature", "geometry": {"type": "Point", "coordinates": [-120.7816, 41.3313]}, "properties": {"NAME": "W6/NE-123", "TITLE": "Hermit Butte", "REGION": "Northeastern Ranges", "ASSOCIATION": "USA - CA", "POINTS": "6", "BONUSPOINTS": "3"}}, {"type": "Feature", "geometry": {"type": "Point", "coordinates": [-120.8825, 40.3824]}, "properties": {"NAME": "W6/NE-124", "TITLE": "Chaparral Hill", "REGION": "Northeastern Ranges", "ASSOCIATION": "USA - CA", "POINTS": "6", "BONUSPOINTS": "3"}}, {"type": "Feature", "geometry": {"type": "Point", "coordinates": [-121.8914, 41.3464]}, "properties": {"NAME": "W6/NE-125", "TITLE": "Black Fox Mountain", "REGION": "Northeastern Ranges", "ASSOCIATION": "USA - CA", "POINTS": "6", "BONUSPOINTS": "3"}}, {"type": "Feature", "geometry": {"type": "Point", "coordinates": [-120.51, 40.5691]}, "properties": {"NAME": "W6/NE-126", "TITLE": "Horse Lake Mountain", "REGION": "Northeastern Ranges", "ASSOCIATION": "USA - CA", "POINTS": "6", "BONUSPOINTS": "0"}}, {"type": "Feature", "geometry": {"type": "Point", "coordinates": [-120.8463, 40.3838]}, "properties": {"NAME": "W6/NE-127", "TITLE": "Fredonyer Butte", "REGION": "Northeastern Ranges", "ASSOCIATION": "USA - CA", "POINTS": "6", "BONUSPOINTS": "0"}}, {"type": "Feature", "geometry": {"type": "Point", "coordinates": [-120.584, 41.0269]}, "properties": {"NAME": "W6/NE-128", "TITLE": "6428", "REGION": "Northeastern Ranges", "ASSOCIATION": "USA - CA", "POINTS": "6", "BONUSPOINTS": "0"}}, {"type": "Feature", "geometry": {"type": "Point", "coordinates": [-121.0365, 41.2662]}, "properties": {"NAME": "W6/NE-129", "TITLE": "Fox Mountain", "REGION": "Northeastern Ranges", "ASSOCIATION": "USA - CA", "POINTS": "6", "BONUSPOINTS": "0"}}, {"type": "Feature", "geometry": {"type": "Point", "coordinates": [-121.5355, 40.6332]}, "properties": {"NAME": "W6/NE-130", "TITLE": "Bear Wallow Butte", "REGION": "Northeastern Ranges", "ASSOCIATION": "USA - CA", "POINTS": "6", "BONUSPOINTS": "0"}}, {"type": "Feature", "geometry": {"type": "Point", "coordinates": [-122.3482, 41.3665]}, "properties": {"NAME": "W6/NE-131", "TITLE": "Black Butte", "REGION": "Northeastern Ranges", "ASSOCIATION": "USA - CA", "POINTS": "6", "BONUSPOINTS": "0"}}, {"type": "Feature", "geometry": {"type": "Point", "coordinates": [-121.5453, 40.338]}, "properties": {"NAME": "W6/NE-132", "TITLE": "6337", "REGION": "Northeastern Ranges", "ASSOCIATION": "USA - CA", "POINTS": "6", "BONUSPOINTS": "0"}}, {"type": "Feature", "geometry": {"type": "Point", "coordinates": [-121.2971, 41.1596]}, "properties": {"NAME": "W6/NE-133", "TITLE": "Widow Mountain", "REGION": "Northeastern Ranges", "ASSOCIATION": "USA - CA", "POINTS": "6", "BONUSPOINTS": "0"}}, {"type": "Feature", "geometry": {"type": "Point", "coordinates": [-120.8704, 40.9984]}, "properties": {"NAME": "W6/NE-134", "TITLE": "Hayden Hill", "REGION": "Northeastern Ranges", "ASSOCIATION": "USA - CA", "POINTS": "6", "BONUSPOINTS": "0"}}, {"type": "Feature", "geometry": {"type": "Point", "coordinates": [-120.6613, 40.6027]}, "properties": {"NAME": "W6/NE-135", "TITLE": "6300", "REGION": "Northeastern Ranges", "ASSOCIATION": "USA - CA", "POINTS": "6", "BONUSPOINTS": "0"}}, {"type": "Feature", "geometry": {"type": "Point", "coordinates": [-122.0521, 41.5816]}, "properties": {"NAME": "W6/NE-136", "TITLE": "6300", "REGION": "Northeastern Ranges", "ASSOCIATION": "USA - CA", "POINTS": "6", "BONUSPOINTS": "0"}}, {"type": "Feature", "geometry": {"type": "Point", "coordinates": [-120.0603, 40.6006]}, "properties": {"NAME": "W6/NE-137", "TITLE": "Cherry Mountain", "REGION": "Northeastern Ranges", "ASSOCIATION": "USA - CA", "POINTS": "6", "BONUSPOINTS": "0"}}, {"type": "Feature", "geometry": {"type": "Point", "coordinates": [-120.1077, 40.6244]}, "properties": {"NAME": "W6/NE-138", "TITLE": "Rush Creek Mountain", "REGION": "Northeastern Ranges", "ASSOCIATION": "USA - CA", "POINTS": "6", "BONUSPOINTS": "0"}}, {"type": "Feature", "geometry": {"type": "Point", "coordinates": [-121.4681, 41.4913]}, "properties": {"NAME": "W6/NE-139", "TITLE": "Border Mountain", "REGION": "Northeastern Ranges", "ASSOCIATION": "USA - CA", "POINTS": "6", "BONUSPOINTS": "0"}}, {"type": "Feature", "geometry": {"type": "Point", "coordinates": [-121.9786, 41.1447]}, "properties": {"NAME": "W6/NE-140", "TITLE": "Grizzly Peak", "REGION": "Northeastern Ranges", "ASSOCIATION": "USA - CA", "POINTS": "6", "BONUSPOINTS": "0"}}, {"type": "Feature", "geometry": {"type": "Point", "coordinates": [-121.7698, 41.7033]}, "properties": {"NAME": "W6/NE-141", "TITLE": "Sharp Mountain", "REGION": "Northeastern Ranges", "ASSOCIATION": "USA - CA", "POINTS": "6", "BONUSPOINTS": "0"}}, {"type": "Feature", "geometry": {"type": "Point", "coordinates": [-121.8552, 41.874]}, "properties": {"NAME": "W6/NE-142", "TITLE": "Mahogany Mountain", "REGION": "Northeastern Ranges", "ASSOCIATION": "USA - CA", "POINTS": "6", "BONUSPOINTS": "0"}}, {"type": "Feature", "geometry": {"type": "Point", "coordinates": [-121.8535, 41.1741]}, "properties": {"NAME": "W6/NE-143", "TITLE": "Mushroom Rock", "REGION": "Northeastern Ranges", "ASSOCIATION": "USA - CA", "POINTS": "6", "BONUSPOINTS": "0"}}, {"type": "Feature", "geometry": {"type": "Point", "coordinates": [-121.8856, 41.8018]}, "properties": {"NAME": "W6/NE-144", "TITLE": "Sheep Mountain", "REGION": "Northeastern Ranges", "ASSOCIATION": "USA - CA", "POINTS": "6", "BONUSPOINTS": "0"}}, {"type": "Feature", "geometry": {"type": "Point", "coordinates": [-121.8681, 41.347]}, "properties": {"NAME": "W6/NE-145", "TITLE": "Little Black Fox Mountain", "REGION": "Northeastern Ranges", "ASSOCIATION": "USA - CA", "POINTS": "6", "BONUSPOINTS": "0"}}, {"type": "Feature", "geometry": {"type": "Point", "coordinates": [-121.2186, 40.6689]}, "properties": {"NAME": "W6/NE-146", "TITLE": "6174", "REGION": "Northeastern Ranges", "ASSOCIATION": "USA - CA", "POINTS": "6", "BONUSPOINTS": "0"}}, {"type": "Feature", "geometry": {"type": "Point", "coordinates": [-120.4294, 41.0496]}, "properties": {"NAME": "W6/NE-147", "TITLE": "Mitchell Hill", "REGION": "Northeastern Ranges", "ASSOCIATION": "USA - CA", "POINTS": "6", "BONUSPOINTS": "0"}}, {"type": "Feature", "geometry": {"type": "Point", "coordinates": [-122.0172, 41.7057]}, "properties": {"NAME": "W6/NE-148", "TITLE": "Mount Hebron", "REGION": "Northeastern Ranges", "ASSOCIATION": "USA - CA", "POINTS": "6", "BONUSPOINTS": "0"}}, {"type": "Feature", "geometry": {"type": "Point", "coordinates": [-121.7407, 41.5059]}, "properties": {"NAME": "W6/NE-149", "TITLE": "Doe Peak", "REGION": "Northeastern Ranges", "ASSOCIATION": "USA - CA", "POINTS": "6", "BONUSPOINTS": "0"}}, {"type": "Feature", "geometry": {"type": "Point", "coordinates": [-120.9867, 41.3125]}, "properties": {"NAME": "W6/NE-150", "TITLE": "6140", "REGION": "Northeastern Ranges", "ASSOCIATION": "USA - CA", "POINTS": "6", "BONUSPOINTS": "0"}}, {"type": "Feature", "geometry": {"type": "Point", "coordinates": [-121.109, 41.4157]}, "properties": {"NAME": "W6/NE-151", "TITLE": "Happy Camp Mountain", "REGION": "Northeastern Ranges", "ASSOCIATION": "USA - CA", "POINTS": "6", "BONUSPOINTS": "0"}}, {"type": "Feature", "geometry": {"type": "Point", "coordinates": [-120.9662, 40.3294]}, "properties": {"NAME": "W6/NE-152", "TITLE": "Goodrich Mountain", "REGION": "Northeastern Ranges", "ASSOCIATION": "USA - CA", "POINTS": "6", "BONUSPOINTS": "0"}}, {"type": "Feature", "geometry": {"type": "Point", "coordinates": [-121.3046, 40.2831]}, "properties": {"NAME": "W6/NE-153", "TITLE": "Stover Mountain", "REGION": "Northeastern Ranges", "ASSOCIATION": "USA - CA", "POINTS": "6", "BONUSPOINTS": "0"}}, {"type": "Feature", "geometry": {"type": "Point", "coordinates": [-120.4658, 40.606]}, "properties": {"NAME": "W6/NE-154", "TITLE": "Black Mountain", "REGION": "Northeastern Ranges", "ASSOCIATION": "USA - CA", "POINTS": "6", "BONUSPOINTS": "0"}}, {"type": "Feature", "geometry": {"type": "Point", "coordinates": [-120.8361, 41.1393]}, "properties": {"NAME": "W6/NE-155", "TITLE": "Long Hill", "REGION": "Northeastern Ranges", "ASSOCIATION": "USA - CA", "POINTS": "6", "BONUSPOINTS": "0"}}, {"type": "Feature", "geometry": {"type": "Point", "coordinates": [-121.0119, 40.9703]}, "properties": {"NAME": "W6/NE-156", "TITLE": "Snag Hill", "REGION": "Northeastern Ranges", "ASSOCIATION": "USA - CA", "POINTS": "6", "BONUSPOINTS": "0"}}, {"type": "Feature", "geometry": {"type": "Point", "coordinates": [-122.1166, 41.6788]}, "properties": {"NAME": "W6/NE-157", "TITLE": "Little Deer Mountain", "REGION": "Northeastern Ranges", "ASSOCIATION": "USA - CA", "POINTS": "6", "BONUSPOINTS": "0"}}, {"type": "Feature", "geometry": {"type": "Point", "coordinates": [-121.7884, 41.6695]}, "properties": {"NAME": "W6/NE-158", "TITLE": "Wild Horse Mountain", "REGION": "Northeastern Ranges", "ASSOCIATION": "USA - CA", "POINTS": "6", "BONUSPOINTS": "0"}}, {"type": "Feature", "geometry": {"type": "Point", "coordinates": [-121.7591, 40.7807]}, "properties": {"NAME": "W6/NE-159", "TITLE": "Green Mountain", "REGION": "Northeastern Ranges", "ASSOCIATION": "USA - CA", "POINTS": "6", "BONUSPOINTS": "0"}}, {"type": "Feature", "geometry": {"type": "Point", "coordinates": [-120.0958, 41.9082]}, "properties": {"NAME": "W6/NE-160", "TITLE": "Lake Annie Mountain", "REGION": "Northeastern Ranges", "ASSOCIATION": "USA - CA", "POINTS": "6", "BONUSPOINTS": "0"}}, {"type": "Feature", "geometry": {"type": "Point", "coordinates": [-120.6755, 40.5916]}, "properties": {"NAME": "W6/NE-161", "TITLE": "6002", "REGION": "Northeastern Ranges", "ASSOCIATION": "USA - CA", "POINTS": "6", "BONUSPOINTS": "0"}}, {"type": "Feature", "geometry": {"type": "Point", "coordinates": [-120.1049, 40.556]}, "properties": {"NAME": "W6/NE-162", "TITLE": "Five Springs Mountain", "REGION": "Northeastern Ranges", "ASSOCIATION": "USA - CA", "POINTS": "6", "BONUSPOINTS": "0"}}, {"type": "Feature", "geometry": {"type": "Point", "coordinates": [-121.9049, 41.7099]}, "properties": {"NAME": "W6/NE-163", "TITLE": "Cedar Mountain", "REGION": "Northeastern Ranges", "ASSOCIATION": "USA - CA", "POINTS": "6", "BONUSPOINTS": "0"}}, {"type": "Feature", "geometry": {"type": "Point", "coordinates": [-121.4841, 40.3036]}, "properties": {"NAME": "W6/NE-164", "TITLE": "5944", "REGION": "Northeastern Ranges", "ASSOCIATION": "USA - CA", "POINTS": "6", "BONUSPOINTS": "0"}}, {"type": "Feature", "geometry": {"type": "Point", "coordinates": [-121.5062, 40.3491]}, "properties": {"NAME": "W6/NE-165", "TITLE": "Doe Mountain", "REGION": "Northeastern Ranges", "ASSOCIATION": "USA - CA", "POINTS": "6", "BONUSPOINTS": "0"}}, {"type": "Feature", "geometry": {"type": "Point", "coordinates": [-121.8091, 40.9942]}, "properties": {"NAME": "W6/NE-166", "TITLE": "Chalk Mountain", "REGION": "Northeastern Ranges", "ASSOCIATION": "USA - CA", "POINTS": "6", "BONUSPOINTS": "0"}}, {"type": "Feature", "geometry": {"type": "Point", "coordinates": [-121.7192, 41.3014]}, "properties": {"NAME": "W6/NE-167", "TITLE": "Bear Mountain", "REGION": "Northeastern Ranges", "ASSOCIATION": "USA - CA", "POINTS": "6", "BONUSPOINTS": "0"}}, {"type": "Feature", "geometry": {"type": "Point", "coordinates": [-120.1917, 40.3925]}, "properties": {"NAME": "W6/NE-168", "TITLE": "5820", "REGION": "Northeastern Ranges", "ASSOCIATION": "USA - CA", "POINTS": "6", "BONUSPOINTS": "0"}}, {"type": "Feature", "geometry": {"type": "Point", "coordinates": [-120.6831, 41.3179]}, "properties": {"NAME": "W6/NE-169", "TITLE": "Graven Ridge", "REGION": "Northeastern Ranges", "ASSOCIATION": "USA - CA", "POINTS": "6", "BONUSPOINTS": "0"}}, {"type": "Feature", "geometry": {"type": "Point", "coordinates": [-121.7566, 41.45]}, "properties": {"NAME": "W6/NE-170", "TITLE": "Harris Mountain", "REGION": "Northeastern Ranges", "ASSOCIATION": "USA - CA", "POINTS": "6", "BONUSPOINTS": "0"}}, {"type": "Feature", "geometry": {"type": "Point", "coordinates": [-121.2322, 41.8479]}, "properties": {"NAME": "W6/NE-171", "TITLE": "Clear Lake Hills", "REGION": "Northeastern Ranges", "ASSOCIATION": "USA - CA", "POINTS": "6", "BONUSPOINTS": "0"}}, {"type": "Feature", "geometry": {"type": "Point", "coordinates": [-121.8052, 41.1034]}, "properties": {"NAME": "W6/NE-172", "TITLE": "North Red Mountain", "REGION": "Northeastern Ranges", "ASSOCIATION": "USA - CA", "POINTS": "6", "BONUSPOINTS": "0"}}, {"type": "Feature", "geometry": {"type": "Point", "coordinates": [-120.8519, 41.829]}, "properties": {"NAME": "W6/NE-173", "TITLE": "East Point", "REGION": "Northeastern Ranges", "ASSOCIATION": "USA - CA", "POINTS": "6", "BONUSPOINTS": "0"}}, {"type": "Feature", "geometry": {"type": "Point", "coordinates": [-122.2226, 41.5809]}, "properties": {"NAME": "W6/NE-174", "TITLE": "Sheep Rock", "REGION": "Northeastern Ranges", "ASSOCIATION": "USA - CA", "POINTS": "6", "BONUSPOINTS": "0"}}, {"type": "Feature", "geometry": {"type": "Point", "coordinates": [-122.1358, 41.9739]}, "properties": {"NAME": "W6/NE-175", "TITLE": "Secret Spring Mountain", "REGION": "Northeastern Ranges", "ASSOCIATION": "USA - CA", "POINTS": "6", "BONUSPOINTS": "0"}}, {"type": "Feature", "geometry": {"type": "Point", "coordinates": [-121.5173, 41.3252]}, "properties": {"NAME": "W6/NE-176", "TITLE": "Indian Spring Mountain", "REGION": "Northeastern Ranges", "ASSOCIATION": "USA - CA", "POINTS": "6", "BONUSPOINTS": "0"}}, {"type": "Feature", "geometry": {"type": "Point", "coordinates": [-122.1119, 41.8077]}, "properties": {"NAME": "W6/NE-177", "TITLE": "5650", "REGION": "Northeastern Ranges", "ASSOCIATION": "USA - CA", "POINTS": "6", "BONUSPOINTS": "0"}}, {"type": "Feature", "geometry": {"type": "Point", "coordinates": [-120.9805, 40.8931]}, "properties": {"NAME": "W6/NE-178", "TITLE": "Indian Mountain", "REGION": "Northeastern Ranges", "ASSOCIATION": "USA - CA", "POINTS": "6", "BONUSPOINTS": "0"}}, {"type": "Feature", "geometry": {"type": "Point", "coordinates": [-122.2542, 41.0476]}, "properties": {"NAME": "W6/NE-179", "TITLE": "Tombstone Mountain", "REGION": "Northeastern Ranges", "ASSOCIATION": "USA - CA", "POINTS": "6", "BONUSPOINTS": "0"}}, {"type": "Feature", "geometry": {"type": "Point", "coordinates": [-121.1664, 41.7632]}, "properties": {"NAME": "W6/NE-180", "TITLE": "Double Head Mountain", "REGION": "Northeastern Ranges", "ASSOCIATION": "USA - CA", "POINTS": "6", "BONUSPOINTS": "0"}}, {"type": "Feature", "geometry": {"type": "Point", "coordinates": [-121.3782, 40.9007]}, "properties": {"NAME": "W6/NE-181", "TITLE": "Bald Mountain", "REGION": "Northeastern Ranges", "ASSOCIATION": "USA - CA", "POINTS": "6", "BONUSPOINTS": "0"}}, {"type": "Feature", "geometry": {"type": "Point", "coordinates": [-121.7252, 41.1472]}, "properties": {"NAME": "W6/NE-182", "TITLE": "5541", "REGION": "Northeastern Ranges", "ASSOCIATION": "USA - CA", "POINTS": "6", "BONUSPOINTS": "0"}}, {"type": "Feature", "geometry": {"type": "Point", "coordinates": [-122.2664, 41.0061]}, "properties": {"NAME": "W6/NE-183", "TITLE": "5537", "REGION": "Northeastern Ranges", "ASSOCIATION": "USA - CA", "POINTS": "6", "BONUSPOINTS": "0"}}, {"type": "Feature", "geometry": {"type": "Point", "coordinates": [-121.8539, 41.0968]}, "properties": {"NAME": "W6/NE-184", "TITLE": "Bald Mountain", "REGION": "Northeastern Ranges", "ASSOCIATION": "USA - CA", "POINTS": "6", "BONUSPOINTS": "0"}}, {"type": "Feature", "geometry": {"type": "Point", "coordinates": [-121.3841, 41.2528]}, "properties": {"NAME": "W6/NE-185", "TITLE": "5530", "REGION": "Northeastern Ranges", "ASSOCIATION": "USA - CA", "POINTS": "6", "BONUSPOINTS": "0"}}, {"type": "Feature", "geometry": {"type": "Point", "coordinates": [-122.1258, 41.9338]}, "properties": {"NAME": "W6/NE-186", "TITLE": "McGavin Peak", "REGION": "Northeastern Ranges", "ASSOCIATION": "USA - CA", "POINTS": "4", "BONUSPOINTS": "0"}}, {"type": "Feature", "geometry": {"type": "Point", "coordinates": [-121.4621, 41.2772]}, "properties": {"NAME": "W6/NE-187", "TITLE": "Whitehorse Benchmark", "REGION": "Northeastern Ranges", "ASSOCIATION": "USA - CA", "POINTS": "4", "BONUSPOINTS": "0"}}, {"type": "Feature", "geometry": {"type": "Point", "coordinates": [-121.1679, 41.9561]}, "properties": {"NAME": "W6/NE-188", "TITLE": "Carr Butte", "REGION": "Northeastern Ranges", "ASSOCIATION": "USA - CA", "POINTS": "4", "BONUSPOINTS": "0"}}, {"type": "Feature", "geometry": {"type": "Point", "coordinates": [-121.5419, 40.8033]}, "properties": {"NAME": "W6/NE-189", "TITLE": "Cornaz Peak", "REGION": "Northeastern Ranges", "ASSOCIATION": "USA - CA", "POINTS": "4", "BONUSPOINTS": "0"}}, {"type": "Feature", "geometry": {"type": "Point", "coordinates": [-121.0037, 41.3832]}, "properties": {"NAME": "W6/NE-190", "TITLE": "Stone Coal Mountain", "REGION": "Northeastern Ranges", "ASSOCIATION": "USA - CA", "POINTS": "4", "BONUSPOINTS": "0"}}, {"type": "Feature", "geometry": {"type": "Point", "coordinates": [-122.1172, 41.0163]}, "properties": {"NAME": "W6/NE-191", "TITLE": "North Fork Mountain", "REGION": "Northeastern Ranges", "ASSOCIATION": "USA - CA", "POINTS": "4", "BONUSPOINTS": "0"}}, {"type": "Feature", "geometry": {"type": "Point", "coordinates": [-121.5905, 40.7774]}, "properties": {"NAME": "W6/NE-192", "TITLE": "South Twin Buttes", "REGION": "Northeastern Ranges", "ASSOCIATION": "USA - CA", "POINTS": "4", "BONUSPOINTS": "0"}}, {"type": "Feature", "geometry": {"type": "Point", "coordinates": [-122.0728, 41.0687]}, "properties": {"NAME": "W6/NE-193", "TITLE": "Shoeinhorse Mountain", "REGION": "Northeastern Ranges", "ASSOCIATION": "USA - CA", "POINTS": "4", "BONUSPOINTS": "0"}}, {"type": "Feature", "geometry": {"type": "Point", "coordinates": [-121.5289, 41.738]}, "properties": {"NAME": "W6/NE-194", "TITLE": "Schonchin Butte", "REGION": "Northeastern Ranges", "ASSOCIATION": "USA - CA", "POINTS": "4", "BONUSPOINTS": "0"}}, {"type": "Feature", "geometry": {"type": "Point", "coordinates": [-121.4625, 41.4273]}, "properties": {"NAME": "W6/NE-195", "TITLE": "Round Mountain", "REGION": "Northeastern Ranges", "ASSOCIATION": "USA - CA", "POINTS": "4", "BONUSPOINTS": "0"}}, {"type": "Feature", "geometry": {"type": "Point", "coordinates": [-121.5772, 41.9526]}, "properties": {"NAME": "W6/NE-196", "TITLE": "Sheepy Peak", "REGION": "Northeastern Ranges", "ASSOCIATION": "USA - CA", "POINTS": "4", "BONUSPOINTS": "0"}}, {"type": "Feature", "geometry": {"type": "Point", "coordinates": [-120.2514, 40.4142]}, "properties": {"NAME": "W6/NE-197", "TITLE": "5252", "REGION": "Northeastern Ranges", "ASSOCIATION": "USA - CA", "POINTS": "4", "BONUSPOINTS": "0"}}, {"type": "Feature", "geometry": {"type": "Point", "coordinates": [-121.5328, 40.7818]}, "properties": {"NAME": "W6/NE-198", "TITLE": "Red Rock Hill", "REGION": "Northeastern Ranges", "ASSOCIATION": "USA - CA", "POINTS": "4", "BONUSPOINTS": "0"}}, {"type": "Feature", "geometry": {"type": "Point", "coordinates": [-121.3517, 41.2773]}, "properties": {"NAME": "W6/NE-199", "TITLE": "Taylor Mountain", "REGION": "Northeastern Ranges", "ASSOCIATION": "USA - CA", "POINTS": "4", "BONUSPOINTS": "0"}}, {"type": "Feature", "geometry": {"type": "Point", "coordinates": [-120.4581, 40.3386]}, "properties": {"NAME": "W6/NE-200", "TITLE": "Bald Mountain", "REGION": "Northeastern Ranges", "ASSOCIATION": "USA - CA", "POINTS": "4", "BONUSPOINTS": "0"}}, {"type": "Feature", "geometry": {"type": "Point", "coordinates": [-120.8852, 41.1725]}, "properties": {"NAME": "W6/NE-201", "TITLE": "5210", "REGION": "Northeastern Ranges", "ASSOCIATION": "USA - CA", "POINTS": "4", "BONUSPOINTS": "0"}}, {"type": "Feature", "geometry": {"type": "Point", "coordinates": [-120.9637, 41.2202]}, "properties": {"NAME": "W6/NE-202", "TITLE": "Barber Ridge", "REGION": "Northeastern Ranges", "ASSOCIATION": "USA - CA", "POINTS": "4", "BONUSPOINTS": "0"}}, {"type": "Feature", "geometry": {"type": "Point", "coordinates": [-121.5736, 41.879]}, "properties": {"NAME": "W6/NE-203", "TITLE": "Barntop Mountain", "REGION": "Northeastern Ranges", "ASSOCIATION": "USA - CA", "POINTS": "4", "BONUSPOINTS": "0"}}, {"type": "Feature", "geometry": {"type": "Point", "coordinates": [-121.797, 40.8316]}, "properties": {"NAME": "W6/NE-204", "TITLE": "Carberry Mountain", "REGION": "Northeastern Ranges", "ASSOCIATION": "USA - CA", "POINTS": "4", "BONUSPOINTS": "0"}}, {"type": "Feature", "geometry": {"type": "Point", "coordinates": [-122.2405, 41.145]}, "properties": {"NAME": "W6/NE-205", "TITLE": "Girard Ridge", "REGION": "Northeastern Ranges", "ASSOCIATION": "USA - CA", "POINTS": "4", "BONUSPOINTS": "0"}}, {"type": "Feature", "geometry": {"type": "Point", "coordinates": [-122.2634, 41.0328]}, "properties": {"NAME": "W6/NE-206", "TITLE": "Tater Hill", "REGION": "Northeastern Ranges", "ASSOCIATION": "USA - CA", "POINTS": "4", "BONUSPOINTS": "0"}}, {"type": "Feature", "geometry": {"type": "Point", "coordinates": [-122.2718, 41.1083]}, "properties": {"NAME": "W6/NE-207", "TITLE": "5145", "REGION": "Northeastern Ranges", "ASSOCIATION": "USA - CA", "POINTS": "4", "BONUSPOINTS": "0"}}, {"type": "Feature", "geometry": {"type": "Point", "coordinates": [-122.5118, 41.8576]}, "properties": {"NAME": "W6/NE-208", "TITLE": "Black Mountain", "REGION": "Northeastern Ranges", "ASSOCIATION": "USA - CA", "POINTS": "4", "BONUSPOINTS": "0"}}, {"type": "Feature", "geometry": {"type": "Point", "coordinates": [-121.1801, 41.055]}, "properties": {"NAME": "W6/NE-209", "TITLE": "5090", "REGION": "Northeastern Ranges", "ASSOCIATION": "USA - CA", "POINTS": "4", "BONUSPOINTS": "0"}}, {"type": "Feature", "geometry": {"type": "Point", "coordinates": [-121.2959, 41.6292]}, "properties": {"NAME": "W6/NE-210", "TITLE": "Timber Mountain", "REGION": "Northeastern Ranges", "ASSOCIATION": "USA - CA", "POINTS": "4", "BONUSPOINTS": "0"}}, {"type": "Feature", "geometry": {"type": "Point", "coordinates": [-122.0511, 41.9579]}, "properties": {"NAME": "W6/NE-211", "TITLE": "Indian Benchmark", "REGION": "Northeastern Ranges", "ASSOCIATION": "USA - CA", "POINTS": "4", "BONUSPOINTS": "0"}}, {"type": "Feature", "geometry": {"type": "Point", "coordinates": [-121.4963, 41.0195]}, "properties": {"NAME": "W6/NE-212", "TITLE": "Saddle Mountain", "REGION": "Northeastern Ranges", "ASSOCIATION": "USA - CA", "POINTS": "4", "BONUSPOINTS": "0"}}, {"type": "Feature", "geometry": {"type": "Point", "coordinates": [-122.083, 41.9117]}, "properties": {"NAME": "W6/NE-213", "TITLE": "4966", "REGION": "Northeastern Ranges", "ASSOCIATION": "USA - CA", "POINTS": "4", "BONUSPOINTS": "0"}}, {"type": "Feature", "geometry": {"type": "Point", "coordinates": [-121.1633, 41.3327]}, "properties": {"NAME": "W6/NE-214", "TITLE": "Donica Mountain", "REGION": "Northeastern Ranges", "ASSOCIATION": "USA - CA", "POINTS": "4", "BONUSPOINTS": "0"}}, {"type": "Feature", "geometry": {"type": "Point", "coordinates": [-121.7844, 40.9266]}, "properties": {"NAME": "W6/NE-215", "TITLE": "Goose Mountain", "REGION": "Northeastern Ranges", "ASSOCIATION": "USA - CA", "POINTS": "4", "BONUSPOINTS": "0"}}, {"type": "Feature", "geometry": {"type": "Point", "coordinates": [-120.5244, 40.3379]}, "properties": {"NAME": "W6/NE-216", "TITLE": "West Bass Hill", "REGION": "Northeastern Ranges", "ASSOCIATION": "USA - CA", "POINTS": "4", "BONUSPOINTS": "0"}}, {"type": "Feature", "geometry": {"type": "Point", "coordinates": [-122.5468, 41.8148]}, "properties": {"NAME": "W6/NE-217", "TITLE": "Paradise Craggy", "REGION": "Northeastern Ranges", "ASSOCIATION": "USA - CA", "POINTS": "4", "BONUSPOINTS": "0"}}, {"type": "Feature", "geometry": {"type": "Point", "coordinates": [-121.5923, 41.0671]}, "properties": {"NAME": "W6/NE-218", "TITLE": "Fort Mountain", "REGION": "Northeastern Ranges", "ASSOCIATION": "USA - CA", "POINTS": "4", "BONUSPOINTS": "0"}}, {"type": "Feature", "geometry": {"type": "Point", "coordinates": [-121.3852, 41.8705]}, "properties": {"NAME": "W6/NE-219", "TITLE": "The Peninsula", "REGION": "Northeastern Ranges", "ASSOCIATION": "USA - CA", "POINTS": "4", "BONUSPOINTS": "0"}}, {"type": "Feature", "geometry": {"type": "Point", "coordinates": [-122.1729, 41.0977]}, "properties": {"NAME": "W6/NE-220", "TITLE": "Bald Mountain", "REGION": "Northeastern Ranges", "ASSOCIATION": "USA - CA", "POINTS": "4", "BONUSPOINTS": "0"}}, {"type": "Feature", "geometry": {"type": "Point", "coordinates": [-122.2408, 41.2268]}, "properties": {"NAME": "W6/NE-221", "TITLE": "Soda Creek Ridge", "REGION": "Northeastern Ranges", "ASSOCIATION": "USA - CA", "POINTS": "4", "BONUSPOINTS": "0"}}, {"type": "Feature", "geometry": {"type": "Point", "coordinates": [-122.0186, 41.0951]}, "properties": {"NAME": "W6/NE-222", "TITLE": "4677", "REGION": "Northeastern Ranges", "ASSOCIATION": "USA - CA", "POINTS": "4", "BONUSPOINTS": "0"}}, {"type": "Feature", "geometry": {"type": "Point", "coordinates": [-121.5243, 41.0162]}, "properties": {"NAME": "W6/NE-223", "TITLE": "4674", "REGION": "Northeastern Ranges", "ASSOCIATION": "USA - CA", "POINTS": "4", "BONUSPOINTS": "0"}}, {"type": "Feature", "geometry": {"type": "Point", "coordinates": [-121.5297, 40.8346]}, "properties": {"NAME": "W6/NE-224", "TITLE": "Brown Butte", "REGION": "Northeastern Ranges", "ASSOCIATION": "USA - CA", "POINTS": "4", "BONUSPOINTS": "0"}}, {"type": "Feature", "geometry": {"type": "Point", "coordinates": [-122.1463, 41.0138]}, "properties": {"NAME": "W6/NE-225", "TITLE": "Satin Peak", "REGION": "Northeastern Ranges", "ASSOCIATION": "USA - CA", "POINTS": "4", "BONUSPOINTS": "0"}}, {"type": "Feature", "geometry": {"type": "Point", "coordinates": [-122.3024, 41.0276]}, "properties": {"NAME": "W6/NE-226", "TITLE": "4589", "REGION": "Northeastern Ranges", "ASSOCIATION": "USA - CA", "POINTS": "4", "BONUSPOINTS": "0"}}, {"type": "Feature", "geometry": {"type": "Point", "coordinates": [-121.9945, 41.0917]}, "properties": {"NAME": "W6/NE-227", "TITLE": "Dutchman Peak", "REGION": "Northeastern Ranges", "ASSOCIATION": "USA - CA", "POINTS": "4", "BONUSPOINTS": "0"}}, {"type": "Feature", "geometry": {"type": "Point", "coordinates": [-121.6694, 40.9526]}, "properties": {"NAME": "W6/NE-228", "TITLE": "Lookout Mountain", "REGION": "Northeastern Ranges", "ASSOCIATION": "USA - CA", "POINTS": "4", "BONUSPOINTS": "0"}}, {"type": "Feature", "geometry": {"type": "Point", "coordinates": [-122.3932, 41.8583]}, "properties": {"NAME": "W6/NE-229", "TITLE": "Bogus Mountain", "REGION": "Northeastern Ranges", "ASSOCIATION": "USA - CA", "POINTS": "4", "BONUSPOINTS": "0"}}, {"type": "Feature", "geometry": {"type": "Point", "coordinates": [-121.6814, 40.9891]}, "properties": {"NAME": "W6/NE-230", "TITLE": "Long Valley Mountain", "REGION": "Northeastern Ranges", "ASSOCIATION": "USA - CA", "POINTS": "4", "BONUSPOINTS": "0"}}, {"type": "Feature", "geometry": {"type": "Point", "coordinates": [-121.6898, 40.161]}, "properties": {"NAME": "W6/NE-231", "TITLE": "Barkley Mountain", "REGION": "Northeastern Ranges", "ASSOCIATION": "USA - CA", "POINTS": "4", "BONUSPOINTS": "0"}}, {"type": "Feature", "geometry": {"type": "Point", "coordinates": [-122.1355, 41.0672]}, "properties": {"NAME": "W6/NE-232", "TITLE": "Beetle Butte", "REGION": "Northeastern Ranges", "ASSOCIATION": "USA - CA", "POINTS": "4", "BONUSPOINTS": "0"}}, {"type": "Feature", "geometry": {"type": "Point", "coordinates": [-122.0247, 40.9997]}, "properties": {"NAME": "W6/NE-233", "TITLE": "Bagley Mountain", "REGION": "Northeastern Ranges", "ASSOCIATION": "USA - CA", "POINTS": "4", "BONUSPOINTS": "0"}}, {"type": "Feature", "geometry": {"type": "Point", "coordinates": [-122.2043, 41.1997]}, "properties": {"NAME": "W6/NE-234", "TITLE": "4416", "REGION": "Northeastern Ranges", "ASSOCIATION": "USA - CA", "POINTS": "4", "BONUSPOINTS": "0"}}, {"type": "Feature", "geometry": {"type": "Point", "coordinates": [-121.4821, 41.0036]}, "properties": {"NAME": "W6/NE-235", "TITLE": "Haney Mountain", "REGION": "Northeastern Ranges", "ASSOCIATION": "USA - CA", "POINTS": "4", "BONUSPOINTS": "0"}}, {"type": "Feature", "geometry": {"type": "Point", "coordinates": [-121.4905, 40.8682]}, "properties": {"NAME": "W6/NE-236", "TITLE": "Cinder Butte", "REGION": "Northeastern Ranges", "ASSOCIATION": "USA - CA", "POINTS": "4", "BONUSPOINTS": "0"}}, {"type": "Feature", "geometry": {"type": "Point", "coordinates": [-122.1769, 40.877]}, "properties": {"NAME": "W6/NE-237", "TITLE": "Salt Creek Mountain", "REGION": "Northeastern Ranges", "ASSOCIATION": "USA - CA", "POINTS": "4", "BONUSPOINTS": "0"}}, {"type": "Feature", "geometry": {"type": "Point", "coordinates": [-121.4647, 40.9673]}, "properties": {"NAME": "W6/NE-238", "TITLE": "Hogback Ridge", "REGION": "Northeastern Ranges", "ASSOCIATION": "USA - CA", "POINTS": "4", "BONUSPOINTS": "0"}}, {"type": "Feature", "geometry": {"type": "Point", "coordinates": [-122.2106, 40.8232]}, "properties": {"NAME": "W6/NE-239", "TITLE": "Town Mountain", "REGION": "Northeastern Ranges", "ASSOCIATION": "USA - CA", "POINTS": "4", "BONUSPOINTS": "0"}}, {"type": "Feature", "geometry": {"type": "Point", "coordinates": [-122.123, 41.1243]}, "properties": {"NAME": "W6/NE-240", "TITLE": "4300", "REGION": "Northeastern Ranges", "ASSOCIATION": "USA - CA", "POINTS": "4", "BONUSPOINTS": "0"}}, {"type": "Feature", "geometry": {"type": "Point", "coordinates": [-122.1219, 41.1475]}, "properties": {"NAME": "W6/NE-241", "TITLE": "4298", "REGION": "Northeastern Ranges", "ASSOCIATION": "USA - CA", "POINTS": "4", "BONUSPOINTS": "0"}}, {"type": "Feature", "geometry": {"type": "Point", "coordinates": [-122.1695, 41.2502]}, "properties": {"NAME": "W6/NE-242", "TITLE": "Dogwood Butte", "REGION": "Northeastern Ranges", "ASSOCIATION": "USA - CA", "POINTS": "4", "BONUSPOINTS": "0"}}, {"type": "Feature", "geometry": {"type": "Point", "coordinates": [-122.1868, 40.8492]}, "properties": {"NAME": "W6/NE-243", "TITLE": "Minnesota Mountain", "REGION": "Northeastern Ranges", "ASSOCIATION": "USA - CA", "POINTS": "4", "BONUSPOINTS": "0"}}, {"type": "Feature", "geometry": {"type": "Point", "coordinates": [-122.1994, 41.0235]}, "properties": {"NAME": "W6/NE-244", "TITLE": "Hat Mountain", "REGION": "Northeastern Ranges", "ASSOCIATION": "USA - CA", "POINTS": "4", "BONUSPOINTS": "0"}}, {"type": "Feature", "geometry": {"type": "Point", "coordinates": [-122.2861, 40.9414]}, "properties": {"NAME": "W6/NE-245", "TITLE": "Hanland Peak", "REGION": "Northeastern Ranges", "ASSOCIATION": "USA - CA", "POINTS": "4", "BONUSPOINTS": "0"}}, {"type": "Feature", "geometry": {"type": "Point", "coordinates": [-122.2143, 40.9346]}, "properties": {"NAME": "W6/NE-246", "TITLE": "Bollibokka Mountain", "REGION": "Northeastern Ranges", "ASSOCIATION": "USA - CA", "POINTS": "4", "BONUSPOINTS": "0"}}, {"type": "Feature", "geometry": {"type": "Point", "coordinates": [-122.3257, 40.9132]}, "properties": {"NAME": "W6/NE-247", "TITLE": "Bucks Peak", "REGION": "Northeastern Ranges", "ASSOCIATION": "USA - CA", "POINTS": "4", "BONUSPOINTS": "0"}}, {"type": "Feature", "geometry": {"type": "Point", "coordinates": [-122.3203, 40.9669]}, "properties": {"NAME": "W6/NE-248", "TITLE": "Green Mountain", "REGION": "Northeastern Ranges", "ASSOCIATION": "USA - CA", "POINTS": "4", "BONUSPOINTS": "0"}}, {"type": "Feature", "geometry": {"type": "Point", "coordinates": [-122.3634, 41.0332]}, "properties": {"NAME": "W6/NE-249", "TITLE": "4037", "REGION": "Northeastern Ranges", "ASSOCIATION": "USA - CA", "POINTS": "4", "BONUSPOINTS": "0"}}, {"type": "Feature", "geometry": {"type": "Point", "coordinates": [-121.7858, 40.4311]}, "properties": {"NAME": "W6/NE-250", "TITLE": "Digger Butte", "REGION": "Northeastern Ranges", "ASSOCIATION": "USA - CA", "POINTS": "4", "BONUSPOINTS": "0"}}, {"type": "Feature", "geometry": {"type": "Point", "coordinates": [-122.2461, 40.8024]}, "properties": {"NAME": "W6/NE-251", "TITLE": "Horse Mountain", "REGION": "Northeastern Ranges", "ASSOCIATION": "USA - CA", "POINTS": "4", "BONUSPOINTS": "0"}}, {"type": "Feature", "geometry": {"type": "Point", "coordinates": [-122.1296, 40.9748]}, "properties": {"NAME": "W6/NE-252", "TITLE": "Signal Butte", "REGION": "Northeastern Ranges", "ASSOCIATION": "USA - CA", "POINTS": "2", "BONUSPOINTS": "0"}}, {"type": "Feature", "geometry": {"type": "Point", "coordinates": [-122.3651, 40.966]}, "properties": {"NAME": "W6/NE-253", "TITLE": "Crane Mountain", "REGION": "Northeastern Ranges", "ASSOCIATION": "USA - CA", "POINTS": "2", "BONUSPOINTS": "0"}}, {"type": "Feature", "geometry": {"type": "Point", "coordinates": [-122.0186, 41.0536]}, "properties": {"NAME": "W6/NE-254", "TITLE": "Coyote Peak", "REGION": "Northeastern Ranges", "ASSOCIATION": "USA - CA", "POINTS": "2", "BONUSPOINTS": "0"}}, {"type": "Feature", "geometry": {"type": "Point", "coordinates": [-121.5866, 40.928]}, "properties": {"NAME": "W6/NE-255", "TITLE": "Brush Mountain", "REGION": "Northeastern Ranges", "ASSOCIATION": "USA - CA", "POINTS": "2", "BONUSPOINTS": "0"}}, {"type": "Feature", "geometry": {"type": "Point", "coordinates": [-122.173, 41.1324]}, "properties": {"NAME": "W6/NE-256", "TITLE": "3796", "REGION": "Northeastern Ranges", "ASSOCIATION": "USA - CA", "POINTS": "2", "BONUSPOINTS": "0"}}, {"type": "Feature", "geometry": {"type": "Point", "coordinates": [-121.9984, 40.8834]}, "properties": {"NAME": "W6/NE-257", "TITLE": "Hogback Mountain", "REGION": "Northeastern Ranges", "ASSOCIATION": "USA - CA", "POINTS": "2", "BONUSPOINTS": "0"}}, {"type": "Feature", "geometry": {"type": "Point", "coordinates": [-122.3624, 41.9537]}, "properties": {"NAME": "W6/NE-258", "TITLE": "Lakeview Benchmark", "REGION": "Northeastern Ranges", "ASSOCIATION": "USA - CA", "POINTS": "2", "BONUSPOINTS": "0"}}, {"type": "Feature", "geometry": {"type": "Point", "coordinates": [-122.3326, 41.7326]}, "properties": {"NAME": "W6/NE-259", "TITLE": "Table Rock", "REGION": "Northeastern Ranges", "ASSOCIATION": "USA - CA", "POINTS": "2", "BONUSPOINTS": "0"}}, {"type": "Feature", "geometry": {"type": "Point", "coordinates": [-122.619, 41.6857]}, "properties": {"NAME": "W6/NE-260", "TITLE": "West Kilgore Hills", "REGION": "Northeastern Ranges", "ASSOCIATION": "USA - CA", "POINTS": "2", "BONUSPOINTS": "0"}}, {"type": "Feature", "geometry": {"type": "Point", "coordinates": [-122.0105, 40.9519]}, "properties": {"NAME": "W6/NE-261", "TITLE": "Kettle Mountain", "REGION": "Northeastern Ranges", "ASSOCIATION": "USA - CA", "POINTS": "2", "BONUSPOINTS": "0"}}, {"type": "Feature", "geometry": {"type": "Point", "coordinates": [-121.9691, 41.023]}, "properties": {"NAME": "W6/NE-262", "TITLE": "Oak Mountain", "REGION": "Northeastern Ranges", "ASSOCIATION": "USA - CA", "POINTS": "2", "BONUSPOINTS": "0"}}, {"type": "Feature", "geometry": {"type": "Point", "coordinates": [-122.3875, 41.6714]}, "properties": {"NAME": "W6/NE-263", "TITLE": "Rabbit Hill", "REGION": "Northeastern Ranges", "ASSOCIATION": "USA - CA", "POINTS": "2", "BONUSPOINTS": "0"}}, {"type": "Feature", "geometry": {"type": "Point", "coordinates": [-122.045, 40.9198]}, "properties": {"NAME": "W6/NE-264", "TITLE": "3486", "REGION": "Northeastern Ranges", "ASSOCIATION": "USA - CA", "POINTS": "2", "BONUSPOINTS": "0"}}, {"type": "Feature", "geometry": {"type": "Point", "coordinates": [-122.0858, 40.8845]}, "properties": {"NAME": "W6/NE-265", "TITLE": "Brock Butte", "REGION": "Northeastern Ranges", "ASSOCIATION": "USA - CA", "POINTS": "2", "BONUSPOINTS": "0"}}, {"type": "Feature", "geometry": {"type": "Point", "coordinates": [-122.4255, 41.664]}, "properties": {"NAME": "W6/NE-266", "TITLE": "Owls Head", "REGION": "Northeastern Ranges", "ASSOCIATION": "USA - CA", "POINTS": "2", "BONUSPOINTS": "0"}}, {"type": "Feature", "geometry": {"type": "Point", "coordinates": [-121.9581, 40.8052]}, "properties": {"NAME": "W6/NE-267", "TITLE": "Round Mountain", "REGION": "Northeastern Ranges", "ASSOCIATION": "USA - CA", "POINTS": "2", "BONUSPOINTS": "0"}}, {"type": "Feature", "geometry": {"type": "Point", "coordinates": [-122.3348, 40.8799]}, "properties": {"NAME": "W6/NE-268", "TITLE": "Sacramento Mountain", "REGION": "Northeastern Ranges", "ASSOCIATION": "USA - CA", "POINTS": "2", "BONUSPOINTS": "0"}}, {"type": "Feature", "geometry": {"type": "Point", "coordinates": [-122.4173, 41.5386]}, "properties": {"NAME": "W6/NE-269", "TITLE": "3300", "REGION": "Northeastern Ranges", "ASSOCIATION": "USA - CA", "POINTS": "2", "BONUSPOINTS": "0"}}, {"type": "Feature", "geometry": {"type": "Point", "coordinates": [-122.5153, 41.714]}, "properties": {"NAME": "W6/NE-270", "TITLE": "Gregory Mountain", "REGION": "Northeastern Ranges", "ASSOCIATION": "USA - CA", "POINTS": "2", "BONUSPOINTS": "0"}}, {"type": "Feature", "geometry": {"type": "Point", "coordinates": [-122.4727, 41.8199]}, "properties": {"NAME": "W6/NE-271", "TITLE": "Marys Peak", "REGION": "Northeastern Ranges", "ASSOCIATION": "USA - CA", "POINTS": "2", "BONUSPOINTS": "0"}}, {"type": "Feature", "geometry": {"type": "Point", "coordinates": [-122.1085, 40.8474]}, "properties": {"NAME": "W6/NE-272", "TITLE": "Devils Rock", "REGION": "Northeastern Ranges", "ASSOCIATION": "USA - CA", "POINTS": "2", "BONUSPOINTS": "0"}}, {"type": "Feature", "geometry": {"type": "Point", "coordinates": [-122.4557, 41.5911]}, "properties": {"NAME": "W6/NE-273", "TITLE": "3205", "REGION": "Northeastern Ranges", "ASSOCIATION": "USA - CA", "POINTS": "2", "BONUSPOINTS": "0"}}, {"type": "Feature", "geometry": {"type": "Point", "coordinates": [-122.2704, 40.7995]}, "properties": {"NAME": "W6/NE-274", "TITLE": "North Gray Rocks", "REGION": "Northeastern Ranges", "ASSOCIATION": "USA - CA", "POINTS": "2", "BONUSPOINTS": "0"}}, {"type": "Feature", "geometry": {"type": "Point", "coordinates": [-121.9144, 40.5675]}, "properties": {"NAME": "W6/NE-275", "TITLE": "Blue Mountain", "REGION": "Northeastern Ranges", "ASSOCIATION": "USA - CA", "POINTS": "2", "BONUSPOINTS": "0"}}, {"type": "Feature", "geometry": {"type": "Point", "coordinates": [-121.943, 40.3415]}, "properties": {"NAME": "W6/NE-276", "TITLE": "Inskip Hill", "REGION": "Northeastern Ranges", "ASSOCIATION": "USA - CA", "POINTS": "2", "BONUSPOINTS": "0"}}, {"type": "Feature", "geometry": {"type": "Point", "coordinates": [-121.991, 40.8327]}, "properties": {"NAME": "W6/NE-277", "TITLE": "Little Round Mountain", "REGION": "Northeastern Ranges", "ASSOCIATION": "USA - CA", "POINTS": "2", "BONUSPOINTS": "0"}}, {"type": "Feature", "geometry": {"type": "Point", "coordinates": [-122.1455, 40.8486]}, "properties": {"NAME": "W6/NE-278", "TITLE": "Winnibulli Mountain", "REGION": "Northeastern Ranges", "ASSOCIATION": "USA - CA", "POINTS": "2", "BONUSPOINTS": "0"}}, {"type": "Feature", "geometry": {"type": "Point", "coordinates": [-121.9996, 40.4565]}, "properties": {"NAME": "W6/NE-279", "TITLE": "Black Butte", "REGION": "Northeastern Ranges", "ASSOCIATION": "USA - CA", "POINTS": "2", "BONUSPOINTS": "0"}}, {"type": "Feature", "geometry": {"type": "Point", "coordinates": [-122.3062, 40.844]}, "properties": {"NAME": "W6/NE-280", "TITLE": "2666", "REGION": "Northeastern Ranges", "ASSOCIATION": "USA - CA", "POINTS": "2", "BONUSPOINTS": "0"}}, {"type": "Feature", "geometry": {"type": "Point", "coordinates": [-122.2561, 40.7329]}, "properties": {"NAME": "W6/NE-281", "TITLE": "2659", "REGION": "Northeastern Ranges", "ASSOCIATION": "USA - CA", "POINTS": "2", "BONUSPOINTS": "0"}}, {"type": "Feature", "geometry": {"type": "Point", "coordinates": [-122.2955, 40.8816]}, "properties": {"NAME": "W6/NE-282", "TITLE": "2500", "REGION": "Northeastern Ranges", "ASSOCIATION": "USA - CA", "POINTS": "2", "BONUSPOINTS": "0"}}, {"type": "Feature", "geometry": {"type": "Point", "coordinates": [-122.302, 40.7508]}, "properties": {"NAME": "W6/NE-283", "TITLE": "Gray Rocks", "REGION": "Northeastern Ranges", "ASSOCIATION": "USA - CA", "POINTS": "1", "BONUSPOINTS": "0"}}, {"type": "Feature", "geometry": {"type": "Point", "coordinates": [-122.1579, 40.7787]}, "properties": {"NAME": "W6/NE-284", "TITLE": "Green Mountain", "REGION": "Northeastern Ranges", "ASSOCIATION": "USA - CA", "POINTS": "1", "BONUSPOINTS": "0"}}, {"type": "Feature", "geometry": {"type": "Point", "coordinates": [-122.1306, 40.8615]}, "properties": {"NAME": "W6/NE-285", "TITLE": "Chirpchatter Mountain", "REGION": "Northeastern Ranges", "ASSOCIATION": "USA - CA", "POINTS": "1", "BONUSPOINTS": "0"}}, {"type": "Feature", "geometry": {"type": "Point", "coordinates": [-122.0926, 40.262]}, "properties": {"NAME": "W6/NE-286", "TITLE": "North Tuscan Buttes", "REGION": "Northeastern Ranges", "ASSOCIATION": "USA - CA", "POINTS": "1", "BONUSPOINTS": "0"}}, {"type": "Feature", "geometry": {"type": "Point", "coordinates": [-122.0044, 40.3682]}, "properties": {"NAME": "W6/NE-287", "TITLE": "Soap Butte", "REGION": "Northeastern Ranges", "ASSOCIATION": "USA - CA", "POINTS": "1", "BONUSPOINTS": "0"}}, {"type": "Feature", "geometry": {"type": "Point", "coordinates": [-122.2251, 40.7517]}, "properties": {"NAME": "W6/NE-288", "TITLE": "1620", "REGION": "Northeastern Ranges", "ASSOCIATION": "USA - CA", "POINTS": "1", "BONUSPOINTS": "0"}}, {"type": "Feature", "geometry": {"type": "Point", "coordinates": [-122.3342, 40.6946]}, "properties": {"NAME": "W6/NE-289", "TITLE": "Fish Mountain", "REGION": "Northeastern Ranges", "ASSOCIATION": "USA - CA", "POINTS": "1", "BONUSPOINTS": "0"}}, {"type": "Feature", "geometry": {"type": "Point", "coordinates": [-120.2188, 41.4187]}, "properties": {"NAME": "W6/NE-290", "TITLE": "Milk Peak", "REGION": "Northeastern Ranges", "ASSOCIATION": "USA - CA", "POINTS": "8", "BONUSPOINTS": "3"}}, {"type": "Feature", "geometry": {"type": "Point", "coordinates": [-121.5175, 40.5171]}, "properties": {"NAME": "W6/NE-291", "TITLE": "South Chaos Crags", "REGION": "Northeastern Ranges", "ASSOCIATION": "USA - CA", "POINTS": "8", "BONUSPOINTS": "3"}}, {"type": "Feature", "geometry": {"type": "Point", "coordinates": [-120.2732, 41.588]}, "properties": {"NAME": "W6/NE-292", "TITLE": "Cedar Mountain", "REGION": "Northeastern Ranges", "ASSOCIATION": "USA - CA", "POINTS": "8", "BONUSPOINTS": "3"}}, {"type": "Feature", "geometry": {"type": "Point", "coordinates": [-121.9737, 41.4628]}, "properties": {"NAME": "W6/NE-293", "TITLE": "Dry Creek Peak", "REGION": "Northeastern Ranges", "ASSOCIATION": "USA - CA", "POINTS": "8", "BONUSPOINTS": "3"}}, {"type": "Feature", "geometry": {"type": "Point", "coordinates": [-120.8072, 40.2805]}, "properties": {"NAME": "W6/NE-294", "TITLE": "Indicator Peak", "REGION": "Northeastern Ranges", "ASSOCIATION": "USA - CA", "POINTS": "8", "BONUSPOINTS": "3"}}, {"type": "Feature", "geometry": {"type": "Point", "coordinates": [-120.2923, 41.1266]}, "properties": {"NAME": "W6/NE-295", "TITLE": "7220", "REGION": "Northeastern Ranges", "ASSOCIATION": "USA - CA", "POINTS": "6", "BONUSPOINTS": "3"}}, {"type": "Feature", "geometry": {"type": "Point", "coordinates": [-121.5598, 40.6948]}, "properties": {"NAME": "W6/NE-296", "TITLE": "Hall Butte", "REGION": "Northeastern Ranges", "ASSOCIATION": "USA - CA", "POINTS": "6", "BONUSPOINTS": "3"}}, {"type": "Feature", "geometry": {"type": "Point", "coordinates": [-121.7137, 41.5617]}, "properties": {"NAME": "W6/NE-297", "TITLE": "Pumice Stone Mountain", "REGION": "Northeastern Ranges", "ASSOCIATION": "USA - CA", "POINTS": "6", "BONUSPOINTS": "3"}}, {"type": "Feature", "geometry": {"type": "Point", "coordinates": [-121.9111, 41.4753]}, "properties": {"NAME": "W6/NE-298", "TITLE": "Hemlock Ridge", "REGION": "Northeastern Ranges", "ASSOCIATION": "USA - CA", "POINTS": "6", "BONUSPOINTS": "3"}}, {"type": "Feature", "geometry": {"type": "Point", "coordinates": [-120.7374, 40.996]}, "properties": {"NAME": "W6/NE-299", "TITLE": "6660", "REGION": "Northeastern Ranges", "ASSOCIATION": "USA - CA", "POINTS": "6", "BONUSPOINTS": "3"}}, {"type": "Feature", "geometry": {"type": "Point", "coordinates": [-121.118, 40.6968]}, "properties": {"NAME": "W6/NE-300", "TITLE": "Cone Mountain", "REGION": "Northeastern Ranges", "ASSOCIATION": "USA - CA", "POINTS": "6", "BONUSPOINTS": "3"}}, {"type": "Feature", "geometry": {"type": "Point", "coordinates": [-120.8328, 40.9796]}, "properties": {"NAME": "W6/NE-301", "TITLE": "Spring Hill", "REGION": "Northeastern Ranges", "ASSOCIATION": "USA - CA", "POINTS": "6", "BONUSPOINTS": "0"}}, {"type": "Feature", "geometry": {"type": "Point", "coordinates": [-120.1027, 39.7753]}, "properties": {"NAME": "W6/NE-302", "TITLE": "Beckwourth Pass Benchmark", "REGION": "Northeastern Ranges", "ASSOCIATION": "USA - CA", "POINTS": "6", "BONUSPOINTS": "0"}}, {"type": "Feature", "geometry": {"type": "Point", "coordinates": [-121.1957, 40.6446]}, "properties": {"NAME": "W6/NE-303", "TITLE": "6371", "REGION": "Northeastern Ranges", "ASSOCIATION": "USA - CA", "POINTS": "6", "BONUSPOINTS": "0"}}, {"type": "Feature", "geometry": {"type": "Point", "coordinates": [-121.8448, 41.8796]}, "properties": {"NAME": "W6/NE-304", "TITLE": "J F Mountain", "REGION": "Northeastern Ranges", "ASSOCIATION": "USA - CA", "POINTS": "6", "BONUSPOINTS": "0"}}, {"type": "Feature", "geometry": {"type": "Point", "coordinates": [-120.3073, 40.7804]}, "properties": {"NAME": "W6/NE-305", "TITLE": "South Twin Buttes", "REGION": "Northeastern Ranges", "ASSOCIATION": "USA - CA", "POINTS": "6", "BONUSPOINTS": "0"}}, {"type": "Feature", "geometry": {"type": "Point", "coordinates": [-121.0933, 40.9171]}, "properties": {"NAME": "W6/NE-306", "TITLE": "Bald Mountain", "REGION": "Northeastern Ranges", "ASSOCIATION": "USA - CA", "POINTS": "6", "BONUSPOINTS": "0"}}, {"type": "Feature", "geometry": {"type": "Point", "coordinates": [-120.6481, 41.0318]}, "properties": {"NAME": "W6/NE-307", "TITLE": "6046", "REGION": "Northeastern Ranges", "ASSOCIATION": "USA - CA", "POINTS": "6", "BONUSPOINTS": "0"}}, {"type": "Feature", "geometry": {"type": "Point", "coordinates": [-121.5134, 40.276]}, "properties": {"NAME": "W6/NE-308", "TITLE": "Mill Creek Plateau", "REGION": "Northeastern Ranges", "ASSOCIATION": "USA - CA", "POINTS": "6", "BONUSPOINTS": "0"}}, {"type": "Feature", "geometry": {"type": "Point", "coordinates": [-121.8438, 41.7997]}, "properties": {"NAME": "W6/NE-309", "TITLE": "East Sheep Mountain", "REGION": "Northeastern Ranges", "ASSOCIATION": "USA - CA", "POINTS": "6", "BONUSPOINTS": "0"}}, {"type": "Feature", "geometry": {"type": "Point", "coordinates": [-121.5471, 40.2506]}, "properties": {"NAME": "W6/NE-310", "TITLE": "5860", "REGION": "Northeastern Ranges", "ASSOCIATION": "USA - CA", "POINTS": "6", "BONUSPOINTS": "0"}}, {"type": "Feature", "geometry": {"type": "Point", "coordinates": [-120.797, 41.1234]}, "properties": {"NAME": "W6/NE-311", "TITLE": "5750", "REGION": "Northeastern Ranges", "ASSOCIATION": "USA - CA", "POINTS": "6", "BONUSPOINTS": "0"}}, {"type": "Feature", "geometry": {"type": "Point", "coordinates": [-122.0369, 41.6769]}, "properties": {"NAME": "W6/NE-312", "TITLE": "Horsethief Butte", "REGION": "Northeastern Ranges", "ASSOCIATION": "USA - CA", "POINTS": "6", "BONUSPOINTS": "0"}}, {"type": "Feature", "geometry": {"type": "Point", "coordinates": [-121.7803, 41.1776]}, "properties": {"NAME": "W6/NE-313", "TITLE": "5641", "REGION": "Northeastern Ranges", "ASSOCIATION": "USA - CA", "POINTS": "6", "BONUSPOINTS": "0"}}, {"type": "Feature", "geometry": {"type": "Point", "coordinates": [-121.5901, 40.8261]}, "properties": {"NAME": "W6/NE-314", "TITLE": "Doyle Butte", "REGION": "Northeastern Ranges", "ASSOCIATION": "USA - CA", "POINTS": "6", "BONUSPOINTS": "0"}}, {"type": "Feature", "geometry": {"type": "Point", "coordinates": [-121.9311, 41.9902]}, "properties": {"NAME": "W6/NE-315", "TITLE": "Dorris Hill", "REGION": "Northeastern Ranges", "ASSOCIATION": "USA - CA", "POINTS": "4", "BONUSPOINTS": "0"}}, {"type": "Feature", "geometry": {"type": "Point", "coordinates": [-121.2981, 41.8935]}, "properties": {"NAME": "W6/NE-316", "TITLE": "Horse Mountain", "REGION": "Northeastern Ranges", "ASSOCIATION": "USA - CA", "POINTS": "4", "BONUSPOINTS": "0"}}, {"type": "Feature", "geometry": {"type": "Point", "coordinates": [-122.2399, 41.0834]}, "properties": {"NAME": "W6/NE-317", "TITLE": "Yellowjacket Mountain", "REGION": "Northeastern Ranges", "ASSOCIATION": "USA - CA", "POINTS": "4", "BONUSPOINTS": "0"}}, {"type": "Feature", "geometry": {"type": "Point", "coordinates": [-120.7322, 41.441]}, "properties": {"NAME": "W6/NE-318", "TITLE": "Rattlesnake Butte", "REGION": "Northeastern Ranges", "ASSOCIATION": "USA - CA", "POINTS": "4", "BONUSPOINTS": "0"}}, {"type": "Feature", "geometry": {"type": "Point", "coordinates": [-121.2179, 40.9856]}, "properties": {"NAME": "W6/NE-319", "TITLE": "Third Butte", "REGION": "Northeastern Ranges", "ASSOCIATION": "USA - CA", "POINTS": "4", "BONUSPOINTS": "0"}}, {"type": "Feature", "geometry": {"type": "Point", "coordinates": [-122.4109, 41.5193]}, "properties": {"NAME": "W6/NE-320", "TITLE": "3343", "REGION": "Northeastern Ranges", "ASSOCIATION": "USA - CA", "POINTS": "2", "BONUSPOINTS": "0"}}, {"type": "Feature", "geometry": {"type": "Point", "coordinates": [-121.9965, 41.0379]}, "properties": {"NAME": "W6/NE-321", "TITLE": "3300", "REGION": "Northeastern Ranges", "ASSOCIATION": "USA - CA", "POINTS": "2", "BONUSPOINTS": "0"}}, {"type": "Feature", "geometry": {"type": "Point", "coordinates": [-122.4226, 41.554]}, "properties": {"NAME": "W6/NE-322", "TITLE": "3267", "REGION": "Northeastern Ranges", "ASSOCIATION": "USA - CA", "POINTS": "2", "BONUSPOINTS": "0"}}, {"type": "Feature", "geometry": {"type": "Point", "coordinates": [-121.7343, 40.0863]}, "properties": {"NAME": "W6/NE-323", "TITLE": "Iron Mountain", "REGION": "Northeastern Ranges", "ASSOCIATION": "USA - CA", "POINTS": "2", "BONUSPOINTS": "0"}}, {"type": "Feature", "geometry": {"type": "Point", "coordinates": [-122.2838, 40.8525]}, "properties": {"NAME": "W6/NE-324", "TITLE": "2535", "REGION": "Northeastern Ranges", "ASSOCIATION": "USA - CA", "POINTS": "2", "BONUSPOINTS": "0"}}]}