{"type": "FeatureCollection", "name": "W6/ND SUMMITS", "features": [{"type": "Feature", "geometry": {"type": "Point", "coordinates": [-119.3053, 38.4367]}, "properties": {"NAME": "W6/ND-001", "TITLE": "Mount Patterson", "REGION": "Northern Desert", "ASSOCIATION": "USA - CA", "POINTS": "10", "BONUSPOINTS": "3"}}, {"type": "Feature", "geometry": {"type": "Point", "coordinates": [-119.3, 38.4829]}, "properties": {"NAME": "W6/ND-002", "TITLE": "South Sister", "REGION": "Northern Desert", "ASSOCIATION": "USA - CA", "POINTS": "10", "BONUSPOINTS": "3"}}, {"type": "Feature", "geometry": {"type": "Point", "coordinates": [-118.7038, 37.7663]}, "properties": {"NAME": "W6/ND-003", "TITLE": "Glass Mountain (HP)", "REGION": "Northern Desert", "ASSOCIATION": "USA - CA", "POINTS": "10", "BONUSPOINTS": "3"}}, {"type": "Feature", "geometry": {"type": "Point", "coordinates": [-119.2953, 38.5078]}, "properties": {"NAME": "W6/ND-004", "TITLE": "Middle Sister", "REGION": "Northern Desert", "ASSOCIATION": "USA - CA", "POINTS": "8", "BONUSPOINTS": "3"}}, {"type": "Feature", "geometry": {"type": "Point", "coordinates": [-119.0869, 38.2346]}, "properties": {"NAME": "W6/ND-005", "TITLE": "Potato Peak", "REGION": "Northern Desert", "ASSOCIATION": "USA - CA", "POINTS": "8", "BONUSPOINTS": "3"}}, {"type": "Feature", "geometry": {"type": "Point", "coordinates": [-118.7754, 37.778]}, "properties": {"NAME": "W6/ND-006", "TITLE": "10220", "REGION": "Northern Desert", "ASSOCIATION": "USA - CA", "POINTS": "8", "BONUSPOINTS": "3"}}, {"type": "Feature", "geometry": {"type": "Point", "coordinates": [-117.0776, 36.0966]}, "properties": {"NAME": "W6/ND-007", "TITLE": "Sentinel Peak", "REGION": "Northern Desert", "ASSOCIATION": "USA - CA", "POINTS": "8", "BONUSPOINTS": "3"}}, {"type": "Feature", "geometry": {"type": "Point", "coordinates": [-119.2592, 38.351]}, "properties": {"NAME": "W6/ND-008", "TITLE": "9551", "REGION": "Northern Desert", "ASSOCIATION": "USA - CA", "POINTS": "8", "BONUSPOINTS": "3"}}, {"type": "Feature", "geometry": {"type": "Point", "coordinates": [-119.1281, 38.3437]}, "properties": {"NAME": "W6/ND-009", "TITLE": "Masonic Mountain", "REGION": "Northern Desert", "ASSOCIATION": "USA - CA", "POINTS": "8", "BONUSPOINTS": "3"}}, {"type": "Feature", "geometry": {"type": "Point", "coordinates": [-118.7346, 37.7583]}, "properties": {"NAME": "W6/ND-010", "TITLE": "9180", "REGION": "Northern Desert", "ASSOCIATION": "USA - CA", "POINTS": "8", "BONUSPOINTS": "3"}}, {"type": "Feature", "geometry": {"type": "Point", "coordinates": [-119.0043, 37.878]}, "properties": {"NAME": "W6/ND-011", "TITLE": "Crater Mountain", "REGION": "Northern Desert", "ASSOCIATION": "USA - CA", "POINTS": "8", "BONUSPOINTS": "3"}}, {"type": "Feature", "geometry": {"type": "Point", "coordinates": [-118.9012, 37.7839]}, "properties": {"NAME": "W6/ND-012", "TITLE": "Bald Mountain", "REGION": "Northern Desert", "ASSOCIATION": "USA - CA", "POINTS": "8", "BONUSPOINTS": "3"}}, {"type": "Feature", "geometry": {"type": "Point", "coordinates": [-117.0561, 36.0498]}, "properties": {"NAME": "W6/ND-013", "TITLE": "Porter Peak", "REGION": "Northern Desert", "ASSOCIATION": "USA - CA", "POINTS": "8", "BONUSPOINTS": "3"}}, {"type": "Feature", "geometry": {"type": "Point", "coordinates": [-117.0789, 36.2755]}, "properties": {"NAME": "W6/ND-014", "TITLE": "Wildrose Peak", "REGION": "Northern Desert", "ASSOCIATION": "USA - CA", "POINTS": "8", "BONUSPOINTS": "3"}}, {"type": "Feature", "geometry": {"type": "Point", "coordinates": [-118.998, 38.1844]}, "properties": {"NAME": "W6/ND-015", "TITLE": "9060", "REGION": "Northern Desert", "ASSOCIATION": "USA - CA", "POINTS": "8", "BONUSPOINTS": "3"}}, {"type": "Feature", "geometry": {"type": "Point", "coordinates": [-119.0885, 38.1512]}, "properties": {"NAME": "W6/ND-016", "TITLE": "Mount Biedeman - West", "REGION": "Northern Desert", "ASSOCIATION": "USA - CA", "POINTS": "8", "BONUSPOINTS": "3"}}, {"type": "Feature", "geometry": {"type": "Point", "coordinates": [-117.4561, 36.8866]}, "properties": {"NAME": "W6/ND-017", "TITLE": "Tin Mountain", "REGION": "Northern Desert", "ASSOCIATION": "USA - CA", "POINTS": "8", "BONUSPOINTS": "3"}}, {"type": "Feature", "geometry": {"type": "Point", "coordinates": [-118.7712, 37.9242]}, "properties": {"NAME": "W6/ND-018", "TITLE": "Granite Mountain", "REGION": "Northern Desert", "ASSOCIATION": "USA - CA", "POINTS": "8", "BONUSPOINTS": "3"}}, {"type": "Feature", "geometry": {"type": "Point", "coordinates": [-118.809, 37.979]}, "properties": {"NAME": "W6/ND-019", "TITLE": "Cowtrack Mountain", "REGION": "Northern Desert", "ASSOCIATION": "USA - CA", "POINTS": "8", "BONUSPOINTS": "3"}}, {"type": "Feature", "geometry": {"type": "Point", "coordinates": [-117.4956, 36.12]}, "properties": {"NAME": "W6/ND-020", "TITLE": "Maturango Peak", "REGION": "Northern Desert", "ASSOCIATION": "USA - CA", "POINTS": "8", "BONUSPOINTS": "3"}}, {"type": "Feature", "geometry": {"type": "Point", "coordinates": [-117.4874, 36.1017]}, "properties": {"NAME": "W6/ND-021", "TITLE": "Parkinson Peak", "REGION": "Northern Desert", "ASSOCIATION": "USA - CA", "POINTS": "8", "BONUSPOINTS": "3"}}, {"type": "Feature", "geometry": {"type": "Point", "coordinates": [-118.8781, 38.2145]}, "properties": {"NAME": "W6/ND-022", "TITLE": "8740", "REGION": "Northern Desert", "ASSOCIATION": "USA - CA", "POINTS": "8", "BONUSPOINTS": "3"}}, {"type": "Feature", "geometry": {"type": "Point", "coordinates": [-117.1305, 36.1401]}, "properties": {"NAME": "W6/ND-023", "TITLE": "8740", "REGION": "Northern Desert", "ASSOCIATION": "USA - CA", "POINTS": "8", "BONUSPOINTS": "3"}}, {"type": "Feature", "geometry": {"type": "Point", "coordinates": [-117.5979, 36.9091]}, "properties": {"NAME": "W6/ND-024", "TITLE": "Dry Mountain", "REGION": "Northern Desert", "ASSOCIATION": "USA - CA", "POINTS": "8", "BONUSPOINTS": "3"}}, {"type": "Feature", "geometry": {"type": "Point", "coordinates": [-119.1303, 38.1247]}, "properties": {"NAME": "W6/ND-025", "TITLE": "8662", "REGION": "Northern Desert", "ASSOCIATION": "USA - CA", "POINTS": "8", "BONUSPOINTS": "3"}}, {"type": "Feature", "geometry": {"type": "Point", "coordinates": [-118.9068, 37.6989]}, "properties": {"NAME": "W6/ND-026", "TITLE": "Gilbert Peak", "REGION": "Northern Desert", "ASSOCIATION": "USA - CA", "POINTS": "8", "BONUSPOINTS": "3"}}, {"type": "Feature", "geometry": {"type": "Point", "coordinates": [-117.5965, 36.9251]}, "properties": {"NAME": "W6/ND-027", "TITLE": "8580", "REGION": "Northern Desert", "ASSOCIATION": "USA - CA", "POINTS": "8", "BONUSPOINTS": "3"}}, {"type": "Feature", "geometry": {"type": "Point", "coordinates": [-118.8282, 37.9004]}, "properties": {"NAME": "W6/ND-028", "TITLE": "8580", "REGION": "Northern Desert", "ASSOCIATION": "USA - CA", "POINTS": "8", "BONUSPOINTS": "3"}}, {"type": "Feature", "geometry": {"type": "Point", "coordinates": [-118.5798, 37.7005]}, "properties": {"NAME": "W6/ND-029", "TITLE": "Banner Ridge", "REGION": "Northern Desert", "ASSOCIATION": "USA - CA", "POINTS": "8", "BONUSPOINTS": "3"}}, {"type": "Feature", "geometry": {"type": "Point", "coordinates": [-117.4642, 36.8515]}, "properties": {"NAME": "W6/ND-030", "TITLE": "8463", "REGION": "Northern Desert", "ASSOCIATION": "USA - CA", "POINTS": "8", "BONUSPOINTS": "3"}}, {"type": "Feature", "geometry": {"type": "Point", "coordinates": [-117.2002, 36.9876]}, "properties": {"NAME": "W6/ND-031", "TITLE": "8460", "REGION": "Northern Desert", "ASSOCIATION": "USA - CA", "POINTS": "8", "BONUSPOINTS": "3"}}, {"type": "Feature", "geometry": {"type": "Point", "coordinates": [-117.4841, 36.1631]}, "properties": {"NAME": "W6/ND-032", "TITLE": "French Madame Peak", "REGION": "Northern Desert", "ASSOCIATION": "USA - CA", "POINTS": "8", "BONUSPOINTS": "3"}}, {"type": "Feature", "geometry": {"type": "Point", "coordinates": [-117.6997, 37.2803]}, "properties": {"NAME": "W6/ND-033", "TITLE": "Last Chance Mountain", "REGION": "Northern Desert", "ASSOCIATION": "USA - CA", "POINTS": "8", "BONUSPOINTS": "3"}}, {"type": "Feature", "geometry": {"type": "Point", "coordinates": [-118.8431, 38.1844]}, "properties": {"NAME": "W6/ND-034", "TITLE": "Cedar Hill", "REGION": "Northern Desert", "ASSOCIATION": "USA - CA", "POINTS": "8", "BONUSPOINTS": "3"}}, {"type": "Feature", "geometry": {"type": "Point", "coordinates": [-117.5593, 36.9095]}, "properties": {"NAME": "W6/ND-035", "TITLE": "8432", "REGION": "Northern Desert", "ASSOCIATION": "USA - CA", "POINTS": "8", "BONUSPOINTS": "3"}}, {"type": "Feature", "geometry": {"type": "Point", "coordinates": [-117.4774, 36.0819]}, "properties": {"NAME": "W6/ND-036", "TITLE": "Parrot Point", "REGION": "Northern Desert", "ASSOCIATION": "USA - CA", "POINTS": "8", "BONUSPOINTS": "3"}}, {"type": "Feature", "geometry": {"type": "Point", "coordinates": [-118.9476, 37.7289]}, "properties": {"NAME": "W6/ND-037", "TITLE": "Lookout Mountain", "REGION": "Northern Desert", "ASSOCIATION": "USA - CA", "POINTS": "8", "BONUSPOINTS": "3"}}, {"type": "Feature", "geometry": {"type": "Point", "coordinates": [-117.4491, 36.8017]}, "properties": {"NAME": "W6/ND-038", "TITLE": "8261", "REGION": "Northern Desert", "ASSOCIATION": "USA - CA", "POINTS": "8", "BONUSPOINTS": "3"}}, {"type": "Feature", "geometry": {"type": "Point", "coordinates": [-117.1088, 36.0482]}, "properties": {"NAME": "W6/ND-039", "TITLE": "Heyers Peak", "REGION": "Northern Desert", "ASSOCIATION": "USA - CA", "POINTS": "8", "BONUSPOINTS": "3"}}, {"type": "Feature", "geometry": {"type": "Point", "coordinates": [-117.7137, 36.2029]}, "properties": {"NAME": "W6/ND-040", "TITLE": "Coso Peak", "REGION": "Northern Desert", "ASSOCIATION": "USA - CA", "POINTS": "8", "BONUSPOINTS": "3"}}, {"type": "Feature", "geometry": {"type": "Point", "coordinates": [-118.8797, 37.6637]}, "properties": {"NAME": "W6/ND-041", "TITLE": "8126", "REGION": "Northern Desert", "ASSOCIATION": "USA - CA", "POINTS": "8", "BONUSPOINTS": "3"}}, {"type": "Feature", "geometry": {"type": "Point", "coordinates": [-117.1735, 36.9574]}, "properties": {"NAME": "W6/ND-042", "TITLE": "8100", "REGION": "Northern Desert", "ASSOCIATION": "USA - CA", "POINTS": "8", "BONUSPOINTS": "3"}}, {"type": "Feature", "geometry": {"type": "Point", "coordinates": [-118.793, 38.0326]}, "properties": {"NAME": "W6/ND-043", "TITLE": "8056", "REGION": "Northern Desert", "ASSOCIATION": "USA - CA", "POINTS": "8", "BONUSPOINTS": "3"}}, {"type": "Feature", "geometry": {"type": "Point", "coordinates": [-117.1659, 36.9266]}, "properties": {"NAME": "W6/ND-044", "TITLE": "8051", "REGION": "Northern Desert", "ASSOCIATION": "USA - CA", "POINTS": "8", "BONUSPOINTS": "3"}}, {"type": "Feature", "geometry": {"type": "Point", "coordinates": [-117.7343, 37.3169]}, "properties": {"NAME": "W6/ND-045", "TITLE": "7990", "REGION": "Northern Desert", "ASSOCIATION": "USA - CA", "POINTS": "8", "BONUSPOINTS": "3"}}, {"type": "Feature", "geometry": {"type": "Point", "coordinates": [-117.133, 36.9068]}, "properties": {"NAME": "W6/ND-046", "TITLE": "Mount Palmer", "REGION": "Northern Desert", "ASSOCIATION": "USA - CA", "POINTS": "8", "BONUSPOINTS": "3"}}, {"type": "Feature", "geometry": {"type": "Point", "coordinates": [-118.5503, 37.5785]}, "properties": {"NAME": "W6/ND-047", "TITLE": "Casa Diablo Mountain", "REGION": "Northern Desert", "ASSOCIATION": "USA - CA", "POINTS": "8", "BONUSPOINTS": "3"}}, {"type": "Feature", "geometry": {"type": "Point", "coordinates": [-118.5671, 37.8516]}, "properties": {"NAME": "W6/ND-048", "TITLE": "Trafton Mountain", "REGION": "Northern Desert", "ASSOCIATION": "USA - CA", "POINTS": "8", "BONUSPOINTS": "3"}}, {"type": "Feature", "geometry": {"type": "Point", "coordinates": [-117.7973, 36.226]}, "properties": {"NAME": "W6/ND-049", "TITLE": "7750", "REGION": "Northern Desert", "ASSOCIATION": "USA - CA", "POINTS": "8", "BONUSPOINTS": "3"}}, {"type": "Feature", "geometry": {"type": "Point", "coordinates": [-117.9281, 37.409]}, "properties": {"NAME": "W6/ND-050", "TITLE": "Chocolate Mountain", "REGION": "Northern Desert", "ASSOCIATION": "USA - CA", "POINTS": "8", "BONUSPOINTS": "3"}}, {"type": "Feature", "geometry": {"type": "Point", "coordinates": [-117.656, 36.5565]}, "properties": {"NAME": "W6/ND-051", "TITLE": "Galena Benchmark", "REGION": "Northern Desert", "ASSOCIATION": "USA - CA", "POINTS": "8", "BONUSPOINTS": "3"}}, {"type": "Feature", "geometry": {"type": "Point", "coordinates": [-118.5547, 37.8913]}, "properties": {"NAME": "W6/ND-052", "TITLE": "Antelope Mountain", "REGION": "Northern Desert", "ASSOCIATION": "USA - CA", "POINTS": "8", "BONUSPOINTS": "3"}}, {"type": "Feature", "geometry": {"type": "Point", "coordinates": [-117.4129, 36.7802]}, "properties": {"NAME": "W6/ND-053", "TITLE": "White Top Mountain", "REGION": "Northern Desert", "ASSOCIATION": "USA - CA", "POINTS": "8", "BONUSPOINTS": "3"}}, {"type": "Feature", "geometry": {"type": "Point", "coordinates": [-117.7069, 36.1477]}, "properties": {"NAME": "W6/ND-054", "TITLE": "Silver Peak", "REGION": "Northern Desert", "ASSOCIATION": "USA - CA", "POINTS": "8", "BONUSPOINTS": "3"}}, {"type": "Feature", "geometry": {"type": "Point", "coordinates": [-117.2265, 36.3836]}, "properties": {"NAME": "W6/ND-055", "TITLE": "Pinto Peak", "REGION": "Northern Desert", "ASSOCIATION": "USA - CA", "POINTS": "8", "BONUSPOINTS": "3"}}, {"type": "Feature", "geometry": {"type": "Point", "coordinates": [-117.1055, 36.0162]}, "properties": {"NAME": "W6/ND-056", "TITLE": "7500", "REGION": "Northern Desert", "ASSOCIATION": "USA - CA", "POINTS": "8", "BONUSPOINTS": "3"}}, {"type": "Feature", "geometry": {"type": "Point", "coordinates": [-117.4062, 36.8117]}, "properties": {"NAME": "W6/ND-057", "TITLE": "7460", "REGION": "Northern Desert", "ASSOCIATION": "USA - CA", "POINTS": "6", "BONUSPOINTS": "3"}}, {"type": "Feature", "geometry": {"type": "Point", "coordinates": [-117.6705, 37.3343]}, "properties": {"NAME": "W6/ND-058", "TITLE": "7460", "REGION": "Northern Desert", "ASSOCIATION": "USA - CA", "POINTS": "6", "BONUSPOINTS": "3"}}, {"type": "Feature", "geometry": {"type": "Point", "coordinates": [-117.5329, 36.55]}, "properties": {"NAME": "W6/ND-059", "TITLE": "Hunter Mountain", "REGION": "Northern Desert", "ASSOCIATION": "USA - CA", "POINTS": "6", "BONUSPOINTS": "3"}}, {"type": "Feature", "geometry": {"type": "Point", "coordinates": [-117.7978, 36.1695]}, "properties": {"NAME": "W6/ND-060", "TITLE": "7425", "REGION": "Northern Desert", "ASSOCIATION": "USA - CA", "POINTS": "6", "BONUSPOINTS": "3"}}, {"type": "Feature", "geometry": {"type": "Point", "coordinates": [-117.4284, 36.7352]}, "properties": {"NAME": "W6/ND-061", "TITLE": "Leaning Rock Benchmark", "REGION": "Northern Desert", "ASSOCIATION": "USA - CA", "POINTS": "6", "BONUSPOINTS": "3"}}, {"type": "Feature", "geometry": {"type": "Point", "coordinates": [-117.086, 36.0208]}, "properties": {"NAME": "W6/ND-062", "TITLE": "7380", "REGION": "Northern Desert", "ASSOCIATION": "USA - CA", "POINTS": "6", "BONUSPOINTS": "3"}}, {"type": "Feature", "geometry": {"type": "Point", "coordinates": [-115.9155, 35.7268]}, "properties": {"NAME": "W6/ND-063", "TITLE": "Kingston Peak", "REGION": "Northern Desert", "ASSOCIATION": "USA - CA", "POINTS": "6", "BONUSPOINTS": "3"}}, {"type": "Feature", "geometry": {"type": "Point", "coordinates": [-117.0903, 35.9768]}, "properties": {"NAME": "W6/ND-064", "TITLE": "7312", "REGION": "Northern Desert", "ASSOCIATION": "USA - CA", "POINTS": "6", "BONUSPOINTS": "3"}}, {"type": "Feature", "geometry": {"type": "Point", "coordinates": [-117.3182, 36.4198]}, "properties": {"NAME": "W6/ND-065", "TITLE": "Towne Benchmark", "REGION": "Northern Desert", "ASSOCIATION": "USA - CA", "POINTS": "6", "BONUSPOINTS": "3"}}, {"type": "Feature", "geometry": {"type": "Point", "coordinates": [-117.1332, 36.0016]}, "properties": {"NAME": "W6/ND-066", "TITLE": "7267", "REGION": "Northern Desert", "ASSOCIATION": "USA - CA", "POINTS": "6", "BONUSPOINTS": "3"}}, {"type": "Feature", "geometry": {"type": "Point", "coordinates": [-118.4833, 37.7646]}, "properties": {"NAME": "W6/ND-067", "TITLE": "Blind Spring Hill", "REGION": "Northern Desert", "ASSOCIATION": "USA - CA", "POINTS": "6", "BONUSPOINTS": "3"}}, {"type": "Feature", "geometry": {"type": "Point", "coordinates": [-117.0817, 36.3378]}, "properties": {"NAME": "W6/ND-068", "TITLE": "7204", "REGION": "Northern Desert", "ASSOCIATION": "USA - CA", "POINTS": "6", "BONUSPOINTS": "3"}}, {"type": "Feature", "geometry": {"type": "Point", "coordinates": [-117.117, 35.915]}, "properties": {"NAME": "W6/ND-069", "TITLE": "Manly Peak", "REGION": "Northern Desert", "ASSOCIATION": "USA - CA", "POINTS": "6", "BONUSPOINTS": "3"}}, {"type": "Feature", "geometry": {"type": "Point", "coordinates": [-117.5555, 36.0293]}, "properties": {"NAME": "W6/ND-070", "TITLE": "7140", "REGION": "Northern Desert", "ASSOCIATION": "USA - CA", "POINTS": "6", "BONUSPOINTS": "3"}}, {"type": "Feature", "geometry": {"type": "Point", "coordinates": [-115.9275, 35.7587]}, "properties": {"NAME": "W6/ND-071", "TITLE": "Kingston Benchmark", "REGION": "Northern Desert", "ASSOCIATION": "USA - CA", "POINTS": "6", "BONUSPOINTS": "3"}}, {"type": "Feature", "geometry": {"type": "Point", "coordinates": [-117.6185, 37.1512]}, "properties": {"NAME": "W6/ND-072", "TITLE": "Sandy Benchmark", "REGION": "Northern Desert", "ASSOCIATION": "USA - CA", "POINTS": "6", "BONUSPOINTS": "3"}}, {"type": "Feature", "geometry": {"type": "Point", "coordinates": [-117.9279, 37.4309]}, "properties": {"NAME": "W6/ND-073", "TITLE": "7055", "REGION": "Northern Desert", "ASSOCIATION": "USA - CA", "POINTS": "6", "BONUSPOINTS": "3"}}, {"type": "Feature", "geometry": {"type": "Point", "coordinates": [-117.7243, 36.9513]}, "properties": {"NAME": "W6/ND-074", "TITLE": "Saline Peak", "REGION": "Northern Desert", "ASSOCIATION": "USA - CA", "POINTS": "6", "BONUSPOINTS": "3"}}, {"type": "Feature", "geometry": {"type": "Point", "coordinates": [-117.6108, 37.0785]}, "properties": {"NAME": "W6/ND-075", "TITLE": "6980", "REGION": "Northern Desert", "ASSOCIATION": "USA - CA", "POINTS": "6", "BONUSPOINTS": "3"}}, {"type": "Feature", "geometry": {"type": "Point", "coordinates": [-117.7142, 36.5884]}, "properties": {"NAME": "W6/ND-076", "TITLE": "6970", "REGION": "Northern Desert", "ASSOCIATION": "USA - CA", "POINTS": "6", "BONUSPOINTS": "3"}}, {"type": "Feature", "geometry": {"type": "Point", "coordinates": [-118.0932, 36.8939]}, "properties": {"NAME": "W6/ND-077", "TITLE": "6965", "REGION": "Northern Desert", "ASSOCIATION": "USA - CA", "POINTS": "6", "BONUSPOINTS": "3"}}, {"type": "Feature", "geometry": {"type": "Point", "coordinates": [-117.6133, 36.8723]}, "properties": {"NAME": "W6/ND-078", "TITLE": "6948", "REGION": "Northern Desert", "ASSOCIATION": "USA - CA", "POINTS": "6", "BONUSPOINTS": "3"}}, {"type": "Feature", "geometry": {"type": "Point", "coordinates": [-115.8795, 35.7377]}, "properties": {"NAME": "W6/ND-079", "TITLE": "6925", "REGION": "Northern Desert", "ASSOCIATION": "USA - CA", "POINTS": "6", "BONUSPOINTS": "3"}}, {"type": "Feature", "geometry": {"type": "Point", "coordinates": [-117.7351, 37.3644]}, "properties": {"NAME": "W6/ND-080", "TITLE": "6904", "REGION": "Northern Desert", "ASSOCIATION": "USA - CA", "POINTS": "6", "BONUSPOINTS": "3"}}, {"type": "Feature", "geometry": {"type": "Point", "coordinates": [-117.5135, 35.9313]}, "properties": {"NAME": "W6/ND-081", "TITLE": "Ridge Benchmark", "REGION": "Northern Desert", "ASSOCIATION": "USA - CA", "POINTS": "6", "BONUSPOINTS": "3"}}, {"type": "Feature", "geometry": {"type": "Point", "coordinates": [-117.4357, 36.693]}, "properties": {"NAME": "W6/ND-082", "TITLE": "6891", "REGION": "Northern Desert", "ASSOCIATION": "USA - CA", "POINTS": "6", "BONUSPOINTS": "3"}}, {"type": "Feature", "geometry": {"type": "Point", "coordinates": [-117.1437, 35.9852]}, "properties": {"NAME": "W6/ND-083", "TITLE": "6847", "REGION": "Northern Desert", "ASSOCIATION": "USA - CA", "POINTS": "6", "BONUSPOINTS": "3"}}, {"type": "Feature", "geometry": {"type": "Point", "coordinates": [-117.8509, 37.0737]}, "properties": {"NAME": "W6/ND-084", "TITLE": "Zinc Benchmark", "REGION": "Northern Desert", "ASSOCIATION": "USA - CA", "POINTS": "6", "BONUSPOINTS": "3"}}, {"type": "Feature", "geometry": {"type": "Point", "coordinates": [-117.559, 36.0669]}, "properties": {"NAME": "W6/ND-085", "TITLE": "6730", "REGION": "Northern Desert", "ASSOCIATION": "USA - CA", "POINTS": "6", "BONUSPOINTS": "3"}}, {"type": "Feature", "geometry": {"type": "Point", "coordinates": [-117.1301, 36.4999]}, "properties": {"NAME": "W6/ND-086", "TITLE": "Tucki Mountain", "REGION": "Northern Desert", "ASSOCIATION": "USA - CA", "POINTS": "6", "BONUSPOINTS": "3"}}, {"type": "Feature", "geometry": {"type": "Point", "coordinates": [-116.6123, 36.3918]}, "properties": {"NAME": "W6/ND-087", "TITLE": "Pyramid Peak", "REGION": "Northern Desert", "ASSOCIATION": "USA - CA", "POINTS": "6", "BONUSPOINTS": "3"}}, {"type": "Feature", "geometry": {"type": "Point", "coordinates": [-117.5281, 35.9775]}, "properties": {"NAME": "W6/ND-088", "TITLE": "6652", "REGION": "Northern Desert", "ASSOCIATION": "USA - CA", "POINTS": "6", "BONUSPOINTS": "3"}}, {"type": "Feature", "geometry": {"type": "Point", "coordinates": [-117.7872, 37.0261]}, "properties": {"NAME": "W6/ND-089", "TITLE": "Eureka Peak", "REGION": "Northern Desert", "ASSOCIATION": "USA - CA", "POINTS": "6", "BONUSPOINTS": "3"}}, {"type": "Feature", "geometry": {"type": "Point", "coordinates": [-117.9174, 37.0612]}, "properties": {"NAME": "W6/ND-090", "TITLE": "6586", "REGION": "Northern Desert", "ASSOCIATION": "USA - CA", "POINTS": "6", "BONUSPOINTS": "3"}}, {"type": "Feature", "geometry": {"type": "Point", "coordinates": [-117.356, 36.4339]}, "properties": {"NAME": "W6/ND-091", "TITLE": "Panamint Butte", "REGION": "Northern Desert", "ASSOCIATION": "USA - CA", "POINTS": "6", "BONUSPOINTS": "3"}}, {"type": "Feature", "geometry": {"type": "Point", "coordinates": [-117.4465, 35.8523]}, "properties": {"NAME": "W6/ND-092", "TITLE": "Argus Peak", "REGION": "Northern Desert", "ASSOCIATION": "USA - CA", "POINTS": "6", "BONUSPOINTS": "3"}}, {"type": "Feature", "geometry": {"type": "Point", "coordinates": [-117.8977, 37.4133]}, "properties": {"NAME": "W6/ND-093", "TITLE": "Sugarloaf Mountain", "REGION": "Northern Desert", "ASSOCIATION": "USA - CA", "POINTS": "6", "BONUSPOINTS": "3"}}, {"type": "Feature", "geometry": {"type": "Point", "coordinates": [-117.4371, 36.5112]}, "properties": {"NAME": "W6/ND-094", "TITLE": "6491", "REGION": "Northern Desert", "ASSOCIATION": "USA - CA", "POINTS": "6", "BONUSPOINTS": "3"}}, {"type": "Feature", "geometry": {"type": "Point", "coordinates": [-117.9521, 37.3857]}, "properties": {"NAME": "W6/ND-095", "TITLE": "6482", "REGION": "Northern Desert", "ASSOCIATION": "USA - CA", "POINTS": "6", "BONUSPOINTS": "3"}}, {"type": "Feature", "geometry": {"type": "Point", "coordinates": [-116.6534, 36.4734]}, "properties": {"NAME": "W6/ND-096", "TITLE": "Schwaub Peak", "REGION": "Northern Desert", "ASSOCIATION": "USA - CA", "POINTS": "6", "BONUSPOINTS": "3"}}, {"type": "Feature", "geometry": {"type": "Point", "coordinates": [-116.0806, 36.0063]}, "properties": {"NAME": "W6/ND-097", "TITLE": "Nopah Benchmark", "REGION": "Northern Desert", "ASSOCIATION": "USA - CA", "POINTS": "6", "BONUSPOINTS": "3"}}, {"type": "Feature", "geometry": {"type": "Point", "coordinates": [-116.624, 36.1031]}, "properties": {"NAME": "W6/ND-098", "TITLE": "Funeral Peak", "REGION": "Northern Desert", "ASSOCIATION": "USA - CA", "POINTS": "6", "BONUSPOINTS": "3"}}, {"type": "Feature", "geometry": {"type": "Point", "coordinates": [-117.0404, 36.812]}, "properties": {"NAME": "W6/ND-099", "TITLE": "Thimble Peak", "REGION": "Northern Desert", "ASSOCIATION": "USA - CA", "POINTS": "6", "BONUSPOINTS": "3"}}, {"type": "Feature", "geometry": {"type": "Point", "coordinates": [-117.8629, 37.0256]}, "properties": {"NAME": "W6/ND-100", "TITLE": "6373", "REGION": "Northern Desert", "ASSOCIATION": "USA - CA", "POINTS": "6", "BONUSPOINTS": "3"}}, {"type": "Feature", "geometry": {"type": "Point", "coordinates": [-117.8966, 37.1866]}, "properties": {"NAME": "W6/ND-101", "TITLE": "Brass Benchmark", "REGION": "Northern Desert", "ASSOCIATION": "USA - CA", "POINTS": "6", "BONUSPOINTS": "3"}}, {"type": "Feature", "geometry": {"type": "Point", "coordinates": [-117.4071, 36.8662]}, "properties": {"NAME": "W6/ND-102", "TITLE": "6362", "REGION": "Northern Desert", "ASSOCIATION": "USA - CA", "POINTS": "6", "BONUSPOINTS": "3"}}, {"type": "Feature", "geometry": {"type": "Point", "coordinates": [-117.7481, 36.996]}, "properties": {"NAME": "W6/ND-103", "TITLE": "6340", "REGION": "Northern Desert", "ASSOCIATION": "USA - CA", "POINTS": "6", "BONUSPOINTS": "3"}}, {"type": "Feature", "geometry": {"type": "Point", "coordinates": [-116.637, 36.1143]}, "properties": {"NAME": "W6/ND-104", "TITLE": "6340", "REGION": "Northern Desert", "ASSOCIATION": "USA - CA", "POINTS": "6", "BONUSPOINTS": "3"}}, {"type": "Feature", "geometry": {"type": "Point", "coordinates": [-117.8944, 37.0382]}, "properties": {"NAME": "W6/ND-105", "TITLE": "6310", "REGION": "Northern Desert", "ASSOCIATION": "USA - CA", "POINTS": "6", "BONUSPOINTS": "3"}}, {"type": "Feature", "geometry": {"type": "Point", "coordinates": [-117.0041, 36.8414]}, "properties": {"NAME": "W6/ND-106", "TITLE": "6308", "REGION": "Northern Desert", "ASSOCIATION": "USA - CA", "POINTS": "6", "BONUSPOINTS": "3"}}, {"type": "Feature", "geometry": {"type": "Point", "coordinates": [-117.7755, 36.1186]}, "properties": {"NAME": "W6/ND-107", "TITLE": "6268", "REGION": "Northern Desert", "ASSOCIATION": "USA - CA", "POINTS": "6", "BONUSPOINTS": "3"}}, {"type": "Feature", "geometry": {"type": "Point", "coordinates": [-117.6384, 37.3071]}, "properties": {"NAME": "W6/ND-108", "TITLE": "6260", "REGION": "Northern Desert", "ASSOCIATION": "USA - CA", "POINTS": "6", "BONUSPOINTS": "3"}}, {"type": "Feature", "geometry": {"type": "Point", "coordinates": [-117.6511, 36.7926]}, "properties": {"NAME": "W6/ND-109", "TITLE": "Warm Benchmark", "REGION": "Northern Desert", "ASSOCIATION": "USA - CA", "POINTS": "6", "BONUSPOINTS": "3"}}, {"type": "Feature", "geometry": {"type": "Point", "coordinates": [-115.9261, 35.8047]}, "properties": {"NAME": "W6/ND-110", "TITLE": "6194", "REGION": "Northern Desert", "ASSOCIATION": "USA - CA", "POINTS": "6", "BONUSPOINTS": "3"}}, {"type": "Feature", "geometry": {"type": "Point", "coordinates": [-117.8059, 37.35]}, "properties": {"NAME": "W6/ND-111", "TITLE": "6173", "REGION": "Northern Desert", "ASSOCIATION": "USA - CA", "POINTS": "6", "BONUSPOINTS": "3"}}, {"type": "Feature", "geometry": {"type": "Point", "coordinates": [-116.3315, 35.5126]}, "properties": {"NAME": "W6/ND-112", "TITLE": "Avawatz Mountains (HP)", "REGION": "Northern Desert", "ASSOCIATION": "USA - CA", "POINTS": "6", "BONUSPOINTS": "3"}}, {"type": "Feature", "geometry": {"type": "Point", "coordinates": [-115.5616, 35.578]}, "properties": {"NAME": "W6/ND-113", "TITLE": "6141", "REGION": "Northern Desert", "ASSOCIATION": "USA - CA", "POINTS": "6", "BONUSPOINTS": "3"}}, {"type": "Feature", "geometry": {"type": "Point", "coordinates": [-117.1301, 36.4251]}, "properties": {"NAME": "W6/ND-114", "TITLE": "6140", "REGION": "Northern Desert", "ASSOCIATION": "USA - CA", "POINTS": "6", "BONUSPOINTS": "3"}}, {"type": "Feature", "geometry": {"type": "Point", "coordinates": [-116.992, 36.8039]}, "properties": {"NAME": "W6/ND-115", "TITLE": "6136", "REGION": "Northern Desert", "ASSOCIATION": "USA - CA", "POINTS": "6", "BONUSPOINTS": "3"}}, {"type": "Feature", "geometry": {"type": "Point", "coordinates": [-116.6571, 36.1536]}, "properties": {"NAME": "W6/ND-116", "TITLE": "6129", "REGION": "Northern Desert", "ASSOCIATION": "USA - CA", "POINTS": "6", "BONUSPOINTS": "3"}}, {"type": "Feature", "geometry": {"type": "Point", "coordinates": [-117.6401, 36.8452]}, "properties": {"NAME": "W6/ND-117", "TITLE": "6180", "REGION": "Northern Desert", "ASSOCIATION": "USA - CA", "POINTS": "6", "BONUSPOINTS": "3"}}, {"type": "Feature", "geometry": {"type": "Point", "coordinates": [-117.8948, 36.1113]}, "properties": {"NAME": "W6/ND-118", "TITLE": "Whitecap Mountain", "REGION": "Northern Desert", "ASSOCIATION": "USA - CA", "POINTS": "6", "BONUSPOINTS": "3"}}, {"type": "Feature", "geometry": {"type": "Point", "coordinates": [-117.5179, 36.734]}, "properties": {"NAME": "W6/ND-119", "TITLE": "Lost Burro Benchmark", "REGION": "Northern Desert", "ASSOCIATION": "USA - CA", "POINTS": "6", "BONUSPOINTS": "3"}}, {"type": "Feature", "geometry": {"type": "Point", "coordinates": [-116.9694, 36.8027]}, "properties": {"NAME": "W6/ND-120", "TITLE": "6056", "REGION": "Northern Desert", "ASSOCIATION": "USA - CA", "POINTS": "6", "BONUSPOINTS": "3"}}, {"type": "Feature", "geometry": {"type": "Point", "coordinates": [-116.6113, 36.4719]}, "properties": {"NAME": "W6/ND-121", "TITLE": "6015", "REGION": "Northern Desert", "ASSOCIATION": "USA - CA", "POINTS": "6", "BONUSPOINTS": "3"}}, {"type": "Feature", "geometry": {"type": "Point", "coordinates": [-117.5991, 36.2901]}, "properties": {"NAME": "W6/ND-122", "TITLE": "Ophir Mountain", "REGION": "Northern Desert", "ASSOCIATION": "USA - CA", "POINTS": "6", "BONUSPOINTS": "3"}}, {"type": "Feature", "geometry": {"type": "Point", "coordinates": [-115.558, 35.4909]}, "properties": {"NAME": "W6/ND-123", "TITLE": "Mohawk Hill", "REGION": "Northern Desert", "ASSOCIATION": "USA - CA", "POINTS": "6", "BONUSPOINTS": "3"}}, {"type": "Feature", "geometry": {"type": "Point", "coordinates": [-116.6552, 36.1086]}, "properties": {"NAME": "W6/ND-124", "TITLE": "5985", "REGION": "Northern Desert", "ASSOCIATION": "USA - CA", "POINTS": "6", "BONUSPOINTS": "3"}}, {"type": "Feature", "geometry": {"type": "Point", "coordinates": [-116.658, 36.5233]}, "properties": {"NAME": "W6/ND-125", "TITLE": "5980", "REGION": "Northern Desert", "ASSOCIATION": "USA - CA", "POINTS": "6", "BONUSPOINTS": "3"}}, {"type": "Feature", "geometry": {"type": "Point", "coordinates": [-117.599, 36.318]}, "properties": {"NAME": "W6/ND-126", "TITLE": "Darwin Benchmark", "REGION": "Northern Desert", "ASSOCIATION": "USA - CA", "POINTS": "6", "BONUSPOINTS": "3"}}, {"type": "Feature", "geometry": {"type": "Point", "coordinates": [-117.4148, 36.6279]}, "properties": {"NAME": "W6/ND-127", "TITLE": "Yellow Jacket Peak", "REGION": "Northern Desert", "ASSOCIATION": "USA - CA", "POINTS": "6", "BONUSPOINTS": "3"}}, {"type": "Feature", "geometry": {"type": "Point", "coordinates": [-117.9115, 36.1501]}, "properties": {"NAME": "W6/ND-128", "TITLE": "Haiwee Ridge", "REGION": "Northern Desert", "ASSOCIATION": "USA - CA", "POINTS": "6", "BONUSPOINTS": "3"}}, {"type": "Feature", "geometry": {"type": "Point", "coordinates": [-116.689, 36.0181]}, "properties": {"NAME": "W6/ND-129", "TITLE": "Smith Mountain", "REGION": "Northern Desert", "ASSOCIATION": "USA - CA", "POINTS": "6", "BONUSPOINTS": "3"}}, {"type": "Feature", "geometry": {"type": "Point", "coordinates": [-117.4233, 36.4927]}, "properties": {"NAME": "W6/ND-130", "TITLE": "5900", "REGION": "Northern Desert", "ASSOCIATION": "USA - CA", "POINTS": "6", "BONUSPOINTS": "3"}}, {"type": "Feature", "geometry": {"type": "Point", "coordinates": [-117.3805, 36.5489]}, "properties": {"NAME": "W6/ND-131", "TITLE": "Canyon Benchmark", "REGION": "Northern Desert", "ASSOCIATION": "USA - CA", "POINTS": "6", "BONUSPOINTS": "3"}}, {"type": "Feature", "geometry": {"type": "Point", "coordinates": [-117.6428, 35.9873]}, "properties": {"NAME": "W6/ND-132", "TITLE": "Volcano Butte", "REGION": "Northern Desert", "ASSOCIATION": "USA - CA", "POINTS": "6", "BONUSPOINTS": "3"}}, {"type": "Feature", "geometry": {"type": "Point", "coordinates": [-116.0594, 35.9607]}, "properties": {"NAME": "W6/ND-133", "TITLE": "Emigrant Benchmark", "REGION": "Northern Desert", "ASSOCIATION": "USA - CA", "POINTS": "6", "BONUSPOINTS": "3"}}, {"type": "Feature", "geometry": {"type": "Point", "coordinates": [-117.7108, 37.2052]}, "properties": {"NAME": "W6/ND-134", "TITLE": "5862", "REGION": "Northern Desert", "ASSOCIATION": "USA - CA", "POINTS": "6", "BONUSPOINTS": "3"}}, {"type": "Feature", "geometry": {"type": "Point", "coordinates": [-117.6688, 36.987]}, "properties": {"NAME": "W6/ND-135", "TITLE": "5846", "REGION": "Northern Desert", "ASSOCIATION": "USA - CA", "POINTS": "6", "BONUSPOINTS": "3"}}, {"type": "Feature", "geometry": {"type": "Point", "coordinates": [-116.6935, 36.0307]}, "properties": {"NAME": "W6/ND-136", "TITLE": "North Smith Mountain", "REGION": "Northern Desert", "ASSOCIATION": "USA - CA", "POINTS": "6", "BONUSPOINTS": "3"}}, {"type": "Feature", "geometry": {"type": "Point", "coordinates": [-117.0041, 36.7706]}, "properties": {"NAME": "W6/ND-137", "TITLE": "Corkscrew Peak", "REGION": "Northern Desert", "ASSOCIATION": "USA - CA", "POINTS": "6", "BONUSPOINTS": "3"}}, {"type": "Feature", "geometry": {"type": "Point", "coordinates": [-117.0287, 35.8863]}, "properties": {"NAME": "W6/ND-138", "TITLE": "Needle Peak", "REGION": "Northern Desert", "ASSOCIATION": "USA - CA", "POINTS": "6", "BONUSPOINTS": "3"}}, {"type": "Feature", "geometry": {"type": "Point", "coordinates": [-116.3008, 35.5263]}, "properties": {"NAME": "W6/ND-139", "TITLE": "5777", "REGION": "Northern Desert", "ASSOCIATION": "USA - CA", "POINTS": "6", "BONUSPOINTS": "3"}}, {"type": "Feature", "geometry": {"type": "Point", "coordinates": [-116.1444, 36.1057]}, "properties": {"NAME": "W6/ND-140", "TITLE": "5744", "REGION": "Northern Desert", "ASSOCIATION": "USA - CA", "POINTS": "6", "BONUSPOINTS": "3"}}, {"type": "Feature", "geometry": {"type": "Point", "coordinates": [-117.5242, 36.8214]}, "properties": {"NAME": "W6/ND-141", "TITLE": "5740", "REGION": "Northern Desert", "ASSOCIATION": "USA - CA", "POINTS": "6", "BONUSPOINTS": "3"}}, {"type": "Feature", "geometry": {"type": "Point", "coordinates": [-116.7244, 36.2736]}, "properties": {"NAME": "W6/ND-142", "TITLE": "Mount Perry", "REGION": "Northern Desert", "ASSOCIATION": "USA - CA", "POINTS": "6", "BONUSPOINTS": "3"}}, {"type": "Feature", "geometry": {"type": "Point", "coordinates": [-117.4625, 35.82]}, "properties": {"NAME": "W6/ND-143", "TITLE": "Twin Benchmark", "REGION": "Northern Desert", "ASSOCIATION": "USA - CA", "POINTS": "6", "BONUSPOINTS": "3"}}, {"type": "Feature", "geometry": {"type": "Point", "coordinates": [-116.7256, 36.2262]}, "properties": {"NAME": "W6/ND-144", "TITLE": "Dante Benchmark", "REGION": "Northern Desert", "ASSOCIATION": "USA - CA", "POINTS": "6", "BONUSPOINTS": "3"}}, {"type": "Feature", "geometry": {"type": "Point", "coordinates": [-117.6501, 37.0093]}, "properties": {"NAME": "W6/ND-145", "TITLE": "5694", "REGION": "Northern Desert", "ASSOCIATION": "USA - CA", "POINTS": "6", "BONUSPOINTS": "3"}}, {"type": "Feature", "geometry": {"type": "Point", "coordinates": [-117.4445, 36.6098]}, "properties": {"NAME": "W6/ND-146", "TITLE": "5660", "REGION": "Northern Desert", "ASSOCIATION": "USA - CA", "POINTS": "6", "BONUSPOINTS": "3"}}, {"type": "Feature", "geometry": {"type": "Point", "coordinates": [-117.5156, 36.6748]}, "properties": {"NAME": "W6/ND-147", "TITLE": "5618", "REGION": "Northern Desert", "ASSOCIATION": "USA - CA", "POINTS": "6", "BONUSPOINTS": "3"}}, {"type": "Feature", "geometry": {"type": "Point", "coordinates": [-117.194, 35.6188]}, "properties": {"NAME": "W6/ND-148", "TITLE": "Straw Peak", "REGION": "Northern Desert", "ASSOCIATION": "USA - CA", "POINTS": "6", "BONUSPOINTS": "3"}}, {"type": "Feature", "geometry": {"type": "Point", "coordinates": [-117.5728, 37.0997]}, "properties": {"NAME": "W6/ND-149", "TITLE": "5580", "REGION": "Northern Desert", "ASSOCIATION": "USA - CA", "POINTS": "6", "BONUSPOINTS": "3"}}, {"type": "Feature", "geometry": {"type": "Point", "coordinates": [-117.0605, 35.3992]}, "properties": {"NAME": "W6/ND-150", "TITLE": "Eagle Crags", "REGION": "Northern Desert", "ASSOCIATION": "USA - CA", "POINTS": "6", "BONUSPOINTS": "3"}}, {"type": "Feature", "geometry": {"type": "Point", "coordinates": [-116.9453, 36.7856]}, "properties": {"NAME": "W6/ND-151", "TITLE": "Daylight Peak", "REGION": "Northern Desert", "ASSOCIATION": "USA - CA", "POINTS": "6", "BONUSPOINTS": "3"}}, {"type": "Feature", "geometry": {"type": "Point", "coordinates": [-116.9736, 36.0123]}, "properties": {"NAME": "W6/ND-152", "TITLE": "Gold Hill", "REGION": "Northern Desert", "ASSOCIATION": "USA - CA", "POINTS": "4", "BONUSPOINTS": "3"}}, {"type": "Feature", "geometry": {"type": "Point", "coordinates": [-117.5759, 36.6115]}, "properties": {"NAME": "W6/ND-153", "TITLE": "5473", "REGION": "Northern Desert", "ASSOCIATION": "USA - CA", "POINTS": "4", "BONUSPOINTS": "3"}}, {"type": "Feature", "geometry": {"type": "Point", "coordinates": [-116.864, 36.693]}, "properties": {"NAME": "W6/ND-154", "TITLE": "Boundary Benchmark", "REGION": "Northern Desert", "ASSOCIATION": "USA - CA", "POINTS": "4", "BONUSPOINTS": "3"}}, {"type": "Feature", "geometry": {"type": "Point", "coordinates": [-117.2263, 35.3974]}, "properties": {"NAME": "W6/ND-155", "TITLE": "Pilot Knob", "REGION": "Northern Desert", "ASSOCIATION": "USA - CA", "POINTS": "4", "BONUSPOINTS": "3"}}, {"type": "Feature", "geometry": {"type": "Point", "coordinates": [-117.0214, 36.7716]}, "properties": {"NAME": "W6/ND-156", "TITLE": "5420", "REGION": "Northern Desert", "ASSOCIATION": "USA - CA", "POINTS": "4", "BONUSPOINTS": "3"}}, {"type": "Feature", "geometry": {"type": "Point", "coordinates": [-117.107, 36.8511]}, "properties": {"NAME": "W6/ND-157", "TITLE": "5420", "REGION": "Northern Desert", "ASSOCIATION": "USA - CA", "POINTS": "4", "BONUSPOINTS": "3"}}, {"type": "Feature", "geometry": {"type": "Point", "coordinates": [-115.5634, 35.6048]}, "properties": {"NAME": "W6/ND-158", "TITLE": "Keany Benchmark", "REGION": "Northern Desert", "ASSOCIATION": "USA - CA", "POINTS": "4", "BONUSPOINTS": "3"}}, {"type": "Feature", "geometry": {"type": "Point", "coordinates": [-117.8315, 35.9561]}, "properties": {"NAME": "W6/ND-159", "TITLE": "Volcano Peak", "REGION": "Northern Desert", "ASSOCIATION": "USA - CA", "POINTS": "4", "BONUSPOINTS": "3"}}, {"type": "Feature", "geometry": {"type": "Point", "coordinates": [-117.4491, 35.8036]}, "properties": {"NAME": "W6/ND-160", "TITLE": "Trona Peak", "REGION": "Northern Desert", "ASSOCIATION": "USA - CA", "POINTS": "4", "BONUSPOINTS": "3"}}, {"type": "Feature", "geometry": {"type": "Point", "coordinates": [-116.7166, 36.4775]}, "properties": {"NAME": "W6/ND-161", "TITLE": "5330", "REGION": "Northern Desert", "ASSOCIATION": "USA - CA", "POINTS": "4", "BONUSPOINTS": "3"}}, {"type": "Feature", "geometry": {"type": "Point", "coordinates": [-116.417, 35.5148]}, "properties": {"NAME": "W6/ND-162", "TITLE": "5311", "REGION": "Northern Desert", "ASSOCIATION": "USA - CA", "POINTS": "4", "BONUSPOINTS": "3"}}, {"type": "Feature", "geometry": {"type": "Point", "coordinates": [-117.0836, 35.4031]}, "properties": {"NAME": "W6/ND-163", "TITLE": "5301", "REGION": "Northern Desert", "ASSOCIATION": "USA - CA", "POINTS": "4", "BONUSPOINTS": "3"}}, {"type": "Feature", "geometry": {"type": "Point", "coordinates": [-116.5517, 36.3705]}, "properties": {"NAME": "W6/ND-164", "TITLE": "5300", "REGION": "Northern Desert", "ASSOCIATION": "USA - CA", "POINTS": "4", "BONUSPOINTS": "3"}}, {"type": "Feature", "geometry": {"type": "Point", "coordinates": [-116.5968, 35.4516]}, "properties": {"NAME": "W6/ND-165", "TITLE": "Granite Mountains (HP)", "REGION": "Northern Desert", "ASSOCIATION": "USA - CA", "POINTS": "4", "BONUSPOINTS": "3"}}, {"type": "Feature", "geometry": {"type": "Point", "coordinates": [-116.9941, 35.9663]}, "properties": {"NAME": "W6/ND-166", "TITLE": "5265", "REGION": "Northern Desert", "ASSOCIATION": "USA - CA", "POINTS": "4", "BONUSPOINTS": "3"}}, {"type": "Feature", "geometry": {"type": "Point", "coordinates": [-115.5212, 35.6123]}, "properties": {"NAME": "W6/ND-167", "TITLE": "Tess Peak", "REGION": "Northern Desert", "ASSOCIATION": "USA - CA", "POINTS": "4", "BONUSPOINTS": "3"}}, {"type": "Feature", "geometry": {"type": "Point", "coordinates": [-116.208, 36.1661]}, "properties": {"NAME": "W6/ND-168", "TITLE": "Resting Spring Range (HP)", "REGION": "Northern Desert", "ASSOCIATION": "USA - CA", "POINTS": "4", "BONUSPOINTS": "3"}}, {"type": "Feature", "geometry": {"type": "Point", "coordinates": [-117.5839, 35.3487]}, "properties": {"NAME": "W6/ND-169", "TITLE": "Red Mountain", "REGION": "Northern Desert", "ASSOCIATION": "USA - CA", "POINTS": "4", "BONUSPOINTS": "3"}}, {"type": "Feature", "geometry": {"type": "Point", "coordinates": [-116.6916, 36.4383]}, "properties": {"NAME": "W6/ND-170", "TITLE": "5260", "REGION": "Northern Desert", "ASSOCIATION": "USA - CA", "POINTS": "4", "BONUSPOINTS": "3"}}, {"type": "Feature", "geometry": {"type": "Point", "coordinates": [-117.8424, 35.475]}, "properties": {"NAME": "W6/ND-171", "TITLE": "Black Mountain", "REGION": "Northern Desert", "ASSOCIATION": "USA - CA", "POINTS": "4", "BONUSPOINTS": "3"}}, {"type": "Feature", "geometry": {"type": "Point", "coordinates": [-117.5937, 36.7303]}, "properties": {"NAME": "W6/ND-172", "TITLE": "5201", "REGION": "Northern Desert", "ASSOCIATION": "USA - CA", "POINTS": "4", "BONUSPOINTS": "3"}}, {"type": "Feature", "geometry": {"type": "Point", "coordinates": [-115.835, 35.791]}, "properties": {"NAME": "W6/ND-173", "TITLE": "USLM 192 Benchmark", "REGION": "Northern Desert", "ASSOCIATION": "USA - CA", "POINTS": "4", "BONUSPOINTS": "3"}}, {"type": "Feature", "geometry": {"type": "Point", "coordinates": [-117.1801, 35.7272]}, "properties": {"NAME": "W6/ND-174", "TITLE": "Layton Benchmark", "REGION": "Northern Desert", "ASSOCIATION": "USA - CA", "POINTS": "4", "BONUSPOINTS": "3"}}, {"type": "Feature", "geometry": {"type": "Point", "coordinates": [-115.6345, 35.6548]}, "properties": {"NAME": "W6/ND-175", "TITLE": "Mesquite Mountains (HP)", "REGION": "Northern Desert", "ASSOCIATION": "USA - CA", "POINTS": "4", "BONUSPOINTS": "3"}}, {"type": "Feature", "geometry": {"type": "Point", "coordinates": [-116.588, 36.2145]}, "properties": {"NAME": "W6/ND-176", "TITLE": "Ryan Benchmark", "REGION": "Northern Desert", "ASSOCIATION": "USA - CA", "POINTS": "4", "BONUSPOINTS": "3"}}, {"type": "Feature", "geometry": {"type": "Point", "coordinates": [-117.1993, 35.2948]}, "properties": {"NAME": "W6/ND-177", "TITLE": "Slocum Mountain", "REGION": "Northern Desert", "ASSOCIATION": "USA - CA", "POINTS": "4", "BONUSPOINTS": "3"}}, {"type": "Feature", "geometry": {"type": "Point", "coordinates": [-117.0213, 35.6866]}, "properties": {"NAME": "W6/ND-178", "TITLE": "Brown Mountain", "REGION": "Northern Desert", "ASSOCIATION": "USA - CA", "POINTS": "4", "BONUSPOINTS": "3"}}, {"type": "Feature", "geometry": {"type": "Point", "coordinates": [-117.8228, 36.031]}, "properties": {"NAME": "W6/ND-179", "TITLE": "Sugarloaf Mountain", "REGION": "Northern Desert", "ASSOCIATION": "USA - CA", "POINTS": "4", "BONUSPOINTS": "3"}}, {"type": "Feature", "geometry": {"type": "Point", "coordinates": [-117.8238, 35.4343]}, "properties": {"NAME": "W6/ND-180", "TITLE": "5121", "REGION": "Northern Desert", "ASSOCIATION": "USA - CA", "POINTS": "4", "BONUSPOINTS": "3"}}, {"type": "Feature", "geometry": {"type": "Point", "coordinates": [-116.9035, 35.6283]}, "properties": {"NAME": "W6/ND-181", "TITLE": "Quail Benchmark", "REGION": "Northern Desert", "ASSOCIATION": "USA - CA", "POINTS": "4", "BONUSPOINTS": "3"}}, {"type": "Feature", "geometry": {"type": "Point", "coordinates": [-116.2317, 36.1836]}, "properties": {"NAME": "W6/ND-182", "TITLE": "5101", "REGION": "Northern Desert", "ASSOCIATION": "USA - CA", "POINTS": "4", "BONUSPOINTS": "3"}}, {"type": "Feature", "geometry": {"type": "Point", "coordinates": [-117.164, 35.4374]}, "properties": {"NAME": "W6/ND-183", "TITLE": "5096", "REGION": "Northern Desert", "ASSOCIATION": "USA - CA", "POINTS": "4", "BONUSPOINTS": "3"}}, {"type": "Feature", "geometry": {"type": "Point", "coordinates": [-117.2339, 35.8305]}, "properties": {"NAME": "W6/ND-184", "TITLE": "Manly Benchmark", "REGION": "Northern Desert", "ASSOCIATION": "USA - CA", "POINTS": "4", "BONUSPOINTS": "3"}}, {"type": "Feature", "geometry": {"type": "Point", "coordinates": [-116.2582, 36.2632]}, "properties": {"NAME": "W6/ND-185", "TITLE": "Shadow Mountain", "REGION": "Northern Desert", "ASSOCIATION": "USA - CA", "POINTS": "4", "BONUSPOINTS": "3"}}, {"type": "Feature", "geometry": {"type": "Point", "coordinates": [-116.9152, 36.7828]}, "properties": {"NAME": "W6/ND-186", "TITLE": "CA/NV Boundary Monument 93", "REGION": "Northern Desert", "ASSOCIATION": "USA - CA", "POINTS": "4", "BONUSPOINTS": "3"}}, {"type": "Feature", "geometry": {"type": "Point", "coordinates": [-116.5562, 35.2828]}, "properties": {"NAME": "W6/ND-187", "TITLE": "Artillery Benchmark", "REGION": "Northern Desert", "ASSOCIATION": "USA - CA", "POINTS": "4", "BONUSPOINTS": "3"}}, {"type": "Feature", "geometry": {"type": "Point", "coordinates": [-116.7548, 36.5177]}, "properties": {"NAME": "W6/ND-188", "TITLE": "Winters Peak", "REGION": "Northern Desert", "ASSOCIATION": "USA - CA", "POINTS": "4", "BONUSPOINTS": "3"}}, {"type": "Feature", "geometry": {"type": "Point", "coordinates": [-115.6546, 35.6341]}, "properties": {"NAME": "W6/ND-189", "TITLE": "Bull Benchmark", "REGION": "Northern Desert", "ASSOCIATION": "USA - CA", "POINTS": "4", "BONUSPOINTS": "3"}}, {"type": "Feature", "geometry": {"type": "Point", "coordinates": [-116.909, 36.7591]}, "properties": {"NAME": "W6/ND-190", "TITLE": "5020", "REGION": "Northern Desert", "ASSOCIATION": "USA - CA", "POINTS": "4", "BONUSPOINTS": "3"}}, {"type": "Feature", "geometry": {"type": "Point", "coordinates": [-117.9325, 37.292]}, "properties": {"NAME": "W6/ND-191", "TITLE": "5020", "REGION": "Northern Desert", "ASSOCIATION": "USA - CA", "POINTS": "4", "BONUSPOINTS": "3"}}, {"type": "Feature", "geometry": {"type": "Point", "coordinates": [-116.8885, 36.737]}, "properties": {"NAME": "W6/ND-192", "TITLE": "5020", "REGION": "Northern Desert", "ASSOCIATION": "USA - CA", "POINTS": "4", "BONUSPOINTS": "3"}}, {"type": "Feature", "geometry": {"type": "Point", "coordinates": [-117.0096, 35.8657]}, "properties": {"NAME": "W6/ND-193", "TITLE": "5013", "REGION": "Northern Desert", "ASSOCIATION": "USA - CA", "POINTS": "4", "BONUSPOINTS": "3"}}, {"type": "Feature", "geometry": {"type": "Point", "coordinates": [-116.5235, 36.1433]}, "properties": {"NAME": "W6/ND-194", "TITLE": "Greenwater Range (HP)", "REGION": "Northern Desert", "ASSOCIATION": "USA - CA", "POINTS": "4", "BONUSPOINTS": "3"}}, {"type": "Feature", "geometry": {"type": "Point", "coordinates": [-116.5358, 35.4646]}, "properties": {"NAME": "W6/ND-195", "TITLE": "4977", "REGION": "Northern Desert", "ASSOCIATION": "USA - CA", "POINTS": "4", "BONUSPOINTS": "3"}}, {"type": "Feature", "geometry": {"type": "Point", "coordinates": [-117.5156, 35.4286]}, "properties": {"NAME": "W6/ND-196", "TITLE": "Dome Mountain", "REGION": "Northern Desert", "ASSOCIATION": "USA - CA", "POINTS": "4", "BONUSPOINTS": "3"}}, {"type": "Feature", "geometry": {"type": "Point", "coordinates": [-116.5038, 36.3446]}, "properties": {"NAME": "W6/ND-197", "TITLE": "Bat Mountain", "REGION": "Northern Desert", "ASSOCIATION": "USA - CA", "POINTS": "4", "BONUSPOINTS": "3"}}, {"type": "Feature", "geometry": {"type": "Point", "coordinates": [-116.3855, 36.1151]}, "properties": {"NAME": "W6/ND-198", "TITLE": "Brown Peak", "REGION": "Northern Desert", "ASSOCIATION": "USA - CA", "POINTS": "4", "BONUSPOINTS": "3"}}, {"type": "Feature", "geometry": {"type": "Point", "coordinates": [-116.4518, 35.5288]}, "properties": {"NAME": "W6/ND-199", "TITLE": "4937", "REGION": "Northern Desert", "ASSOCIATION": "USA - CA", "POINTS": "4", "BONUSPOINTS": "3"}}, {"type": "Feature", "geometry": {"type": "Point", "coordinates": [-116.0608, 35.9329]}, "properties": {"NAME": "W6/ND-200", "TITLE": "4937", "REGION": "Northern Desert", "ASSOCIATION": "USA - CA", "POINTS": "4", "BONUSPOINTS": "3"}}, {"type": "Feature", "geometry": {"type": "Point", "coordinates": [-115.4817, 35.6335]}, "properties": {"NAME": "W6/ND-201", "TITLE": "Stateline Wilderness HP", "REGION": "Northern Desert", "ASSOCIATION": "USA - CA", "POINTS": "4", "BONUSPOINTS": "3"}}, {"type": "Feature", "geometry": {"type": "Point", "coordinates": [-117.07, 35.8953]}, "properties": {"NAME": "W6/ND-202", "TITLE": "4885", "REGION": "Northern Desert", "ASSOCIATION": "USA - CA", "POINTS": "4", "BONUSPOINTS": "3"}}, {"type": "Feature", "geometry": {"type": "Point", "coordinates": [-116.8014, 35.3615]}, "properties": {"NAME": "W6/ND-203", "TITLE": "Stone Benchmark", "REGION": "Northern Desert", "ASSOCIATION": "USA - CA", "POINTS": "4", "BONUSPOINTS": "3"}}, {"type": "Feature", "geometry": {"type": "Point", "coordinates": [-115.8666, 35.4703]}, "properties": {"NAME": "W6/ND-204", "TITLE": "Bull Spring Mountain", "REGION": "Northern Desert", "ASSOCIATION": "USA - CA", "POINTS": "4", "BONUSPOINTS": "3"}}, {"type": "Feature", "geometry": {"type": "Point", "coordinates": [-117.8653, 35.9252]}, "properties": {"NAME": "W6/ND-205", "TITLE": "4876", "REGION": "Northern Desert", "ASSOCIATION": "USA - CA", "POINTS": "4", "BONUSPOINTS": "3"}}, {"type": "Feature", "geometry": {"type": "Point", "coordinates": [-117.1852, 35.4247]}, "properties": {"NAME": "W6/ND-206", "TITLE": "4871", "REGION": "Northern Desert", "ASSOCIATION": "USA - CA", "POINTS": "4", "BONUSPOINTS": "3"}}, {"type": "Feature", "geometry": {"type": "Point", "coordinates": [-116.8909, 35.5347]}, "properties": {"NAME": "W6/ND-207", "TITLE": "Leach Benchmark", "REGION": "Northern Desert", "ASSOCIATION": "USA - CA", "POINTS": "4", "BONUSPOINTS": "3"}}, {"type": "Feature", "geometry": {"type": "Point", "coordinates": [-115.6522, 35.5601]}, "properties": {"NAME": "W6/ND-208", "TITLE": "4858", "REGION": "Northern Desert", "ASSOCIATION": "USA - CA", "POINTS": "4", "BONUSPOINTS": "3"}}, {"type": "Feature", "geometry": {"type": "Point", "coordinates": [-116.6369, 35.4626]}, "properties": {"NAME": "W6/ND-209", "TITLE": "4842", "REGION": "Northern Desert", "ASSOCIATION": "USA - CA", "POINTS": "4", "BONUSPOINTS": "3"}}, {"type": "Feature", "geometry": {"type": "Point", "coordinates": [-116.9659, 35.3796]}, "properties": {"NAME": "W6/ND-210", "TITLE": "Monument Benchmark", "REGION": "Northern Desert", "ASSOCIATION": "USA - CA", "POINTS": "4", "BONUSPOINTS": "3"}}, {"type": "Feature", "geometry": {"type": "Point", "coordinates": [-116.9296, 35.8847]}, "properties": {"NAME": "W6/ND-211", "TITLE": "Sugarloaf Peak", "REGION": "Northern Desert", "ASSOCIATION": "USA - CA", "POINTS": "4", "BONUSPOINTS": "3"}}, {"type": "Feature", "geometry": {"type": "Point", "coordinates": [-116.5498, 35.5315]}, "properties": {"NAME": "W6/ND-212", "TITLE": "James Benchmark", "REGION": "Northern Desert", "ASSOCIATION": "USA - CA", "POINTS": "4", "BONUSPOINTS": "3"}}, {"type": "Feature", "geometry": {"type": "Point", "coordinates": [-115.672, 35.6997]}, "properties": {"NAME": "W6/ND-213", "TITLE": "4806", "REGION": "Northern Desert", "ASSOCIATION": "USA - CA", "POINTS": "4", "BONUSPOINTS": "3"}}, {"type": "Feature", "geometry": {"type": "Point", "coordinates": [-115.8319, 35.7289]}, "properties": {"NAME": "W6/ND-214", "TITLE": "4806", "REGION": "Northern Desert", "ASSOCIATION": "USA - CA", "POINTS": "4", "BONUSPOINTS": "3"}}, {"type": "Feature", "geometry": {"type": "Point", "coordinates": [-116.6848, 35.4714]}, "properties": {"NAME": "W6/ND-215", "TITLE": "4801", "REGION": "Northern Desert", "ASSOCIATION": "USA - CA", "POINTS": "4", "BONUSPOINTS": "3"}}, {"type": "Feature", "geometry": {"type": "Point", "coordinates": [-117.0579, 35.8342]}, "properties": {"NAME": "W6/ND-216", "TITLE": "4793", "REGION": "Northern Desert", "ASSOCIATION": "USA - CA", "POINTS": "4", "BONUSPOINTS": "3"}}, {"type": "Feature", "geometry": {"type": "Point", "coordinates": [-117.8505, 35.419]}, "properties": {"NAME": "W6/ND-217", "TITLE": "Garlock Benchmark", "REGION": "Northern Desert", "ASSOCIATION": "USA - CA", "POINTS": "4", "BONUSPOINTS": "3"}}, {"type": "Feature", "geometry": {"type": "Point", "coordinates": [-117.2047, 35.4201]}, "properties": {"NAME": "W6/ND-218", "TITLE": "4780", "REGION": "Northern Desert", "ASSOCIATION": "USA - CA", "POINTS": "4", "BONUSPOINTS": "3"}}, {"type": "Feature", "geometry": {"type": "Point", "coordinates": [-116.8192, 35.6081]}, "properties": {"NAME": "W6/ND-219", "TITLE": "4780", "REGION": "Northern Desert", "ASSOCIATION": "USA - CA", "POINTS": "4", "BONUSPOINTS": "3"}}, {"type": "Feature", "geometry": {"type": "Point", "coordinates": [-117.0718, 35.949]}, "properties": {"NAME": "W6/ND-220", "TITLE": "Striped Butte", "REGION": "Northern Desert", "ASSOCIATION": "USA - CA", "POINTS": "4", "BONUSPOINTS": "3"}}, {"type": "Feature", "geometry": {"type": "Point", "coordinates": [-116.5243, 35.9727]}, "properties": {"NAME": "W6/ND-221", "TITLE": "Epaulet Peak", "REGION": "Northern Desert", "ASSOCIATION": "USA - CA", "POINTS": "4", "BONUSPOINTS": "3"}}, {"type": "Feature", "geometry": {"type": "Point", "coordinates": [-116.4167, 35.8787]}, "properties": {"NAME": "W6/ND-222", "TITLE": "Ibex Peak", "REGION": "Northern Desert", "ASSOCIATION": "USA - CA", "POINTS": "4", "BONUSPOINTS": "3"}}, {"type": "Feature", "geometry": {"type": "Point", "coordinates": [-115.8178, 35.4153]}, "properties": {"NAME": "W6/ND-223", "TITLE": "Unnamed Benchmark", "REGION": "Northern Desert", "ASSOCIATION": "USA - CA", "POINTS": "4", "BONUSPOINTS": "3"}}, {"type": "Feature", "geometry": {"type": "Point", "coordinates": [-117.6733, 35.3516]}, "properties": {"NAME": "W6/ND-224", "TITLE": "Government Peak", "REGION": "Northern Desert", "ASSOCIATION": "USA - CA", "POINTS": "4", "BONUSPOINTS": "3"}}, {"type": "Feature", "geometry": {"type": "Point", "coordinates": [-116.8077, 35.5292]}, "properties": {"NAME": "W6/ND-225", "TITLE": "4714", "REGION": "Northern Desert", "ASSOCIATION": "USA - CA", "POINTS": "4", "BONUSPOINTS": "3"}}, {"type": "Feature", "geometry": {"type": "Point", "coordinates": [-115.7402, 35.7069]}, "properties": {"NAME": "W6/ND-226", "TITLE": "North Mesquite Mountains Wilderness HP", "REGION": "Northern Desert", "ASSOCIATION": "USA - CA", "POINTS": "4", "BONUSPOINTS": "3"}}, {"type": "Feature", "geometry": {"type": "Point", "coordinates": [-117.5917, 36.7749]}, "properties": {"NAME": "W6/ND-227", "TITLE": "4700", "REGION": "Northern Desert", "ASSOCIATION": "USA - CA", "POINTS": "4", "BONUSPOINTS": "3"}}, {"type": "Feature", "geometry": {"type": "Point", "coordinates": [-117.3055, 35.2879]}, "properties": {"NAME": "W6/ND-228", "TITLE": "Grass Valley Wilderness HP", "REGION": "Northern Desert", "ASSOCIATION": "USA - CA", "POINTS": "4", "BONUSPOINTS": "3"}}, {"type": "Feature", "geometry": {"type": "Point", "coordinates": [-116.8818, 35.7314]}, "properties": {"NAME": "W6/ND-229", "TITLE": "Owl Benchmark", "REGION": "Northern Desert", "ASSOCIATION": "USA - CA", "POINTS": "4", "BONUSPOINTS": "3"}}, {"type": "Feature", "geometry": {"type": "Point", "coordinates": [-117.1118, 35.8771]}, "properties": {"NAME": "W6/ND-230", "TITLE": "4662", "REGION": "Northern Desert", "ASSOCIATION": "USA - CA", "POINTS": "4", "BONUSPOINTS": "3"}}, {"type": "Feature", "geometry": {"type": "Point", "coordinates": [-117.4547, 35.1942]}, "properties": {"NAME": "W6/ND-231", "TITLE": "Fremont Peak", "REGION": "Northern Desert", "ASSOCIATION": "USA - CA", "POINTS": "4", "BONUSPOINTS": "3"}}, {"type": "Feature", "geometry": {"type": "Point", "coordinates": [-117.7102, 35.4759]}, "properties": {"NAME": "W6/ND-232", "TITLE": "El Paso Peaks", "REGION": "Northern Desert", "ASSOCIATION": "USA - CA", "POINTS": "4", "BONUSPOINTS": "3"}}, {"type": "Feature", "geometry": {"type": "Point", "coordinates": [-115.8117, 35.839]}, "properties": {"NAME": "W6/ND-233", "TITLE": "Mesquite Benchmark", "REGION": "Northern Desert", "ASSOCIATION": "USA - CA", "POINTS": "4", "BONUSPOINTS": "3"}}, {"type": "Feature", "geometry": {"type": "Point", "coordinates": [-116.2735, 35.4722]}, "properties": {"NAME": "W6/ND-234", "TITLE": "4567", "REGION": "Northern Desert", "ASSOCIATION": "USA - CA", "POINTS": "4", "BONUSPOINTS": "3"}}, {"type": "Feature", "geometry": {"type": "Point", "coordinates": [-117.4428, 35.389]}, "properties": {"NAME": "W6/ND-235", "TITLE": "4566", "REGION": "Northern Desert", "ASSOCIATION": "USA - CA", "POINTS": "4", "BONUSPOINTS": "3"}}, {"type": "Feature", "geometry": {"type": "Point", "coordinates": [-117.1964, 35.4597]}, "properties": {"NAME": "W6/ND-236", "TITLE": "Robbers Mountain", "REGION": "Northern Desert", "ASSOCIATION": "USA - CA", "POINTS": "4", "BONUSPOINTS": "3"}}, {"type": "Feature", "geometry": {"type": "Point", "coordinates": [-117.3033, 35.354]}, "properties": {"NAME": "W6/ND-237", "TITLE": "Black Hills", "REGION": "Northern Desert", "ASSOCIATION": "USA - CA", "POINTS": "4", "BONUSPOINTS": "3"}}, {"type": "Feature", "geometry": {"type": "Point", "coordinates": [-116.9393, 35.0905]}, "properties": {"NAME": "W6/ND-238", "TITLE": "Lane Mountain", "REGION": "Northern Desert", "ASSOCIATION": "USA - CA", "POINTS": "4", "BONUSPOINTS": "3"}}, {"type": "Feature", "geometry": {"type": "Point", "coordinates": [-116.9553, 35.3878]}, "properties": {"NAME": "W6/ND-239", "TITLE": "4536", "REGION": "Northern Desert", "ASSOCIATION": "USA - CA", "POINTS": "4", "BONUSPOINTS": "3"}}, {"type": "Feature", "geometry": {"type": "Point", "coordinates": [-116.868, 35.2406]}, "properties": {"NAME": "W6/ND-240", "TITLE": "Oslund Benchmark", "REGION": "Northern Desert", "ASSOCIATION": "USA - CA", "POINTS": "4", "BONUSPOINTS": "3"}}, {"type": "Feature", "geometry": {"type": "Point", "coordinates": [-117.2887, 34.6106]}, "properties": {"NAME": "W6/ND-241", "TITLE": "Quartzite Mountain", "REGION": "Northern Desert", "ASSOCIATION": "USA - CA", "POINTS": "4", "BONUSPOINTS": "3"}}, {"type": "Feature", "geometry": {"type": "Point", "coordinates": [-116.9377, 35.9887]}, "properties": {"NAME": "W6/ND-242", "TITLE": "4501", "REGION": "Northern Desert", "ASSOCIATION": "USA - CA", "POINTS": "4", "BONUSPOINTS": "3"}}, {"type": "Feature", "geometry": {"type": "Point", "coordinates": [-116.5385, 35.4151]}, "properties": {"NAME": "W6/ND-243", "TITLE": "4493", "REGION": "Northern Desert", "ASSOCIATION": "USA - CA", "POINTS": "4", "BONUSPOINTS": "3"}}, {"type": "Feature", "geometry": {"type": "Point", "coordinates": [-116.2327, 36.0775]}, "properties": {"NAME": "W6/ND-244", "TITLE": "4481", "REGION": "Northern Desert", "ASSOCIATION": "USA - CA", "POINTS": "4", "BONUSPOINTS": "3"}}, {"type": "Feature", "geometry": {"type": "Point", "coordinates": [-116.6222, 35.9624]}, "properties": {"NAME": "W6/ND-245", "TITLE": "Desert Hound Peak", "REGION": "Northern Desert", "ASSOCIATION": "USA - CA", "POINTS": "4", "BONUSPOINTS": "3"}}, {"type": "Feature", "geometry": {"type": "Point", "coordinates": [-116.7251, 35.5053]}, "properties": {"NAME": "W6/ND-246", "TITLE": "4452", "REGION": "Northern Desert", "ASSOCIATION": "USA - CA", "POINTS": "4", "BONUSPOINTS": "3"}}, {"type": "Feature", "geometry": {"type": "Point", "coordinates": [-115.7638, 35.824]}, "properties": {"NAME": "W6/ND-247", "TITLE": "4438", "REGION": "Northern Desert", "ASSOCIATION": "USA - CA", "POINTS": "4", "BONUSPOINTS": "3"}}, {"type": "Feature", "geometry": {"type": "Point", "coordinates": [-116.6466, 36.3089]}, "properties": {"NAME": "W6/ND-248", "TITLE": "Devair Benchmark", "REGION": "Northern Desert", "ASSOCIATION": "USA - CA", "POINTS": "4", "BONUSPOINTS": "3"}}, {"type": "Feature", "geometry": {"type": "Point", "coordinates": [-116.7767, 35.7865]}, "properties": {"NAME": "W6/ND-249", "TITLE": "Owlhead Benchmark", "REGION": "Northern Desert", "ASSOCIATION": "USA - CA", "POINTS": "4", "BONUSPOINTS": "3"}}, {"type": "Feature", "geometry": {"type": "Point", "coordinates": [-116.9267, 36.7429]}, "properties": {"NAME": "W6/ND-250", "TITLE": "4403", "REGION": "Northern Desert", "ASSOCIATION": "USA - CA", "POINTS": "4", "BONUSPOINTS": "3"}}, {"type": "Feature", "geometry": {"type": "Point", "coordinates": [-116.9855, 35.357]}, "properties": {"NAME": "W6/ND-251", "TITLE": "4363", "REGION": "Northern Desert", "ASSOCIATION": "USA - CA", "POINTS": "4", "BONUSPOINTS": "3"}}, {"type": "Feature", "geometry": {"type": "Point", "coordinates": [-117.7848, 35.5106]}, "properties": {"NAME": "W6/ND-252", "TITLE": "4290", "REGION": "Northern Desert", "ASSOCIATION": "USA - CA", "POINTS": "4", "BONUSPOINTS": "3"}}, {"type": "Feature", "geometry": {"type": "Point", "coordinates": [-117.8325, 37.1633]}, "properties": {"NAME": "W6/ND-253", "TITLE": "4285", "REGION": "Northern Desert", "ASSOCIATION": "USA - CA", "POINTS": "4", "BONUSPOINTS": "3"}}, {"type": "Feature", "geometry": {"type": "Point", "coordinates": [-116.4101, 35.92]}, "properties": {"NAME": "W6/ND-254", "TITLE": "Sheephead Mountain", "REGION": "Northern Desert", "ASSOCIATION": "USA - CA", "POINTS": "4", "BONUSPOINTS": "3"}}, {"type": "Feature", "geometry": {"type": "Point", "coordinates": [-117.4783, 35.7793]}, "properties": {"NAME": "W6/ND-255", "TITLE": "4262", "REGION": "Northern Desert", "ASSOCIATION": "USA - CA", "POINTS": "4", "BONUSPOINTS": "3"}}, {"type": "Feature", "geometry": {"type": "Point", "coordinates": [-116.4553, 35.9465]}, "properties": {"NAME": "W6/ND-256", "TITLE": "Salsberry Peak", "REGION": "Northern Desert", "ASSOCIATION": "USA - CA", "POINTS": "4", "BONUSPOINTS": "3"}}, {"type": "Feature", "geometry": {"type": "Point", "coordinates": [-117.2799, 34.6421]}, "properties": {"NAME": "W6/ND-257", "TITLE": "Silver Mountain", "REGION": "Northern Desert", "ASSOCIATION": "USA - CA", "POINTS": "4", "BONUSPOINTS": "3"}}, {"type": "Feature", "geometry": {"type": "Point", "coordinates": [-116.4352, 35.4722]}, "properties": {"NAME": "W6/ND-258", "TITLE": "4245", "REGION": "Northern Desert", "ASSOCIATION": "USA - CA", "POINTS": "4", "BONUSPOINTS": "3"}}, {"type": "Feature", "geometry": {"type": "Point", "coordinates": [-116.0883, 35.8479]}, "properties": {"NAME": "W6/ND-259", "TITLE": "Noon Benchmark", "REGION": "Northern Desert", "ASSOCIATION": "USA - CA", "POINTS": "4", "BONUSPOINTS": "3"}}, {"type": "Feature", "geometry": {"type": "Point", "coordinates": [-116.3728, 36.044]}, "properties": {"NAME": "W6/ND-260", "TITLE": "4233", "REGION": "Northern Desert", "ASSOCIATION": "USA - CA", "POINTS": "4", "BONUSPOINTS": "3"}}, {"type": "Feature", "geometry": {"type": "Point", "coordinates": [-116.4848, 35.4185]}, "properties": {"NAME": "W6/ND-261", "TITLE": "Grave Benchmark", "REGION": "Northern Desert", "ASSOCIATION": "USA - CA", "POINTS": "4", "BONUSPOINTS": "3"}}, {"type": "Feature", "geometry": {"type": "Point", "coordinates": [-117.2941, 35.4172]}, "properties": {"NAME": "W6/ND-262", "TITLE": "4218", "REGION": "Northern Desert", "ASSOCIATION": "USA - CA", "POINTS": "4", "BONUSPOINTS": "3"}}, {"type": "Feature", "geometry": {"type": "Point", "coordinates": [-117.0659, 35.4791]}, "properties": {"NAME": "W6/ND-263", "TITLE": "4204", "REGION": "Northern Desert", "ASSOCIATION": "USA - CA", "POINTS": "4", "BONUSPOINTS": "3"}}, {"type": "Feature", "geometry": {"type": "Point", "coordinates": [-115.7915, 35.5693]}, "properties": {"NAME": "W6/ND-264", "TITLE": "Shadow Mountain", "REGION": "Northern Desert", "ASSOCIATION": "USA - CA", "POINTS": "4", "BONUSPOINTS": "3"}}, {"type": "Feature", "geometry": {"type": "Point", "coordinates": [-118.1888, 34.9825]}, "properties": {"NAME": "W6/ND-265", "TITLE": "Soledad Mountain", "REGION": "Northern Desert", "ASSOCIATION": "USA - CA", "POINTS": "4", "BONUSPOINTS": "3"}}, {"type": "Feature", "geometry": {"type": "Point", "coordinates": [-116.9308, 35.9187]}, "properties": {"NAME": "W6/ND-266", "TITLE": "4183", "REGION": "Northern Desert", "ASSOCIATION": "USA - CA", "POINTS": "4", "BONUSPOINTS": "3"}}, {"type": "Feature", "geometry": {"type": "Point", "coordinates": [-116.9857, 35.8616]}, "properties": {"NAME": "W6/ND-267", "TITLE": "4146", "REGION": "Northern Desert", "ASSOCIATION": "USA - CA", "POINTS": "4", "BONUSPOINTS": "3"}}, {"type": "Feature", "geometry": {"type": "Point", "coordinates": [-117.0707, 35.1753]}, "properties": {"NAME": "W6/ND-268", "TITLE": "Mesa Benchmark", "REGION": "Northern Desert", "ASSOCIATION": "USA - CA", "POINTS": "4", "BONUSPOINTS": "3"}}, {"type": "Feature", "geometry": {"type": "Point", "coordinates": [-117.1177, 35.8516]}, "properties": {"NAME": "W6/ND-269", "TITLE": "4127", "REGION": "Northern Desert", "ASSOCIATION": "USA - CA", "POINTS": "4", "BONUSPOINTS": "3"}}, {"type": "Feature", "geometry": {"type": "Point", "coordinates": [-117.5658, 34.7375]}, "properties": {"NAME": "W6/ND-270", "TITLE": "Shadow Mountains (HP)", "REGION": "Northern Desert", "ASSOCIATION": "USA - CA", "POINTS": "4", "BONUSPOINTS": "3"}}, {"type": "Feature", "geometry": {"type": "Point", "coordinates": [-116.8636, 35.3975]}, "properties": {"NAME": "W6/ND-271", "TITLE": "Board Benchmark", "REGION": "Northern Desert", "ASSOCIATION": "USA - CA", "POINTS": "4", "BONUSPOINTS": "3"}}, {"type": "Feature", "geometry": {"type": "Point", "coordinates": [-117.0667, 35.1331]}, "properties": {"NAME": "W6/ND-272", "TITLE": "4097", "REGION": "Northern Desert", "ASSOCIATION": "USA - CA", "POINTS": "4", "BONUSPOINTS": "3"}}, {"type": "Feature", "geometry": {"type": "Point", "coordinates": [-116.9845, 35.4216]}, "properties": {"NAME": "W6/ND-273", "TITLE": "4092", "REGION": "Northern Desert", "ASSOCIATION": "USA - CA", "POINTS": "4", "BONUSPOINTS": "3"}}, {"type": "Feature", "geometry": {"type": "Point", "coordinates": [-115.8995, 35.5733]}, "properties": {"NAME": "W6/ND-274", "TITLE": "Shadow Mountains (HP)", "REGION": "Northern Desert", "ASSOCIATION": "USA - CA", "POINTS": "4", "BONUSPOINTS": "3"}}, {"type": "Feature", "geometry": {"type": "Point", "coordinates": [-116.9685, 35.3323]}, "properties": {"NAME": "W6/ND-275", "TITLE": "4063", "REGION": "Northern Desert", "ASSOCIATION": "USA - CA", "POINTS": "4", "BONUSPOINTS": "3"}}, {"type": "Feature", "geometry": {"type": "Point", "coordinates": [-116.8493, 35.3112]}, "properties": {"NAME": "W6/ND-276", "TITLE": "4060", "REGION": "Northern Desert", "ASSOCIATION": "USA - CA", "POINTS": "4", "BONUSPOINTS": "3"}}, {"type": "Feature", "geometry": {"type": "Point", "coordinates": [-116.3887, 36.017]}, "properties": {"NAME": "W6/ND-277", "TITLE": "4029", "REGION": "Northern Desert", "ASSOCIATION": "USA - CA", "POINTS": "4", "BONUSPOINTS": "3"}}, {"type": "Feature", "geometry": {"type": "Point", "coordinates": [-115.8228, 35.6511]}, "properties": {"NAME": "W6/ND-278", "TITLE": "4005", "REGION": "Northern Desert", "ASSOCIATION": "USA - CA", "POINTS": "4", "BONUSPOINTS": "3"}}, {"type": "Feature", "geometry": {"type": "Point", "coordinates": [-117.3531, 36.7137]}, "properties": {"NAME": "W6/ND-279", "TITLE": "3990", "REGION": "Northern Desert", "ASSOCIATION": "USA - CA", "POINTS": "2", "BONUSPOINTS": "3"}}, {"type": "Feature", "geometry": {"type": "Point", "coordinates": [-115.8073, 35.6665]}, "properties": {"NAME": "W6/ND-280", "TITLE": "3976", "REGION": "Northern Desert", "ASSOCIATION": "USA - CA", "POINTS": "2", "BONUSPOINTS": "3"}}, {"type": "Feature", "geometry": {"type": "Point", "coordinates": [-117.2885, 35.8971]}, "properties": {"NAME": "W6/ND-281", "TITLE": "Quarry Benchmark", "REGION": "Northern Desert", "ASSOCIATION": "USA - CA", "POINTS": "2", "BONUSPOINTS": "3"}}, {"type": "Feature", "geometry": {"type": "Point", "coordinates": [-117.3435, 35.375]}, "properties": {"NAME": "W6/ND-282", "TITLE": "3953", "REGION": "Northern Desert", "ASSOCIATION": "USA - CA", "POINTS": "2", "BONUSPOINTS": "3"}}, {"type": "Feature", "geometry": {"type": "Point", "coordinates": [-117.9186, 35.9872]}, "properties": {"NAME": "W6/ND-283", "TITLE": "Red Hill", "REGION": "Northern Desert", "ASSOCIATION": "USA - CA", "POINTS": "2", "BONUSPOINTS": "3"}}, {"type": "Feature", "geometry": {"type": "Point", "coordinates": [-117.1869, 35.1597]}, "properties": {"NAME": "W6/ND-284", "TITLE": "Opal Mountain", "REGION": "Northern Desert", "ASSOCIATION": "USA - CA", "POINTS": "2", "BONUSPOINTS": "3"}}, {"type": "Feature", "geometry": {"type": "Point", "coordinates": [-117.1753, 35.1726]}, "properties": {"NAME": "W6/ND-285", "TITLE": "3951", "REGION": "Northern Desert", "ASSOCIATION": "USA - CA", "POINTS": "2", "BONUSPOINTS": "3"}}, {"type": "Feature", "geometry": {"type": "Point", "coordinates": [-116.2743, 36.2023]}, "properties": {"NAME": "W6/ND-286", "TITLE": "3940", "REGION": "Northern Desert", "ASSOCIATION": "USA - CA", "POINTS": "2", "BONUSPOINTS": "3"}}, {"type": "Feature", "geometry": {"type": "Point", "coordinates": [-116.7106, 35.3961]}, "properties": {"NAME": "W6/ND-287", "TITLE": "Nelson Benchmark", "REGION": "Northern Desert", "ASSOCIATION": "USA - CA", "POINTS": "2", "BONUSPOINTS": "3"}}, {"type": "Feature", "geometry": {"type": "Point", "coordinates": [-116.9335, 35.9578]}, "properties": {"NAME": "W6/ND-288", "TITLE": "3910", "REGION": "Northern Desert", "ASSOCIATION": "USA - CA", "POINTS": "2", "BONUSPOINTS": "3"}}, {"type": "Feature", "geometry": {"type": "Point", "coordinates": [-117.0117, 35.1624]}, "properties": {"NAME": "W6/ND-289", "TITLE": "Wells Benchmark", "REGION": "Northern Desert", "ASSOCIATION": "USA - CA", "POINTS": "2", "BONUSPOINTS": "3"}}, {"type": "Feature", "geometry": {"type": "Point", "coordinates": [-117.1097, 35.8641]}, "properties": {"NAME": "W6/ND-290", "TITLE": "3854", "REGION": "Northern Desert", "ASSOCIATION": "USA - CA", "POINTS": "2", "BONUSPOINTS": "3"}}, {"type": "Feature", "geometry": {"type": "Point", "coordinates": [-115.928, 35.9117]}, "properties": {"NAME": "W6/ND-291", "TITLE": "3828", "REGION": "Northern Desert", "ASSOCIATION": "USA - CA", "POINTS": "2", "BONUSPOINTS": "3"}}, {"type": "Feature", "geometry": {"type": "Point", "coordinates": [-115.7475, 35.7611]}, "properties": {"NAME": "W6/ND-292", "TITLE": "3825", "REGION": "Northern Desert", "ASSOCIATION": "USA - CA", "POINTS": "2", "BONUSPOINTS": "3"}}, {"type": "Feature", "geometry": {"type": "Point", "coordinates": [-116.522, 35.2929]}, "properties": {"NAME": "W6/ND-293", "TITLE": "3821", "REGION": "Northern Desert", "ASSOCIATION": "USA - CA", "POINTS": "2", "BONUSPOINTS": "3"}}, {"type": "Feature", "geometry": {"type": "Point", "coordinates": [-116.7486, 35.7915]}, "properties": {"NAME": "W6/ND-294", "TITLE": "3809", "REGION": "Northern Desert", "ASSOCIATION": "USA - CA", "POINTS": "2", "BONUSPOINTS": "3"}}, {"type": "Feature", "geometry": {"type": "Point", "coordinates": [-116.3564, 36.2113]}, "properties": {"NAME": "W6/ND-295", "TITLE": "Eagle Mountain", "REGION": "Northern Desert", "ASSOCIATION": "USA - CA", "POINTS": "2", "BONUSPOINTS": "3"}}, {"type": "Feature", "geometry": {"type": "Point", "coordinates": [-115.9938, 35.3794]}, "properties": {"NAME": "W6/ND-296", "TITLE": "Silver Lake Benchmark", "REGION": "Northern Desert", "ASSOCIATION": "USA - CA", "POINTS": "2", "BONUSPOINTS": "3"}}, {"type": "Feature", "geometry": {"type": "Point", "coordinates": [-116.813, 34.9836]}, "properties": {"NAME": "W6/ND-297", "TITLE": "3783", "REGION": "Northern Desert", "ASSOCIATION": "USA - CA", "POINTS": "2", "BONUSPOINTS": "3"}}, {"type": "Feature", "geometry": {"type": "Point", "coordinates": [-116.9115, 35.0354]}, "properties": {"NAME": "W6/ND-298", "TITLE": "3780", "REGION": "Northern Desert", "ASSOCIATION": "USA - CA", "POINTS": "2", "BONUSPOINTS": "3"}}, {"type": "Feature", "geometry": {"type": "Point", "coordinates": [-116.9204, 35.0461]}, "properties": {"NAME": "W6/ND-299", "TITLE": "3780", "REGION": "Northern Desert", "ASSOCIATION": "USA - CA", "POINTS": "2", "BONUSPOINTS": "3"}}, {"type": "Feature", "geometry": {"type": "Point", "coordinates": [-116.2225, 36.0332]}, "properties": {"NAME": "W6/ND-300", "TITLE": "3723", "REGION": "Northern Desert", "ASSOCIATION": "USA - CA", "POINTS": "2", "BONUSPOINTS": "3"}}, {"type": "Feature", "geometry": {"type": "Point", "coordinates": [-116.0081, 35.5004]}, "properties": {"NAME": "W6/ND-301", "TITLE": "Silurian Hills", "REGION": "Northern Desert", "ASSOCIATION": "USA - CA", "POINTS": "2", "BONUSPOINTS": "3"}}, {"type": "Feature", "geometry": {"type": "Point", "coordinates": [-116.8094, 34.9397]}, "properties": {"NAME": "W6/ND-302", "TITLE": "3695", "REGION": "Northern Desert", "ASSOCIATION": "USA - CA", "POINTS": "2", "BONUSPOINTS": "3"}}, {"type": "Feature", "geometry": {"type": "Point", "coordinates": [-116.3878, 35.4028]}, "properties": {"NAME": "W6/ND-303", "TITLE": "3692", "REGION": "Northern Desert", "ASSOCIATION": "USA - CA", "POINTS": "2", "BONUSPOINTS": "3"}}, {"type": "Feature", "geometry": {"type": "Point", "coordinates": [-115.9231, 35.6072]}, "properties": {"NAME": "W6/ND-304", "TITLE": "3690", "REGION": "Northern Desert", "ASSOCIATION": "USA - CA", "POINTS": "2", "BONUSPOINTS": "3"}}, {"type": "Feature", "geometry": {"type": "Point", "coordinates": [-117.022, 36.7359]}, "properties": {"NAME": "W6/ND-305", "TITLE": "3689", "REGION": "Northern Desert", "ASSOCIATION": "USA - CA", "POINTS": "2", "BONUSPOINTS": "3"}}, {"type": "Feature", "geometry": {"type": "Point", "coordinates": [-116.237, 35.1922]}, "properties": {"NAME": "W6/ND-306", "TITLE": "Soda Mountains (HP)", "REGION": "Northern Desert", "ASSOCIATION": "USA - CA", "POINTS": "2", "BONUSPOINTS": "3"}}, {"type": "Feature", "geometry": {"type": "Point", "coordinates": [-116.7076, 35.2858]}, "properties": {"NAME": "W6/ND-307", "TITLE": "Erwin Benchmark", "REGION": "Northern Desert", "ASSOCIATION": "USA - CA", "POINTS": "2", "BONUSPOINTS": "3"}}, {"type": "Feature", "geometry": {"type": "Point", "coordinates": [-117.7983, 34.676]}, "properties": {"NAME": "W6/ND-308", "TITLE": "Saddleback Butte", "REGION": "Northern Desert", "ASSOCIATION": "USA - CA", "POINTS": "2", "BONUSPOINTS": "3"}}, {"type": "Feature", "geometry": {"type": "Point", "coordinates": [-116.9684, 35.2661]}, "properties": {"NAME": "W6/ND-309", "TITLE": "3647", "REGION": "Northern Desert", "ASSOCIATION": "USA - CA", "POINTS": "2", "BONUSPOINTS": "3"}}, {"type": "Feature", "geometry": {"type": "Point", "coordinates": [-116.2998, 35.1932]}, "properties": {"NAME": "W6/ND-310", "TITLE": "Cronise Benchmark", "REGION": "Northern Desert", "ASSOCIATION": "USA - CA", "POINTS": "2", "BONUSPOINTS": "3"}}, {"type": "Feature", "geometry": {"type": "Point", "coordinates": [-117.723, 34.5567]}, "properties": {"NAME": "W6/ND-311", "TITLE": "Black Butte", "REGION": "Northern Desert", "ASSOCIATION": "USA - CA", "POINTS": "2", "BONUSPOINTS": "3"}}, {"type": "Feature", "geometry": {"type": "Point", "coordinates": [-117.5221, 35.722]}, "properties": {"NAME": "W6/ND-312", "TITLE": "Base Benchmark", "REGION": "Northern Desert", "ASSOCIATION": "USA - CA", "POINTS": "2", "BONUSPOINTS": "3"}}, {"type": "Feature", "geometry": {"type": "Point", "coordinates": [-116.2316, 35.2975]}, "properties": {"NAME": "W6/ND-313", "TITLE": "3494", "REGION": "Northern Desert", "ASSOCIATION": "USA - CA", "POINTS": "2", "BONUSPOINTS": "3"}}, {"type": "Feature", "geometry": {"type": "Point", "coordinates": [-116.2376, 35.2352]}, "properties": {"NAME": "W6/ND-314", "TITLE": "3461", "REGION": "Northern Desert", "ASSOCIATION": "USA - CA", "POINTS": "2", "BONUSPOINTS": "3"}}, {"type": "Feature", "geometry": {"type": "Point", "coordinates": [-116.6194, 35.0975]}, "properties": {"NAME": "W6/ND-315", "TITLE": "Alvord Peak", "REGION": "Northern Desert", "ASSOCIATION": "USA - CA", "POINTS": "2", "BONUSPOINTS": "3"}}, {"type": "Feature", "geometry": {"type": "Point", "coordinates": [-116.1848, 35.2725]}, "properties": {"NAME": "W6/ND-316", "TITLE": "Cooper Mountain Benchmark", "REGION": "Northern Desert", "ASSOCIATION": "USA - CA", "POINTS": "2", "BONUSPOINTS": "3"}}, {"type": "Feature", "geometry": {"type": "Point", "coordinates": [-117.9328, 35.3835]}, "properties": {"NAME": "W6/ND-317", "TITLE": "3425", "REGION": "Northern Desert", "ASSOCIATION": "USA - CA", "POINTS": "2", "BONUSPOINTS": "3"}}, {"type": "Feature", "geometry": {"type": "Point", "coordinates": [-116.2149, 35.2093]}, "properties": {"NAME": "W6/ND-318", "TITLE": "3425", "REGION": "Northern Desert", "ASSOCIATION": "USA - CA", "POINTS": "2", "BONUSPOINTS": "3"}}, {"type": "Feature", "geometry": {"type": "Point", "coordinates": [-115.9899, 35.9644]}, "properties": {"NAME": "W6/ND-319", "TITLE": "Luceil Benchmark", "REGION": "Northern Desert", "ASSOCIATION": "USA - CA", "POINTS": "2", "BONUSPOINTS": "3"}}, {"type": "Feature", "geometry": {"type": "Point", "coordinates": [-116.4701, 35.8404]}, "properties": {"NAME": "W6/ND-320", "TITLE": "3392", "REGION": "Northern Desert", "ASSOCIATION": "USA - CA", "POINTS": "2", "BONUSPOINTS": "3"}}, {"type": "Feature", "geometry": {"type": "Point", "coordinates": [-117.5983, 35.6661]}, "properties": {"NAME": "W6/ND-321", "TITLE": "Lone Butte", "REGION": "Northern Desert", "ASSOCIATION": "USA - CA", "POINTS": "2", "BONUSPOINTS": "3"}}, {"type": "Feature", "geometry": {"type": "Point", "coordinates": [-116.8796, 35.9012]}, "properties": {"NAME": "W6/ND-322", "TITLE": "3359", "REGION": "Northern Desert", "ASSOCIATION": "USA - CA", "POINTS": "2", "BONUSPOINTS": "3"}}, {"type": "Feature", "geometry": {"type": "Point", "coordinates": [-117.8601, 34.5962]}, "properties": {"NAME": "W6/ND-323", "TITLE": "Lovejoy Buttes", "REGION": "Northern Desert", "ASSOCIATION": "USA - CA", "POINTS": "2", "BONUSPOINTS": "3"}}, {"type": "Feature", "geometry": {"type": "Point", "coordinates": [-116.6686, 35.6703]}, "properties": {"NAME": "W6/ND-324", "TITLE": "Spring Benchmark", "REGION": "Northern Desert", "ASSOCIATION": "USA - CA", "POINTS": "2", "BONUSPOINTS": "3"}}, {"type": "Feature", "geometry": {"type": "Point", "coordinates": [-116.1148, 35.7663]}, "properties": {"NAME": "W6/ND-325", "TITLE": "China Benchmark", "REGION": "Northern Desert", "ASSOCIATION": "USA - CA", "POINTS": "2", "BONUSPOINTS": "3"}}, {"type": "Feature", "geometry": {"type": "Point", "coordinates": [-118.2373, 34.9218]}, "properties": {"NAME": "W6/ND-326", "TITLE": "Rosamond Hills", "REGION": "Northern Desert", "ASSOCIATION": "USA - CA", "POINTS": "2", "BONUSPOINTS": "3"}}, {"type": "Feature", "geometry": {"type": "Point", "coordinates": [-116.4927, 35.3233]}, "properties": {"NAME": "W6/ND-327", "TITLE": "3300", "REGION": "Northern Desert", "ASSOCIATION": "USA - CA", "POINTS": "2", "BONUSPOINTS": "3"}}, {"type": "Feature", "geometry": {"type": "Point", "coordinates": [-118.2765, 34.8833]}, "properties": {"NAME": "W6/ND-328", "TITLE": "Willow Springs Butte", "REGION": "Northern Desert", "ASSOCIATION": "USA - CA", "POINTS": "2", "BONUSPOINTS": "3"}}, {"type": "Feature", "geometry": {"type": "Point", "coordinates": [-116.0298, 35.5223]}, "properties": {"NAME": "W6/ND-329", "TITLE": "3284", "REGION": "Northern Desert", "ASSOCIATION": "USA - CA", "POINTS": "2", "BONUSPOINTS": "3"}}, {"type": "Feature", "geometry": {"type": "Point", "coordinates": [-116.0218, 35.7124]}, "properties": {"NAME": "W6/ND-330", "TITLE": "3274", "REGION": "Northern Desert", "ASSOCIATION": "USA - CA", "POINTS": "2", "BONUSPOINTS": "3"}}, {"type": "Feature", "geometry": {"type": "Point", "coordinates": [-116.2987, 35.3756]}, "properties": {"NAME": "W6/ND-331", "TITLE": "Alvin Benchmark", "REGION": "Northern Desert", "ASSOCIATION": "USA - CA", "POINTS": "2", "BONUSPOINTS": "3"}}, {"type": "Feature", "geometry": {"type": "Point", "coordinates": [-116.2143, 35.9813]}, "properties": {"NAME": "W6/ND-332", "TITLE": "Ring Benchmark", "REGION": "Northern Desert", "ASSOCIATION": "USA - CA", "POINTS": "2", "BONUSPOINTS": "3"}}, {"type": "Feature", "geometry": {"type": "Point", "coordinates": [-116.2931, 35.2963]}, "properties": {"NAME": "W6/ND-333", "TITLE": "Red Pass Benchmark", "REGION": "Northern Desert", "ASSOCIATION": "USA - CA", "POINTS": "2", "BONUSPOINTS": "3"}}, {"type": "Feature", "geometry": {"type": "Point", "coordinates": [-117.8985, 34.6311]}, "properties": {"NAME": "W6/ND-334", "TITLE": "Alpine Butte", "REGION": "Northern Desert", "ASSOCIATION": "USA - CA", "POINTS": "2", "BONUSPOINTS": "3"}}, {"type": "Feature", "geometry": {"type": "Point", "coordinates": [-116.1246, 35.8309]}, "properties": {"NAME": "W6/ND-335", "TITLE": "3254", "REGION": "Northern Desert", "ASSOCIATION": "USA - CA", "POINTS": "2", "BONUSPOINTS": "3"}}, {"type": "Feature", "geometry": {"type": "Point", "coordinates": [-116.3411, 35.2207]}, "properties": {"NAME": "W6/ND-336", "TITLE": "3251", "REGION": "Northern Desert", "ASSOCIATION": "USA - CA", "POINTS": "2", "BONUSPOINTS": "3"}}, {"type": "Feature", "geometry": {"type": "Point", "coordinates": [-117.4801, 35.5921]}, "properties": {"NAME": "W6/ND-337", "TITLE": "3251", "REGION": "Northern Desert", "ASSOCIATION": "USA - CA", "POINTS": "2", "BONUSPOINTS": "3"}}, {"type": "Feature", "geometry": {"type": "Point", "coordinates": [-116.3548, 36.0971]}, "properties": {"NAME": "W6/ND-338", "TITLE": "3208", "REGION": "Northern Desert", "ASSOCIATION": "USA - CA", "POINTS": "2", "BONUSPOINTS": "3"}}, {"type": "Feature", "geometry": {"type": "Point", "coordinates": [-118.0743, 34.9123]}, "properties": {"NAME": "W6/ND-339", "TITLE": "3206", "REGION": "Northern Desert", "ASSOCIATION": "USA - CA", "POINTS": "2", "BONUSPOINTS": "3"}}, {"type": "Feature", "geometry": {"type": "Point", "coordinates": [-117.8506, 34.6575]}, "properties": {"NAME": "W6/ND-340", "TITLE": "Piute Butte", "REGION": "Northern Desert", "ASSOCIATION": "USA - CA", "POINTS": "2", "BONUSPOINTS": "3"}}, {"type": "Feature", "geometry": {"type": "Point", "coordinates": [-117.8777, 35.1141]}, "properties": {"NAME": "W6/ND-341", "TITLE": "Castle Butte", "REGION": "Northern Desert", "ASSOCIATION": "USA - CA", "POINTS": "2", "BONUSPOINTS": "3"}}, {"type": "Feature", "geometry": {"type": "Point", "coordinates": [-116.542, 35.8869]}, "properties": {"NAME": "W6/ND-342", "TITLE": "3110", "REGION": "Northern Desert", "ASSOCIATION": "USA - CA", "POINTS": "2", "BONUSPOINTS": "3"}}, {"type": "Feature", "geometry": {"type": "Point", "coordinates": [-117.2337, 34.8619]}, "properties": {"NAME": "W6/ND-343", "TITLE": "East Iron Mountain", "REGION": "Northern Desert", "ASSOCIATION": "USA - CA", "POINTS": "2", "BONUSPOINTS": "3"}}, {"type": "Feature", "geometry": {"type": "Point", "coordinates": [-116.5073, 35.8672]}, "properties": {"NAME": "W6/ND-344", "TITLE": "3061", "REGION": "Northern Desert", "ASSOCIATION": "USA - CA", "POINTS": "2", "BONUSPOINTS": "3"}}, {"type": "Feature", "geometry": {"type": "Point", "coordinates": [-116.3198, 35.9746]}, "properties": {"NAME": "W6/ND-345", "TITLE": "Dublin Hills", "REGION": "Northern Desert", "ASSOCIATION": "USA - CA", "POINTS": "2", "BONUSPOINTS": "3"}}, {"type": "Feature", "geometry": {"type": "Point", "coordinates": [-116.3106, 35.9448]}, "properties": {"NAME": "W6/ND-346", "TITLE": "3038", "REGION": "Northern Desert", "ASSOCIATION": "USA - CA", "POINTS": "2", "BONUSPOINTS": "3"}}, {"type": "Feature", "geometry": {"type": "Point", "coordinates": [-116.0409, 35.5122]}, "properties": {"NAME": "W6/ND-347", "TITLE": "3034", "REGION": "Northern Desert", "ASSOCIATION": "USA - CA", "POINTS": "2", "BONUSPOINTS": "3"}}, {"type": "Feature", "geometry": {"type": "Point", "coordinates": [-117.0045, 36.7116]}, "properties": {"NAME": "W6/ND-348", "TITLE": "Red Top Benchmark", "REGION": "Northern Desert", "ASSOCIATION": "USA - CA", "POINTS": "2", "BONUSPOINTS": "3"}}, {"type": "Feature", "geometry": {"type": "Point", "coordinates": [-116.0829, 35.5185]}, "properties": {"NAME": "W6/ND-349", "TITLE": "3001", "REGION": "Northern Desert", "ASSOCIATION": "USA - CA", "POINTS": "2", "BONUSPOINTS": "3"}}, {"type": "Feature", "geometry": {"type": "Point", "coordinates": [-117.148, 35.5262]}, "properties": {"NAME": "W6/ND-350", "TITLE": "2988", "REGION": "Northern Desert", "ASSOCIATION": "USA - CA", "POINTS": "2", "BONUSPOINTS": "3"}}, {"type": "Feature", "geometry": {"type": "Point", "coordinates": [-116.0658, 35.5156]}, "properties": {"NAME": "W6/ND-351", "TITLE": "2936", "REGION": "Northern Desert", "ASSOCIATION": "USA - CA", "POINTS": "2", "BONUSPOINTS": "3"}}, {"type": "Feature", "geometry": {"type": "Point", "coordinates": [-117.1298, 34.9539]}, "properties": {"NAME": "W6/ND-352", "TITLE": "Mount General", "REGION": "Northern Desert", "ASSOCIATION": "USA - CA", "POINTS": "2", "BONUSPOINTS": "3"}}, {"type": "Feature", "geometry": {"type": "Point", "coordinates": [-116.6419, 35.7582]}, "properties": {"NAME": "W6/ND-353", "TITLE": "2867", "REGION": "Northern Desert", "ASSOCIATION": "USA - CA", "POINTS": "2", "BONUSPOINTS": "3"}}, {"type": "Feature", "geometry": {"type": "Point", "coordinates": [-117.2938, 36.6113]}, "properties": {"NAME": "W6/ND-354", "TITLE": "Cottonwood Benchmark", "REGION": "Northern Desert", "ASSOCIATION": "USA - CA", "POINTS": "2", "BONUSPOINTS": "3"}}, {"type": "Feature", "geometry": {"type": "Point", "coordinates": [-116.469, 35.0543]}, "properties": {"NAME": "W6/ND-355", "TITLE": "Dunn Benchmark", "REGION": "Northern Desert", "ASSOCIATION": "USA - CA", "POINTS": "2", "BONUSPOINTS": "3"}}, {"type": "Feature", "geometry": {"type": "Point", "coordinates": [-116.7402, 36.4218]}, "properties": {"NAME": "W6/ND-356", "TITLE": "2722", "REGION": "Northern Desert", "ASSOCIATION": "USA - CA", "POINTS": "2", "BONUSPOINTS": "3"}}, {"type": "Feature", "geometry": {"type": "Point", "coordinates": [-116.2758, 35.8342]}, "properties": {"NAME": "W6/ND-357", "TITLE": "Tecopa Peak", "REGION": "Northern Desert", "ASSOCIATION": "USA - CA", "POINTS": "2", "BONUSPOINTS": "3"}}, {"type": "Feature", "geometry": {"type": "Point", "coordinates": [-116.4667, 35.0899]}, "properties": {"NAME": "W6/ND-358", "TITLE": "2675", "REGION": "Northern Desert", "ASSOCIATION": "USA - CA", "POINTS": "2", "BONUSPOINTS": "3"}}, {"type": "Feature", "geometry": {"type": "Point", "coordinates": [-116.4082, 35.1077]}, "properties": {"NAME": "W6/ND-359", "TITLE": "2657", "REGION": "Northern Desert", "ASSOCIATION": "USA - CA", "POINTS": "2", "BONUSPOINTS": "3"}}, {"type": "Feature", "geometry": {"type": "Point", "coordinates": [-116.0088, 35.641]}, "properties": {"NAME": "W6/ND-360", "TITLE": "Valjean Benchmark", "REGION": "Northern Desert", "ASSOCIATION": "USA - CA", "POINTS": "2", "BONUSPOINTS": "3"}}, {"type": "Feature", "geometry": {"type": "Point", "coordinates": [-116.3356, 35.7445]}, "properties": {"NAME": "W6/ND-361", "TITLE": "Saddle Peak Hills", "REGION": "Northern Desert", "ASSOCIATION": "USA - CA", "POINTS": "2", "BONUSPOINTS": "3"}}, {"type": "Feature", "geometry": {"type": "Point", "coordinates": [-116.4383, 35.1058]}, "properties": {"NAME": "W6/ND-362", "TITLE": "2557", "REGION": "Northern Desert", "ASSOCIATION": "USA - CA", "POINTS": "2", "BONUSPOINTS": "3"}}, {"type": "Feature", "geometry": {"type": "Point", "coordinates": [-116.583, 35.8976]}, "properties": {"NAME": "W6/ND-363", "TITLE": "Jubilee Mountain", "REGION": "Northern Desert", "ASSOCIATION": "USA - CA", "POINTS": "2", "BONUSPOINTS": "3"}}, {"type": "Feature", "geometry": {"type": "Point", "coordinates": [-117.2974, 36.6717]}, "properties": {"NAME": "W6/ND-364", "TITLE": "2470", "REGION": "Northern Desert", "ASSOCIATION": "USA - CA", "POINTS": "1", "BONUSPOINTS": "3"}}, {"type": "Feature", "geometry": {"type": "Point", "coordinates": [-116.3109, 35.113]}, "properties": {"NAME": "W6/ND-365", "TITLE": "Cronise Mountains (HP)", "REGION": "Northern Desert", "ASSOCIATION": "USA - CA", "POINTS": "1", "BONUSPOINTS": "3"}}, {"type": "Feature", "geometry": {"type": "Point", "coordinates": [-116.3263, 35.1001]}, "properties": {"NAME": "W6/ND-366", "TITLE": "2300", "REGION": "Northern Desert", "ASSOCIATION": "USA - CA", "POINTS": "1", "BONUSPOINTS": "3"}}, {"type": "Feature", "geometry": {"type": "Point", "coordinates": [-116.107, 35.656]}, "properties": {"NAME": "W6/ND-367", "TITLE": "North Valjean Hills", "REGION": "Northern Desert", "ASSOCIATION": "USA - CA", "POINTS": "1", "BONUSPOINTS": "3"}}, {"type": "Feature", "geometry": {"type": "Point", "coordinates": [-117.2994, 36.769]}, "properties": {"NAME": "W6/ND-368", "TITLE": "2175", "REGION": "Northern Desert", "ASSOCIATION": "USA - CA", "POINTS": "1", "BONUSPOINTS": "3"}}, {"type": "Feature", "geometry": {"type": "Point", "coordinates": [-116.4398, 35.1992]}, "properties": {"NAME": "W6/ND-369", "TITLE": "2148", "REGION": "Northern Desert", "ASSOCIATION": "USA - CA", "POINTS": "1", "BONUSPOINTS": "3"}}, {"type": "Feature", "geometry": {"type": "Point", "coordinates": [-116.1581, 35.3235]}, "properties": {"NAME": "W6/ND-370", "TITLE": "1961", "REGION": "Northern Desert", "ASSOCIATION": "USA - CA", "POINTS": "1", "BONUSPOINTS": "3"}}, {"type": "Feature", "geometry": {"type": "Point", "coordinates": [-116.1216, 35.5411]}, "properties": {"NAME": "W6/ND-371", "TITLE": "1755", "REGION": "Northern Desert", "ASSOCIATION": "USA - CA", "POINTS": "1", "BONUSPOINTS": "3"}}, {"type": "Feature", "geometry": {"type": "Point", "coordinates": [-116.0984, 35.2775]}, "properties": {"NAME": "W6/ND-372", "TITLE": "Otto Mountain", "REGION": "Northern Desert", "ASSOCIATION": "USA - CA", "POINTS": "1", "BONUSPOINTS": "3"}}, {"type": "Feature", "geometry": {"type": "Point", "coordinates": [-116.1608, 35.389]}, "properties": {"NAME": "W6/ND-373", "TITLE": "1696", "REGION": "Northern Desert", "ASSOCIATION": "USA - CA", "POINTS": "1", "BONUSPOINTS": "3"}}, {"type": "Feature", "geometry": {"type": "Point", "coordinates": [-116.1665, 35.3599]}, "properties": {"NAME": "W6/ND-374", "TITLE": "1633", "REGION": "Northern Desert", "ASSOCIATION": "USA - CA", "POINTS": "1", "BONUSPOINTS": "3"}}, {"type": "Feature", "geometry": {"type": "Point", "coordinates": [-116.2721, 35.6547]}, "properties": {"NAME": "W6/ND-375", "TITLE": "1459", "REGION": "Northern Desert", "ASSOCIATION": "USA - CA", "POINTS": "1", "BONUSPOINTS": "3"}}, {"type": "Feature", "geometry": {"type": "Point", "coordinates": [-116.2644, 35.6361]}, "properties": {"NAME": "W6/ND-376", "TITLE": "Salt Benchmark", "REGION": "Northern Desert", "ASSOCIATION": "USA - CA", "POINTS": "1", "BONUSPOINTS": "3"}}, {"type": "Feature", "geometry": {"type": "Point", "coordinates": [-116.4061, 35.7183]}, "properties": {"NAME": "W6/ND-377", "TITLE": "1263", "REGION": "Northern Desert", "ASSOCIATION": "USA - CA", "POINTS": "1", "BONUSPOINTS": "3"}}, {"type": "Feature", "geometry": {"type": "Point", "coordinates": [-118.2179, 37.5274]}, "properties": {"NAME": "W6/ND-378", "TITLE": "Sheep Mountain", "REGION": "Northern Desert", "ASSOCIATION": "USA - CA", "POINTS": "10", "BONUSPOINTS": "3"}}, {"type": "Feature", "geometry": {"type": "Point", "coordinates": [-118.8541, 37.5034]}, "properties": {"NAME": "W6/ND-379", "TITLE": "12475", "REGION": "Northern Desert", "ASSOCIATION": "USA - CA", "POINTS": "10", "BONUSPOINTS": "3"}}, {"type": "Feature", "geometry": {"type": "Point", "coordinates": [-119.2933, 37.9367]}, "properties": {"NAME": "W6/ND-380", "TITLE": "False White Mountain", "REGION": "Northern Desert", "ASSOCIATION": "USA - CA", "POINTS": "10", "BONUSPOINTS": "3"}}, {"type": "Feature", "geometry": {"type": "Point", "coordinates": [-118.7547, 37.4763]}, "properties": {"NAME": "W6/ND-381", "TITLE": "Patricia Peak", "REGION": "Northern Desert", "ASSOCIATION": "USA - CA", "POINTS": "10", "BONUSPOINTS": "3"}}, {"type": "Feature", "geometry": {"type": "Point", "coordinates": [-119.2788, 38.0387]}, "properties": {"NAME": "W6/ND-382", "TITLE": "Black Mountain", "REGION": "Northern Desert", "ASSOCIATION": "USA - CA", "POINTS": "10", "BONUSPOINTS": "3"}}, {"type": "Feature", "geometry": {"type": "Point", "coordinates": [-119.1986, 37.9725]}, "properties": {"NAME": "W6/ND-383", "TITLE": "Lee Vining Peak", "REGION": "Northern Desert", "ASSOCIATION": "USA - CA", "POINTS": "10", "BONUSPOINTS": "3"}}, {"type": "Feature", "geometry": {"type": "Point", "coordinates": [-119.5027, 38.1959]}, "properties": {"NAME": "W6/ND-384", "TITLE": "11500", "REGION": "Northern Desert", "ASSOCIATION": "USA - CA", "POINTS": "10", "BONUSPOINTS": "3"}}, {"type": "Feature", "geometry": {"type": "Point", "coordinates": [-118.3133, 37.6916]}, "properties": {"NAME": "W6/ND-385", "TITLE": "Indian Peak", "REGION": "Northern Desert", "ASSOCIATION": "USA - CA", "POINTS": "10", "BONUSPOINTS": "3"}}, {"type": "Feature", "geometry": {"type": "Point", "coordinates": [-119.4448, 38.2125]}, "properties": {"NAME": "W6/ND-386", "TITLE": "Flatiron Ridge", "REGION": "Northern Desert", "ASSOCIATION": "USA - CA", "POINTS": "10", "BONUSPOINTS": "3"}}, {"type": "Feature", "geometry": {"type": "Point", "coordinates": [-119.2654, 37.919]}, "properties": {"NAME": "W6/ND-387", "TITLE": "Gaylor Peak", "REGION": "Northern Desert", "ASSOCIATION": "USA - CA", "POINTS": "10", "BONUSPOINTS": "3"}}, {"type": "Feature", "geometry": {"type": "Point", "coordinates": [-119.5246, 38.3973]}, "properties": {"NAME": "W6/ND-388", "TITLE": "Mean Benchmark", "REGION": "Northern Desert", "ASSOCIATION": "USA - CA", "POINTS": "8", "BONUSPOINTS": "3"}}, {"type": "Feature", "geometry": {"type": "Point", "coordinates": [-119.0071, 37.8781]}, "properties": {"NAME": "W6/ND-389", "TITLE": "Crater Mountain", "REGION": "Northern Desert", "ASSOCIATION": "USA - CA", "POINTS": "8", "BONUSPOINTS": "3"}}, {"type": "Feature", "geometry": {"type": "Point", "coordinates": [-119.4793, 38.3921]}, "properties": {"NAME": "W6/ND-390", "TITLE": "9060", "REGION": "Northern Desert", "ASSOCIATION": "USA - CA", "POINTS": "8", "BONUSPOINTS": "3"}}, {"type": "Feature", "geometry": {"type": "Point", "coordinates": [-119.4798, 38.414]}, "properties": {"NAME": "W6/ND-391", "TITLE": "9060", "REGION": "Northern Desert", "ASSOCIATION": "USA - CA", "POINTS": "8", "BONUSPOINTS": "3"}}, {"type": "Feature", "geometry": {"type": "Point", "coordinates": [-118.9862, 37.678]}, "properties": {"NAME": "W6/ND-392", "TITLE": "Dry Creek Knoll", "REGION": "Northern Desert", "ASSOCIATION": "USA - CA", "POINTS": "8", "BONUSPOINTS": "3"}}, {"type": "Feature", "geometry": {"type": "Point", "coordinates": [-118.567, 37.7379]}, "properties": {"NAME": "W6/ND-393", "TITLE": "8185", "REGION": "Northern Desert", "ASSOCIATION": "USA - CA", "POINTS": "8", "BONUSPOINTS": "3"}}, {"type": "Feature", "geometry": {"type": "Point", "coordinates": [-119.2697, 38.1586]}, "properties": {"NAME": "W6/ND-394", "TITLE": "Hunewill Hills", "REGION": "Northern Desert", "ASSOCIATION": "USA - CA", "POINTS": "8", "BONUSPOINTS": "3"}}, {"type": "Feature", "geometry": {"type": "Point", "coordinates": [-119.4764, 38.2771]}, "properties": {"NAME": "W6/ND-395", "TITLE": "Mount Emma", "REGION": "Northern Desert", "ASSOCIATION": "USA - CA", "POINTS": "8", "BONUSPOINTS": "3"}}, {"type": "Feature", "geometry": {"type": "Point", "coordinates": [-118.6117, 38.0201]}, "properties": {"NAME": "W6/ND-396", "TITLE": "Adobe Hills", "REGION": "Northern Desert", "ASSOCIATION": "USA - CA", "POINTS": "8", "BONUSPOINTS": "3"}}, {"type": "Feature", "geometry": {"type": "Point", "coordinates": [-117.6384, 36.8518]}, "properties": {"NAME": "W6/ND-397", "TITLE": "6180", "REGION": "Northern Desert", "ASSOCIATION": "USA - CA", "POINTS": "6", "BONUSPOINTS": "3"}}, {"type": "Feature", "geometry": {"type": "Point", "coordinates": [-117.4157, 36.6253]}, "properties": {"NAME": "W6/ND-398", "TITLE": "Yellow Jacket Peak", "REGION": "Northern Desert", "ASSOCIATION": "USA - CA", "POINTS": "6", "BONUSPOINTS": "3"}}, {"type": "Feature", "geometry": {"type": "Point", "coordinates": [-116.5012, 36.3542]}, "properties": {"NAME": "W6/ND-399", "TITLE": "Bat Mountain", "REGION": "Northern Desert", "ASSOCIATION": "USA - CA", "POINTS": "4", "BONUSPOINTS": "3"}}, {"type": "Feature", "geometry": {"type": "Point", "coordinates": [-117.0817, 36.0207]}, "properties": {"NAME": "W6/ND-400", "TITLE": "7380", "REGION": "Northern Desert", "ASSOCIATION": "USA - CA", "POINTS": "6", "BONUSPOINTS": "3"}}, {"type": "Feature", "geometry": {"type": "Point", "coordinates": [-117.2011, 35.4192]}, "properties": {"NAME": "W6/ND-401", "TITLE": "4780", "REGION": "Northern Desert", "ASSOCIATION": "USA - CA", "POINTS": "4", "BONUSPOINTS": "3"}}]}