{"type": "FeatureCollection", "name": "W6/SC SUMMITS", "features": [{"type": "Feature", "geometry": {"type": "Point", "coordinates": [-119.2036, 34.8311]}, "properties": {"NAME": "W6/SC-001", "TITLE": "Cerro Noroeste", "REGION": "Southern Coastal Ranges", "ASSOCIATION": "USA - CA", "POINTS": "8", "BONUSPOINTS": "0"}}, {"type": "Feature", "geometry": {"type": "Point", "coordinates": [-119.179, 34.8733]}, "properties": {"NAME": "W6/SC-002", "TITLE": "San Emigdio Mountain", "REGION": "Southern Coastal Ranges", "ASSOCIATION": "USA - CA", "POINTS": "6", "BONUSPOINTS": "0"}}, {"type": "Feature", "geometry": {"type": "Point", "coordinates": [-119.2407, 34.6237]}, "properties": {"NAME": "W6/SC-003", "TITLE": "Haddock Mountain", "REGION": "Southern Coastal Ranges", "ASSOCIATION": "USA - CA", "POINTS": "6", "BONUSPOINTS": "0"}}, {"type": "Feature", "geometry": {"type": "Point", "coordinates": [-118.9818, 34.8425]}, "properties": {"NAME": "W6/SC-004", "TITLE": "Tecuya Mountain", "REGION": "Southern Coastal Ranges", "ASSOCIATION": "USA - CA", "POINTS": "6", "BONUSPOINTS": "0"}}, {"type": "Feature", "geometry": {"type": "Point", "coordinates": [-119.0704, 34.8641]}, "properties": {"NAME": "W6/SC-005", "TITLE": "Escapula Peak", "REGION": "Southern Coastal Ranges", "ASSOCIATION": "USA - CA", "POINTS": "6", "BONUSPOINTS": "0"}}, {"type": "Feature", "geometry": {"type": "Point", "coordinates": [-119.2098, 34.6406]}, "properties": {"NAME": "W6/SC-006", "TITLE": "6955", "REGION": "Southern Coastal Ranges", "ASSOCIATION": "USA - CA", "POINTS": "6", "BONUSPOINTS": "0"}}, {"type": "Feature", "geometry": {"type": "Point", "coordinates": [-119.1278, 34.6064]}, "properties": {"NAME": "W6/SC-007", "TITLE": "Thorn Point", "REGION": "Southern Coastal Ranges", "ASSOCIATION": "USA - CA", "POINTS": "6", "BONUSPOINTS": "0"}}, {"type": "Feature", "geometry": {"type": "Point", "coordinates": [-119.1125, 34.877]}, "properties": {"NAME": "W6/SC-008", "TITLE": "Antimony Peak", "REGION": "Southern Coastal Ranges", "ASSOCIATION": "USA - CA", "POINTS": "6", "BONUSPOINTS": "0"}}, {"type": "Feature", "geometry": {"type": "Point", "coordinates": [-118.8679, 34.6091]}, "properties": {"NAME": "W6/SC-009", "TITLE": "Cobblestone Mountain", "REGION": "Southern Coastal Ranges", "ASSOCIATION": "USA - CA", "POINTS": "6", "BONUSPOINTS": "0"}}, {"type": "Feature", "geometry": {"type": "Point", "coordinates": [-119.0757, 34.5108]}, "properties": {"NAME": "W6/SC-010", "TITLE": "Hines Peak", "REGION": "Southern Coastal Ranges", "ASSOCIATION": "USA - CA", "POINTS": "6", "BONUSPOINTS": "0"}}, {"type": "Feature", "geometry": {"type": "Point", "coordinates": [-119.0015, 34.6239]}, "properties": {"NAME": "W6/SC-011", "TITLE": "San Rafael Peak", "REGION": "Southern Coastal Ranges", "ASSOCIATION": "USA - CA", "POINTS": "6", "BONUSPOINTS": "0"}}, {"type": "Feature", "geometry": {"type": "Point", "coordinates": [-119.1479, 34.6955]}, "properties": {"NAME": "W6/SC-012", "TITLE": "San Guillermo Mountain", "REGION": "Southern Coastal Ranges", "ASSOCIATION": "USA - CA", "POINTS": "6", "BONUSPOINTS": "0"}}, {"type": "Feature", "geometry": {"type": "Point", "coordinates": [-119.8141, 34.7111]}, "properties": {"NAME": "W6/SC-013", "TITLE": "San Rafael Mountain", "REGION": "Southern Coastal Ranges", "ASSOCIATION": "USA - CA", "POINTS": "6", "BONUSPOINTS": "0"}}, {"type": "Feature", "geometry": {"type": "Point", "coordinates": [-119.5912, 34.6911]}, "properties": {"NAME": "W6/SC-014", "TITLE": "Madulce Peak", "REGION": "Southern Coastal Ranges", "ASSOCIATION": "USA - CA", "POINTS": "6", "BONUSPOINTS": "0"}}, {"type": "Feature", "geometry": {"type": "Point", "coordinates": [-118.8888, 34.6495]}, "properties": {"NAME": "W6/SC-015", "TITLE": "Snowy Peak", "REGION": "Southern Coastal Ranges", "ASSOCIATION": "USA - CA", "POINTS": "6", "BONUSPOINTS": "0"}}, {"type": "Feature", "geometry": {"type": "Point", "coordinates": [-119.0698, 34.7096]}, "properties": {"NAME": "W6/SC-016", "TITLE": "Lockwood Peak", "REGION": "Southern Coastal Ranges", "ASSOCIATION": "USA - CA", "POINTS": "6", "BONUSPOINTS": "0"}}, {"type": "Feature", "geometry": {"type": "Point", "coordinates": [-118.8479, 34.6313]}, "properties": {"NAME": "W6/SC-017", "TITLE": "White Mountain", "REGION": "Southern Coastal Ranges", "ASSOCIATION": "USA - CA", "POINTS": "6", "BONUSPOINTS": "0"}}, {"type": "Feature", "geometry": {"type": "Point", "coordinates": [-118.8618, 34.6542]}, "properties": {"NAME": "W6/SC-018", "TITLE": "Black Mountain", "REGION": "Southern Coastal Ranges", "ASSOCIATION": "USA - CA", "POINTS": "6", "BONUSPOINTS": "0"}}, {"type": "Feature", "geometry": {"type": "Point", "coordinates": [-119.759, 34.719]}, "properties": {"NAME": "W6/SC-019", "TITLE": "6100", "REGION": "Southern Coastal Ranges", "ASSOCIATION": "USA - CA", "POINTS": "6", "BONUSPOINTS": "0"}}, {"type": "Feature", "geometry": {"type": "Point", "coordinates": [-119.0446, 34.6524]}, "properties": {"NAME": "W6/SC-020", "TITLE": "6084", "REGION": "Southern Coastal Ranges", "ASSOCIATION": "USA - CA", "POINTS": "6", "BONUSPOINTS": "0"}}, {"type": "Feature", "geometry": {"type": "Point", "coordinates": [-119.4669, 34.5394]}, "properties": {"NAME": "W6/SC-021", "TITLE": "Monte Arido", "REGION": "Southern Coastal Ranges", "ASSOCIATION": "USA - CA", "POINTS": "6", "BONUSPOINTS": "0"}}, {"type": "Feature", "geometry": {"type": "Point", "coordinates": [-119.1336, 34.9073]}, "properties": {"NAME": "W6/SC-022", "TITLE": "Eagle Rest Peak", "REGION": "Southern Coastal Ranges", "ASSOCIATION": "USA - CA", "POINTS": "6", "BONUSPOINTS": "0"}}, {"type": "Feature", "geometry": {"type": "Point", "coordinates": [-116.586, 33.0067]}, "properties": {"NAME": "W6/SC-023", "TITLE": "North Peak", "REGION": "Southern Coastal Ranges", "ASSOCIATION": "USA - CA", "POINTS": "6", "BONUSPOINTS": "0"}}, {"type": "Feature", "geometry": {"type": "Point", "coordinates": [-116.6005, 32.9804]}, "properties": {"NAME": "W6/SC-024", "TITLE": "Middle Peak", "REGION": "Southern Coastal Ranges", "ASSOCIATION": "USA - CA", "POINTS": "6", "BONUSPOINTS": "0"}}, {"type": "Feature", "geometry": {"type": "Point", "coordinates": [-121.419, 36.1457]}, "properties": {"NAME": "W6/SC-025", "TITLE": "Junipero Serra Peak", "REGION": "Southern Coastal Ranges", "ASSOCIATION": "USA - CA", "POINTS": "6", "BONUSPOINTS": "0"}}, {"type": "Feature", "geometry": {"type": "Point", "coordinates": [-119.5107, 34.7355]}, "properties": {"NAME": "W6/SC-026", "TITLE": "5860", "REGION": "Southern Coastal Ranges", "ASSOCIATION": "USA - CA", "POINTS": "6", "BONUSPOINTS": "0"}}, {"type": "Feature", "geometry": {"type": "Point", "coordinates": [-119.3323, 34.5665]}, "properties": {"NAME": "W6/SC-027", "TITLE": "Ortega Peak", "REGION": "Southern Coastal Ranges", "ASSOCIATION": "USA - CA", "POINTS": "6", "BONUSPOINTS": "0"}}, {"type": "Feature", "geometry": {"type": "Point", "coordinates": [-119.8588, 34.9021]}, "properties": {"NAME": "W6/SC-028", "TITLE": "Peak Mountain", "REGION": "Southern Coastal Ranges", "ASSOCIATION": "USA - CA", "POINTS": "6", "BONUSPOINTS": "0"}}, {"type": "Feature", "geometry": {"type": "Point", "coordinates": [-116.572, 32.9608]}, "properties": {"NAME": "W6/SC-029", "TITLE": "Stonewall Peak", "REGION": "Southern Coastal Ranges", "ASSOCIATION": "USA - CA", "POINTS": "6", "BONUSPOINTS": "0"}}, {"type": "Feature", "geometry": {"type": "Point", "coordinates": [-119.6216, 34.7557]}, "properties": {"NAME": "W6/SC-030", "TITLE": "5687", "REGION": "Southern Coastal Ranges", "ASSOCIATION": "USA - CA", "POINTS": "6", "BONUSPOINTS": "0"}}, {"type": "Feature", "geometry": {"type": "Point", "coordinates": [-119.1678, 34.5106]}, "properties": {"NAME": "W6/SC-031", "TITLE": "Chief Peak", "REGION": "Southern Coastal Ranges", "ASSOCIATION": "USA - CA", "POINTS": "6", "BONUSPOINTS": "0"}}, {"type": "Feature", "geometry": {"type": "Point", "coordinates": [-119.4533, 34.5169]}, "properties": {"NAME": "W6/SC-032", "TITLE": "Old Man Mountain", "REGION": "Southern Coastal Ranges", "ASSOCIATION": "USA - CA", "POINTS": "6", "BONUSPOINTS": "0"}}, {"type": "Feature", "geometry": {"type": "Point", "coordinates": [-119.0452, 34.4997]}, "properties": {"NAME": "W6/SC-033", "TITLE": "5171", "REGION": "Southern Coastal Ranges", "ASSOCIATION": "USA - CA", "POINTS": "4", "BONUSPOINTS": "0"}}, {"type": "Feature", "geometry": {"type": "Point", "coordinates": [-119.6001, 34.8137]}, "properties": {"NAME": "W6/SC-034", "TITLE": "Fox Mountain", "REGION": "Southern Coastal Ranges", "ASSOCIATION": "USA - CA", "POINTS": "4", "BONUSPOINTS": "0"}}, {"type": "Feature", "geometry": {"type": "Point", "coordinates": [-119.7482, 34.8243]}, "properties": {"NAME": "W6/SC-035", "TITLE": "5147", "REGION": "Southern Coastal Ranges", "ASSOCIATION": "USA - CA", "POINTS": "4", "BONUSPOINTS": "0"}}, {"type": "Feature", "geometry": {"type": "Point", "coordinates": [-119.6694, 34.6673]}, "properties": {"NAME": "W6/SC-036", "TITLE": "5140", "REGION": "Southern Coastal Ranges", "ASSOCIATION": "USA - CA", "POINTS": "4", "BONUSPOINTS": "0"}}, {"type": "Feature", "geometry": {"type": "Point", "coordinates": [-119.7601, 35.0362]}, "properties": {"NAME": "W6/SC-037", "TITLE": "Caliente Mountain", "REGION": "Southern Coastal Ranges", "ASSOCIATION": "USA - CA", "POINTS": "4", "BONUSPOINTS": "0"}}, {"type": "Feature", "geometry": {"type": "Point", "coordinates": [-118.8734, 34.5415]}, "properties": {"NAME": "W6/SC-038", "TITLE": "Whiteacre Peak", "REGION": "Southern Coastal Ranges", "ASSOCIATION": "USA - CA", "POINTS": "4", "BONUSPOINTS": "0"}}, {"type": "Feature", "geometry": {"type": "Point", "coordinates": [-119.5519, 34.6003]}, "properties": {"NAME": "W6/SC-039", "TITLE": "Hildreth Peak", "REGION": "Southern Coastal Ranges", "ASSOCIATION": "USA - CA", "POINTS": "4", "BONUSPOINTS": "0"}}, {"type": "Feature", "geometry": {"type": "Point", "coordinates": [-121.5683, 36.312]}, "properties": {"NAME": "W6/SC-040", "TITLE": "Chews Ridge", "REGION": "Southern Coastal Ranges", "ASSOCIATION": "USA - CA", "POINTS": "4", "BONUSPOINTS": "0"}}, {"type": "Feature", "geometry": {"type": "Point", "coordinates": [-121.6369, 36.275]}, "properties": {"NAME": "W6/SC-041", "TITLE": "South Ventana Cone", "REGION": "Southern Coastal Ranges", "ASSOCIATION": "USA - CA", "POINTS": "4", "BONUSPOINTS": "0"}}, {"type": "Feature", "geometry": {"type": "Point", "coordinates": [-119.0095, 34.4403]}, "properties": {"NAME": "W6/SC-042", "TITLE": "Santa Paula Peak", "REGION": "Southern Coastal Ranges", "ASSOCIATION": "USA - CA", "POINTS": "4", "BONUSPOINTS": "0"}}, {"type": "Feature", "geometry": {"type": "Point", "coordinates": [-121.5413, 36.2673]}, "properties": {"NAME": "W6/SC-043", "TITLE": "Black Butte", "REGION": "Southern Coastal Ranges", "ASSOCIATION": "USA - CA", "POINTS": "4", "BONUSPOINTS": "0"}}, {"type": "Feature", "geometry": {"type": "Point", "coordinates": [-116.5322, 32.7972]}, "properties": {"NAME": "W6/SC-044", "TITLE": "Long Valley Peak", "REGION": "Southern Coastal Ranges", "ASSOCIATION": "USA - CA", "POINTS": "4", "BONUSPOINTS": "0"}}, {"type": "Feature", "geometry": {"type": "Point", "coordinates": [-119.4315, 34.4797]}, "properties": {"NAME": "W6/SC-045", "TITLE": "Santa Ynez Mountains (HP)", "REGION": "Southern Coastal Ranges", "ASSOCIATION": "USA - CA", "POINTS": "4", "BONUSPOINTS": "0"}}, {"type": "Feature", "geometry": {"type": "Point", "coordinates": [-121.7148, 36.297]}, "properties": {"NAME": "W6/SC-046", "TITLE": "Ventana Double Cone", "REGION": "Southern Coastal Ranges", "ASSOCIATION": "USA - CA", "POINTS": "4", "BONUSPOINTS": "0"}}, {"type": "Feature", "geometry": {"type": "Point", "coordinates": [-120.5957, 36.3745]}, "properties": {"NAME": "W6/SC-047", "TITLE": "4850", "REGION": "Southern Coastal Ranges", "ASSOCIATION": "USA - CA", "POINTS": "4", "BONUSPOINTS": "0"}}, {"type": "Feature", "geometry": {"type": "Point", "coordinates": [-116.5777, 32.7346]}, "properties": {"NAME": "W6/SC-048", "TITLE": "Los Pinos Mountain", "REGION": "Southern Coastal Ranges", "ASSOCIATION": "USA - CA", "POINTS": "4", "BONUSPOINTS": "0"}}, {"type": "Feature", "geometry": {"type": "Point", "coordinates": [-121.7071, 36.341]}, "properties": {"NAME": "W6/SC-049", "TITLE": "Uncle Sam Mountain", "REGION": "Southern Coastal Ranges", "ASSOCIATION": "USA - CA", "POINTS": "4", "BONUSPOINTS": "0"}}, {"type": "Feature", "geometry": {"type": "Point", "coordinates": [-119.64, 34.6301]}, "properties": {"NAME": "W6/SC-050", "TITLE": "4747", "REGION": "Southern Coastal Ranges", "ASSOCIATION": "USA - CA", "POINTS": "4", "BONUSPOINTS": "0"}}, {"type": "Feature", "geometry": {"type": "Point", "coordinates": [-119.4229, 34.7251]}, "properties": {"NAME": "W6/SC-051", "TITLE": "4738", "REGION": "Southern Coastal Ranges", "ASSOCIATION": "USA - CA", "POINTS": "4", "BONUSPOINTS": "0"}}, {"type": "Feature", "geometry": {"type": "Point", "coordinates": [-121.6024, 36.2392]}, "properties": {"NAME": "W6/SC-052", "TITLE": "White Cone", "REGION": "Southern Coastal Ranges", "ASSOCIATION": "USA - CA", "POINTS": "4", "BONUSPOINTS": "0"}}, {"type": "Feature", "geometry": {"type": "Point", "coordinates": [-119.0516, 34.9234]}, "properties": {"NAME": "W6/SC-053", "TITLE": "Pleito Hills", "REGION": "Southern Coastal Ranges", "ASSOCIATION": "USA - CA", "POINTS": "4", "BONUSPOINTS": "0"}}, {"type": "Feature", "geometry": {"type": "Point", "coordinates": [-119.9007, 34.7262]}, "properties": {"NAME": "W6/SC-054", "TITLE": "Cachuma Mountain", "REGION": "Southern Coastal Ranges", "ASSOCIATION": "USA - CA", "POINTS": "4", "BONUSPOINTS": "0"}}, {"type": "Feature", "geometry": {"type": "Point", "coordinates": [-120.6947, 36.3528]}, "properties": {"NAME": "W6/SC-055", "TITLE": "The Picachos", "REGION": "Southern Coastal Ranges", "ASSOCIATION": "USA - CA", "POINTS": "4", "BONUSPOINTS": "0"}}, {"type": "Feature", "geometry": {"type": "Point", "coordinates": [-119.9505, 34.7216]}, "properties": {"NAME": "W6/SC-056", "TITLE": "Ranger Peak", "REGION": "Southern Coastal Ranges", "ASSOCIATION": "USA - CA", "POINTS": "4", "BONUSPOINTS": "0"}}, {"type": "Feature", "geometry": {"type": "Point", "coordinates": [-118.7778, 34.6328]}, "properties": {"NAME": "W6/SC-057", "TITLE": "Slide Mountain", "REGION": "Southern Coastal Ranges", "ASSOCIATION": "USA - CA", "POINTS": "4", "BONUSPOINTS": "0"}}, {"type": "Feature", "geometry": {"type": "Point", "coordinates": [-119.6979, 34.6721]}, "properties": {"NAME": "W6/SC-058", "TITLE": "4616", "REGION": "Southern Coastal Ranges", "ASSOCIATION": "USA - CA", "POINTS": "4", "BONUSPOINTS": "0"}}, {"type": "Feature", "geometry": {"type": "Point", "coordinates": [-119.2515, 34.5802]}, "properties": {"NAME": "W6/SC-059", "TITLE": "4552", "REGION": "Southern Coastal Ranges", "ASSOCIATION": "USA - CA", "POINTS": "4", "BONUSPOINTS": "0"}}, {"type": "Feature", "geometry": {"type": "Point", "coordinates": [-120.6236, 36.2023]}, "properties": {"NAME": "W6/SC-060", "TITLE": "Center Peak", "REGION": "Southern Coastal Ranges", "ASSOCIATION": "USA - CA", "POINTS": "4", "BONUSPOINTS": "0"}}, {"type": "Feature", "geometry": {"type": "Point", "coordinates": [-118.9257, 34.5179]}, "properties": {"NAME": "W6/SC-061", "TITLE": "Sulphur Peak", "REGION": "Southern Coastal Ranges", "ASSOCIATION": "USA - CA", "POINTS": "4", "BONUSPOINTS": "0"}}, {"type": "Feature", "geometry": {"type": "Point", "coordinates": [-119.739, 34.6006]}, "properties": {"NAME": "W6/SC-062", "TITLE": "Little Pine Mountain", "REGION": "Southern Coastal Ranges", "ASSOCIATION": "USA - CA", "POINTS": "4", "BONUSPOINTS": "0"}}, {"type": "Feature", "geometry": {"type": "Point", "coordinates": [-120.8246, 36.3145]}, "properties": {"NAME": "W6/SC-063", "TITLE": "Hepsedam Peak", "REGION": "Southern Coastal Ranges", "ASSOCIATION": "USA - CA", "POINTS": "4", "BONUSPOINTS": "0"}}, {"type": "Feature", "geometry": {"type": "Point", "coordinates": [-119.6166, 34.6436]}, "properties": {"NAME": "W6/SC-064", "TITLE": "Loma Pelona", "REGION": "Southern Coastal Ranges", "ASSOCIATION": "USA - CA", "POINTS": "4", "BONUSPOINTS": "0"}}, {"type": "Feature", "geometry": {"type": "Point", "coordinates": [-121.7883, 36.3858]}, "properties": {"NAME": "W6/SC-065", "TITLE": "Mount Carmel", "REGION": "Southern Coastal Ranges", "ASSOCIATION": "USA - CA", "POINTS": "4", "BONUSPOINTS": "0"}}, {"type": "Feature", "geometry": {"type": "Point", "coordinates": [-121.6897, 36.2882]}, "properties": {"NAME": "W6/SC-066", "TITLE": "4387", "REGION": "Southern Coastal Ranges", "ASSOCIATION": "USA - CA", "POINTS": "4", "BONUSPOINTS": "0"}}, {"type": "Feature", "geometry": {"type": "Point", "coordinates": [-118.9053, 34.5748]}, "properties": {"NAME": "W6/SC-067", "TITLE": "4346", "REGION": "Southern Coastal Ranges", "ASSOCIATION": "USA - CA", "POINTS": "4", "BONUSPOINTS": "0"}}, {"type": "Feature", "geometry": {"type": "Point", "coordinates": [-120.3058, 35.9445]}, "properties": {"NAME": "W6/SC-068", "TITLE": "Black Mountain", "REGION": "Southern Coastal Ranges", "ASSOCIATION": "USA - CA", "POINTS": "4", "BONUSPOINTS": "0"}}, {"type": "Feature", "geometry": {"type": "Point", "coordinates": [-120.0239, 34.7679]}, "properties": {"NAME": "W6/SC-069", "TITLE": "Zaca Peak", "REGION": "Southern Coastal Ranges", "ASSOCIATION": "USA - CA", "POINTS": "4", "BONUSPOINTS": "0"}}, {"type": "Feature", "geometry": {"type": "Point", "coordinates": [-119.7637, 35.2907]}, "properties": {"NAME": "W6/SC-070", "TITLE": "McKittrick Summit", "REGION": "Southern Coastal Ranges", "ASSOCIATION": "USA - CA", "POINTS": "4", "BONUSPOINTS": "0"}}, {"type": "Feature", "geometry": {"type": "Point", "coordinates": [-119.9518, 34.894]}, "properties": {"NAME": "W6/SC-071", "TITLE": "4239", "REGION": "Southern Coastal Ranges", "ASSOCIATION": "USA - CA", "POINTS": "4", "BONUSPOINTS": "0"}}, {"type": "Feature", "geometry": {"type": "Point", "coordinates": [-119.914, 34.8003]}, "properties": {"NAME": "W6/SC-072", "TITLE": "Hurricane Deck", "REGION": "Southern Coastal Ranges", "ASSOCIATION": "USA - CA", "POINTS": "4", "BONUSPOINTS": "0"}}, {"type": "Feature", "geometry": {"type": "Point", "coordinates": [-120.5351, 36.357]}, "properties": {"NAME": "W6/SC-073", "TITLE": "Loma Atravesada", "REGION": "Southern Coastal Ranges", "ASSOCIATION": "USA - CA", "POINTS": "4", "BONUSPOINTS": "0"}}, {"type": "Feature", "geometry": {"type": "Point", "coordinates": [-116.6457, 32.8509]}, "properties": {"NAME": "W6/SC-074", "TITLE": "Chiquito Peak", "REGION": "Southern Coastal Ranges", "ASSOCIATION": "USA - CA", "POINTS": "4", "BONUSPOINTS": "0"}}, {"type": "Feature", "geometry": {"type": "Point", "coordinates": [-120.8203, 36.4563]}, "properties": {"NAME": "W6/SC-075", "TITLE": "Bucks Peak", "REGION": "Southern Coastal Ranges", "ASSOCIATION": "USA - CA", "POINTS": "4", "BONUSPOINTS": "0"}}, {"type": "Feature", "geometry": {"type": "Point", "coordinates": [-118.7345, 34.5722]}, "properties": {"NAME": "W6/SC-076", "TITLE": "Whitaker Peak", "REGION": "Southern Coastal Ranges", "ASSOCIATION": "USA - CA", "POINTS": "4", "BONUSPOINTS": "0"}}, {"type": "Feature", "geometry": {"type": "Point", "coordinates": [-120.4587, 36.3196]}, "properties": {"NAME": "W6/SC-077", "TITLE": "Joaquin Ridge", "REGION": "Southern Coastal Ranges", "ASSOCIATION": "USA - CA", "POINTS": "4", "BONUSPOINTS": "0"}}, {"type": "Feature", "geometry": {"type": "Point", "coordinates": [-121.6429, 36.1808]}, "properties": {"NAME": "W6/SC-078", "TITLE": "Anderson Peak", "REGION": "Southern Coastal Ranges", "ASSOCIATION": "USA - CA", "POINTS": "4", "BONUSPOINTS": "0"}}, {"type": "Feature", "geometry": {"type": "Point", "coordinates": [-121.596, 36.1337]}, "properties": {"NAME": "W6/SC-079", "TITLE": "4092", "REGION": "Southern Coastal Ranges", "ASSOCIATION": "USA - CA", "POINTS": "4", "BONUSPOINTS": "0"}}, {"type": "Feature", "geometry": {"type": "Point", "coordinates": [-120.7816, 36.4133]}, "properties": {"NAME": "W6/SC-080", "TITLE": "Tucker Mountain", "REGION": "Southern Coastal Ranges", "ASSOCIATION": "USA - CA", "POINTS": "4", "BONUSPOINTS": "0"}}, {"type": "Feature", "geometry": {"type": "Point", "coordinates": [-119.5854, 34.9946]}, "properties": {"NAME": "W6/SC-081", "TITLE": "Long Benchmark", "REGION": "Southern Coastal Ranges", "ASSOCIATION": "USA - CA", "POINTS": "4", "BONUSPOINTS": "0"}}, {"type": "Feature", "geometry": {"type": "Point", "coordinates": [-120.231, 35.2787]}, "properties": {"NAME": "W6/SC-082", "TITLE": "Machesna Mountain", "REGION": "Southern Coastal Ranges", "ASSOCIATION": "USA - CA", "POINTS": "4", "BONUSPOINTS": "0"}}, {"type": "Feature", "geometry": {"type": "Point", "coordinates": [-119.7331, 34.6707]}, "properties": {"NAME": "W6/SC-083", "TITLE": "4060", "REGION": "Southern Coastal Ranges", "ASSOCIATION": "USA - CA", "POINTS": "4", "BONUSPOINTS": "0"}}, {"type": "Feature", "geometry": {"type": "Point", "coordinates": [-120.9066, 36.467]}, "properties": {"NAME": "W6/SC-084", "TITLE": "Rock Spring Peak", "REGION": "Southern Coastal Ranges", "ASSOCIATION": "USA - CA", "POINTS": "4", "BONUSPOINTS": "0"}}, {"type": "Feature", "geometry": {"type": "Point", "coordinates": [-121.026, 36.5914]}, "properties": {"NAME": "W6/SC-085", "TITLE": "Big Mountain", "REGION": "Southern Coastal Ranges", "ASSOCIATION": "USA - CA", "POINTS": "2", "BONUSPOINTS": "0"}}, {"type": "Feature", "geometry": {"type": "Point", "coordinates": [-119.7124, 34.4948]}, "properties": {"NAME": "W6/SC-086", "TITLE": "La Cumbre Peak", "REGION": "Southern Coastal Ranges", "ASSOCIATION": "USA - CA", "POINTS": "2", "BONUSPOINTS": "0"}}, {"type": "Feature", "geometry": {"type": "Point", "coordinates": [-116.4804, 32.6837]}, "properties": {"NAME": "W6/SC-087", "TITLE": "Cameron Benchmark", "REGION": "Southern Coastal Ranges", "ASSOCIATION": "USA - CA", "POINTS": "2", "BONUSPOINTS": "0"}}, {"type": "Feature", "geometry": {"type": "Point", "coordinates": [-121.0641, 36.6094]}, "properties": {"NAME": "W6/SC-088", "TITLE": "Call Benchmark", "REGION": "Southern Coastal Ranges", "ASSOCIATION": "USA - CA", "POINTS": "2", "BONUSPOINTS": "0"}}, {"type": "Feature", "geometry": {"type": "Point", "coordinates": [-119.8781, 35.3773]}, "properties": {"NAME": "W6/SC-089", "TITLE": "3948", "REGION": "Southern Coastal Ranges", "ASSOCIATION": "USA - CA", "POINTS": "2", "BONUSPOINTS": "0"}}, {"type": "Feature", "geometry": {"type": "Point", "coordinates": [-120.596, 36.0788]}, "properties": {"NAME": "W6/SC-090", "TITLE": "Smith Mountain", "REGION": "Southern Coastal Ranges", "ASSOCIATION": "USA - CA", "POINTS": "2", "BONUSPOINTS": "0"}}, {"type": "Feature", "geometry": {"type": "Point", "coordinates": [-120.4777, 36.0007]}, "properties": {"NAME": "W6/SC-091", "TITLE": "Gastro Benchmark", "REGION": "Southern Coastal Ranges", "ASSOCIATION": "USA - CA", "POINTS": "2", "BONUSPOINTS": "0"}}, {"type": "Feature", "geometry": {"type": "Point", "coordinates": [-116.5438, 32.6738]}, "properties": {"NAME": "W6/SC-092", "TITLE": "Morena Butte", "REGION": "Southern Coastal Ranges", "ASSOCIATION": "USA - CA", "POINTS": "2", "BONUSPOINTS": "0"}}, {"type": "Feature", "geometry": {"type": "Point", "coordinates": [-120.1337, 35.2248]}, "properties": {"NAME": "W6/SC-093", "TITLE": "3908", "REGION": "Southern Coastal Ranges", "ASSOCIATION": "USA - CA", "POINTS": "2", "BONUSPOINTS": "0"}}, {"type": "Feature", "geometry": {"type": "Point", "coordinates": [-119.8186, 34.7944]}, "properties": {"NAME": "W6/SC-094", "TITLE": "3895", "REGION": "Southern Coastal Ranges", "ASSOCIATION": "USA - CA", "POINTS": "2", "BONUSPOINTS": "0"}}, {"type": "Feature", "geometry": {"type": "Point", "coordinates": [-121.5423, 36.1967]}, "properties": {"NAME": "W6/SC-095", "TITLE": "3891", "REGION": "Southern Coastal Ranges", "ASSOCIATION": "USA - CA", "POINTS": "2", "BONUSPOINTS": "0"}}, {"type": "Feature", "geometry": {"type": "Point", "coordinates": [-120.6649, 36.1403]}, "properties": {"NAME": "W6/SC-096", "TITLE": "Charley Mountain", "REGION": "Southern Coastal Ranges", "ASSOCIATION": "USA - CA", "POINTS": "2", "BONUSPOINTS": "0"}}, {"type": "Feature", "geometry": {"type": "Point", "coordinates": [-119.6519, 34.5995]}, "properties": {"NAME": "W6/SC-097", "TITLE": "3882", "REGION": "Southern Coastal Ranges", "ASSOCIATION": "USA - CA", "POINTS": "2", "BONUSPOINTS": "0"}}, {"type": "Feature", "geometry": {"type": "Point", "coordinates": [-121.5243, 36.1492]}, "properties": {"NAME": "W6/SC-098", "TITLE": "3852", "REGION": "Southern Coastal Ranges", "ASSOCIATION": "USA - CA", "POINTS": "2", "BONUSPOINTS": "0"}}, {"type": "Feature", "geometry": {"type": "Point", "coordinates": [-116.7165, 32.739]}, "properties": {"NAME": "W6/SC-099", "TITLE": "Gaskill Peak", "REGION": "Southern Coastal Ranges", "ASSOCIATION": "USA - CA", "POINTS": "2", "BONUSPOINTS": "0"}}, {"type": "Feature", "geometry": {"type": "Point", "coordinates": [-120.0738, 35.0155]}, "properties": {"NAME": "W6/SC-100", "TITLE": "Treplett Mountain", "REGION": "Southern Coastal Ranges", "ASSOCIATION": "USA - CA", "POINTS": "2", "BONUSPOINTS": "0"}}, {"type": "Feature", "geometry": {"type": "Point", "coordinates": [-120.8732, 36.4091]}, "properties": {"NAME": "W6/SC-101", "TITLE": "Red Mountain", "REGION": "Southern Coastal Ranges", "ASSOCIATION": "USA - CA", "POINTS": "2", "BONUSPOINTS": "0"}}, {"type": "Feature", "geometry": {"type": "Point", "coordinates": [-116.545, 32.6249]}, "properties": {"NAME": "W6/SC-102", "TITLE": "Hauser Mountain", "REGION": "Southern Coastal Ranges", "ASSOCIATION": "USA - CA", "POINTS": "2", "BONUSPOINTS": "0"}}, {"type": "Feature", "geometry": {"type": "Point", "coordinates": [-121.1775, 36.8904]}, "properties": {"NAME": "W6/SC-103", "TITLE": "Laveaga Peak", "REGION": "Southern Coastal Ranges", "ASSOCIATION": "USA - CA", "POINTS": "2", "BONUSPOINTS": "0"}}, {"type": "Feature", "geometry": {"type": "Point", "coordinates": [-120.2639, 35.3135]}, "properties": {"NAME": "W6/SC-104", "TITLE": "Pine Mountain", "REGION": "Southern Coastal Ranges", "ASSOCIATION": "USA - CA", "POINTS": "2", "BONUSPOINTS": "0"}}, {"type": "Feature", "geometry": {"type": "Point", "coordinates": [-120.085, 35.1852]}, "properties": {"NAME": "W6/SC-105", "TITLE": "Branch Mountain", "REGION": "Southern Coastal Ranges", "ASSOCIATION": "USA - CA", "POINTS": "2", "BONUSPOINTS": "0"}}, {"type": "Feature", "geometry": {"type": "Point", "coordinates": [-121.5979, 36.1885]}, "properties": {"NAME": "W6/SC-106", "TITLE": "3784", "REGION": "Southern Coastal Ranges", "ASSOCIATION": "USA - CA", "POINTS": "2", "BONUSPOINTS": "0"}}, {"type": "Feature", "geometry": {"type": "Point", "coordinates": [-121.4754, 36.0219]}, "properties": {"NAME": "W6/SC-107", "TITLE": "3761", "REGION": "Southern Coastal Ranges", "ASSOCIATION": "USA - CA", "POINTS": "2", "BONUSPOINTS": "0"}}, {"type": "Feature", "geometry": {"type": "Point", "coordinates": [-120.8559, 36.3828]}, "properties": {"NAME": "W6/SC-108", "TITLE": "Black Mountain", "REGION": "Southern Coastal Ranges", "ASSOCIATION": "USA - CA", "POINTS": "2", "BONUSPOINTS": "0"}}, {"type": "Feature", "geometry": {"type": "Point", "coordinates": [-121.3698, 35.8847]}, "properties": {"NAME": "W6/SC-109", "TITLE": "Alder Peak", "REGION": "Southern Coastal Ranges", "ASSOCIATION": "USA - CA", "POINTS": "2", "BONUSPOINTS": "0"}}, {"type": "Feature", "geometry": {"type": "Point", "coordinates": [-116.7638, 32.7019]}, "properties": {"NAME": "W6/SC-110", "TITLE": "Lyons Peak", "REGION": "Southern Coastal Ranges", "ASSOCIATION": "USA - CA", "POINTS": "2", "BONUSPOINTS": "0"}}, {"type": "Feature", "geometry": {"type": "Point", "coordinates": [-120.0122, 34.8916]}, "properties": {"NAME": "W6/SC-111", "TITLE": "3726", "REGION": "Southern Coastal Ranges", "ASSOCIATION": "USA - CA", "POINTS": "2", "BONUSPOINTS": "0"}}, {"type": "Feature", "geometry": {"type": "Point", "coordinates": [-120.9018, 36.5484]}, "properties": {"NAME": "W6/SC-112", "TITLE": "Meyers Peak", "REGION": "Southern Coastal Ranges", "ASSOCIATION": "USA - CA", "POINTS": "2", "BONUSPOINTS": "0"}}, {"type": "Feature", "geometry": {"type": "Point", "coordinates": [-120.9813, 36.8057]}, "properties": {"NAME": "W6/SC-113", "TITLE": "Ortigalita Ridge", "REGION": "Southern Coastal Ranges", "ASSOCIATION": "USA - CA", "POINTS": "2", "BONUSPOINTS": "0"}}, {"type": "Feature", "geometry": {"type": "Point", "coordinates": [-121.8116, 36.3185]}, "properties": {"NAME": "W6/SC-114", "TITLE": "Pico Blanco", "REGION": "Southern Coastal Ranges", "ASSOCIATION": "USA - CA", "POINTS": "2", "BONUSPOINTS": "0"}}, {"type": "Feature", "geometry": {"type": "Point", "coordinates": [-116.8201, 32.9148]}, "properties": {"NAME": "W6/SC-115", "TITLE": "El Cajon Mountain", "REGION": "Southern Coastal Ranges", "ASSOCIATION": "USA - CA", "POINTS": "2", "BONUSPOINTS": "0"}}, {"type": "Feature", "geometry": {"type": "Point", "coordinates": [-119.6283, 34.592]}, "properties": {"NAME": "W6/SC-116", "TITLE": "3665", "REGION": "Southern Coastal Ranges", "ASSOCIATION": "USA - CA", "POINTS": "2", "BONUSPOINTS": "0"}}, {"type": "Feature", "geometry": {"type": "Point", "coordinates": [-120.9339, 36.6853]}, "properties": {"NAME": "W6/SC-117", "TITLE": "Red Benchmark", "REGION": "Southern Coastal Ranges", "ASSOCIATION": "USA - CA", "POINTS": "2", "BONUSPOINTS": "0"}}, {"type": "Feature", "geometry": {"type": "Point", "coordinates": [-119.6176, 35.1631]}, "properties": {"NAME": "W6/SC-118", "TITLE": "Midway Peak", "REGION": "Southern Coastal Ranges", "ASSOCIATION": "USA - CA", "POINTS": "2", "BONUSPOINTS": "0"}}, {"type": "Feature", "geometry": {"type": "Point", "coordinates": [-121.7642, 36.3005]}, "properties": {"NAME": "W6/SC-119", "TITLE": "3657", "REGION": "Southern Coastal Ranges", "ASSOCIATION": "USA - CA", "POINTS": "2", "BONUSPOINTS": "0"}}, {"type": "Feature", "geometry": {"type": "Point", "coordinates": [-120.9573, 36.7184]}, "properties": {"NAME": "W6/SC-120", "TITLE": "Cerro Colorado", "REGION": "Southern Coastal Ranges", "ASSOCIATION": "USA - CA", "POINTS": "2", "BONUSPOINTS": "0"}}, {"type": "Feature", "geometry": {"type": "Point", "coordinates": [-121.4274, 35.9886]}, "properties": {"NAME": "W6/SC-121", "TITLE": "Chalk Peak", "REGION": "Southern Coastal Ranges", "ASSOCIATION": "USA - CA", "POINTS": "2", "BONUSPOINTS": "0"}}, {"type": "Feature", "geometry": {"type": "Point", "coordinates": [-121.2335, 36.905]}, "properties": {"NAME": "W6/SC-122", "TITLE": "Henrietta Peak", "REGION": "Southern Coastal Ranges", "ASSOCIATION": "USA - CA", "POINTS": "2", "BONUSPOINTS": "0"}}, {"type": "Feature", "geometry": {"type": "Point", "coordinates": [-120.3522, 35.3926]}, "properties": {"NAME": "W6/SC-123", "TITLE": "Black Mountain", "REGION": "Southern Coastal Ranges", "ASSOCIATION": "USA - CA", "POINTS": "2", "BONUSPOINTS": "0"}}, {"type": "Feature", "geometry": {"type": "Point", "coordinates": [-119.7699, 34.5095]}, "properties": {"NAME": "W6/SC-124", "TITLE": "3620", "REGION": "Southern Coastal Ranges", "ASSOCIATION": "USA - CA", "POINTS": "2", "BONUSPOINTS": "0"}}, {"type": "Feature", "geometry": {"type": "Point", "coordinates": [-121.0944, 35.69]}, "properties": {"NAME": "W6/SC-125", "TITLE": "Pine Mountain", "REGION": "Southern Coastal Ranges", "ASSOCIATION": "USA - CA", "POINTS": "2", "BONUSPOINTS": "0"}}, {"type": "Feature", "geometry": {"type": "Point", "coordinates": [-121.3588, 35.848]}, "properties": {"NAME": "W6/SC-126", "TITLE": "Silver Peak", "REGION": "Southern Coastal Ranges", "ASSOCIATION": "USA - CA", "POINTS": "2", "BONUSPOINTS": "0"}}, {"type": "Feature", "geometry": {"type": "Point", "coordinates": [-119.5487, 35.1083]}, "properties": {"NAME": "W6/SC-127", "TITLE": "3575", "REGION": "Southern Coastal Ranges", "ASSOCIATION": "USA - CA", "POINTS": "2", "BONUSPOINTS": "0"}}, {"type": "Feature", "geometry": {"type": "Point", "coordinates": [-116.8448, 32.5947]}, "properties": {"NAME": "W6/SC-128", "TITLE": "Otay Mountain", "REGION": "Southern Coastal Ranges", "ASSOCIATION": "USA - CA", "POINTS": "2", "BONUSPOINTS": "0"}}, {"type": "Feature", "geometry": {"type": "Point", "coordinates": [-121.61, 36.5256]}, "properties": {"NAME": "W6/SC-129", "TITLE": "Mount Toro", "REGION": "Southern Coastal Ranges", "ASSOCIATION": "USA - CA", "POINTS": "2", "BONUSPOINTS": "0"}}, {"type": "Feature", "geometry": {"type": "Point", "coordinates": [-121.7728, 36.2815]}, "properties": {"NAME": "W6/SC-130", "TITLE": "Cabezo Prieto", "REGION": "Southern Coastal Ranges", "ASSOCIATION": "USA - CA", "POINTS": "2", "BONUSPOINTS": "0"}}, {"type": "Feature", "geometry": {"type": "Point", "coordinates": [-120.8733, 36.5446]}, "properties": {"NAME": "W6/SC-131", "TITLE": "Buck Peak", "REGION": "Southern Coastal Ranges", "ASSOCIATION": "USA - CA", "POINTS": "2", "BONUSPOINTS": "0"}}, {"type": "Feature", "geometry": {"type": "Point", "coordinates": [-120.0488, 35.1412]}, "properties": {"NAME": "W6/SC-132", "TITLE": "3518", "REGION": "Southern Coastal Ranges", "ASSOCIATION": "USA - CA", "POINTS": "2", "BONUSPOINTS": "0"}}, {"type": "Feature", "geometry": {"type": "Point", "coordinates": [-121.3628, 36.041]}, "properties": {"NAME": "W6/SC-133", "TITLE": "3508", "REGION": "Southern Coastal Ranges", "ASSOCIATION": "USA - CA", "POINTS": "2", "BONUSPOINTS": "0"}}, {"type": "Feature", "geometry": {"type": "Point", "coordinates": [-119.975, 34.8668]}, "properties": {"NAME": "W6/SC-134", "TITLE": "3500", "REGION": "Southern Coastal Ranges", "ASSOCIATION": "USA - CA", "POINTS": "2", "BONUSPOINTS": "0"}}, {"type": "Feature", "geometry": {"type": "Point", "coordinates": [-119.7862, 34.7948]}, "properties": {"NAME": "W6/SC-135", "TITLE": "3494", "REGION": "Southern Coastal Ranges", "ASSOCIATION": "USA - CA", "POINTS": "2", "BONUSPOINTS": "0"}}, {"type": "Feature", "geometry": {"type": "Point", "coordinates": [-121.3145, 36.6109]}, "properties": {"NAME": "W6/SC-136", "TITLE": "Mount Johnson", "REGION": "Southern Coastal Ranges", "ASSOCIATION": "USA - CA", "POINTS": "2", "BONUSPOINTS": "0"}}, {"type": "Feature", "geometry": {"type": "Point", "coordinates": [-121.2036, 36.961]}, "properties": {"NAME": "W6/SC-137", "TITLE": "Cathedral Peak", "REGION": "Southern Coastal Ranges", "ASSOCIATION": "USA - CA", "POINTS": "2", "BONUSPOINTS": "0"}}, {"type": "Feature", "geometry": {"type": "Point", "coordinates": [-119.1474, 34.9639]}, "properties": {"NAME": "W6/SC-138", "TITLE": "3460", "REGION": "Southern Coastal Ranges", "ASSOCIATION": "USA - CA", "POINTS": "2", "BONUSPOINTS": "0"}}, {"type": "Feature", "geometry": {"type": "Point", "coordinates": [-121.4218, 36.0314]}, "properties": {"NAME": "W6/SC-139", "TITLE": "3442", "REGION": "Southern Coastal Ranges", "ASSOCIATION": "USA - CA", "POINTS": "2", "BONUSPOINTS": "0"}}, {"type": "Feature", "geometry": {"type": "Point", "coordinates": [-121.0594, 35.6653]}, "properties": {"NAME": "W6/SC-140", "TITLE": "Rocky Butte", "REGION": "Southern Coastal Ranges", "ASSOCIATION": "USA - CA", "POINTS": "2", "BONUSPOINTS": "0"}}, {"type": "Feature", "geometry": {"type": "Point", "coordinates": [-118.8001, 34.4537]}, "properties": {"NAME": "W6/SC-141", "TITLE": "Baldy", "REGION": "Southern Coastal Ranges", "ASSOCIATION": "USA - CA", "POINTS": "2", "BONUSPOINTS": "0"}}, {"type": "Feature", "geometry": {"type": "Point", "coordinates": [-121.3701, 36.0185]}, "properties": {"NAME": "W6/SC-142", "TITLE": "3410", "REGION": "Southern Coastal Ranges", "ASSOCIATION": "USA - CA", "POINTS": "2", "BONUSPOINTS": "0"}}, {"type": "Feature", "geometry": {"type": "Point", "coordinates": [-120.5799, 36.4735]}, "properties": {"NAME": "W6/SC-143", "TITLE": "Ciervo Mountain", "REGION": "Southern Coastal Ranges", "ASSOCIATION": "USA - CA", "POINTS": "2", "BONUSPOINTS": "0"}}, {"type": "Feature", "geometry": {"type": "Point", "coordinates": [-120.1004, 35.0539]}, "properties": {"NAME": "W6/SC-144", "TITLE": "Porter Peak", "REGION": "Southern Coastal Ranges", "ASSOCIATION": "USA - CA", "POINTS": "2", "BONUSPOINTS": "0"}}, {"type": "Feature", "geometry": {"type": "Point", "coordinates": [-121.3663, 36.6565]}, "properties": {"NAME": "W6/SC-145", "TITLE": "McPhails Peak", "REGION": "Southern Coastal Ranges", "ASSOCIATION": "USA - CA", "POINTS": "2", "BONUSPOINTS": "0"}}, {"type": "Feature", "geometry": {"type": "Point", "coordinates": [-116.6344, 32.6196]}, "properties": {"NAME": "W6/SC-146", "TITLE": "Potrero Peak", "REGION": "Southern Coastal Ranges", "ASSOCIATION": "USA - CA", "POINTS": "2", "BONUSPOINTS": "0"}}, {"type": "Feature", "geometry": {"type": "Point", "coordinates": [-116.7294, 32.69]}, "properties": {"NAME": "W6/SC-147", "TITLE": "Elena Mountain", "REGION": "Southern Coastal Ranges", "ASSOCIATION": "USA - CA", "POINTS": "2", "BONUSPOINTS": "0"}}, {"type": "Feature", "geometry": {"type": "Point", "coordinates": [-120.0541, 35.2853]}, "properties": {"NAME": "W6/SC-148", "TITLE": "Freeborn Mountain", "REGION": "Southern Coastal Ranges", "ASSOCIATION": "USA - CA", "POINTS": "2", "BONUSPOINTS": "0"}}, {"type": "Feature", "geometry": {"type": "Point", "coordinates": [-121.1956, 36.4477]}, "properties": {"NAME": "W6/SC-149", "TITLE": "North Chalone Peak", "REGION": "Southern Coastal Ranges", "ASSOCIATION": "USA - CA", "POINTS": "2", "BONUSPOINTS": "0"}}, {"type": "Feature", "geometry": {"type": "Point", "coordinates": [-120.3427, 35.9869]}, "properties": {"NAME": "W6/SC-150", "TITLE": "3303", "REGION": "Southern Coastal Ranges", "ASSOCIATION": "USA - CA", "POINTS": "2", "BONUSPOINTS": "0"}}, {"type": "Feature", "geometry": {"type": "Point", "coordinates": [-116.7177, 32.6445]}, "properties": {"NAME": "W6/SC-151", "TITLE": "White Mountain", "REGION": "Southern Coastal Ranges", "ASSOCIATION": "USA - CA", "POINTS": "2", "BONUSPOINTS": "0"}}, {"type": "Feature", "geometry": {"type": "Point", "coordinates": [-121.4055, 36.6974]}, "properties": {"NAME": "W6/SC-152", "TITLE": "Mount Harlan", "REGION": "Southern Coastal Ranges", "ASSOCIATION": "USA - CA", "POINTS": "2", "BONUSPOINTS": "0"}}, {"type": "Feature", "geometry": {"type": "Point", "coordinates": [-121.1857, 36.4369]}, "properties": {"NAME": "W6/SC-153", "TITLE": "South Chalone Peak", "REGION": "Southern Coastal Ranges", "ASSOCIATION": "USA - CA", "POINTS": "2", "BONUSPOINTS": "0"}}, {"type": "Feature", "geometry": {"type": "Point", "coordinates": [-120.1828, 34.9151]}, "properties": {"NAME": "W6/SC-154", "TITLE": "3255", "REGION": "Southern Coastal Ranges", "ASSOCIATION": "USA - CA", "POINTS": "2", "BONUSPOINTS": "0"}}, {"type": "Feature", "geometry": {"type": "Point", "coordinates": [-122.0927, 37.2235]}, "properties": {"NAME": "W6/SC-155", "TITLE": "Mount Bielawski", "REGION": "Southern Coastal Ranges", "ASSOCIATION": "USA - CA", "POINTS": "2", "BONUSPOINTS": "0"}}, {"type": "Feature", "geometry": {"type": "Point", "coordinates": [-116.7099, 32.9842]}, "properties": {"NAME": "W6/SC-156", "TITLE": "Eagle Peak", "REGION": "Southern Coastal Ranges", "ASSOCIATION": "USA - CA", "POINTS": "2", "BONUSPOINTS": "0"}}, {"type": "Feature", "geometry": {"type": "Point", "coordinates": [-120.8123, 36.5417]}, "properties": {"NAME": "W6/SC-157", "TITLE": "Griswold Hills", "REGION": "Southern Coastal Ranges", "ASSOCIATION": "USA - CA", "POINTS": "2", "BONUSPOINTS": "0"}}, {"type": "Feature", "geometry": {"type": "Point", "coordinates": [-120.281, 35.2084]}, "properties": {"NAME": "W6/SC-158", "TITLE": "Pine Ridge", "REGION": "Southern Coastal Ranges", "ASSOCIATION": "USA - CA", "POINTS": "2", "BONUSPOINTS": "0"}}, {"type": "Feature", "geometry": {"type": "Point", "coordinates": [-120.4253, 35.2599]}, "properties": {"NAME": "W6/SC-159", "TITLE": "Hi Mountain", "REGION": "Southern Coastal Ranges", "ASSOCIATION": "USA - CA", "POINTS": "2", "BONUSPOINTS": "0"}}, {"type": "Feature", "geometry": {"type": "Point", "coordinates": [-120.0807, 34.894]}, "properties": {"NAME": "W6/SC-160", "TITLE": "Manzanita Mountain", "REGION": "Southern Coastal Ranges", "ASSOCIATION": "USA - CA", "POINTS": "2", "BONUSPOINTS": "0"}}, {"type": "Feature", "geometry": {"type": "Point", "coordinates": [-118.6913, 34.56]}, "properties": {"NAME": "W6/SC-161", "TITLE": "Townsend Peak", "REGION": "Southern Coastal Ranges", "ASSOCIATION": "USA - CA", "POINTS": "2", "BONUSPOINTS": "0"}}, {"type": "Feature", "geometry": {"type": "Point", "coordinates": [-116.6208, 32.641]}, "properties": {"NAME": "W6/SC-162", "TITLE": "Hartley Hill", "REGION": "Southern Coastal Ranges", "ASSOCIATION": "USA - CA", "POINTS": "2", "BONUSPOINTS": "0"}}, {"type": "Feature", "geometry": {"type": "Point", "coordinates": [-119.6913, 34.547]}, "properties": {"NAME": "W6/SC-163", "TITLE": "Camuesa Peak", "REGION": "Southern Coastal Ranges", "ASSOCIATION": "USA - CA", "POINTS": "2", "BONUSPOINTS": "0"}}, {"type": "Feature", "geometry": {"type": "Point", "coordinates": [-120.3058, 35.2449]}, "properties": {"NAME": "W6/SC-164", "TITLE": "Garcia Mountain", "REGION": "Southern Coastal Ranges", "ASSOCIATION": "USA - CA", "POINTS": "2", "BONUSPOINTS": "0"}}, {"type": "Feature", "geometry": {"type": "Point", "coordinates": [-120.3298, 35.2579]}, "properties": {"NAME": "W6/SC-165", "TITLE": "West Garcia Mountain", "REGION": "Southern Coastal Ranges", "ASSOCIATION": "USA - CA", "POINTS": "2", "BONUSPOINTS": "0"}}, {"type": "Feature", "geometry": {"type": "Point", "coordinates": [-121.2769, 36.5844]}, "properties": {"NAME": "W6/SC-166", "TITLE": "Mount Reynolds", "REGION": "Southern Coastal Ranges", "ASSOCIATION": "USA - CA", "POINTS": "2", "BONUSPOINTS": "0"}}, {"type": "Feature", "geometry": {"type": "Point", "coordinates": [-121.0075, 36.4448]}, "properties": {"NAME": "W6/SC-167", "TITLE": "Buck Ridge", "REGION": "Southern Coastal Ranges", "ASSOCIATION": "USA - CA", "POINTS": "2", "BONUSPOINTS": "0"}}, {"type": "Feature", "geometry": {"type": "Point", "coordinates": [-120.1338, 35.738]}, "properties": {"NAME": "W6/SC-168", "TITLE": "Orchard Peak", "REGION": "Southern Coastal Ranges", "ASSOCIATION": "USA - CA", "POINTS": "2", "BONUSPOINTS": "0"}}, {"type": "Feature", "geometry": {"type": "Point", "coordinates": [-120.16, 34.9498]}, "properties": {"NAME": "W6/SC-169", "TITLE": "3115", "REGION": "Southern Coastal Ranges", "ASSOCIATION": "USA - CA", "POINTS": "2", "BONUSPOINTS": "0"}}, {"type": "Feature", "geometry": {"type": "Point", "coordinates": [-121.2637, 36.8782]}, "properties": {"NAME": "W6/SC-170", "TITLE": "Santa Ana Mountain", "REGION": "Southern Coastal Ranges", "ASSOCIATION": "USA - CA", "POINTS": "2", "BONUSPOINTS": "0"}}, {"type": "Feature", "geometry": {"type": "Point", "coordinates": [-119.8683, 34.5037]}, "properties": {"NAME": "W6/SC-171", "TITLE": "Brush Peak", "REGION": "Southern Coastal Ranges", "ASSOCIATION": "USA - CA", "POINTS": "2", "BONUSPOINTS": "0"}}, {"type": "Feature", "geometry": {"type": "Point", "coordinates": [-120.7291, 36.5035]}, "properties": {"NAME": "W6/SC-172", "TITLE": "Griswold Benchmark", "REGION": "Southern Coastal Ranges", "ASSOCIATION": "USA - CA", "POINTS": "2", "BONUSPOINTS": "0"}}, {"type": "Feature", "geometry": {"type": "Point", "coordinates": [-121.764, 36.3439]}, "properties": {"NAME": "W6/SC-173", "TITLE": "3088", "REGION": "Southern Coastal Ranges", "ASSOCIATION": "USA - CA", "POINTS": "2", "BONUSPOINTS": "0"}}, {"type": "Feature", "geometry": {"type": "Point", "coordinates": [-121.2283, 36.103]}, "properties": {"NAME": "W6/SC-174", "TITLE": "Oat Hills", "REGION": "Southern Coastal Ranges", "ASSOCIATION": "USA - CA", "POINTS": "2", "BONUSPOINTS": "0"}}, {"type": "Feature", "geometry": {"type": "Point", "coordinates": [-120.2571, 34.9832]}, "properties": {"NAME": "W6/SC-175", "TITLE": "Los Coches Mountain", "REGION": "Southern Coastal Ranges", "ASSOCIATION": "USA - CA", "POINTS": "2", "BONUSPOINTS": "0"}}, {"type": "Feature", "geometry": {"type": "Point", "coordinates": [-121.1605, 35.7563]}, "properties": {"NAME": "W6/SC-176", "TITLE": "Burnett Peak", "REGION": "Southern Coastal Ranges", "ASSOCIATION": "USA - CA", "POINTS": "2", "BONUSPOINTS": "0"}}, {"type": "Feature", "geometry": {"type": "Point", "coordinates": [-121.1159, 36.7716]}, "properties": {"NAME": "W6/SC-177", "TITLE": "2996", "REGION": "Southern Coastal Ranges", "ASSOCIATION": "USA - CA", "POINTS": "2", "BONUSPOINTS": "0"}}, {"type": "Feature", "geometry": {"type": "Point", "coordinates": [-120.9215, 36.4275]}, "properties": {"NAME": "W6/SC-178", "TITLE": "Lookout Peak", "REGION": "Southern Coastal Ranges", "ASSOCIATION": "USA - CA", "POINTS": "2", "BONUSPOINTS": "0"}}, {"type": "Feature", "geometry": {"type": "Point", "coordinates": [-120.1015, 35.3253]}, "properties": {"NAME": "W6/SC-179", "TITLE": "Hubbard Hill", "REGION": "Southern Coastal Ranges", "ASSOCIATION": "USA - CA", "POINTS": "2", "BONUSPOINTS": "0"}}, {"type": "Feature", "geometry": {"type": "Point", "coordinates": [-121.4243, 36.0697]}, "properties": {"NAME": "W6/SC-180", "TITLE": "2937", "REGION": "Southern Coastal Ranges", "ASSOCIATION": "USA - CA", "POINTS": "2", "BONUSPOINTS": "0"}}, {"type": "Feature", "geometry": {"type": "Point", "coordinates": [-121.4688, 36.6855]}, "properties": {"NAME": "W6/SC-181", "TITLE": "Round Benchmark", "REGION": "Southern Coastal Ranges", "ASSOCIATION": "USA - CA", "POINTS": "2", "BONUSPOINTS": "0"}}, {"type": "Feature", "geometry": {"type": "Point", "coordinates": [-121.8408, 36.3543]}, "properties": {"NAME": "W6/SC-182", "TITLE": "Bixby Mountain", "REGION": "Southern Coastal Ranges", "ASSOCIATION": "USA - CA", "POINTS": "2", "BONUSPOINTS": "0"}}, {"type": "Feature", "geometry": {"type": "Point", "coordinates": [-121.3086, 35.9287]}, "properties": {"NAME": "W6/SC-183", "TITLE": "2905", "REGION": "Southern Coastal Ranges", "ASSOCIATION": "USA - CA", "POINTS": "2", "BONUSPOINTS": "0"}}, {"type": "Feature", "geometry": {"type": "Point", "coordinates": [-116.7545, 32.6689]}, "properties": {"NAME": "W6/SC-184", "TITLE": "2900", "REGION": "Southern Coastal Ranges", "ASSOCIATION": "USA - CA", "POINTS": "2", "BONUSPOINTS": "0"}}, {"type": "Feature", "geometry": {"type": "Point", "coordinates": [-121.4269, 36.743]}, "properties": {"NAME": "W6/SC-185", "TITLE": "2900", "REGION": "Southern Coastal Ranges", "ASSOCIATION": "USA - CA", "POINTS": "2", "BONUSPOINTS": "0"}}, {"type": "Feature", "geometry": {"type": "Point", "coordinates": [-119.9654, 35.2649]}, "properties": {"NAME": "W6/SC-186", "TITLE": "2896", "REGION": "Southern Coastal Ranges", "ASSOCIATION": "USA - CA", "POINTS": "2", "BONUSPOINTS": "0"}}, {"type": "Feature", "geometry": {"type": "Point", "coordinates": [-116.9706, 33.0087]}, "properties": {"NAME": "W6/SC-187", "TITLE": "Woodson Mountain", "REGION": "Southern Coastal Ranges", "ASSOCIATION": "USA - CA", "POINTS": "2", "BONUSPOINTS": "0"}}, {"type": "Feature", "geometry": {"type": "Point", "coordinates": [-120.5251, 35.9]}, "properties": {"NAME": "W6/SC-188", "TITLE": "Cholame Hills", "REGION": "Southern Coastal Ranges", "ASSOCIATION": "USA - CA", "POINTS": "2", "BONUSPOINTS": "0"}}, {"type": "Feature", "geometry": {"type": "Point", "coordinates": [-120.5786, 35.3014]}, "properties": {"NAME": "W6/SC-189", "TITLE": "Lopez Mountain", "REGION": "Southern Coastal Ranges", "ASSOCIATION": "USA - CA", "POINTS": "2", "BONUSPOINTS": "0"}}, {"type": "Feature", "geometry": {"type": "Point", "coordinates": [-121.2699, 36.5395]}, "properties": {"NAME": "W6/SC-190", "TITLE": "2867", "REGION": "Southern Coastal Ranges", "ASSOCIATION": "USA - CA", "POINTS": "2", "BONUSPOINTS": "0"}}, {"type": "Feature", "geometry": {"type": "Point", "coordinates": [-120.1698, 34.513]}, "properties": {"NAME": "W6/SC-191", "TITLE": "2856", "REGION": "Southern Coastal Ranges", "ASSOCIATION": "USA - CA", "POINTS": "2", "BONUSPOINTS": "0"}}, {"type": "Feature", "geometry": {"type": "Point", "coordinates": [-116.8117, 32.9684]}, "properties": {"NAME": "W6/SC-192", "TITLE": "San Vicente Mountain", "REGION": "Southern Coastal Ranges", "ASSOCIATION": "USA - CA", "POINTS": "2", "BONUSPOINTS": "0"}}, {"type": "Feature", "geometry": {"type": "Point", "coordinates": [-121.2191, 36.8274]}, "properties": {"NAME": "W6/SC-193", "TITLE": "Cibo Peak", "REGION": "Southern Coastal Ranges", "ASSOCIATION": "USA - CA", "POINTS": "2", "BONUSPOINTS": "0"}}, {"type": "Feature", "geometry": {"type": "Point", "coordinates": [-120.972, 36.597]}, "properties": {"NAME": "W6/SC-194", "TITLE": "Walker Peak", "REGION": "Southern Coastal Ranges", "ASSOCIATION": "USA - CA", "POINTS": "2", "BONUSPOINTS": "0"}}, {"type": "Feature", "geometry": {"type": "Point", "coordinates": [-120.5028, 35.24]}, "properties": {"NAME": "W6/SC-195", "TITLE": "Bald Mountain", "REGION": "Southern Coastal Ranges", "ASSOCIATION": "USA - CA", "POINTS": "2", "BONUSPOINTS": "0"}}, {"type": "Feature", "geometry": {"type": "Point", "coordinates": [-120.0954, 34.7921]}, "properties": {"NAME": "W6/SC-196", "TITLE": "2832", "REGION": "Southern Coastal Ranges", "ASSOCIATION": "USA - CA", "POINTS": "2", "BONUSPOINTS": "0"}}, {"type": "Feature", "geometry": {"type": "Point", "coordinates": [-120.1179, 34.9813]}, "properties": {"NAME": "W6/SC-197", "TITLE": "Buckhorn Ridge", "REGION": "Southern Coastal Ranges", "ASSOCIATION": "USA - CA", "POINTS": "2", "BONUSPOINTS": "0"}}, {"type": "Feature", "geometry": {"type": "Point", "coordinates": [-121.2729, 35.8701]}, "properties": {"NAME": "W6/SC-198", "TITLE": "Burro Mountain", "REGION": "Southern Coastal Ranges", "ASSOCIATION": "USA - CA", "POINTS": "2", "BONUSPOINTS": "0"}}, {"type": "Feature", "geometry": {"type": "Point", "coordinates": [-120.132, 34.8632]}, "properties": {"NAME": "W6/SC-199", "TITLE": "Bone Mountain", "REGION": "Southern Coastal Ranges", "ASSOCIATION": "USA - CA", "POINTS": "2", "BONUSPOINTS": "0"}}, {"type": "Feature", "geometry": {"type": "Point", "coordinates": [-119.1874, 34.4136]}, "properties": {"NAME": "W6/SC-200", "TITLE": "Sulphur Mountain", "REGION": "Southern Coastal Ranges", "ASSOCIATION": "USA - CA", "POINTS": "2", "BONUSPOINTS": "0"}}, {"type": "Feature", "geometry": {"type": "Point", "coordinates": [-121.1369, 35.7781]}, "properties": {"NAME": "W6/SC-201", "TITLE": "2816", "REGION": "Southern Coastal Ranges", "ASSOCIATION": "USA - CA", "POINTS": "2", "BONUSPOINTS": "0"}}, {"type": "Feature", "geometry": {"type": "Point", "coordinates": [-120.9532, 36.4469]}, "properties": {"NAME": "W6/SC-202", "TITLE": "2809", "REGION": "Southern Coastal Ranges", "ASSOCIATION": "USA - CA", "POINTS": "2", "BONUSPOINTS": "0"}}, {"type": "Feature", "geometry": {"type": "Point", "coordinates": [-116.8062, 32.7545]}, "properties": {"NAME": "W6/SC-203", "TITLE": "Sycuan Peak", "REGION": "Southern Coastal Ranges", "ASSOCIATION": "USA - CA", "POINTS": "2", "BONUSPOINTS": "0"}}, {"type": "Feature", "geometry": {"type": "Point", "coordinates": [-121.2434, 35.8354]}, "properties": {"NAME": "W6/SC-204", "TITLE": "2795", "REGION": "Southern Coastal Ranges", "ASSOCIATION": "USA - CA", "POINTS": "2", "BONUSPOINTS": "0"}}, {"type": "Feature", "geometry": {"type": "Point", "coordinates": [-121.0017, 35.9517]}, "properties": {"NAME": "W6/SC-205", "TITLE": "Williams Hill", "REGION": "Southern Coastal Ranges", "ASSOCIATION": "USA - CA", "POINTS": "2", "BONUSPOINTS": "0"}}, {"type": "Feature", "geometry": {"type": "Point", "coordinates": [-120.1564, 34.8984]}, "properties": {"NAME": "W6/SC-206", "TITLE": "2786", "REGION": "Southern Coastal Ranges", "ASSOCIATION": "USA - CA", "POINTS": "2", "BONUSPOINTS": "0"}}, {"type": "Feature", "geometry": {"type": "Point", "coordinates": [-120.6976, 35.3856]}, "properties": {"NAME": "W6/SC-207", "TITLE": "Tessajera Benchmark", "REGION": "Southern Coastal Ranges", "ASSOCIATION": "USA - CA", "POINTS": "2", "BONUSPOINTS": "0"}}, {"type": "Feature", "geometry": {"type": "Point", "coordinates": [-119.8297, 34.5812]}, "properties": {"NAME": "W6/SC-208", "TITLE": "Loma Alta", "REGION": "Southern Coastal Ranges", "ASSOCIATION": "USA - CA", "POINTS": "2", "BONUSPOINTS": "0"}}, {"type": "Feature", "geometry": {"type": "Point", "coordinates": [-121.6076, 36.4669]}, "properties": {"NAME": "W6/SC-209", "TITLE": "Buckeye Ridge", "REGION": "Southern Coastal Ranges", "ASSOCIATION": "USA - CA", "POINTS": "2", "BONUSPOINTS": "0"}}, {"type": "Feature", "geometry": {"type": "Point", "coordinates": [-119.5875, 34.505]}, "properties": {"NAME": "W6/SC-210", "TITLE": "2740", "REGION": "Southern Coastal Ranges", "ASSOCIATION": "USA - CA", "POINTS": "2", "BONUSPOINTS": "0"}}, {"type": "Feature", "geometry": {"type": "Point", "coordinates": [-121.7733, 36.4195]}, "properties": {"NAME": "W6/SC-211", "TITLE": "San Clemente Ridge", "REGION": "Southern Coastal Ranges", "ASSOCIATION": "USA - CA", "POINTS": "2", "BONUSPOINTS": "0"}}, {"type": "Feature", "geometry": {"type": "Point", "coordinates": [-116.9601, 32.993]}, "properties": {"NAME": "W6/SC-212", "TITLE": "2703", "REGION": "Southern Coastal Ranges", "ASSOCIATION": "USA - CA", "POINTS": "2", "BONUSPOINTS": "0"}}, {"type": "Feature", "geometry": {"type": "Point", "coordinates": [-121.1972, 36.4881]}, "properties": {"NAME": "W6/SC-213", "TITLE": "Hawkins Peak", "REGION": "Southern Coastal Ranges", "ASSOCIATION": "USA - CA", "POINTS": "2", "BONUSPOINTS": "0"}}, {"type": "Feature", "geometry": {"type": "Point", "coordinates": [-116.9554, 32.9707]}, "properties": {"NAME": "W6/SC-214", "TITLE": "Iron Mountain", "REGION": "Southern Coastal Ranges", "ASSOCIATION": "USA - CA", "POINTS": "2", "BONUSPOINTS": "0"}}, {"type": "Feature", "geometry": {"type": "Point", "coordinates": [-120.7927, 36.6631]}, "properties": {"NAME": "W6/SC-215", "TITLE": "Panoche Hills", "REGION": "Southern Coastal Ranges", "ASSOCIATION": "USA - CA", "POINTS": "2", "BONUSPOINTS": "0"}}, {"type": "Feature", "geometry": {"type": "Point", "coordinates": [-121.1553, 36.9374]}, "properties": {"NAME": "W6/SC-216", "TITLE": "North Twin Peaks", "REGION": "Southern Coastal Ranges", "ASSOCIATION": "USA - CA", "POINTS": "2", "BONUSPOINTS": "0"}}, {"type": "Feature", "geometry": {"type": "Point", "coordinates": [-120.1666, 35.8019]}, "properties": {"NAME": "W6/SC-217", "TITLE": "East Three Peaks", "REGION": "Southern Coastal Ranges", "ASSOCIATION": "USA - CA", "POINTS": "2", "BONUSPOINTS": "0"}}, {"type": "Feature", "geometry": {"type": "Point", "coordinates": [-120.2593, 35.845]}, "properties": {"NAME": "W6/SC-218", "TITLE": "2562", "REGION": "Southern Coastal Ranges", "ASSOCIATION": "USA - CA", "POINTS": "2", "BONUSPOINTS": "0"}}, {"type": "Feature", "geometry": {"type": "Point", "coordinates": [-118.9154, 34.106]}, "properties": {"NAME": "W6/SC-219", "TITLE": "Triunfo Lookout", "REGION": "Southern Coastal Ranges", "ASSOCIATION": "USA - CA", "POINTS": "2", "BONUSPOINTS": "0"}}, {"type": "Feature", "geometry": {"type": "Point", "coordinates": [-120.1627, 35.1023]}, "properties": {"NAME": "W6/SC-220", "TITLE": "2649", "REGION": "Southern Coastal Ranges", "ASSOCIATION": "USA - CA", "POINTS": "2", "BONUSPOINTS": "0"}}, {"type": "Feature", "geometry": {"type": "Point", "coordinates": [-120.179, 35.8391]}, "properties": {"NAME": "W6/SC-221", "TITLE": "Tent Benchmark", "REGION": "Southern Coastal Ranges", "ASSOCIATION": "USA - CA", "POINTS": "2", "BONUSPOINTS": "0"}}, {"type": "Feature", "geometry": {"type": "Point", "coordinates": [-121.2677, 35.7487]}, "properties": {"NAME": "W6/SC-222", "TITLE": "Pine Top Mountain", "REGION": "Southern Coastal Ranges", "ASSOCIATION": "USA - CA", "POINTS": "2", "BONUSPOINTS": "0"}}, {"type": "Feature", "geometry": {"type": "Point", "coordinates": [-119.6107, 34.5295]}, "properties": {"NAME": "W6/SC-223", "TITLE": "2601", "REGION": "Southern Coastal Ranges", "ASSOCIATION": "USA - CA", "POINTS": "2", "BONUSPOINTS": "0"}}, {"type": "Feature", "geometry": {"type": "Point", "coordinates": [-121.0842, 36.0225]}, "properties": {"NAME": "W6/SC-224", "TITLE": "2577", "REGION": "Southern Coastal Ranges", "ASSOCIATION": "USA - CA", "POINTS": "2", "BONUSPOINTS": "0"}}, {"type": "Feature", "geometry": {"type": "Point", "coordinates": [-120.5328, 35.2887]}, "properties": {"NAME": "W6/SC-225", "TITLE": "2554", "REGION": "Southern Coastal Ranges", "ASSOCIATION": "USA - CA", "POINTS": "2", "BONUSPOINTS": "0"}}, {"type": "Feature", "geometry": {"type": "Point", "coordinates": [-120.4485, 36.0749]}, "properties": {"NAME": "W6/SC-226", "TITLE": "Curry Mountain", "REGION": "Southern Coastal Ranges", "ASSOCIATION": "USA - CA", "POINTS": "2", "BONUSPOINTS": "0"}}, {"type": "Feature", "geometry": {"type": "Point", "coordinates": [-121.1568, 36.9308]}, "properties": {"NAME": "W6/SC-227", "TITLE": "South Twin Peaks", "REGION": "Southern Coastal Ranges", "ASSOCIATION": "USA - CA", "POINTS": "2", "BONUSPOINTS": "0"}}, {"type": "Feature", "geometry": {"type": "Point", "coordinates": [-120.2178, 34.9433]}, "properties": {"NAME": "W6/SC-228", "TITLE": "2509", "REGION": "Southern Coastal Ranges", "ASSOCIATION": "USA - CA", "POINTS": "2", "BONUSPOINTS": "0"}}, {"type": "Feature", "geometry": {"type": "Point", "coordinates": [-118.8328, 34.0738]}, "properties": {"NAME": "W6/SC-229", "TITLE": "2507", "REGION": "Southern Coastal Ranges", "ASSOCIATION": "USA - CA", "POINTS": "2", "BONUSPOINTS": "0"}}, {"type": "Feature", "geometry": {"type": "Point", "coordinates": [-120.2215, 35.9143]}, "properties": {"NAME": "W6/SC-230", "TITLE": "2540", "REGION": "Southern Coastal Ranges", "ASSOCIATION": "USA - CA", "POINTS": "1", "BONUSPOINTS": "0"}}, {"type": "Feature", "geometry": {"type": "Point", "coordinates": [-120.9818, 36.3362]}, "properties": {"NAME": "W6/SC-231", "TITLE": "2496", "REGION": "Southern Coastal Ranges", "ASSOCIATION": "USA - CA", "POINTS": "1", "BONUSPOINTS": "0"}}, {"type": "Feature", "geometry": {"type": "Point", "coordinates": [-121.2764, 36.1695]}, "properties": {"NAME": "W6/SC-232", "TITLE": "2492", "REGION": "Southern Coastal Ranges", "ASSOCIATION": "USA - CA", "POINTS": "1", "BONUSPOINTS": "0"}}, {"type": "Feature", "geometry": {"type": "Point", "coordinates": [-120.186, 35.91]}, "properties": {"NAME": "W6/SC-233", "TITLE": "2490", "REGION": "Southern Coastal Ranges", "ASSOCIATION": "USA - CA", "POINTS": "1", "BONUSPOINTS": "0"}}, {"type": "Feature", "geometry": {"type": "Point", "coordinates": [-119.7843, 34.0292]}, "properties": {"NAME": "W6/SC-234", "TITLE": "Santa Cruz Island", "REGION": "Southern Coastal Ranges", "ASSOCIATION": "USA - CA", "POINTS": "1", "BONUSPOINTS": "0"}}, {"type": "Feature", "geometry": {"type": "Point", "coordinates": [-121.2735, 36.0566]}, "properties": {"NAME": "W6/SC-235", "TITLE": "2470", "REGION": "Southern Coastal Ranges", "ASSOCIATION": "USA - CA", "POINTS": "1", "BONUSPOINTS": "0"}}, {"type": "Feature", "geometry": {"type": "Point", "coordinates": [-121.3085, 36.2229]}, "properties": {"NAME": "W6/SC-236", "TITLE": "2450", "REGION": "Southern Coastal Ranges", "ASSOCIATION": "USA - CA", "POINTS": "1", "BONUSPOINTS": "0"}}, {"type": "Feature", "geometry": {"type": "Point", "coordinates": [-118.8452, 34.1087]}, "properties": {"NAME": "W6/SC-237", "TITLE": "2450", "REGION": "Southern Coastal Ranges", "ASSOCIATION": "USA - CA", "POINTS": "1", "BONUSPOINTS": "0"}}, {"type": "Feature", "geometry": {"type": "Point", "coordinates": [-120.7175, 35.4444]}, "properties": {"NAME": "W6/SC-238", "TITLE": "Frog Pond Mountain", "REGION": "Southern Coastal Ranges", "ASSOCIATION": "USA - CA", "POINTS": "1", "BONUSPOINTS": "0"}}, {"type": "Feature", "geometry": {"type": "Point", "coordinates": [-121.2009, 36.7542]}, "properties": {"NAME": "W6/SC-239", "TITLE": "2430", "REGION": "Southern Coastal Ranges", "ASSOCIATION": "USA - CA", "POINTS": "1", "BONUSPOINTS": "0"}}, {"type": "Feature", "geometry": {"type": "Point", "coordinates": [-119.7979, 34.5565]}, "properties": {"NAME": "W6/SC-240", "TITLE": "Sage Hill", "REGION": "Southern Coastal Ranges", "ASSOCIATION": "USA - CA", "POINTS": "1", "BONUSPOINTS": "0"}}, {"type": "Feature", "geometry": {"type": "Point", "coordinates": [-119.6487, 34.5344]}, "properties": {"NAME": "W6/SC-241", "TITLE": "2420", "REGION": "Southern Coastal Ranges", "ASSOCIATION": "USA - CA", "POINTS": "1", "BONUSPOINTS": "0"}}, {"type": "Feature", "geometry": {"type": "Point", "coordinates": [-120.2854, 34.9769]}, "properties": {"NAME": "W6/SC-242", "TITLE": "2421", "REGION": "Southern Coastal Ranges", "ASSOCIATION": "USA - CA", "POINTS": "1", "BONUSPOINTS": "0"}}, {"type": "Feature", "geometry": {"type": "Point", "coordinates": [-120.243, 35.1227]}, "properties": {"NAME": "W6/SC-243", "TITLE": "2403", "REGION": "Southern Coastal Ranges", "ASSOCIATION": "USA - CA", "POINTS": "1", "BONUSPOINTS": "0"}}, {"type": "Feature", "geometry": {"type": "Point", "coordinates": [-121.211, 35.7191]}, "properties": {"NAME": "W6/SC-244", "TITLE": "Garrity Peak", "REGION": "Southern Coastal Ranges", "ASSOCIATION": "USA - CA", "POINTS": "1", "BONUSPOINTS": "0"}}, {"type": "Feature", "geometry": {"type": "Point", "coordinates": [-119.8894, 34.6381]}, "properties": {"NAME": "W6/SC-245", "TITLE": "2389", "REGION": "Southern Coastal Ranges", "ASSOCIATION": "USA - CA", "POINTS": "1", "BONUSPOINTS": "0"}}, {"type": "Feature", "geometry": {"type": "Point", "coordinates": [-120.7321, 36.6459]}, "properties": {"NAME": "W6/SC-246", "TITLE": "2389", "REGION": "Southern Coastal Ranges", "ASSOCIATION": "USA - CA", "POINTS": "1", "BONUSPOINTS": "0"}}, {"type": "Feature", "geometry": {"type": "Point", "coordinates": [-120.4982, 35.2657]}, "properties": {"NAME": "W6/SC-247", "TITLE": "2383", "REGION": "Southern Coastal Ranges", "ASSOCIATION": "USA - CA", "POINTS": "1", "BONUSPOINTS": "0"}}, {"type": "Feature", "geometry": {"type": "Point", "coordinates": [-121.2004, 36.8291]}, "properties": {"NAME": "W6/SC-248", "TITLE": "Schoolhouse Ridge", "REGION": "Southern Coastal Ranges", "ASSOCIATION": "USA - CA", "POINTS": "1", "BONUSPOINTS": "0"}}, {"type": "Feature", "geometry": {"type": "Point", "coordinates": [-121.738, 36.4387]}, "properties": {"NAME": "W6/SC-249", "TITLE": "Long Ridge", "REGION": "Southern Coastal Ranges", "ASSOCIATION": "USA - CA", "POINTS": "1", "BONUSPOINTS": "0"}}, {"type": "Feature", "geometry": {"type": "Point", "coordinates": [-116.7318, 32.5985]}, "properties": {"NAME": "W6/SC-250", "TITLE": "Little Tecate Peak", "REGION": "Southern Coastal Ranges", "ASSOCIATION": "USA - CA", "POINTS": "1", "BONUSPOINTS": "0"}}, {"type": "Feature", "geometry": {"type": "Point", "coordinates": [-121.1575, 36.7209]}, "properties": {"NAME": "W6/SC-251", "TITLE": "2362", "REGION": "Southern Coastal Ranges", "ASSOCIATION": "USA - CA", "POINTS": "1", "BONUSPOINTS": "0"}}, {"type": "Feature", "geometry": {"type": "Point", "coordinates": [-121.6813, 36.4952]}, "properties": {"NAME": "W6/SC-252", "TITLE": "Holman Benchmark", "REGION": "Southern Coastal Ranges", "ASSOCIATION": "USA - CA", "POINTS": "1", "BONUSPOINTS": "0"}}, {"type": "Feature", "geometry": {"type": "Point", "coordinates": [-121.1085, 36.8761]}, "properties": {"NAME": "W6/SC-253", "TITLE": "Bullard Mountain", "REGION": "Southern Coastal Ranges", "ASSOCIATION": "USA - CA", "POINTS": "1", "BONUSPOINTS": "0"}}, {"type": "Feature", "geometry": {"type": "Point", "coordinates": [-119.0219, 34.3312]}, "properties": {"NAME": "W6/SC-254", "TITLE": "South Mountain", "REGION": "Southern Coastal Ranges", "ASSOCIATION": "USA - CA", "POINTS": "1", "BONUSPOINTS": "0"}}, {"type": "Feature", "geometry": {"type": "Point", "coordinates": [-120.7942, 35.6435]}, "properties": {"NAME": "W6/SC-255", "TITLE": "2323", "REGION": "Southern Coastal Ranges", "ASSOCIATION": "USA - CA", "POINTS": "1", "BONUSPOINTS": "0"}}, {"type": "Feature", "geometry": {"type": "Point", "coordinates": [-121.119, 36.5435]}, "properties": {"NAME": "W6/SC-256", "TITLE": "2292", "REGION": "Southern Coastal Ranges", "ASSOCIATION": "USA - CA", "POINTS": "1", "BONUSPOINTS": "0"}}, {"type": "Feature", "geometry": {"type": "Point", "coordinates": [-118.7102, 34.424]}, "properties": {"NAME": "W6/SC-257", "TITLE": "2290", "REGION": "Southern Coastal Ranges", "ASSOCIATION": "USA - CA", "POINTS": "1", "BONUSPOINTS": "0"}}, {"type": "Feature", "geometry": {"type": "Point", "coordinates": [-120.5359, 35.2333]}, "properties": {"NAME": "W6/SC-258", "TITLE": "2272", "REGION": "Southern Coastal Ranges", "ASSOCIATION": "USA - CA", "POINTS": "1", "BONUSPOINTS": "0"}}, {"type": "Feature", "geometry": {"type": "Point", "coordinates": [-120.7614, 36.1385]}, "properties": {"NAME": "W6/SC-259", "TITLE": "2260", "REGION": "Southern Coastal Ranges", "ASSOCIATION": "USA - CA", "POINTS": "1", "BONUSPOINTS": "0"}}, {"type": "Feature", "geometry": {"type": "Point", "coordinates": [-116.8388, 32.841]}, "properties": {"NAME": "W6/SC-260", "TITLE": "2258", "REGION": "Southern Coastal Ranges", "ASSOCIATION": "USA - CA", "POINTS": "1", "BONUSPOINTS": "0"}}, {"type": "Feature", "geometry": {"type": "Point", "coordinates": [-121.787, 36.4889]}, "properties": {"NAME": "W6/SC-261", "TITLE": "Pinyon Peak", "REGION": "Southern Coastal Ranges", "ASSOCIATION": "USA - CA", "POINTS": "1", "BONUSPOINTS": "0"}}, {"type": "Feature", "geometry": {"type": "Point", "coordinates": [-121.1716, 36.5227]}, "properties": {"NAME": "W6/SC-262", "TITLE": "2236", "REGION": "Southern Coastal Ranges", "ASSOCIATION": "USA - CA", "POINTS": "1", "BONUSPOINTS": "0"}}, {"type": "Feature", "geometry": {"type": "Point", "coordinates": [-121.6586, 36.4236]}, "properties": {"NAME": "W6/SC-263", "TITLE": "Tularcitos Ridge", "REGION": "Southern Coastal Ranges", "ASSOCIATION": "USA - CA", "POINTS": "1", "BONUSPOINTS": "0"}}, {"type": "Feature", "geometry": {"type": "Point", "coordinates": [-116.9015, 32.9836]}, "properties": {"NAME": "W6/SC-264", "TITLE": "2205", "REGION": "Southern Coastal Ranges", "ASSOCIATION": "USA - CA", "POINTS": "1", "BONUSPOINTS": "0"}}, {"type": "Feature", "geometry": {"type": "Point", "coordinates": [-120.7506, 35.4724]}, "properties": {"NAME": "W6/SC-265", "TITLE": "Prospect Benchmark", "REGION": "Southern Coastal Ranges", "ASSOCIATION": "USA - CA", "POINTS": "1", "BONUSPOINTS": "0"}}, {"type": "Feature", "geometry": {"type": "Point", "coordinates": [-120.7278, 36.1054]}, "properties": {"NAME": "W6/SC-266", "TITLE": "2183", "REGION": "Southern Coastal Ranges", "ASSOCIATION": "USA - CA", "POINTS": "1", "BONUSPOINTS": "0"}}, {"type": "Feature", "geometry": {"type": "Point", "coordinates": [-120.6877, 35.4264]}, "properties": {"NAME": "W6/SC-267", "TITLE": "Eagle Peak", "REGION": "Southern Coastal Ranges", "ASSOCIATION": "USA - CA", "POINTS": "1", "BONUSPOINTS": "0"}}, {"type": "Feature", "geometry": {"type": "Point", "coordinates": [-120.1554, 35.928]}, "properties": {"NAME": "W6/SC-268", "TITLE": "Flattop", "REGION": "Southern Coastal Ranges", "ASSOCIATION": "USA - CA", "POINTS": "1", "BONUSPOINTS": "0"}}, {"type": "Feature", "geometry": {"type": "Point", "coordinates": [-120.8394, 35.6988]}, "properties": {"NAME": "W6/SC-269", "TITLE": "2178", "REGION": "Southern Coastal Ranges", "ASSOCIATION": "USA - CA", "POINTS": "1", "BONUSPOINTS": "0"}}, {"type": "Feature", "geometry": {"type": "Point", "coordinates": [-119.8439, 34.0404]}, "properties": {"NAME": "W6/SC-270", "TITLE": "Alta 2 Benchmark", "REGION": "Southern Coastal Ranges", "ASSOCIATION": "USA - CA", "POINTS": "1", "BONUSPOINTS": "0"}}, {"type": "Feature", "geometry": {"type": "Point", "coordinates": [-119.3445, 34.348]}, "properties": {"NAME": "W6/SC-271", "TITLE": "Red Mountain", "REGION": "Southern Coastal Ranges", "ASSOCIATION": "USA - CA", "POINTS": "1", "BONUSPOINTS": "0"}}, {"type": "Feature", "geometry": {"type": "Point", "coordinates": [-120.3124, 35.1459]}, "properties": {"NAME": "W6/SC-272", "TITLE": "Bald Mountain", "REGION": "Southern Coastal Ranges", "ASSOCIATION": "USA - CA", "POINTS": "1", "BONUSPOINTS": "0"}}, {"type": "Feature", "geometry": {"type": "Point", "coordinates": [-120.5614, 34.5828]}, "properties": {"NAME": "W6/SC-273", "TITLE": "Tranquillon Mountain", "REGION": "Southern Coastal Ranges", "ASSOCIATION": "USA - CA", "POINTS": "1", "BONUSPOINTS": "0"}}, {"type": "Feature", "geometry": {"type": "Point", "coordinates": [-121.1005, 36.4859]}, "properties": {"NAME": "W6/SC-274", "TITLE": "Topo Benchmark", "REGION": "Southern Coastal Ranges", "ASSOCIATION": "USA - CA", "POINTS": "1", "BONUSPOINTS": "0"}}, {"type": "Feature", "geometry": {"type": "Point", "coordinates": [-121.8163, 36.4738]}, "properties": {"NAME": "W6/SC-275", "TITLE": "Chamisal Ridge", "REGION": "Southern Coastal Ranges", "ASSOCIATION": "USA - CA", "POINTS": "1", "BONUSPOINTS": "0"}}, {"type": "Feature", "geometry": {"type": "Point", "coordinates": [-119.0142, 35.0106]}, "properties": {"NAME": "W6/SC-276", "TITLE": "Wheeler Ridge", "REGION": "Southern Coastal Ranges", "ASSOCIATION": "USA - CA", "POINTS": "1", "BONUSPOINTS": "0"}}, {"type": "Feature", "geometry": {"type": "Point", "coordinates": [-116.9889, 33.0535]}, "properties": {"NAME": "W6/SC-277", "TITLE": "Starvation Mountain", "REGION": "Southern Coastal Ranges", "ASSOCIATION": "USA - CA", "POINTS": "1", "BONUSPOINTS": "0"}}, {"type": "Feature", "geometry": {"type": "Point", "coordinates": [-121.1242, 35.8631]}, "properties": {"NAME": "W6/SC-278", "TITLE": "Bald Mountain", "REGION": "Southern Coastal Ranges", "ASSOCIATION": "USA - CA", "POINTS": "1", "BONUSPOINTS": "0"}}, {"type": "Feature", "geometry": {"type": "Point", "coordinates": [-120.501, 34.5655]}, "properties": {"NAME": "W6/SC-279", "TITLE": "Sudden Peak", "REGION": "Southern Coastal Ranges", "ASSOCIATION": "USA - CA", "POINTS": "1", "BONUSPOINTS": "0"}}, {"type": "Feature", "geometry": {"type": "Point", "coordinates": [-121.3112, 36.2644]}, "properties": {"NAME": "W6/SC-280", "TITLE": "Pettits Peak", "REGION": "Southern Coastal Ranges", "ASSOCIATION": "USA - CA", "POINTS": "1", "BONUSPOINTS": "0"}}, {"type": "Feature", "geometry": {"type": "Point", "coordinates": [-120.7735, 35.4411]}, "properties": {"NAME": "W6/SC-281", "TITLE": "2060", "REGION": "Southern Coastal Ranges", "ASSOCIATION": "USA - CA", "POINTS": "1", "BONUSPOINTS": "0"}}, {"type": "Feature", "geometry": {"type": "Point", "coordinates": [-116.8837, 32.6784]}, "properties": {"NAME": "W6/SC-282", "TITLE": "Jamul Mountains (HP)", "REGION": "Southern Coastal Ranges", "ASSOCIATION": "USA - CA", "POINTS": "1", "BONUSPOINTS": "0"}}, {"type": "Feature", "geometry": {"type": "Point", "coordinates": [-120.9861, 35.771]}, "properties": {"NAME": "W6/SC-283", "TITLE": "Tierra Redonda Mountain", "REGION": "Southern Coastal Ranges", "ASSOCIATION": "USA - CA", "POINTS": "1", "BONUSPOINTS": "0"}}, {"type": "Feature", "geometry": {"type": "Point", "coordinates": [-121.24, 36.0482]}, "properties": {"NAME": "W6/SC-284", "TITLE": "2050", "REGION": "Southern Coastal Ranges", "ASSOCIATION": "USA - CA", "POINTS": "1", "BONUSPOINTS": "0"}}, {"type": "Feature", "geometry": {"type": "Point", "coordinates": [-118.773, 34.135]}, "properties": {"NAME": "W6/SC-285", "TITLE": "Ladyface", "REGION": "Southern Coastal Ranges", "ASSOCIATION": "USA - CA", "POINTS": "1", "BONUSPOINTS": "0"}}, {"type": "Feature", "geometry": {"type": "Point", "coordinates": [-121.2064, 36.1819]}, "properties": {"NAME": "W6/SC-286", "TITLE": "2031", "REGION": "Southern Coastal Ranges", "ASSOCIATION": "USA - CA", "POINTS": "1", "BONUSPOINTS": "0"}}, {"type": "Feature", "geometry": {"type": "Point", "coordinates": [-121.6899, 36.4172]}, "properties": {"NAME": "W6/SC-287", "TITLE": "2015", "REGION": "Southern Coastal Ranges", "ASSOCIATION": "USA - CA", "POINTS": "1", "BONUSPOINTS": "0"}}, {"type": "Feature", "geometry": {"type": "Point", "coordinates": [-121.2689, 36.2242]}, "properties": {"NAME": "W6/SC-288", "TITLE": "1993", "REGION": "Southern Coastal Ranges", "ASSOCIATION": "USA - CA", "POINTS": "1", "BONUSPOINTS": "0"}}, {"type": "Feature", "geometry": {"type": "Point", "coordinates": [-120.5203, 35.3563]}, "properties": {"NAME": "W6/SC-289", "TITLE": "Salinas Benchmark", "REGION": "Southern Coastal Ranges", "ASSOCIATION": "USA - CA", "POINTS": "1", "BONUSPOINTS": "0"}}, {"type": "Feature", "geometry": {"type": "Point", "coordinates": [-120.267, 34.6911]}, "properties": {"NAME": "W6/SC-290", "TITLE": "Redrock Mountain", "REGION": "Southern Coastal Ranges", "ASSOCIATION": "USA - CA", "POINTS": "1", "BONUSPOINTS": "0"}}, {"type": "Feature", "geometry": {"type": "Point", "coordinates": [-120.9091, 35.8381]}, "properties": {"NAME": "W6/SC-291", "TITLE": "1984", "REGION": "Southern Coastal Ranges", "ASSOCIATION": "USA - CA", "POINTS": "1", "BONUSPOINTS": "0"}}, {"type": "Feature", "geometry": {"type": "Point", "coordinates": [-118.9638, 34.0834]}, "properties": {"NAME": "W6/SC-292", "TITLE": "Clarks Peak", "REGION": "Southern Coastal Ranges", "ASSOCIATION": "USA - CA", "POINTS": "1", "BONUSPOINTS": "0"}}, {"type": "Feature", "geometry": {"type": "Point", "coordinates": [-118.4508, 32.8836]}, "properties": {"NAME": "W6/SC-293", "TITLE": "Mount Thirst", "REGION": "Southern Coastal Ranges", "ASSOCIATION": "USA - CA", "POINTS": "1", "BONUSPOINTS": "0"}}, {"type": "Feature", "geometry": {"type": "Point", "coordinates": [-116.8155, 32.8497]}, "properties": {"NAME": "W6/SC-294", "TITLE": "1958", "REGION": "Southern Coastal Ranges", "ASSOCIATION": "USA - CA", "POINTS": "1", "BONUSPOINTS": "0"}}, {"type": "Feature", "geometry": {"type": "Point", "coordinates": [-119.2074, 34.3457]}, "properties": {"NAME": "W6/SC-295", "TITLE": "1957", "REGION": "Southern Coastal Ranges", "ASSOCIATION": "USA - CA", "POINTS": "1", "BONUSPOINTS": "0"}}, {"type": "Feature", "geometry": {"type": "Point", "coordinates": [-116.8886, 32.6562]}, "properties": {"NAME": "W6/SC-296", "TITLE": "1953", "REGION": "Southern Coastal Ranges", "ASSOCIATION": "USA - CA", "POINTS": "1", "BONUSPOINTS": "0"}}, {"type": "Feature", "geometry": {"type": "Point", "coordinates": [-116.8074, 32.8738]}, "properties": {"NAME": "W6/SC-297", "TITLE": "1940", "REGION": "Southern Coastal Ranges", "ASSOCIATION": "USA - CA", "POINTS": "1", "BONUSPOINTS": "0"}}, {"type": "Feature", "geometry": {"type": "Point", "coordinates": [-120.5347, 34.5721]}, "properties": {"NAME": "W6/SC-298", "TITLE": "1940", "REGION": "Southern Coastal Ranges", "ASSOCIATION": "USA - CA", "POINTS": "1", "BONUSPOINTS": "0"}}, {"type": "Feature", "geometry": {"type": "Point", "coordinates": [-120.2318, 34.5683]}, "properties": {"NAME": "W6/SC-299", "TITLE": "1938", "REGION": "Southern Coastal Ranges", "ASSOCIATION": "USA - CA", "POINTS": "1", "BONUSPOINTS": "0"}}, {"type": "Feature", "geometry": {"type": "Point", "coordinates": [-116.9986, 33.0328]}, "properties": {"NAME": "W6/SC-300", "TITLE": "1930", "REGION": "Southern Coastal Ranges", "ASSOCIATION": "USA - CA", "POINTS": "1", "BONUSPOINTS": "0"}}, {"type": "Feature", "geometry": {"type": "Point", "coordinates": [-121.2198, 37.0346]}, "properties": {"NAME": "W6/SC-301", "TITLE": "Spikes Peak", "REGION": "Southern Coastal Ranges", "ASSOCIATION": "USA - CA", "POINTS": "1", "BONUSPOINTS": "0"}}, {"type": "Feature", "geometry": {"type": "Point", "coordinates": [-121.9042, 36.4923]}, "properties": {"NAME": "W6/SC-302", "TITLE": "1913", "REGION": "Southern Coastal Ranges", "ASSOCIATION": "USA - CA", "POINTS": "1", "BONUSPOINTS": "0"}}, {"type": "Feature", "geometry": {"type": "Point", "coordinates": [-120.3477, 35.0364]}, "properties": {"NAME": "W6/SC-303", "TITLE": "Huasna Peak", "REGION": "Southern Coastal Ranges", "ASSOCIATION": "USA - CA", "POINTS": "1", "BONUSPOINTS": "0"}}, {"type": "Feature", "geometry": {"type": "Point", "coordinates": [-120.3995, 36.0916]}, "properties": {"NAME": "W6/SC-304", "TITLE": "Jacalitos Hills", "REGION": "Southern Coastal Ranges", "ASSOCIATION": "USA - CA", "POINTS": "1", "BONUSPOINTS": "0"}}, {"type": "Feature", "geometry": {"type": "Point", "coordinates": [-119.401, 34.3685]}, "properties": {"NAME": "W6/SC-305", "TITLE": "1876", "REGION": "Southern Coastal Ranges", "ASSOCIATION": "USA - CA", "POINTS": "1", "BONUSPOINTS": "0"}}, {"type": "Feature", "geometry": {"type": "Point", "coordinates": [-121.2024, 35.9271]}, "properties": {"NAME": "W6/SC-306", "TITLE": "1863", "REGION": "Southern Coastal Ranges", "ASSOCIATION": "USA - CA", "POINTS": "1", "BONUSPOINTS": "0"}}, {"type": "Feature", "geometry": {"type": "Point", "coordinates": [-118.9479, 34.3451]}, "properties": {"NAME": "W6/SC-307", "TITLE": "1855", "REGION": "Southern Coastal Ranges", "ASSOCIATION": "USA - CA", "POINTS": "1", "BONUSPOINTS": "0"}}, {"type": "Feature", "geometry": {"type": "Point", "coordinates": [-120.5083, 34.5847]}, "properties": {"NAME": "W6/SC-308", "TITLE": "1852", "REGION": "Southern Coastal Ranges", "ASSOCIATION": "USA - CA", "POINTS": "1", "BONUSPOINTS": "0"}}, {"type": "Feature", "geometry": {"type": "Point", "coordinates": [-121.1663, 35.8988]}, "properties": {"NAME": "W6/SC-309", "TITLE": "1850", "REGION": "Southern Coastal Ranges", "ASSOCIATION": "USA - CA", "POINTS": "1", "BONUSPOINTS": "0"}}, {"type": "Feature", "geometry": {"type": "Point", "coordinates": [-120.4751, 35.1612]}, "properties": {"NAME": "W6/SC-310", "TITLE": "Tar Spring Ridge", "REGION": "Southern Coastal Ranges", "ASSOCIATION": "USA - CA", "POINTS": "1", "BONUSPOINTS": "0"}}, {"type": "Feature", "geometry": {"type": "Point", "coordinates": [-118.9141, 34.0712]}, "properties": {"NAME": "W6/SC-311", "TITLE": "1838", "REGION": "Southern Coastal Ranges", "ASSOCIATION": "USA - CA", "POINTS": "1", "BONUSPOINTS": "0"}}, {"type": "Feature", "geometry": {"type": "Point", "coordinates": [-120.8162, 35.4634]}, "properties": {"NAME": "W6/SC-312", "TITLE": "Rusty Peak", "REGION": "Southern Coastal Ranges", "ASSOCIATION": "USA - CA", "POINTS": "1", "BONUSPOINTS": "0"}}, {"type": "Feature", "geometry": {"type": "Point", "coordinates": [-120.3201, 34.9982]}, "properties": {"NAME": "W6/SC-313", "TITLE": "1834", "REGION": "Southern Coastal Ranges", "ASSOCIATION": "USA - CA", "POINTS": "1", "BONUSPOINTS": "0"}}, {"type": "Feature", "geometry": {"type": "Point", "coordinates": [-120.2793, 35.0514]}, "properties": {"NAME": "W6/SC-314", "TITLE": "1825", "REGION": "Southern Coastal Ranges", "ASSOCIATION": "USA - CA", "POINTS": "1", "BONUSPOINTS": "0"}}, {"type": "Feature", "geometry": {"type": "Point", "coordinates": [-119.5763, 34.0185]}, "properties": {"NAME": "W6/SC-315", "TITLE": "El Montaon", "REGION": "Southern Coastal Ranges", "ASSOCIATION": "USA - CA", "POINTS": "1", "BONUSPOINTS": "0"}}, {"type": "Feature", "geometry": {"type": "Point", "coordinates": [-120.1676, 34.8521]}, "properties": {"NAME": "W6/SC-316", "TITLE": "1822", "REGION": "Southern Coastal Ranges", "ASSOCIATION": "USA - CA", "POINTS": "1", "BONUSPOINTS": "0"}}, {"type": "Feature", "geometry": {"type": "Point", "coordinates": [-120.2905, 34.5748]}, "properties": {"NAME": "W6/SC-317", "TITLE": "Santa Rosa Hills", "REGION": "Southern Coastal Ranges", "ASSOCIATION": "USA - CA", "POINTS": "1", "BONUSPOINTS": "0"}}, {"type": "Feature", "geometry": {"type": "Point", "coordinates": [-118.9843, 34.1883]}, "properties": {"NAME": "W6/SC-318", "TITLE": "Conejo Mountain", "REGION": "Southern Coastal Ranges", "ASSOCIATION": "USA - CA", "POINTS": "1", "BONUSPOINTS": "0"}}, {"type": "Feature", "geometry": {"type": "Point", "coordinates": [-120.4367, 35.0605]}, "properties": {"NAME": "W6/SC-319", "TITLE": "Temettate Ridge", "REGION": "Southern Coastal Ranges", "ASSOCIATION": "USA - CA", "POINTS": "1", "BONUSPOINTS": "0"}}, {"type": "Feature", "geometry": {"type": "Point", "coordinates": [-120.4368, 35.0997]}, "properties": {"NAME": "W6/SC-320", "TITLE": "Loma Pelona", "REGION": "Southern Coastal Ranges", "ASSOCIATION": "USA - CA", "POINTS": "1", "BONUSPOINTS": "0"}}, {"type": "Feature", "geometry": {"type": "Point", "coordinates": [-118.9271, 34.3504]}, "properties": {"NAME": "W6/SC-321", "TITLE": "1768", "REGION": "Southern Coastal Ranges", "ASSOCIATION": "USA - CA", "POINTS": "1", "BONUSPOINTS": "0"}}, {"type": "Feature", "geometry": {"type": "Point", "coordinates": [-120.3747, 34.4945]}, "properties": {"NAME": "W6/SC-322", "TITLE": "1759", "REGION": "Southern Coastal Ranges", "ASSOCIATION": "USA - CA", "POINTS": "1", "BONUSPOINTS": "0"}}, {"type": "Feature", "geometry": {"type": "Point", "coordinates": [-117.1617, 33.2169]}, "properties": {"NAME": "W6/SC-323", "TITLE": "Merriam Mountains (HP)", "REGION": "Southern Coastal Ranges", "ASSOCIATION": "USA - CA", "POINTS": "1", "BONUSPOINTS": "0"}}, {"type": "Feature", "geometry": {"type": "Point", "coordinates": [-116.9064, 32.6002]}, "properties": {"NAME": "W6/SC-324", "TITLE": "1750", "REGION": "Southern Coastal Ranges", "ASSOCIATION": "USA - CA", "POINTS": "1", "BONUSPOINTS": "0"}}, {"type": "Feature", "geometry": {"type": "Point", "coordinates": [-120.8172, 35.2311]}, "properties": {"NAME": "W6/SC-325", "TITLE": "Devils Ridge Benchmark", "REGION": "Southern Coastal Ranges", "ASSOCIATION": "USA - CA", "POINTS": "1", "BONUSPOINTS": "0"}}, {"type": "Feature", "geometry": {"type": "Point", "coordinates": [-117.1553, 33.1089]}, "properties": {"NAME": "W6/SC-326", "TITLE": "Mount Whitney", "REGION": "Southern Coastal Ranges", "ASSOCIATION": "USA - CA", "POINTS": "1", "BONUSPOINTS": "0"}}, {"type": "Feature", "geometry": {"type": "Point", "coordinates": [-120.624, 35.2748]}, "properties": {"NAME": "W6/SC-327", "TITLE": "1715", "REGION": "Southern Coastal Ranges", "ASSOCIATION": "USA - CA", "POINTS": "1", "BONUSPOINTS": "0"}}, {"type": "Feature", "geometry": {"type": "Point", "coordinates": [-121.0865, 37.019]}, "properties": {"NAME": "W6/SC-328", "TITLE": "Basalt Hill", "REGION": "Southern Coastal Ranges", "ASSOCIATION": "USA - CA", "POINTS": "1", "BONUSPOINTS": "0"}}, {"type": "Feature", "geometry": {"type": "Point", "coordinates": [-118.3339, 33.3115]}, "properties": {"NAME": "W6/SC-329", "TITLE": "East Peak Benchmark", "REGION": "Southern Coastal Ranges", "ASSOCIATION": "USA - CA", "POINTS": "1", "BONUSPOINTS": "0"}}, {"type": "Feature", "geometry": {"type": "Point", "coordinates": [-120.467, 35.2291]}, "properties": {"NAME": "W6/SC-330", "TITLE": "1740", "REGION": "Southern Coastal Ranges", "ASSOCIATION": "USA - CA", "POINTS": "1", "BONUSPOINTS": "0"}}, {"type": "Feature", "geometry": {"type": "Point", "coordinates": [-117.1841, 33.2123]}, "properties": {"NAME": "W6/SC-331", "TITLE": "San Marcos Mountains (HP)", "REGION": "Southern Coastal Ranges", "ASSOCIATION": "USA - CA", "POINTS": "1", "BONUSPOINTS": "0"}}, {"type": "Feature", "geometry": {"type": "Point", "coordinates": [-120.6, 34.8946]}, "properties": {"NAME": "W6/SC-332", "TITLE": "Mount Lospe", "REGION": "Southern Coastal Ranges", "ASSOCIATION": "USA - CA", "POINTS": "1", "BONUSPOINTS": "0"}}, {"type": "Feature", "geometry": {"type": "Point", "coordinates": [-120.2566, 34.7985]}, "properties": {"NAME": "W6/SC-333", "TITLE": "Gato Ridge", "REGION": "Southern Coastal Ranges", "ASSOCIATION": "USA - CA", "POINTS": "1", "BONUSPOINTS": "0"}}, {"type": "Feature", "geometry": {"type": "Point", "coordinates": [-117.13, 33.1837]}, "properties": {"NAME": "W6/SC-334", "TITLE": "1602", "REGION": "Southern Coastal Ranges", "ASSOCIATION": "USA - CA", "POINTS": "1", "BONUSPOINTS": "0"}}, {"type": "Feature", "geometry": {"type": "Point", "coordinates": [-117.0319, 32.8128]}, "properties": {"NAME": "W6/SC-335", "TITLE": "Cowles Mountain", "REGION": "Southern Coastal Ranges", "ASSOCIATION": "USA - CA", "POINTS": "1", "BONUSPOINTS": "0"}}, {"type": "Feature", "geometry": {"type": "Point", "coordinates": [-120.1177, 33.9453]}, "properties": {"NAME": "W6/SC-336", "TITLE": "Santa Rosa Island", "REGION": "Southern Coastal Ranges", "ASSOCIATION": "USA - CA", "POINTS": "1", "BONUSPOINTS": "0"}}, {"type": "Feature", "geometry": {"type": "Point", "coordinates": [-119.0493, 34.1152]}, "properties": {"NAME": "W6/SC-337", "TITLE": "La Jolla Peak", "REGION": "Southern Coastal Ranges", "ASSOCIATION": "USA - CA", "POINTS": "1", "BONUSPOINTS": "0"}}, {"type": "Feature", "geometry": {"type": "Point", "coordinates": [-117.1164, 32.9817]}, "properties": {"NAME": "W6/SC-338", "TITLE": "Black Mountain", "REGION": "Southern Coastal Ranges", "ASSOCIATION": "USA - CA", "POINTS": "1", "BONUSPOINTS": "0"}}, {"type": "Feature", "geometry": {"type": "Point", "coordinates": [-120.6977, 35.3023]}, "properties": {"NAME": "W6/SC-339", "TITLE": "Bishop Peak", "REGION": "Southern Coastal Ranges", "ASSOCIATION": "USA - CA", "POINTS": "1", "BONUSPOINTS": "0"}}, {"type": "Feature", "geometry": {"type": "Point", "coordinates": [-120.3188, 34.9536]}, "properties": {"NAME": "W6/SC-340", "TITLE": "Fat Benchmark", "REGION": "Southern Coastal Ranges", "ASSOCIATION": "USA - CA", "POINTS": "1", "BONUSPOINTS": "0"}}, {"type": "Feature", "geometry": {"type": "Point", "coordinates": [-121.883, 36.3864]}, "properties": {"NAME": "W6/SC-341", "TITLE": "Cushing Mountain", "REGION": "Southern Coastal Ranges", "ASSOCIATION": "USA - CA", "POINTS": "1", "BONUSPOINTS": "0"}}, {"type": "Feature", "geometry": {"type": "Point", "coordinates": [-120.1769, 34.5847]}, "properties": {"NAME": "W6/SC-342", "TITLE": "1540", "REGION": "Southern Coastal Ranges", "ASSOCIATION": "USA - CA", "POINTS": "1", "BONUSPOINTS": "0"}}, {"type": "Feature", "geometry": {"type": "Point", "coordinates": [-119.8207, 33.9802]}, "properties": {"NAME": "W6/SC-343", "TITLE": "Sierra Blanca", "REGION": "Southern Coastal Ranges", "ASSOCIATION": "USA - CA", "POINTS": "1", "BONUSPOINTS": "0"}}, {"type": "Feature", "geometry": {"type": "Point", "coordinates": [-121.1425, 36.4075]}, "properties": {"NAME": "W6/SC-344", "TITLE": "1508", "REGION": "Southern Coastal Ranges", "ASSOCIATION": "USA - CA", "POINTS": "1", "BONUSPOINTS": "0"}}, {"type": "Feature", "geometry": {"type": "Point", "coordinates": [-118.3355, 33.7462]}, "properties": {"NAME": "W6/SC-345", "TITLE": "San Pedro Hill", "REGION": "Southern Coastal Ranges", "ASSOCIATION": "USA - CA", "POINTS": "1", "BONUSPOINTS": "0"}}, {"type": "Feature", "geometry": {"type": "Point", "coordinates": [-117.1347, 33.0527]}, "properties": {"NAME": "W6/SC-346", "TITLE": "1470", "REGION": "Southern Coastal Ranges", "ASSOCIATION": "USA - CA", "POINTS": "1", "BONUSPOINTS": "0"}}, {"type": "Feature", "geometry": {"type": "Point", "coordinates": [-118.7293, 34.1138]}, "properties": {"NAME": "W6/SC-347", "TITLE": "1470", "REGION": "Southern Coastal Ranges", "ASSOCIATION": "USA - CA", "POINTS": "1", "BONUSPOINTS": "0"}}, {"type": "Feature", "geometry": {"type": "Point", "coordinates": [-121.3359, 36.7225]}, "properties": {"NAME": "W6/SC-348", "TITLE": "1470", "REGION": "Southern Coastal Ranges", "ASSOCIATION": "USA - CA", "POINTS": "1", "BONUSPOINTS": "0"}}, {"type": "Feature", "geometry": {"type": "Point", "coordinates": [-121.3068, 36.755]}, "properties": {"NAME": "W6/SC-349", "TITLE": "North Swanson Bluff", "REGION": "Southern Coastal Ranges", "ASSOCIATION": "USA - CA", "POINTS": "1", "BONUSPOINTS": "0"}}, {"type": "Feature", "geometry": {"type": "Point", "coordinates": [-120.3188, 35.0323]}, "properties": {"NAME": "W6/SC-350", "TITLE": "1424", "REGION": "Southern Coastal Ranges", "ASSOCIATION": "USA - CA", "POINTS": "1", "BONUSPOINTS": "0"}}, {"type": "Feature", "geometry": {"type": "Point", "coordinates": [-120.7866, 35.344]}, "properties": {"NAME": "W6/SC-351", "TITLE": "Hollister Peak", "REGION": "Southern Coastal Ranges", "ASSOCIATION": "USA - CA", "POINTS": "1", "BONUSPOINTS": "0"}}, {"type": "Feature", "geometry": {"type": "Point", "coordinates": [-116.9834, 32.767]}, "properties": {"NAME": "W6/SC-352", "TITLE": "Mount Helix", "REGION": "Southern Coastal Ranges", "ASSOCIATION": "USA - CA", "POINTS": "1", "BONUSPOINTS": "0"}}, {"type": "Feature", "geometry": {"type": "Point", "coordinates": [-120.872, 35.2631]}, "properties": {"NAME": "W6/SC-353", "TITLE": "Valencia Peak", "REGION": "Southern Coastal Ranges", "ASSOCIATION": "USA - CA", "POINTS": "1", "BONUSPOINTS": "0"}}, {"type": "Feature", "geometry": {"type": "Point", "coordinates": [-118.9478, 34.199]}, "properties": {"NAME": "W6/SC-354", "TITLE": "1338", "REGION": "Southern Coastal Ranges", "ASSOCIATION": "USA - CA", "POINTS": "1", "BONUSPOINTS": "0"}}, {"type": "Feature", "geometry": {"type": "Point", "coordinates": [-120.3154, 34.635]}, "properties": {"NAME": "W6/SC-355", "TITLE": "Santa Rita Hills", "REGION": "Southern Coastal Ranges", "ASSOCIATION": "USA - CA", "POINTS": "1", "BONUSPOINTS": "0"}}, {"type": "Feature", "geometry": {"type": "Point", "coordinates": [-120.7268, 35.3141]}, "properties": {"NAME": "W6/SC-356", "TITLE": "Cerro Romualdo", "REGION": "Southern Coastal Ranges", "ASSOCIATION": "USA - CA", "POINTS": "1", "BONUSPOINTS": "0"}}, {"type": "Feature", "geometry": {"type": "Point", "coordinates": [-120.6805, 35.2828]}, "properties": {"NAME": "W6/SC-357", "TITLE": "Cerro San Luis Obispo", "REGION": "Southern Coastal Ranges", "ASSOCIATION": "USA - CA", "POINTS": "1", "BONUSPOINTS": "0"}}, {"type": "Feature", "geometry": {"type": "Point", "coordinates": [-121.7994, 36.254]}, "properties": {"NAME": "W6/SC-358", "TITLE": "Pfeiffer Ridge", "REGION": "Southern Coastal Ranges", "ASSOCIATION": "USA - CA", "POINTS": "1", "BONUSPOINTS": "0"}}, {"type": "Feature", "geometry": {"type": "Point", "coordinates": [-116.9422, 32.8288]}, "properties": {"NAME": "W6/SC-359", "TITLE": "1198", "REGION": "Southern Coastal Ranges", "ASSOCIATION": "USA - CA", "POINTS": "1", "BONUSPOINTS": "0"}}, {"type": "Feature", "geometry": {"type": "Point", "coordinates": [-117.1775, 33.0694]}, "properties": {"NAME": "W6/SC-360", "TITLE": "1192", "REGION": "Southern Coastal Ranges", "ASSOCIATION": "USA - CA", "POINTS": "1", "BONUSPOINTS": "0"}}, {"type": "Feature", "geometry": {"type": "Point", "coordinates": [-121.5219, 36.9058]}, "properties": {"NAME": "W6/SC-361", "TITLE": "Sargent Benchmark", "REGION": "Southern Coastal Ranges", "ASSOCIATION": "USA - CA", "POINTS": "1", "BONUSPOINTS": "0"}}, {"type": "Feature", "geometry": {"type": "Point", "coordinates": [-117.8118, 33.606]}, "properties": {"NAME": "W6/SC-362", "TITLE": "Signal Peak", "REGION": "Southern Coastal Ranges", "ASSOCIATION": "USA - CA", "POINTS": "1", "BONUSPOINTS": "0"}}, {"type": "Feature", "geometry": {"type": "Point", "coordinates": [-120.9852, 36.9606]}, "properties": {"NAME": "W6/SC-363", "TITLE": "Sharp Benchmark", "REGION": "Southern Coastal Ranges", "ASSOCIATION": "USA - CA", "POINTS": "1", "BONUSPOINTS": "0"}}, {"type": "Feature", "geometry": {"type": "Point", "coordinates": [-117.4061, 33.3187]}, "properties": {"NAME": "W6/SC-364", "TITLE": "1110", "REGION": "Southern Coastal Ranges", "ASSOCIATION": "USA - CA", "POINTS": "1", "BONUSPOINTS": "0"}}, {"type": "Feature", "geometry": {"type": "Point", "coordinates": [-117.127, 33.0369]}, "properties": {"NAME": "W6/SC-365", "TITLE": "1109", "REGION": "Southern Coastal Ranges", "ASSOCIATION": "USA - CA", "POINTS": "1", "BONUSPOINTS": "0"}}, {"type": "Feature", "geometry": {"type": "Point", "coordinates": [-116.9933, 32.7256]}, "properties": {"NAME": "W6/SC-366", "TITLE": "Dictionary Hill", "REGION": "Southern Coastal Ranges", "ASSOCIATION": "USA - CA", "POINTS": "1", "BONUSPOINTS": "0"}}, {"type": "Feature", "geometry": {"type": "Point", "coordinates": [-120.4988, 34.8416]}, "properties": {"NAME": "W6/SC-367", "TITLE": "1060", "REGION": "Southern Coastal Ranges", "ASSOCIATION": "USA - CA", "POINTS": "1", "BONUSPOINTS": "0"}}, {"type": "Feature", "geometry": {"type": "Point", "coordinates": [-117.214, 33.0874]}, "properties": {"NAME": "W6/SC-368", "TITLE": "Denk Mountain", "REGION": "Southern Coastal Ranges", "ASSOCIATION": "USA - CA", "POINTS": "1", "BONUSPOINTS": "0"}}, {"type": "Feature", "geometry": {"type": "Point", "coordinates": [-117.7583, 33.5552]}, "properties": {"NAME": "W6/SC-369", "TITLE": "Temple Hill", "REGION": "Southern Coastal Ranges", "ASSOCIATION": "USA - CA", "POINTS": "1", "BONUSPOINTS": "0"}}, {"type": "Feature", "geometry": {"type": "Point", "coordinates": [-120.6582, 35.1618]}, "properties": {"NAME": "W6/SC-370", "TITLE": "989", "REGION": "Southern Coastal Ranges", "ASSOCIATION": "USA - CA", "POINTS": "1", "BONUSPOINTS": "0"}}, {"type": "Feature", "geometry": {"type": "Point", "coordinates": [-117.7339, 33.5128]}, "properties": {"NAME": "W6/SC-371", "TITLE": "Niguel Hill", "REGION": "Southern Coastal Ranges", "ASSOCIATION": "USA - CA", "POINTS": "1", "BONUSPOINTS": "0"}}, {"type": "Feature", "geometry": {"type": "Point", "coordinates": [-119.4277, 34.0109]}, "properties": {"NAME": "W6/SC-372", "TITLE": "Anacapa Island", "REGION": "Southern Coastal Ranges", "ASSOCIATION": "USA - CA", "POINTS": "1", "BONUSPOINTS": "0"}}, {"type": "Feature", "geometry": {"type": "Point", "coordinates": [-120.815, 35.352]}, "properties": {"NAME": "W6/SC-373", "TITLE": "Cerro Cabrillo", "REGION": "Southern Coastal Ranges", "ASSOCIATION": "USA - CA", "POINTS": "1", "BONUSPOINTS": "0"}}, {"type": "Feature", "geometry": {"type": "Point", "coordinates": [-119.5053, 33.2396]}, "properties": {"NAME": "W6/SC-374", "TITLE": "San Nicholas Island", "REGION": "Southern Coastal Ranges", "ASSOCIATION": "USA - CA", "POINTS": "1", "BONUSPOINTS": "0"}}, {"type": "Feature", "geometry": {"type": "Point", "coordinates": [-119.0341, 34.2545]}, "properties": {"NAME": "W6/SC-375", "TITLE": "Camarillo Hills", "REGION": "Southern Coastal Ranges", "ASSOCIATION": "USA - CA", "POINTS": "1", "BONUSPOINTS": "0"}}, {"type": "Feature", "geometry": {"type": "Point", "coordinates": [-120.3644, 34.033]}, "properties": {"NAME": "W6/SC-376", "TITLE": "San Miguel Island", "REGION": "Southern Coastal Ranges", "ASSOCIATION": "USA - CA", "POINTS": "1", "BONUSPOINTS": "0"}}, {"type": "Feature", "geometry": {"type": "Point", "coordinates": [-120.7132, 35.1795]}, "properties": {"NAME": "W6/SC-377", "TITLE": "Valley View Benchmark", "REGION": "Southern Coastal Ranges", "ASSOCIATION": "USA - CA", "POINTS": "1", "BONUSPOINTS": "0"}}, {"type": "Feature", "geometry": {"type": "Point", "coordinates": [-120.8314, 35.3585]}, "properties": {"NAME": "W6/SC-378", "TITLE": "Black Hill", "REGION": "Southern Coastal Ranges", "ASSOCIATION": "USA - CA", "POINTS": "1", "BONUSPOINTS": "0"}}, {"type": "Feature", "geometry": {"type": "Point", "coordinates": [-119.0412, 33.472]}, "properties": {"NAME": "W6/SC-379", "TITLE": "Signal Peak", "REGION": "Southern Coastal Ranges", "ASSOCIATION": "USA - CA", "POINTS": "1", "BONUSPOINTS": "0"}}, {"type": "Feature", "geometry": {"type": "Point", "coordinates": [-120.8673, 35.3694]}, "properties": {"NAME": "W6/SC-380", "TITLE": "Morro Rock", "REGION": "Southern Coastal Ranges", "ASSOCIATION": "USA - CA", "POINTS": "1", "BONUSPOINTS": "0"}}, {"type": "Feature", "geometry": {"type": "Point", "coordinates": [-119.0566, 34.1625]}, "properties": {"NAME": "W6/SC-381", "TITLE": "Round Mountain", "REGION": "Southern Coastal Ranges", "ASSOCIATION": "USA - CA", "POINTS": "1", "BONUSPOINTS": "0"}}, {"type": "Feature", "geometry": {"type": "Point", "coordinates": [-119.4477, 34.5688]}, "properties": {"NAME": "W6/SC-382", "TITLE": "Matilija Wilderness HP", "REGION": "Southern Coastal Ranges", "ASSOCIATION": "USA - CA", "POINTS": "6", "BONUSPOINTS": "0"}}, {"type": "Feature", "geometry": {"type": "Point", "coordinates": [-119.7234, 34.7128]}, "properties": {"NAME": "W6/SC-383", "TITLE": "5860", "REGION": "Southern Coastal Ranges", "ASSOCIATION": "USA - CA", "POINTS": "6", "BONUSPOINTS": "0"}}, {"type": "Feature", "geometry": {"type": "Point", "coordinates": [-119.371, 34.5765]}, "properties": {"NAME": "W6/SC-384", "TITLE": "5780", "REGION": "Southern Coastal Ranges", "ASSOCIATION": "USA - CA", "POINTS": "6", "BONUSPOINTS": "0"}}, {"type": "Feature", "geometry": {"type": "Point", "coordinates": [-116.8453, 33.3087]}, "properties": {"NAME": "W6/SC-385", "TITLE": "Birch Hill", "REGION": "Southern Coastal Ranges", "ASSOCIATION": "USA - CA", "POINTS": "6", "BONUSPOINTS": "0"}}, {"type": "Feature", "geometry": {"type": "Point", "coordinates": [-119.8118, 34.6692]}, "properties": {"NAME": "W6/SC-386", "TITLE": "Santa Cruz Peak", "REGION": "Southern Coastal Ranges", "ASSOCIATION": "USA - CA", "POINTS": "6", "BONUSPOINTS": "0"}}, {"type": "Feature", "geometry": {"type": "Point", "coordinates": [-120.6182, 36.3171]}, "properties": {"NAME": "W6/SC-387", "TITLE": "Condon Peak", "REGION": "Southern Coastal Ranges", "ASSOCIATION": "USA - CA", "POINTS": "4", "BONUSPOINTS": "0"}}, {"type": "Feature", "geometry": {"type": "Point", "coordinates": [-118.9036, 34.5987]}, "properties": {"NAME": "W6/SC-388", "TITLE": "4900", "REGION": "Southern Coastal Ranges", "ASSOCIATION": "USA - CA", "POINTS": "4", "BONUSPOINTS": "0"}}, {"type": "Feature", "geometry": {"type": "Point", "coordinates": [-121.5318, 36.1047]}, "properties": {"NAME": "W6/SC-389", "TITLE": "4820", "REGION": "Southern Coastal Ranges", "ASSOCIATION": "USA - CA", "POINTS": "4", "BONUSPOINTS": "0"}}, {"type": "Feature", "geometry": {"type": "Point", "coordinates": [-121.6784, 36.2843]}, "properties": {"NAME": "W6/SC-390", "TITLE": "Ventana Cone", "REGION": "Southern Coastal Ranges", "ASSOCIATION": "USA - CA", "POINTS": "4", "BONUSPOINTS": "0"}}, {"type": "Feature", "geometry": {"type": "Point", "coordinates": [-116.5137, 32.7626]}, "properties": {"NAME": "W6/SC-391", "TITLE": "Buckman Benchmark", "REGION": "Southern Coastal Ranges", "ASSOCIATION": "USA - CA", "POINTS": "4", "BONUSPOINTS": "0"}}, {"type": "Feature", "geometry": {"type": "Point", "coordinates": [-119.399, 34.7684]}, "properties": {"NAME": "W6/SC-392", "TITLE": "4580", "REGION": "Southern Coastal Ranges", "ASSOCIATION": "USA - CA", "POINTS": "4", "BONUSPOINTS": "0"}}, {"type": "Feature", "geometry": {"type": "Point", "coordinates": [-119.0565, 34.5504]}, "properties": {"NAME": "W6/SC-393", "TITLE": "4211", "REGION": "Southern Coastal Ranges", "ASSOCIATION": "USA - CA", "POINTS": "4", "BONUSPOINTS": "0"}}, {"type": "Feature", "geometry": {"type": "Point", "coordinates": [-119.7168, 35.0295]}, "properties": {"NAME": "W6/SC-394", "TITLE": "4175", "REGION": "Southern Coastal Ranges", "ASSOCIATION": "USA - CA", "POINTS": "4", "BONUSPOINTS": "0"}}, {"type": "Feature", "geometry": {"type": "Point", "coordinates": [-121.6897, 36.3496]}, "properties": {"NAME": "W6/SC-395", "TITLE": "Elephant Mountain", "REGION": "Southern Coastal Ranges", "ASSOCIATION": "USA - CA", "POINTS": "4", "BONUSPOINTS": "0"}}, {"type": "Feature", "geometry": {"type": "Point", "coordinates": [-120.5601, 36.3655]}, "properties": {"NAME": "W6/SC-396", "TITLE": "3970", "REGION": "Southern Coastal Ranges", "ASSOCIATION": "USA - CA", "POINTS": "2", "BONUSPOINTS": "0"}}, {"type": "Feature", "geometry": {"type": "Point", "coordinates": [-116.6752, 32.869]}, "properties": {"NAME": "W6/SC-397", "TITLE": "Poser Mountain", "REGION": "Southern Coastal Ranges", "ASSOCIATION": "USA - CA", "POINTS": "2", "BONUSPOINTS": "0"}}, {"type": "Feature", "geometry": {"type": "Point", "coordinates": [-120.8691, 36.3266]}, "properties": {"NAME": "W6/SC-398", "TITLE": "Vasquez Rock", "REGION": "Southern Coastal Ranges", "ASSOCIATION": "USA - CA", "POINTS": "2", "BONUSPOINTS": "0"}}, {"type": "Feature", "geometry": {"type": "Point", "coordinates": [-120.0198, 34.9568]}, "properties": {"NAME": "W6/SC-399", "TITLE": "3730", "REGION": "Southern Coastal Ranges", "ASSOCIATION": "USA - CA", "POINTS": "2", "BONUSPOINTS": "0"}}, {"type": "Feature", "geometry": {"type": "Point", "coordinates": [-121.3845, 35.9807]}, "properties": {"NAME": "W6/SC-400", "TITLE": "3693", "REGION": "Southern Coastal Ranges", "ASSOCIATION": "USA - CA", "POINTS": "2", "BONUSPOINTS": "0"}}, {"type": "Feature", "geometry": {"type": "Point", "coordinates": [-119.9215, 34.7519]}, "properties": {"NAME": "W6/SC-401", "TITLE": "3685", "REGION": "Southern Coastal Ranges", "ASSOCIATION": "USA - CA", "POINTS": "2", "BONUSPOINTS": "0"}}, {"type": "Feature", "geometry": {"type": "Point", "coordinates": [-121.3661, 36.1905]}, "properties": {"NAME": "W6/SC-402", "TITLE": "3563", "REGION": "Southern Coastal Ranges", "ASSOCIATION": "USA - CA", "POINTS": "2", "BONUSPOINTS": "0"}}, {"type": "Feature", "geometry": {"type": "Point", "coordinates": [-121.0557, 36.7526]}, "properties": {"NAME": "W6/SC-403", "TITLE": "3540", "REGION": "Southern Coastal Ranges", "ASSOCIATION": "USA - CA", "POINTS": "2", "BONUSPOINTS": "0"}}, {"type": "Feature", "geometry": {"type": "Point", "coordinates": [-120.6536, 36.1059]}, "properties": {"NAME": "W6/SC-404", "TITLE": "3482", "REGION": "Southern Coastal Ranges", "ASSOCIATION": "USA - CA", "POINTS": "2", "BONUSPOINTS": "0"}}, {"type": "Feature", "geometry": {"type": "Point", "coordinates": [-117.4902, 33.6293]}, "properties": {"NAME": "W6/SC-405", "TITLE": "Sugarloaf", "REGION": "Southern Coastal Ranges", "ASSOCIATION": "USA - CA", "POINTS": "2", "BONUSPOINTS": "0"}}, {"type": "Feature", "geometry": {"type": "Point", "coordinates": [-121.5611, 36.2485]}, "properties": {"NAME": "W6/SC-406", "TITLE": "3300", "REGION": "Southern Coastal Ranges", "ASSOCIATION": "USA - CA", "POINTS": "2", "BONUSPOINTS": "0"}}, {"type": "Feature", "geometry": {"type": "Point", "coordinates": [-121.7244, 36.265]}, "properties": {"NAME": "W6/SC-407", "TITLE": "Island Mountain", "REGION": "Southern Coastal Ranges", "ASSOCIATION": "USA - CA", "POINTS": "2", "BONUSPOINTS": "0"}}, {"type": "Feature", "geometry": {"type": "Point", "coordinates": [-121.3678, 36.3024]}, "properties": {"NAME": "W6/SC-408", "TITLE": "Paraiso Benchmark", "REGION": "Southern Coastal Ranges", "ASSOCIATION": "USA - CA", "POINTS": "2", "BONUSPOINTS": "0"}}, {"type": "Feature", "geometry": {"type": "Point", "coordinates": [-116.6395, 32.6699]}, "properties": {"NAME": "W6/SC-409", "TITLE": "3060", "REGION": "Southern Coastal Ranges", "ASSOCIATION": "USA - CA", "POINTS": "2", "BONUSPOINTS": "0"}}, {"type": "Feature", "geometry": {"type": "Point", "coordinates": [-120.3142, 35.3845]}, "properties": {"NAME": "W6/SC-410", "TITLE": "3050", "REGION": "Southern Coastal Ranges", "ASSOCIATION": "USA - CA", "POINTS": "2", "BONUSPOINTS": "0"}}, {"type": "Feature", "geometry": {"type": "Point", "coordinates": [-120.7393, 36.5334]}, "properties": {"NAME": "W6/SC-411", "TITLE": "2977", "REGION": "Southern Coastal Ranges", "ASSOCIATION": "USA - CA", "POINTS": "2", "BONUSPOINTS": "0"}}, {"type": "Feature", "geometry": {"type": "Point", "coordinates": [-120.5212, 35.9681]}, "properties": {"NAME": "W6/SC-412", "TITLE": "Middle Mountain", "REGION": "Southern Coastal Ranges", "ASSOCIATION": "USA - CA", "POINTS": "2", "BONUSPOINTS": "0"}}, {"type": "Feature", "geometry": {"type": "Point", "coordinates": [-119.6527, 34.5124]}, "properties": {"NAME": "W6/SC-413", "TITLE": "2942", "REGION": "Southern Coastal Ranges", "ASSOCIATION": "USA - CA", "POINTS": "2", "BONUSPOINTS": "0"}}, {"type": "Feature", "geometry": {"type": "Point", "coordinates": [-121.1433, 36.6925]}, "properties": {"NAME": "W6/SC-414", "TITLE": "Cherry Peak", "REGION": "Southern Coastal Ranges", "ASSOCIATION": "USA - CA", "POINTS": "2", "BONUSPOINTS": "0"}}, {"type": "Feature", "geometry": {"type": "Point", "coordinates": [-121.1547, 36.5933]}, "properties": {"NAME": "W6/SC-415", "TITLE": "2847", "REGION": "Southern Coastal Ranges", "ASSOCIATION": "USA - CA", "POINTS": "2", "BONUSPOINTS": "0"}}, {"type": "Feature", "geometry": {"type": "Point", "coordinates": [-121.7061, 36.3793]}, "properties": {"NAME": "W6/SC-416", "TITLE": "Blue Rock Ridge", "REGION": "Southern Coastal Ranges", "ASSOCIATION": "USA - CA", "POINTS": "2", "BONUSPOINTS": "0"}}, {"type": "Feature", "geometry": {"type": "Point", "coordinates": [-121.2215, 36.5521]}, "properties": {"NAME": "W6/SC-417", "TITLE": "Harris Benchmark", "REGION": "Southern Coastal Ranges", "ASSOCIATION": "USA - CA", "POINTS": "2", "BONUSPOINTS": "0"}}, {"type": "Feature", "geometry": {"type": "Point", "coordinates": [-121.1209, 35.7817]}, "properties": {"NAME": "W6/SC-418", "TITLE": "2730", "REGION": "Southern Coastal Ranges", "ASSOCIATION": "USA - CA", "POINTS": "2", "BONUSPOINTS": "0"}}, {"type": "Feature", "geometry": {"type": "Point", "coordinates": [-121.2658, 35.8582]}, "properties": {"NAME": "W6/SC-419", "TITLE": "2626", "REGION": "Southern Coastal Ranges", "ASSOCIATION": "USA - CA", "POINTS": "2", "BONUSPOINTS": "0"}}, {"type": "Feature", "geometry": {"type": "Point", "coordinates": [-117.4084, 33.4787]}, "properties": {"NAME": "W6/SC-420", "TITLE": "2588", "REGION": "Southern Coastal Ranges", "ASSOCIATION": "USA - CA", "POINTS": "2", "BONUSPOINTS": "0"}}, {"type": "Feature", "geometry": {"type": "Point", "coordinates": [-120.2545, 35.6006]}, "properties": {"NAME": "W6/SC-421", "TITLE": "Red Hills", "REGION": "Southern Coastal Ranges", "ASSOCIATION": "USA - CA", "POINTS": "2", "BONUSPOINTS": "0"}}, {"type": "Feature", "geometry": {"type": "Point", "coordinates": [-120.2241, 35.9182]}, "properties": {"NAME": "W6/SC-422", "TITLE": "2540", "REGION": "Southern Coastal Ranges", "ASSOCIATION": "USA - CA", "POINTS": "2", "BONUSPOINTS": "0"}}, {"type": "Feature", "geometry": {"type": "Point", "coordinates": [-121.2473, 36.5068]}, "properties": {"NAME": "W6/SC-423", "TITLE": "2540", "REGION": "Southern Coastal Ranges", "ASSOCIATION": "USA - CA", "POINTS": "2", "BONUSPOINTS": "0"}}, {"type": "Feature", "geometry": {"type": "Point", "coordinates": [-120.1957, 35.6486]}, "properties": {"NAME": "W6/SC-424", "TITLE": "2530", "REGION": "Southern Coastal Ranges", "ASSOCIATION": "USA - CA", "POINTS": "2", "BONUSPOINTS": "0"}}, {"type": "Feature", "geometry": {"type": "Point", "coordinates": [-120.1213, 35.1242]}, "properties": {"NAME": "W6/SC-425", "TITLE": "Brown Mountain", "REGION": "Southern Coastal Ranges", "ASSOCIATION": "USA - CA", "POINTS": "2", "BONUSPOINTS": "0"}}, {"type": "Feature", "geometry": {"type": "Point", "coordinates": [-120.5364, 36.4292]}, "properties": {"NAME": "W6/SC-426", "TITLE": "2460", "REGION": "Southern Coastal Ranges", "ASSOCIATION": "USA - CA", "POINTS": "1", "BONUSPOINTS": "0"}}, {"type": "Feature", "geometry": {"type": "Point", "coordinates": [-120.284, 34.9684]}, "properties": {"NAME": "W6/SC-427", "TITLE": "2421", "REGION": "Southern Coastal Ranges", "ASSOCIATION": "USA - CA", "POINTS": "1", "BONUSPOINTS": "0"}}, {"type": "Feature", "geometry": {"type": "Point", "coordinates": [-118.8501, 34.3579]}, "properties": {"NAME": "W6/SC-428", "TITLE": "2307", "REGION": "Southern Coastal Ranges", "ASSOCIATION": "USA - CA", "POINTS": "1", "BONUSPOINTS": "0"}}, {"type": "Feature", "geometry": {"type": "Point", "coordinates": [-121.3108, 36.0082]}, "properties": {"NAME": "W6/SC-429", "TITLE": "2303", "REGION": "Southern Coastal Ranges", "ASSOCIATION": "USA - CA", "POINTS": "1", "BONUSPOINTS": "0"}}, {"type": "Feature", "geometry": {"type": "Point", "coordinates": [-121.6476, 36.4192]}, "properties": {"NAME": "W6/SC-430", "TITLE": "Tularcitos Ridge", "REGION": "Southern Coastal Ranges", "ASSOCIATION": "USA - CA", "POINTS": "1", "BONUSPOINTS": "0"}}, {"type": "Feature", "geometry": {"type": "Point", "coordinates": [-120.6546, 35.4085]}, "properties": {"NAME": "W6/SC-431", "TITLE": "Hale Benchmark", "REGION": "Southern Coastal Ranges", "ASSOCIATION": "USA - CA", "POINTS": "1", "BONUSPOINTS": "0"}}, {"type": "Feature", "geometry": {"type": "Point", "coordinates": [-117.1026, 33.4111]}, "properties": {"NAME": "W6/SC-432", "TITLE": "Mount Olympus", "REGION": "Southern Coastal Ranges", "ASSOCIATION": "USA - CA", "POINTS": "1", "BONUSPOINTS": "0"}}, {"type": "Feature", "geometry": {"type": "Point", "coordinates": [-120.0117, 34.8249]}, "properties": {"NAME": "W6/SC-433", "TITLE": "2218", "REGION": "Southern Coastal Ranges", "ASSOCIATION": "USA - CA", "POINTS": "1", "BONUSPOINTS": "0"}}, {"type": "Feature", "geometry": {"type": "Point", "coordinates": [-119.8636, 34.6103]}, "properties": {"NAME": "W6/SC-434", "TITLE": "2132", "REGION": "Southern Coastal Ranges", "ASSOCIATION": "USA - CA", "POINTS": "1", "BONUSPOINTS": "0"}}, {"type": "Feature", "geometry": {"type": "Point", "coordinates": [-120.2015, 34.8721]}, "properties": {"NAME": "W6/SC-435", "TITLE": "2040", "REGION": "Southern Coastal Ranges", "ASSOCIATION": "USA - CA", "POINTS": "1", "BONUSPOINTS": "0"}}, {"type": "Feature", "geometry": {"type": "Point", "coordinates": [-116.9895, 33.2749]}, "properties": {"NAME": "W6/SC-436", "TITLE": "2038", "REGION": "Southern Coastal Ranges", "ASSOCIATION": "USA - CA", "POINTS": "1", "BONUSPOINTS": "0"}}, {"type": "Feature", "geometry": {"type": "Point", "coordinates": [-121.0777, 35.7338]}, "properties": {"NAME": "W6/SC-437", "TITLE": "2020", "REGION": "Southern Coastal Ranges", "ASSOCIATION": "USA - CA", "POINTS": "1", "BONUSPOINTS": "0"}}, {"type": "Feature", "geometry": {"type": "Point", "coordinates": [-120.8448, 35.5684]}, "properties": {"NAME": "W6/SC-438", "TITLE": "1974", "REGION": "Southern Coastal Ranges", "ASSOCIATION": "USA - CA", "POINTS": "1", "BONUSPOINTS": "0"}}, {"type": "Feature", "geometry": {"type": "Point", "coordinates": [-121.2248, 36.1703]}, "properties": {"NAME": "W6/SC-439", "TITLE": "1965", "REGION": "Southern Coastal Ranges", "ASSOCIATION": "USA - CA", "POINTS": "1", "BONUSPOINTS": "0"}}, {"type": "Feature", "geometry": {"type": "Point", "coordinates": [-116.8845, 33.1033]}, "properties": {"NAME": "W6/SC-440", "TITLE": "Orosco Ridge", "REGION": "Southern Coastal Ranges", "ASSOCIATION": "USA - CA", "POINTS": "1", "BONUSPOINTS": "0"}}, {"type": "Feature", "geometry": {"type": "Point", "coordinates": [-121.2345, 35.9507]}, "properties": {"NAME": "W6/SC-441", "TITLE": "1890", "REGION": "Southern Coastal Ranges", "ASSOCIATION": "USA - CA", "POINTS": "1", "BONUSPOINTS": "0"}}, {"type": "Feature", "geometry": {"type": "Point", "coordinates": [-120.7758, 35.2169]}, "properties": {"NAME": "W6/SC-442", "TITLE": "1820", "REGION": "Southern Coastal Ranges", "ASSOCIATION": "USA - CA", "POINTS": "1", "BONUSPOINTS": "0"}}, {"type": "Feature", "geometry": {"type": "Point", "coordinates": [-121.2792, 36.0241]}, "properties": {"NAME": "W6/SC-443", "TITLE": "1815", "REGION": "Southern Coastal Ranges", "ASSOCIATION": "USA - CA", "POINTS": "1", "BONUSPOINTS": "0"}}, {"type": "Feature", "geometry": {"type": "Point", "coordinates": [-120.4676, 35.2309]}, "properties": {"NAME": "W6/SC-444", "TITLE": "1740", "REGION": "Southern Coastal Ranges", "ASSOCIATION": "USA - CA", "POINTS": "1", "BONUSPOINTS": "0"}}, {"type": "Feature", "geometry": {"type": "Point", "coordinates": [-117.1176, 33.3692]}, "properties": {"NAME": "W6/SC-445", "TITLE": "1715", "REGION": "Southern Coastal Ranges", "ASSOCIATION": "USA - CA", "POINTS": "1", "BONUSPOINTS": "0"}}, {"type": "Feature", "geometry": {"type": "Point", "coordinates": [-120.8067, 35.7048]}, "properties": {"NAME": "W6/SC-446", "TITLE": "1708", "REGION": "Southern Coastal Ranges", "ASSOCIATION": "USA - CA", "POINTS": "1", "BONUSPOINTS": "0"}}, {"type": "Feature", "geometry": {"type": "Point", "coordinates": [-120.8119, 35.249]}, "properties": {"NAME": "W6/SC-447", "TITLE": "Coon Peak", "REGION": "Southern Coastal Ranges", "ASSOCIATION": "USA - CA", "POINTS": "1", "BONUSPOINTS": "0"}}, {"type": "Feature", "geometry": {"type": "Point", "coordinates": [-120.3038, 35.0902]}, "properties": {"NAME": "W6/SC-448", "TITLE": "1700", "REGION": "Southern Coastal Ranges", "ASSOCIATION": "USA - CA", "POINTS": "1", "BONUSPOINTS": "0"}}, {"type": "Feature", "geometry": {"type": "Point", "coordinates": [-121.1648, 36.1238]}, "properties": {"NAME": "W6/SC-449", "TITLE": "1654", "REGION": "Southern Coastal Ranges", "ASSOCIATION": "USA - CA", "POINTS": "1", "BONUSPOINTS": "0"}}, {"type": "Feature", "geometry": {"type": "Point", "coordinates": [-121.1622, 35.8384]}, "properties": {"NAME": "W6/SC-450", "TITLE": "1530", "REGION": "Southern Coastal Ranges", "ASSOCIATION": "USA - CA", "POINTS": "1", "BONUSPOINTS": "0"}}, {"type": "Feature", "geometry": {"type": "Point", "coordinates": [-121.4792, 36.2328]}, "properties": {"NAME": "W6/SC-451", "TITLE": "1390", "REGION": "Southern Coastal Ranges", "ASSOCIATION": "USA - CA", "POINTS": "1", "BONUSPOINTS": "0"}}, {"type": "Feature", "geometry": {"type": "Point", "coordinates": [-119.0063, 34.1731]}, "properties": {"NAME": "W6/SC-452", "TITLE": "1370", "REGION": "Southern Coastal Ranges", "ASSOCIATION": "USA - CA", "POINTS": "1", "BONUSPOINTS": "0"}}, {"type": "Feature", "geometry": {"type": "Point", "coordinates": [-117.0436, 32.9875]}, "properties": {"NAME": "W6/SC-453", "TITLE": "Twin Peaks", "REGION": "Southern Coastal Ranges", "ASSOCIATION": "USA - CA", "POINTS": "1", "BONUSPOINTS": "0"}}, {"type": "Feature", "geometry": {"type": "Point", "coordinates": [-117.1713, 33.1687]}, "properties": {"NAME": "W6/SC-454", "TITLE": "1302", "REGION": "Southern Coastal Ranges", "ASSOCIATION": "USA - CA", "POINTS": "1", "BONUSPOINTS": "0"}}, {"type": "Feature", "geometry": {"type": "Point", "coordinates": [-120.7816, 35.4034]}, "properties": {"NAME": "W6/SC-455", "TITLE": "1193", "REGION": "Southern Coastal Ranges", "ASSOCIATION": "USA - CA", "POINTS": "1", "BONUSPOINTS": "0"}}, {"type": "Feature", "geometry": {"type": "Point", "coordinates": [-117.0996, 33.0279]}, "properties": {"NAME": "W6/SC-456", "TITLE": "1190", "REGION": "Southern Coastal Ranges", "ASSOCIATION": "USA - CA", "POINTS": "1", "BONUSPOINTS": "0"}}, {"type": "Feature", "geometry": {"type": "Point", "coordinates": [-117.602, 33.5026]}, "properties": {"NAME": "W6/SC-457", "TITLE": "1130", "REGION": "Southern Coastal Ranges", "ASSOCIATION": "USA - CA", "POINTS": "1", "BONUSPOINTS": "0"}}, {"type": "Feature", "geometry": {"type": "Point", "coordinates": [-121.8769, 36.5634]}, "properties": {"NAME": "W6/SC-458", "TITLE": "Loma Alta", "REGION": "Southern Coastal Ranges", "ASSOCIATION": "USA - CA", "POINTS": "1", "BONUSPOINTS": "0"}}, {"type": "Feature", "geometry": {"type": "Point", "coordinates": [-121.5951, 36.7687]}, "properties": {"NAME": "W6/SC-459", "TITLE": "Sugarloaf Peak", "REGION": "Southern Coastal Ranges", "ASSOCIATION": "USA - CA", "POINTS": "1", "BONUSPOINTS": "0"}}, {"type": "Feature", "geometry": {"type": "Point", "coordinates": [-117.5895, 33.4376]}, "properties": {"NAME": "W6/SC-460", "TITLE": "906", "REGION": "Southern Coastal Ranges", "ASSOCIATION": "USA - CA", "POINTS": "1", "BONUSPOINTS": "0"}}, {"type": "Feature", "geometry": {"type": "Point", "coordinates": [-116.6512, 32.8478]}, "properties": {"NAME": "W6/SC-461", "TITLE": "Chiquito Peak", "REGION": "Southern Coastal Ranges", "ASSOCIATION": "USA - CA", "POINTS": "4", "BONUSPOINTS": "0"}}]}