{"type": "FeatureCollection", "name": "W6/SD SUMMITS", "features": [{"type": "Feature", "geometry": {"type": "Point", "coordinates": [-115.3112, 35.2588]}, "properties": {"NAME": "W6/SD-001", "TITLE": "New York Two Benchmark", "REGION": "Southern Desert", "ASSOCIATION": "USA - CA", "POINTS": "8", "BONUSPOINTS": "3"}}, {"type": "Feature", "geometry": {"type": "Point", "coordinates": [-115.5376, 34.9784]}, "properties": {"NAME": "W6/SD-002", "TITLE": "Mitchell Benchmark", "REGION": "Southern Desert", "ASSOCIATION": "USA - CA", "POINTS": "6", "BONUSPOINTS": "3"}}, {"type": "Feature", "geometry": {"type": "Point", "coordinates": [-115.6953, 34.7936]}, "properties": {"NAME": "W6/SD-003", "TITLE": "Granite Peak", "REGION": "Southern Desert", "ASSOCIATION": "USA - CA", "POINTS": "6", "BONUSPOINTS": "3"}}, {"type": "Feature", "geometry": {"type": "Point", "coordinates": [-115.5528, 34.9598]}, "properties": {"NAME": "W6/SD-004", "TITLE": "6640", "REGION": "Southern Desert", "ASSOCIATION": "USA - CA", "POINTS": "6", "BONUSPOINTS": "3"}}, {"type": "Feature", "geometry": {"type": "Point", "coordinates": [-115.5579, 34.8723]}, "properties": {"NAME": "W6/SD-005", "TITLE": "Providence Benchmark", "REGION": "Southern Desert", "ASSOCIATION": "USA - CA", "POINTS": "6", "BONUSPOINTS": "3"}}, {"type": "Feature", "geometry": {"type": "Point", "coordinates": [-115.546, 35.4315]}, "properties": {"NAME": "W6/SD-006", "TITLE": "Mescal Range (HP)", "REGION": "Southern Desert", "ASSOCIATION": "USA - CA", "POINTS": "6", "BONUSPOINTS": "3"}}, {"type": "Feature", "geometry": {"type": "Point", "coordinates": [-115.3945, 35.2144]}, "properties": {"NAME": "W6/SD-007", "TITLE": "Mid Hills (HP)", "REGION": "Southern Desert", "ASSOCIATION": "USA - CA", "POINTS": "6", "BONUSPOINTS": "3"}}, {"type": "Feature", "geometry": {"type": "Point", "coordinates": [-115.696, 34.8123]}, "properties": {"NAME": "W6/SD-008", "TITLE": "Silver Peak", "REGION": "Southern Desert", "ASSOCIATION": "USA - CA", "POINTS": "6", "BONUSPOINTS": "3"}}, {"type": "Feature", "geometry": {"type": "Point", "coordinates": [-116.4009, 32.8398]}, "properties": {"NAME": "W6/SD-009", "TITLE": "Laguna Benchmark", "REGION": "Southern Desert", "ASSOCIATION": "USA - CA", "POINTS": "6", "BONUSPOINTS": "3"}}, {"type": "Feature", "geometry": {"type": "Point", "coordinates": [-116.815, 34.6748]}, "properties": {"NAME": "W6/SD-010", "TITLE": "Ord Mountain", "REGION": "Southern Desert", "ASSOCIATION": "USA - CA", "POINTS": "6", "BONUSPOINTS": "3"}}, {"type": "Feature", "geometry": {"type": "Point", "coordinates": [-116.6058, 33.3945]}, "properties": {"NAME": "W6/SD-011", "TITLE": "Combs Peak", "REGION": "Southern Desert", "ASSOCIATION": "USA - CA", "POINTS": "6", "BONUSPOINTS": "3"}}, {"type": "Feature", "geometry": {"type": "Point", "coordinates": [-115.3677, 35.1099]}, "properties": {"NAME": "W6/SD-012", "TITLE": "Table Top", "REGION": "Southern Desert", "ASSOCIATION": "USA - CA", "POINTS": "6", "BONUSPOINTS": "3"}}, {"type": "Feature", "geometry": {"type": "Point", "coordinates": [-116.7625, 34.6391]}, "properties": {"NAME": "W6/SD-013", "TITLE": "East Ord Mountain", "REGION": "Southern Desert", "ASSOCIATION": "USA - CA", "POINTS": "6", "BONUSPOINTS": "3"}}, {"type": "Feature", "geometry": {"type": "Point", "coordinates": [-115.5294, 35.3151]}, "properties": {"NAME": "W6/SD-014", "TITLE": "Kessler Peak", "REGION": "Southern Desert", "ASSOCIATION": "USA - CA", "POINTS": "6", "BONUSPOINTS": "3"}}, {"type": "Feature", "geometry": {"type": "Point", "coordinates": [-115.3705, 35.1799]}, "properties": {"NAME": "W6/SD-015", "TITLE": "Pinto Mountain", "REGION": "Southern Desert", "ASSOCIATION": "USA - CA", "POINTS": "6", "BONUSPOINTS": "3"}}, {"type": "Feature", "geometry": {"type": "Point", "coordinates": [-115.4938, 35.42]}, "properties": {"NAME": "W6/SD-016", "TITLE": "Kokoweef Peak", "REGION": "Southern Desert", "ASSOCIATION": "USA - CA", "POINTS": "6", "BONUSPOINTS": "3"}}, {"type": "Feature", "geometry": {"type": "Point", "coordinates": [-116.5248, 33.2486]}, "properties": {"NAME": "W6/SD-017", "TITLE": "6020", "REGION": "Southern Desert", "ASSOCIATION": "USA - CA", "POINTS": "6", "BONUSPOINTS": "3"}}, {"type": "Feature", "geometry": {"type": "Point", "coordinates": [-116.6286, 34.6427]}, "properties": {"NAME": "W6/SD-018", "TITLE": "Rodman Mountains (HP)", "REGION": "Southern Desert", "ASSOCIATION": "USA - CA", "POINTS": "6", "BONUSPOINTS": "3"}}, {"type": "Feature", "geometry": {"type": "Point", "coordinates": [-115.5311, 35.3942]}, "properties": {"NAME": "W6/SD-019", "TITLE": "Striped Mountain", "REGION": "Southern Desert", "ASSOCIATION": "USA - CA", "POINTS": "6", "BONUSPOINTS": "3"}}, {"type": "Feature", "geometry": {"type": "Point", "coordinates": [-116.4639, 32.8212]}, "properties": {"NAME": "W6/SD-020", "TITLE": "Sheephead Mountain", "REGION": "Southern Desert", "ASSOCIATION": "USA - CA", "POINTS": "6", "BONUSPOINTS": "3"}}, {"type": "Feature", "geometry": {"type": "Point", "coordinates": [-115.1572, 35.3754]}, "properties": {"NAME": "W6/SD-021", "TITLE": "North Castle Peaks", "REGION": "Southern Desert", "ASSOCIATION": "USA - CA", "POINTS": "6", "BONUSPOINTS": "3"}}, {"type": "Feature", "geometry": {"type": "Point", "coordinates": [-115.4297, 35.1367]}, "properties": {"NAME": "W6/SD-022", "TITLE": "5875", "REGION": "Southern Desert", "ASSOCIATION": "USA - CA", "POINTS": "6", "BONUSPOINTS": "3"}}, {"type": "Feature", "geometry": {"type": "Point", "coordinates": [-115.7542, 34.8188]}, "properties": {"NAME": "W6/SD-023", "TITLE": "5875", "REGION": "Southern Desert", "ASSOCIATION": "USA - CA", "POINTS": "6", "BONUSPOINTS": "3"}}, {"type": "Feature", "geometry": {"type": "Point", "coordinates": [-116.5933, 33.3693]}, "properties": {"NAME": "W6/SD-024", "TITLE": "5863", "REGION": "Southern Desert", "ASSOCIATION": "USA - CA", "POINTS": "6", "BONUSPOINTS": "3"}}, {"type": "Feature", "geometry": {"type": "Point", "coordinates": [-116.3631, 32.7939]}, "properties": {"NAME": "W6/SD-025", "TITLE": "In-Ko-Pah Mountains (HP)", "REGION": "Southern Desert", "ASSOCIATION": "USA - CA", "POINTS": "6", "BONUSPOINTS": "3"}}, {"type": "Feature", "geometry": {"type": "Point", "coordinates": [-116.4873, 32.928]}, "properties": {"NAME": "W6/SD-026", "TITLE": "5764", "REGION": "Southern Desert", "ASSOCIATION": "USA - CA", "POINTS": "6", "BONUSPOINTS": "3"}}, {"type": "Feature", "geometry": {"type": "Point", "coordinates": [-115.2632, 35.2963]}, "properties": {"NAME": "W6/SD-027", "TITLE": "5757", "REGION": "Southern Desert", "ASSOCIATION": "USA - CA", "POINTS": "6", "BONUSPOINTS": "3"}}, {"type": "Feature", "geometry": {"type": "Point", "coordinates": [-116.6975, 33.4534]}, "properties": {"NAME": "W6/SD-028", "TITLE": "Iron Spring Mountain", "REGION": "Southern Desert", "ASSOCIATION": "USA - CA", "POINTS": "6", "BONUSPOINTS": "3"}}, {"type": "Feature", "geometry": {"type": "Point", "coordinates": [-116.6204, 33.1645]}, "properties": {"NAME": "W6/SD-029", "TITLE": "Pechacho Benchmark", "REGION": "Southern Desert", "ASSOCIATION": "USA - CA", "POINTS": "6", "BONUSPOINTS": "3"}}, {"type": "Feature", "geometry": {"type": "Point", "coordinates": [-116.0995, 34.0524]}, "properties": {"NAME": "W6/SD-030", "TITLE": "Queen Mountain", "REGION": "Southern Desert", "ASSOCIATION": "USA - CA", "POINTS": "6", "BONUSPOINTS": "3"}}, {"type": "Feature", "geometry": {"type": "Point", "coordinates": [-116.6158, 33.3413]}, "properties": {"NAME": "W6/SD-031", "TITLE": "5683", "REGION": "Southern Desert", "ASSOCIATION": "USA - CA", "POINTS": "6", "BONUSPOINTS": "3"}}, {"type": "Feature", "geometry": {"type": "Point", "coordinates": [-116.4969, 33.3139]}, "properties": {"NAME": "W6/SD-032", "TITLE": "5660", "REGION": "Southern Desert", "ASSOCIATION": "USA - CA", "POINTS": "6", "BONUSPOINTS": "3"}}, {"type": "Feature", "geometry": {"type": "Point", "coordinates": [-116.4795, 33.0512]}, "properties": {"NAME": "W6/SD-033", "TITLE": "Granite Mountain", "REGION": "Southern Desert", "ASSOCIATION": "USA - CA", "POINTS": "6", "BONUSPOINTS": "3"}}, {"type": "Feature", "geometry": {"type": "Point", "coordinates": [-115.3647, 35.067]}, "properties": {"NAME": "W6/SD-034", "TITLE": "Woods Mountains (HP)", "REGION": "Southern Desert", "ASSOCIATION": "USA - CA", "POINTS": "6", "BONUSPOINTS": "3"}}, {"type": "Feature", "geometry": {"type": "Point", "coordinates": [-115.0919, 35.3014]}, "properties": {"NAME": "W6/SD-035", "TITLE": "Castle Mountains (HP)", "REGION": "Southern Desert", "ASSOCIATION": "USA - CA", "POINTS": "6", "BONUSPOINTS": "3"}}, {"type": "Feature", "geometry": {"type": "Point", "coordinates": [-116.6553, 33.4503]}, "properties": {"NAME": "W6/SD-036", "TITLE": "5580", "REGION": "Southern Desert", "ASSOCIATION": "USA - CA", "POINTS": "6", "BONUSPOINTS": "3"}}, {"type": "Feature", "geometry": {"type": "Point", "coordinates": [-116.1956, 33.9357]}, "properties": {"NAME": "W6/SD-037", "TITLE": "Inspiration Benchmark", "REGION": "Southern Desert", "ASSOCIATION": "USA - CA", "POINTS": "6", "BONUSPOINTS": "3"}}, {"type": "Feature", "geometry": {"type": "Point", "coordinates": [-115.0797, 35.343]}, "properties": {"NAME": "W6/SD-038", "TITLE": "Hart Peak", "REGION": "Southern Desert", "ASSOCIATION": "USA - CA", "POINTS": "6", "BONUSPOINTS": "3"}}, {"type": "Feature", "geometry": {"type": "Point", "coordinates": [-116.3463, 34.0321]}, "properties": {"NAME": "W6/SD-039", "TITLE": "5540", "REGION": "Southern Desert", "ASSOCIATION": "USA - CA", "POINTS": "6", "BONUSPOINTS": "3"}}, {"type": "Feature", "geometry": {"type": "Point", "coordinates": [-116.9061, 34.6455]}, "properties": {"NAME": "W6/SD-040", "TITLE": "West Ord Mountain", "REGION": "Southern Desert", "ASSOCIATION": "USA - CA", "POINTS": "6", "BONUSPOINTS": "3"}}, {"type": "Feature", "geometry": {"type": "Point", "coordinates": [-115.4125, 35.0554]}, "properties": {"NAME": "W6/SD-041", "TITLE": "Barber Benchmark", "REGION": "Southern Desert", "ASSOCIATION": "USA - CA", "POINTS": "6", "BONUSPOINTS": "3"}}, {"type": "Feature", "geometry": {"type": "Point", "coordinates": [-116.089, 33.8613]}, "properties": {"NAME": "W6/SD-042", "TITLE": "Little Berdoo Benchmark", "REGION": "Southern Desert", "ASSOCIATION": "USA - CA", "POINTS": "4", "BONUSPOINTS": "3"}}, {"type": "Feature", "geometry": {"type": "Point", "coordinates": [-115.2236, 35.0513]}, "properties": {"NAME": "W6/SD-043", "TITLE": "Hackberry Mountain", "REGION": "Southern Desert", "ASSOCIATION": "USA - CA", "POINTS": "4", "BONUSPOINTS": "3"}}, {"type": "Feature", "geometry": {"type": "Point", "coordinates": [-116.2939, 34.0304]}, "properties": {"NAME": "W6/SD-044", "TITLE": "5352", "REGION": "Southern Desert", "ASSOCIATION": "USA - CA", "POINTS": "4", "BONUSPOINTS": "3"}}, {"type": "Feature", "geometry": {"type": "Point", "coordinates": [-115.7399, 33.7442]}, "properties": {"NAME": "W6/SD-045", "TITLE": "Eagle Benchmark", "REGION": "Southern Desert", "ASSOCIATION": "USA - CA", "POINTS": "4", "BONUSPOINTS": "3"}}, {"type": "Feature", "geometry": {"type": "Point", "coordinates": [-116.3161, 33.0292]}, "properties": {"NAME": "W6/SD-046", "TITLE": "Whale Peak", "REGION": "Southern Desert", "ASSOCIATION": "USA - CA", "POINTS": "4", "BONUSPOINTS": "3"}}, {"type": "Feature", "geometry": {"type": "Point", "coordinates": [-115.2355, 34.5732]}, "properties": {"NAME": "W6/SD-047", "TITLE": "Old Woman Mountains (HP)", "REGION": "Southern Desert", "ASSOCIATION": "USA - CA", "POINTS": "4", "BONUSPOINTS": "3"}}, {"type": "Feature", "geometry": {"type": "Point", "coordinates": [-115.4557, 35.4392]}, "properties": {"NAME": "W6/SD-048", "TITLE": "Coyote Peak", "REGION": "Southern Desert", "ASSOCIATION": "USA - CA", "POINTS": "4", "BONUSPOINTS": "3"}}, {"type": "Feature", "geometry": {"type": "Point", "coordinates": [-117.0424, 34.6092]}, "properties": {"NAME": "W6/SD-049", "TITLE": "Sidewinder Mountain", "REGION": "Southern Desert", "ASSOCIATION": "USA - CA", "POINTS": "4", "BONUSPOINTS": "3"}}, {"type": "Feature", "geometry": {"type": "Point", "coordinates": [-115.1905, 34.5582]}, "properties": {"NAME": "W6/SD-050", "TITLE": "Carbonate Peak", "REGION": "Southern Desert", "ASSOCIATION": "USA - CA", "POINTS": "4", "BONUSPOINTS": "3"}}, {"type": "Feature", "geometry": {"type": "Point", "coordinates": [-116.683, 34.6997]}, "properties": {"NAME": "W6/SD-051", "TITLE": "Camp Benchmark", "REGION": "Southern Desert", "ASSOCIATION": "USA - CA", "POINTS": "4", "BONUSPOINTS": "3"}}, {"type": "Feature", "geometry": {"type": "Point", "coordinates": [-115.1634, 34.5222]}, "properties": {"NAME": "W6/SD-052", "TITLE": "5164", "REGION": "Southern Desert", "ASSOCIATION": "USA - CA", "POINTS": "4", "BONUSPOINTS": "3"}}, {"type": "Feature", "geometry": {"type": "Point", "coordinates": [-117.0799, 34.5026]}, "properties": {"NAME": "W6/SD-053", "TITLE": "Feldspar Benchmark", "REGION": "Southern Desert", "ASSOCIATION": "USA - CA", "POINTS": "4", "BONUSPOINTS": "3"}}, {"type": "Feature", "geometry": {"type": "Point", "coordinates": [-116.7682, 34.7533]}, "properties": {"NAME": "W6/SD-054", "TITLE": "Newberry Mountains (HP)", "REGION": "Southern Desert", "ASSOCIATION": "USA - CA", "POINTS": "4", "BONUSPOINTS": "3"}}, {"type": "Feature", "geometry": {"type": "Point", "coordinates": [-116.2046, 34.0164]}, "properties": {"NAME": "W6/SD-055", "TITLE": "5100", "REGION": "Southern Desert", "ASSOCIATION": "USA - CA", "POINTS": "4", "BONUSPOINTS": "3"}}, {"type": "Feature", "geometry": {"type": "Point", "coordinates": [-116.7106, 34.6986]}, "properties": {"NAME": "W6/SD-056", "TITLE": "4980", "REGION": "Southern Desert", "ASSOCIATION": "USA - CA", "POINTS": "4", "BONUSPOINTS": "3"}}, {"type": "Feature", "geometry": {"type": "Point", "coordinates": [-115.7656, 35.3117]}, "properties": {"NAME": "W6/SD-057", "TITLE": "Club Peak", "REGION": "Southern Desert", "ASSOCIATION": "USA - CA", "POINTS": "4", "BONUSPOINTS": "3"}}, {"type": "Feature", "geometry": {"type": "Point", "coordinates": [-115.0134, 35.196]}, "properties": {"NAME": "W6/SD-058", "TITLE": "Piute Range (HP)", "REGION": "Southern Desert", "ASSOCIATION": "USA - CA", "POINTS": "4", "BONUSPOINTS": "3"}}, {"type": "Feature", "geometry": {"type": "Point", "coordinates": [-117.0345, 34.5662]}, "properties": {"NAME": "W6/SD-059", "TITLE": "4900", "REGION": "Southern Desert", "ASSOCIATION": "USA - CA", "POINTS": "4", "BONUSPOINTS": "3"}}, {"type": "Feature", "geometry": {"type": "Point", "coordinates": [-117.1242, 34.6981]}, "properties": {"NAME": "W6/SD-060", "TITLE": "Stoddard Mountain", "REGION": "Southern Desert", "ASSOCIATION": "USA - CA", "POINTS": "4", "BONUSPOINTS": "3"}}, {"type": "Feature", "geometry": {"type": "Point", "coordinates": [-117.0548, 34.6859]}, "properties": {"NAME": "W6/SD-061", "TITLE": "Stoddard Ridge", "REGION": "Southern Desert", "ASSOCIATION": "USA - CA", "POINTS": "4", "BONUSPOINTS": "3"}}, {"type": "Feature", "geometry": {"type": "Point", "coordinates": [-116.7298, 34.7667]}, "properties": {"NAME": "W6/SD-062", "TITLE": "4889", "REGION": "Southern Desert", "ASSOCIATION": "USA - CA", "POINTS": "4", "BONUSPOINTS": "3"}}, {"type": "Feature", "geometry": {"type": "Point", "coordinates": [-115.1124, 34.4989]}, "properties": {"NAME": "W6/SD-063", "TITLE": "4881", "REGION": "Southern Desert", "ASSOCIATION": "USA - CA", "POINTS": "4", "BONUSPOINTS": "3"}}, {"type": "Feature", "geometry": {"type": "Point", "coordinates": [-116.8353, 34.6218]}, "properties": {"NAME": "W6/SD-064", "TITLE": "4835", "REGION": "Southern Desert", "ASSOCIATION": "USA - CA", "POINTS": "4", "BONUSPOINTS": "3"}}, {"type": "Feature", "geometry": {"type": "Point", "coordinates": [-115.8978, 33.8139]}, "properties": {"NAME": "W6/SD-065", "TITLE": "Monument Mountain", "REGION": "Southern Desert", "ASSOCIATION": "USA - CA", "POINTS": "4", "BONUSPOINTS": "3"}}, {"type": "Feature", "geometry": {"type": "Point", "coordinates": [-115.2925, 35.042]}, "properties": {"NAME": "W6/SD-066", "TITLE": "4826", "REGION": "Southern Desert", "ASSOCIATION": "USA - CA", "POINTS": "4", "BONUSPOINTS": "3"}}, {"type": "Feature", "geometry": {"type": "Point", "coordinates": [-115.5307, 34.8466]}, "properties": {"NAME": "W6/SD-067", "TITLE": "4816", "REGION": "Southern Desert", "ASSOCIATION": "USA - CA", "POINTS": "4", "BONUSPOINTS": "3"}}, {"type": "Feature", "geometry": {"type": "Point", "coordinates": [-117.0323, 34.5351]}, "properties": {"NAME": "W6/SD-068", "TITLE": "4813", "REGION": "Southern Desert", "ASSOCIATION": "USA - CA", "POINTS": "4", "BONUSPOINTS": "3"}}, {"type": "Feature", "geometry": {"type": "Point", "coordinates": [-116.7765, 34.7757]}, "properties": {"NAME": "W6/SD-069", "TITLE": "Minneola Ridge", "REGION": "Southern Desert", "ASSOCIATION": "USA - CA", "POINTS": "4", "BONUSPOINTS": "3"}}, {"type": "Feature", "geometry": {"type": "Point", "coordinates": [-115.9909, 33.8712]}, "properties": {"NAME": "W6/SD-070", "TITLE": "4780", "REGION": "Southern Desert", "ASSOCIATION": "USA - CA", "POINTS": "4", "BONUSPOINTS": "3"}}, {"type": "Feature", "geometry": {"type": "Point", "coordinates": [-115.7247, 35.1048]}, "properties": {"NAME": "W6/SD-071", "TITLE": "Kelso Peak", "REGION": "Southern Desert", "ASSOCIATION": "USA - CA", "POINTS": "4", "BONUSPOINTS": "3"}}, {"type": "Feature", "geometry": {"type": "Point", "coordinates": [-116.0435, 33.936]}, "properties": {"NAME": "W6/SD-072", "TITLE": "Lela Benchmark", "REGION": "Southern Desert", "ASSOCIATION": "USA - CA", "POINTS": "4", "BONUSPOINTS": "3"}}, {"type": "Feature", "geometry": {"type": "Point", "coordinates": [-116.1457, 33.863]}, "properties": {"NAME": "W6/SD-073", "TITLE": "4717", "REGION": "Southern Desert", "ASSOCIATION": "USA - CA", "POINTS": "4", "BONUSPOINTS": "3"}}, {"type": "Feature", "geometry": {"type": "Point", "coordinates": [-116.5139, 33.0159]}, "properties": {"NAME": "W6/SD-074", "TITLE": "Chariot Mountain", "REGION": "Southern Desert", "ASSOCIATION": "USA - CA", "POINTS": "4", "BONUSPOINTS": "3"}}, {"type": "Feature", "geometry": {"type": "Point", "coordinates": [-116.2924, 34.533]}, "properties": {"NAME": "W6/SD-075", "TITLE": "Round Benchmark", "REGION": "Southern Desert", "ASSOCIATION": "USA - CA", "POINTS": "4", "BONUSPOINTS": "3"}}, {"type": "Feature", "geometry": {"type": "Point", "coordinates": [-116.3569, 32.8844]}, "properties": {"NAME": "W6/SD-076", "TITLE": "Sawtooth Mountains (HP)", "REGION": "Southern Desert", "ASSOCIATION": "USA - CA", "POINTS": "4", "BONUSPOINTS": "3"}}, {"type": "Feature", "geometry": {"type": "Point", "coordinates": [-116.5548, 33.185]}, "properties": {"NAME": "W6/SD-077", "TITLE": "San Felipe Hills", "REGION": "Southern Desert", "ASSOCIATION": "USA - CA", "POINTS": "4", "BONUSPOINTS": "3"}}, {"type": "Feature", "geometry": {"type": "Point", "coordinates": [-116.5144, 33.361]}, "properties": {"NAME": "W6/SD-078", "TITLE": "Square Top", "REGION": "Southern Desert", "ASSOCIATION": "USA - CA", "POINTS": "4", "BONUSPOINTS": "3"}}, {"type": "Feature", "geometry": {"type": "Point", "coordinates": [-116.2273, 32.7015]}, "properties": {"NAME": "W6/SD-079", "TITLE": "Mount Tule", "REGION": "Southern Desert", "ASSOCIATION": "USA - CA", "POINTS": "4", "BONUSPOINTS": "3"}}, {"type": "Feature", "geometry": {"type": "Point", "coordinates": [-116.8222, 34.5869]}, "properties": {"NAME": "W6/SD-080", "TITLE": "4633", "REGION": "Southern Desert", "ASSOCIATION": "USA - CA", "POINTS": "4", "BONUSPOINTS": "3"}}, {"type": "Feature", "geometry": {"type": "Point", "coordinates": [-116.3331, 34.8732]}, "properties": {"NAME": "W6/SD-081", "TITLE": "Cady Peak", "REGION": "Southern Desert", "ASSOCIATION": "USA - CA", "POINTS": "4", "BONUSPOINTS": "3"}}, {"type": "Feature", "geometry": {"type": "Point", "coordinates": [-116.4552, 33.178]}, "properties": {"NAME": "W6/SD-082", "TITLE": "Pinyon Ridge", "REGION": "Southern Desert", "ASSOCIATION": "USA - CA", "POINTS": "4", "BONUSPOINTS": "3"}}, {"type": "Feature", "geometry": {"type": "Point", "coordinates": [-115.9992, 34.0019]}, "properties": {"NAME": "W6/SD-083", "TITLE": "Belle 2 Benchmark", "REGION": "Southern Desert", "ASSOCIATION": "USA - CA", "POINTS": "4", "BONUSPOINTS": "3"}}, {"type": "Feature", "geometry": {"type": "Point", "coordinates": [-115.692, 34.2267]}, "properties": {"NAME": "W6/SD-084", "TITLE": "Sheep Hole Mountains (HP)", "REGION": "Southern Desert", "ASSOCIATION": "USA - CA", "POINTS": "4", "BONUSPOINTS": "3"}}, {"type": "Feature", "geometry": {"type": "Point", "coordinates": [-115.3834, 34.7542]}, "properties": {"NAME": "W6/SD-085", "TITLE": "Clip Benchmark", "REGION": "Southern Desert", "ASSOCIATION": "USA - CA", "POINTS": "4", "BONUSPOINTS": "3"}}, {"type": "Feature", "geometry": {"type": "Point", "coordinates": [-115.6069, 34.7644]}, "properties": {"NAME": "W6/SD-086", "TITLE": "Van Winkle Mountain", "REGION": "Southern Desert", "ASSOCIATION": "USA - CA", "POINTS": "4", "BONUSPOINTS": "3"}}, {"type": "Feature", "geometry": {"type": "Point", "coordinates": [-116.8632, 34.6244]}, "properties": {"NAME": "W6/SD-087", "TITLE": "4590", "REGION": "Southern Desert", "ASSOCIATION": "USA - CA", "POINTS": "4", "BONUSPOINTS": "3"}}, {"type": "Feature", "geometry": {"type": "Point", "coordinates": [-115.9515, 34.0586]}, "properties": {"NAME": "W6/SD-088", "TITLE": "Twentynine Palms Mountain", "REGION": "Southern Desert", "ASSOCIATION": "USA - CA", "POINTS": "4", "BONUSPOINTS": "3"}}, {"type": "Feature", "geometry": {"type": "Point", "coordinates": [-117.0899, 34.6706]}, "properties": {"NAME": "W6/SD-089", "TITLE": "4530", "REGION": "Southern Desert", "ASSOCIATION": "USA - CA", "POINTS": "4", "BONUSPOINTS": "3"}}, {"type": "Feature", "geometry": {"type": "Point", "coordinates": [-116.1645, 32.6978]}, "properties": {"NAME": "W6/SD-090", "TITLE": "Jacumba Benchmark", "REGION": "Southern Desert", "ASSOCIATION": "USA - CA", "POINTS": "4", "BONUSPOINTS": "3"}}, {"type": "Feature", "geometry": {"type": "Point", "coordinates": [-115.3448, 33.5613]}, "properties": {"NAME": "W6/SD-091", "TITLE": "Black Butte", "REGION": "Southern Desert", "ASSOCIATION": "USA - CA", "POINTS": "4", "BONUSPOINTS": "3"}}, {"type": "Feature", "geometry": {"type": "Point", "coordinates": [-115.8819, 33.7589]}, "properties": {"NAME": "W6/SD-092", "TITLE": "Cottonwood Mountains (HP)", "REGION": "Southern Desert", "ASSOCIATION": "USA - CA", "POINTS": "4", "BONUSPOINTS": "3"}}, {"type": "Feature", "geometry": {"type": "Point", "coordinates": [-117.1702, 34.7036]}, "properties": {"NAME": "W6/SD-093", "TITLE": "4490", "REGION": "Southern Desert", "ASSOCIATION": "USA - CA", "POINTS": "4", "BONUSPOINTS": "3"}}, {"type": "Feature", "geometry": {"type": "Point", "coordinates": [-116.4292, 34.5943]}, "properties": {"NAME": "W6/SD-094", "TITLE": "Argos Mountain", "REGION": "Southern Desert", "ASSOCIATION": "USA - CA", "POINTS": "4", "BONUSPOINTS": "3"}}, {"type": "Feature", "geometry": {"type": "Point", "coordinates": [-115.4045, 34.0262]}, "properties": {"NAME": "W6/SD-095", "TITLE": "Spectre Benchmark", "REGION": "Southern Desert", "ASSOCIATION": "USA - CA", "POINTS": "4", "BONUSPOINTS": "3"}}, {"type": "Feature", "geometry": {"type": "Point", "coordinates": [-116.342, 32.885]}, "properties": {"NAME": "W6/SD-096", "TITLE": "Red Top", "REGION": "Southern Desert", "ASSOCIATION": "USA - CA", "POINTS": "4", "BONUSPOINTS": "3"}}, {"type": "Feature", "geometry": {"type": "Point", "coordinates": [-116.7078, 34.5686]}, "properties": {"NAME": "W6/SD-097", "TITLE": "4438", "REGION": "Southern Desert", "ASSOCIATION": "USA - CA", "POINTS": "4", "BONUSPOINTS": "3"}}, {"type": "Feature", "geometry": {"type": "Point", "coordinates": [-116.306, 34.4291]}, "properties": {"NAME": "W6/SD-098", "TITLE": "Hidalgo Mountain", "REGION": "Southern Desert", "ASSOCIATION": "USA - CA", "POINTS": "4", "BONUSPOINTS": "3"}}, {"type": "Feature", "geometry": {"type": "Point", "coordinates": [-115.9063, 33.7211]}, "properties": {"NAME": "W6/SD-099", "TITLE": "4425", "REGION": "Southern Desert", "ASSOCIATION": "USA - CA", "POINTS": "4", "BONUSPOINTS": "3"}}, {"type": "Feature", "geometry": {"type": "Point", "coordinates": [-116.4128, 34.6461]}, "properties": {"NAME": "W6/SD-100", "TITLE": "Sunshine Peak", "REGION": "Southern Desert", "ASSOCIATION": "USA - CA", "POINTS": "4", "BONUSPOINTS": "3"}}, {"type": "Feature", "geometry": {"type": "Point", "coordinates": [-116.974, 34.5389]}, "properties": {"NAME": "W6/SD-101", "TITLE": "White Horse Mountain", "REGION": "Southern Desert", "ASSOCIATION": "USA - CA", "POINTS": "4", "BONUSPOINTS": "3"}}, {"type": "Feature", "geometry": {"type": "Point", "coordinates": [-116.347, 34.5764]}, "properties": {"NAME": "W6/SD-102", "TITLE": "4395", "REGION": "Southern Desert", "ASSOCIATION": "USA - CA", "POINTS": "4", "BONUSPOINTS": "3"}}, {"type": "Feature", "geometry": {"type": "Point", "coordinates": [-115.3741, 33.556]}, "properties": {"NAME": "W6/SD-103", "TITLE": "4369", "REGION": "Southern Desert", "ASSOCIATION": "USA - CA", "POINTS": "4", "BONUSPOINTS": "3"}}, {"type": "Feature", "geometry": {"type": "Point", "coordinates": [-116.4706, 34.04]}, "properties": {"NAME": "W6/SD-104", "TITLE": "4359", "REGION": "Southern Desert", "ASSOCIATION": "USA - CA", "POINTS": "4", "BONUSPOINTS": "3"}}, {"type": "Feature", "geometry": {"type": "Point", "coordinates": [-115.0729, 33.9702]}, "properties": {"NAME": "W6/SD-105", "TITLE": "Granite Benchmark", "REGION": "Southern Desert", "ASSOCIATION": "USA - CA", "POINTS": "4", "BONUSPOINTS": "3"}}, {"type": "Feature", "geometry": {"type": "Point", "coordinates": [-116.2349, 34.5058]}, "properties": {"NAME": "W6/SD-106", "TITLE": "White Benchmark", "REGION": "Southern Desert", "ASSOCIATION": "USA - CA", "POINTS": "4", "BONUSPOINTS": "3"}}, {"type": "Feature", "geometry": {"type": "Point", "coordinates": [-116.719, 34.5011]}, "properties": {"NAME": "W6/SD-107", "TITLE": "Fry Benchmark", "REGION": "Southern Desert", "ASSOCIATION": "USA - CA", "POINTS": "4", "BONUSPOINTS": "3"}}, {"type": "Feature", "geometry": {"type": "Point", "coordinates": [-117.1317, 34.5667]}, "properties": {"NAME": "W6/SD-108", "TITLE": "Fairview Mountain", "REGION": "Southern Desert", "ASSOCIATION": "USA - CA", "POINTS": "4", "BONUSPOINTS": "3"}}, {"type": "Feature", "geometry": {"type": "Point", "coordinates": [-114.8275, 34.2611]}, "properties": {"NAME": "W6/SD-109", "TITLE": "Turtle Mountains (HP)", "REGION": "Southern Desert", "ASSOCIATION": "USA - CA", "POINTS": "4", "BONUSPOINTS": "3"}}, {"type": "Feature", "geometry": {"type": "Point", "coordinates": [-115.2162, 34.4669]}, "properties": {"NAME": "W6/SD-110", "TITLE": "4284", "REGION": "Southern Desert", "ASSOCIATION": "USA - CA", "POINTS": "4", "BONUSPOINTS": "3"}}, {"type": "Feature", "geometry": {"type": "Point", "coordinates": [-115.9455, 33.7456]}, "properties": {"NAME": "W6/SD-111", "TITLE": "4262", "REGION": "Southern Desert", "ASSOCIATION": "USA - CA", "POINTS": "4", "BONUSPOINTS": "3"}}, {"type": "Feature", "geometry": {"type": "Point", "coordinates": [-115.8493, 33.8535]}, "properties": {"NAME": "W6/SD-112", "TITLE": "4251", "REGION": "Southern Desert", "ASSOCIATION": "USA - CA", "POINTS": "4", "BONUSPOINTS": "3"}}, {"type": "Feature", "geometry": {"type": "Point", "coordinates": [-115.8611, 35.1013]}, "properties": {"NAME": "W6/SD-113", "TITLE": "Old Dad Mountain", "REGION": "Southern Desert", "ASSOCIATION": "USA - CA", "POINTS": "4", "BONUSPOINTS": "3"}}, {"type": "Feature", "geometry": {"type": "Point", "coordinates": [-114.8606, 34.3321]}, "properties": {"NAME": "W6/SD-114", "TITLE": "4245", "REGION": "Southern Desert", "ASSOCIATION": "USA - CA", "POINTS": "4", "BONUSPOINTS": "3"}}, {"type": "Feature", "geometry": {"type": "Point", "coordinates": [-116.6689, 34.5558]}, "properties": {"NAME": "W6/SD-115", "TITLE": "4242", "REGION": "Southern Desert", "ASSOCIATION": "USA - CA", "POINTS": "4", "BONUSPOINTS": "3"}}, {"type": "Feature", "geometry": {"type": "Point", "coordinates": [-116.8747, 34.7838]}, "properties": {"NAME": "W6/SD-116", "TITLE": "Su Casa Benchmark", "REGION": "Southern Desert", "ASSOCIATION": "USA - CA", "POINTS": "4", "BONUSPOINTS": "3"}}, {"type": "Feature", "geometry": {"type": "Point", "coordinates": [-117.1425, 34.6571]}, "properties": {"NAME": "W6/SD-117", "TITLE": "4234", "REGION": "Southern Desert", "ASSOCIATION": "USA - CA", "POINTS": "4", "BONUSPOINTS": "3"}}, {"type": "Feature", "geometry": {"type": "Point", "coordinates": [-115.367, 33.5884]}, "properties": {"NAME": "W6/SD-118", "TITLE": "Pilot Mountain", "REGION": "Southern Desert", "ASSOCIATION": "USA - CA", "POINTS": "4", "BONUSPOINTS": "3"}}, {"type": "Feature", "geometry": {"type": "Point", "coordinates": [-115.0794, 34.7458]}, "properties": {"NAME": "W6/SD-119", "TITLE": "Piute Mountains (HP)", "REGION": "Southern Desert", "ASSOCIATION": "USA - CA", "POINTS": "4", "BONUSPOINTS": "3"}}, {"type": "Feature", "geometry": {"type": "Point", "coordinates": [-115.9148, 34.3673]}, "properties": {"NAME": "W6/SD-120", "TITLE": "Bullion Benchmark", "REGION": "Southern Desert", "ASSOCIATION": "USA - CA", "POINTS": "4", "BONUSPOINTS": "3"}}, {"type": "Feature", "geometry": {"type": "Point", "coordinates": [-116.4583, 34.4191]}, "properties": {"NAME": "W6/SD-121", "TITLE": "Maumee Benchmark", "REGION": "Southern Desert", "ASSOCIATION": "USA - CA", "POINTS": "4", "BONUSPOINTS": "3"}}, {"type": "Feature", "geometry": {"type": "Point", "coordinates": [-114.411, 34.3146]}, "properties": {"NAME": "W6/SD-122", "TITLE": "Whipple Mountains (HP)", "REGION": "Southern Desert", "ASSOCIATION": "USA - CA", "POINTS": "4", "BONUSPOINTS": "3"}}, {"type": "Feature", "geometry": {"type": "Point", "coordinates": [-115.4481, 34.7363]}, "properties": {"NAME": "W6/SD-123", "TITLE": "4104", "REGION": "Southern Desert", "ASSOCIATION": "USA - CA", "POINTS": "4", "BONUSPOINTS": "3"}}, {"type": "Feature", "geometry": {"type": "Point", "coordinates": [-116.1611, 34.4651]}, "properties": {"NAME": "W6/SD-124", "TITLE": "4100", "REGION": "Southern Desert", "ASSOCIATION": "USA - CA", "POINTS": "4", "BONUSPOINTS": "3"}}, {"type": "Feature", "geometry": {"type": "Point", "coordinates": [-116.1563, 34.5008]}, "properties": {"NAME": "W6/SD-125", "TITLE": "4096", "REGION": "Southern Desert", "ASSOCIATION": "USA - CA", "POINTS": "4", "BONUSPOINTS": "3"}}, {"type": "Feature", "geometry": {"type": "Point", "coordinates": [-116.1356, 32.6559]}, "properties": {"NAME": "W6/SD-126", "TITLE": "Table Mountain", "REGION": "Southern Desert", "ASSOCIATION": "USA - CA", "POINTS": "4", "BONUSPOINTS": "3"}}, {"type": "Feature", "geometry": {"type": "Point", "coordinates": [-115.8144, 34.2705]}, "properties": {"NAME": "W6/SD-127", "TITLE": "Bald Benchmark", "REGION": "Southern Desert", "ASSOCIATION": "USA - CA", "POINTS": "4", "BONUSPOINTS": "3"}}, {"type": "Feature", "geometry": {"type": "Point", "coordinates": [-116.9313, 34.7813]}, "properties": {"NAME": "W6/SD-128", "TITLE": "Daggett Ridge", "REGION": "Southern Desert", "ASSOCIATION": "USA - CA", "POINTS": "4", "BONUSPOINTS": "3"}}, {"type": "Feature", "geometry": {"type": "Point", "coordinates": [-117.0985, 34.7243]}, "properties": {"NAME": "W6/SD-129", "TITLE": "4074", "REGION": "Southern Desert", "ASSOCIATION": "USA - CA", "POINTS": "4", "BONUSPOINTS": "3"}}, {"type": "Feature", "geometry": {"type": "Point", "coordinates": [-115.004, 35.0792]}, "properties": {"NAME": "W6/SD-130", "TITLE": "4074", "REGION": "Southern Desert", "ASSOCIATION": "USA - CA", "POINTS": "4", "BONUSPOINTS": "3"}}, {"type": "Feature", "geometry": {"type": "Point", "coordinates": [-115.3655, 34.0018]}, "properties": {"NAME": "W6/SD-131", "TITLE": "4051", "REGION": "Southern Desert", "ASSOCIATION": "USA - CA", "POINTS": "4", "BONUSPOINTS": "3"}}, {"type": "Feature", "geometry": {"type": "Point", "coordinates": [-115.8714, 34.3389]}, "properties": {"NAME": "W6/SD-132", "TITLE": "Bullion East Benchmark", "REGION": "Southern Desert", "ASSOCIATION": "USA - CA", "POINTS": "4", "BONUSPOINTS": "3"}}, {"type": "Feature", "geometry": {"type": "Point", "coordinates": [-115.2095, 34.5077]}, "properties": {"NAME": "W6/SD-133", "TITLE": "4045", "REGION": "Southern Desert", "ASSOCIATION": "USA - CA", "POINTS": "4", "BONUSPOINTS": "3"}}, {"type": "Feature", "geometry": {"type": "Point", "coordinates": [-115.4727, 34.7248]}, "properties": {"NAME": "W6/SD-134", "TITLE": "Van Benchmark", "REGION": "Southern Desert", "ASSOCIATION": "USA - CA", "POINTS": "2", "BONUSPOINTS": "3"}}, {"type": "Feature", "geometry": {"type": "Point", "coordinates": [-115.6471, 33.7931]}, "properties": {"NAME": "W6/SD-135", "TITLE": "3994", "REGION": "Southern Desert", "ASSOCIATION": "USA - CA", "POINTS": "2", "BONUSPOINTS": "3"}}, {"type": "Feature", "geometry": {"type": "Point", "coordinates": [-115.7994, 33.9538]}, "properties": {"NAME": "W6/SD-136", "TITLE": "Pinto Mountain", "REGION": "Southern Desert", "ASSOCIATION": "USA - CA", "POINTS": "2", "BONUSPOINTS": "3"}}, {"type": "Feature", "geometry": {"type": "Point", "coordinates": [-115.9884, 34.3351]}, "properties": {"NAME": "W6/SD-137", "TITLE": "3982", "REGION": "Southern Desert", "ASSOCIATION": "USA - CA", "POINTS": "2", "BONUSPOINTS": "3"}}, {"type": "Feature", "geometry": {"type": "Point", "coordinates": [-116.4302, 33.2925]}, "properties": {"NAME": "W6/SD-138", "TITLE": "Indianhead", "REGION": "Southern Desert", "ASSOCIATION": "USA - CA", "POINTS": "2", "BONUSPOINTS": "3"}}, {"type": "Feature", "geometry": {"type": "Point", "coordinates": [-116.2877, 34.7824]}, "properties": {"NAME": "W6/SD-139", "TITLE": "Sleeping Beauty", "REGION": "Southern Desert", "ASSOCIATION": "USA - CA", "POINTS": "2", "BONUSPOINTS": "3"}}, {"type": "Feature", "geometry": {"type": "Point", "coordinates": [-116.8131, 34.4756]}, "properties": {"NAME": "W6/SD-140", "TITLE": "Cougar Buttes", "REGION": "Southern Desert", "ASSOCIATION": "USA - CA", "POINTS": "2", "BONUSPOINTS": "3"}}, {"type": "Feature", "geometry": {"type": "Point", "coordinates": [-117.1203, 34.4895]}, "properties": {"NAME": "W6/SD-141", "TITLE": "Dead 2 Benchmark", "REGION": "Southern Desert", "ASSOCIATION": "USA - CA", "POINTS": "2", "BONUSPOINTS": "3"}}, {"type": "Feature", "geometry": {"type": "Point", "coordinates": [-115.5709, 33.8203]}, "properties": {"NAME": "W6/SD-142", "TITLE": "3969", "REGION": "Southern Desert", "ASSOCIATION": "USA - CA", "POINTS": "2", "BONUSPOINTS": "3"}}, {"type": "Feature", "geometry": {"type": "Point", "coordinates": [-116.0159, 34.3713]}, "properties": {"NAME": "W6/SD-143", "TITLE": "3961", "REGION": "Southern Desert", "ASSOCIATION": "USA - CA", "POINTS": "2", "BONUSPOINTS": "3"}}, {"type": "Feature", "geometry": {"type": "Point", "coordinates": [-115.633, 33.7374]}, "properties": {"NAME": "W6/SD-144", "TITLE": "3955", "REGION": "Southern Desert", "ASSOCIATION": "USA - CA", "POINTS": "2", "BONUSPOINTS": "3"}}, {"type": "Feature", "geometry": {"type": "Point", "coordinates": [-116.7686, 34.5402]}, "properties": {"NAME": "W6/SD-145", "TITLE": "3938", "REGION": "Southern Desert", "ASSOCIATION": "USA - CA", "POINTS": "2", "BONUSPOINTS": "3"}}, {"type": "Feature", "geometry": {"type": "Point", "coordinates": [-116.4392, 34.5019]}, "properties": {"NAME": "W6/SD-146", "TITLE": "Ledge Benchmark", "REGION": "Southern Desert", "ASSOCIATION": "USA - CA", "POINTS": "2", "BONUSPOINTS": "3"}}, {"type": "Feature", "geometry": {"type": "Point", "coordinates": [-116.5605, 34.5107]}, "properties": {"NAME": "W6/SD-147", "TITLE": "Boulder Benchmark", "REGION": "Southern Desert", "ASSOCIATION": "USA - CA", "POINTS": "2", "BONUSPOINTS": "3"}}, {"type": "Feature", "geometry": {"type": "Point", "coordinates": [-115.7898, 34.7618]}, "properties": {"NAME": "W6/SD-148", "TITLE": "Old Dad Mountains (HP)", "REGION": "Southern Desert", "ASSOCIATION": "USA - CA", "POINTS": "2", "BONUSPOINTS": "3"}}, {"type": "Feature", "geometry": {"type": "Point", "coordinates": [-115.5975, 33.8157]}, "properties": {"NAME": "W6/SD-149", "TITLE": "Sweet Benchmark", "REGION": "Southern Desert", "ASSOCIATION": "USA - CA", "POINTS": "2", "BONUSPOINTS": "3"}}, {"type": "Feature", "geometry": {"type": "Point", "coordinates": [-116.4058, 32.9238]}, "properties": {"NAME": "W6/SD-150", "TITLE": "3902", "REGION": "Southern Desert", "ASSOCIATION": "USA - CA", "POINTS": "2", "BONUSPOINTS": "3"}}, {"type": "Feature", "geometry": {"type": "Point", "coordinates": [-115.7867, 34.327]}, "properties": {"NAME": "W6/SD-151", "TITLE": "3898", "REGION": "Southern Desert", "ASSOCIATION": "USA - CA", "POINTS": "2", "BONUSPOINTS": "3"}}, {"type": "Feature", "geometry": {"type": "Point", "coordinates": [-117.2172, 34.5828]}, "properties": {"NAME": "W6/SD-152", "TITLE": "Bell Mountain", "REGION": "Southern Desert", "ASSOCIATION": "USA - CA", "POINTS": "2", "BONUSPOINTS": "3"}}, {"type": "Feature", "geometry": {"type": "Point", "coordinates": [-115.7745, 35.1914]}, "properties": {"NAME": "W6/SD-153", "TITLE": "3894", "REGION": "Southern Desert", "ASSOCIATION": "USA - CA", "POINTS": "2", "BONUSPOINTS": "3"}}, {"type": "Feature", "geometry": {"type": "Point", "coordinates": [-116.121, 34.909]}, "properties": {"NAME": "W6/SD-154", "TITLE": "Last Benchmark", "REGION": "Southern Desert", "ASSOCIATION": "USA - CA", "POINTS": "2", "BONUSPOINTS": "3"}}, {"type": "Feature", "geometry": {"type": "Point", "coordinates": [-116.5446, 34.4432]}, "properties": {"NAME": "W6/SD-155", "TITLE": "3873", "REGION": "Southern Desert", "ASSOCIATION": "USA - CA", "POINTS": "2", "BONUSPOINTS": "3"}}, {"type": "Feature", "geometry": {"type": "Point", "coordinates": [-114.8063, 34.2297]}, "properties": {"NAME": "W6/SD-156", "TITLE": "Horn Peak", "REGION": "Southern Desert", "ASSOCIATION": "USA - CA", "POINTS": "2", "BONUSPOINTS": "3"}}, {"type": "Feature", "geometry": {"type": "Point", "coordinates": [-115.0388, 33.8338]}, "properties": {"NAME": "W6/SD-157", "TITLE": "Red Top Benchmark", "REGION": "Southern Desert", "ASSOCIATION": "USA - CA", "POINTS": "2", "BONUSPOINTS": "3"}}, {"type": "Feature", "geometry": {"type": "Point", "coordinates": [-115.6173, 34.678]}, "properties": {"NAME": "W6/SD-158", "TITLE": "Castle Benchmark", "REGION": "Southern Desert", "ASSOCIATION": "USA - CA", "POINTS": "2", "BONUSPOINTS": "3"}}, {"type": "Feature", "geometry": {"type": "Point", "coordinates": [-116.1501, 34.4304]}, "properties": {"NAME": "W6/SD-159", "TITLE": "Cross Benchmark", "REGION": "Southern Desert", "ASSOCIATION": "USA - CA", "POINTS": "2", "BONUSPOINTS": "3"}}, {"type": "Feature", "geometry": {"type": "Point", "coordinates": [-115.3936, 34.0488]}, "properties": {"NAME": "W6/SD-160", "TITLE": "3835", "REGION": "Southern Desert", "ASSOCIATION": "USA - CA", "POINTS": "2", "BONUSPOINTS": "3"}}, {"type": "Feature", "geometry": {"type": "Point", "coordinates": [-115.1361, 34.654]}, "properties": {"NAME": "W6/SD-161", "TITLE": "3822", "REGION": "Southern Desert", "ASSOCIATION": "USA - CA", "POINTS": "2", "BONUSPOINTS": "3"}}, {"type": "Feature", "geometry": {"type": "Point", "coordinates": [-117.1816, 34.6416]}, "properties": {"NAME": "W6/SD-162", "TITLE": "Turtle Mountain", "REGION": "Southern Desert", "ASSOCIATION": "USA - CA", "POINTS": "2", "BONUSPOINTS": "3"}}, {"type": "Feature", "geometry": {"type": "Point", "coordinates": [-115.7798, 33.569]}, "properties": {"NAME": "W6/SD-163", "TITLE": "Orocopia Mountains (HP)", "REGION": "Southern Desert", "ASSOCIATION": "USA - CA", "POINTS": "2", "BONUSPOINTS": "3"}}, {"type": "Feature", "geometry": {"type": "Point", "coordinates": [-115.3549, 33.9843]}, "properties": {"NAME": "W6/SD-164", "TITLE": "3815", "REGION": "Southern Desert", "ASSOCIATION": "USA - CA", "POINTS": "2", "BONUSPOINTS": "3"}}, {"type": "Feature", "geometry": {"type": "Point", "coordinates": [-117.0008, 34.4636]}, "properties": {"NAME": "W6/SD-165", "TITLE": "3808", "REGION": "Southern Desert", "ASSOCIATION": "USA - CA", "POINTS": "2", "BONUSPOINTS": "3"}}, {"type": "Feature", "geometry": {"type": "Point", "coordinates": [-116.3408, 34.1733]}, "properties": {"NAME": "W6/SD-166", "TITLE": "Bartlett Mountains (HP)", "REGION": "Southern Desert", "ASSOCIATION": "USA - CA", "POINTS": "2", "BONUSPOINTS": "3"}}, {"type": "Feature", "geometry": {"type": "Point", "coordinates": [-114.8078, 34.3897]}, "properties": {"NAME": "W6/SD-167", "TITLE": "Carsons Benchmark", "REGION": "Southern Desert", "ASSOCIATION": "USA - CA", "POINTS": "2", "BONUSPOINTS": "3"}}, {"type": "Feature", "geometry": {"type": "Point", "coordinates": [-115.4537, 33.6554]}, "properties": {"NAME": "W6/SD-168", "TITLE": "3780", "REGION": "Southern Desert", "ASSOCIATION": "USA - CA", "POINTS": "2", "BONUSPOINTS": "3"}}, {"type": "Feature", "geometry": {"type": "Point", "coordinates": [-116.1251, 34.4638]}, "properties": {"NAME": "W6/SD-169", "TITLE": "3776", "REGION": "Southern Desert", "ASSOCIATION": "USA - CA", "POINTS": "2", "BONUSPOINTS": "3"}}, {"type": "Feature", "geometry": {"type": "Point", "coordinates": [-115.182, 34.4064]}, "properties": {"NAME": "W6/SD-170", "TITLE": "3769", "REGION": "Southern Desert", "ASSOCIATION": "USA - CA", "POINTS": "2", "BONUSPOINTS": "3"}}, {"type": "Feature", "geometry": {"type": "Point", "coordinates": [-116.5148, 34.4911]}, "properties": {"NAME": "W6/SD-171", "TITLE": "3768", "REGION": "Southern Desert", "ASSOCIATION": "USA - CA", "POINTS": "2", "BONUSPOINTS": "3"}}, {"type": "Feature", "geometry": {"type": "Point", "coordinates": [-116.0858, 34.3431]}, "properties": {"NAME": "W6/SD-172", "TITLE": "3765", "REGION": "Southern Desert", "ASSOCIATION": "USA - CA", "POINTS": "2", "BONUSPOINTS": "3"}}, {"type": "Feature", "geometry": {"type": "Point", "coordinates": [-115.1785, 34.3495]}, "properties": {"NAME": "W6/SD-173", "TITLE": "3763", "REGION": "Southern Desert", "ASSOCIATION": "USA - CA", "POINTS": "2", "BONUSPOINTS": "3"}}, {"type": "Feature", "geometry": {"type": "Point", "coordinates": [-115.5453, 33.7527]}, "properties": {"NAME": "W6/SD-174", "TITLE": "3740", "REGION": "Southern Desert", "ASSOCIATION": "USA - CA", "POINTS": "2", "BONUSPOINTS": "3"}}, {"type": "Feature", "geometry": {"type": "Point", "coordinates": [-114.9202, 35.0347]}, "properties": {"NAME": "W6/SD-175", "TITLE": "Homer Mountain", "REGION": "Southern Desert", "ASSOCIATION": "USA - CA", "POINTS": "2", "BONUSPOINTS": "3"}}, {"type": "Feature", "geometry": {"type": "Point", "coordinates": [-115.4707, 34.1689]}, "properties": {"NAME": "W6/SD-176", "TITLE": "Range Benchmark", "REGION": "Southern Desert", "ASSOCIATION": "USA - CA", "POINTS": "2", "BONUSPOINTS": "3"}}, {"type": "Feature", "geometry": {"type": "Point", "coordinates": [-115.8259, 35.055]}, "properties": {"NAME": "W6/SD-177", "TITLE": "3720", "REGION": "Southern Desert", "ASSOCIATION": "USA - CA", "POINTS": "2", "BONUSPOINTS": "3"}}, {"type": "Feature", "geometry": {"type": "Point", "coordinates": [-115.8134, 35.0748]}, "properties": {"NAME": "W6/SD-178", "TITLE": "3713", "REGION": "Southern Desert", "ASSOCIATION": "USA - CA", "POINTS": "2", "BONUSPOINTS": "3"}}, {"type": "Feature", "geometry": {"type": "Point", "coordinates": [-115.7744, 34.2509]}, "properties": {"NAME": "W6/SD-179", "TITLE": "3700", "REGION": "Southern Desert", "ASSOCIATION": "USA - CA", "POINTS": "2", "BONUSPOINTS": "3"}}, {"type": "Feature", "geometry": {"type": "Point", "coordinates": [-114.5627, 34.5521]}, "properties": {"NAME": "W6/SD-180", "TITLE": "Chemehuevi Peak", "REGION": "Southern Desert", "ASSOCIATION": "USA - CA", "POINTS": "2", "BONUSPOINTS": "3"}}, {"type": "Feature", "geometry": {"type": "Point", "coordinates": [-117.2261, 34.5651]}, "properties": {"NAME": "W6/SD-181", "TITLE": "3690", "REGION": "Southern Desert", "ASSOCIATION": "USA - CA", "POINTS": "2", "BONUSPOINTS": "3"}}, {"type": "Feature", "geometry": {"type": "Point", "coordinates": [-115.8454, 34.0212]}, "properties": {"NAME": "W6/SD-182", "TITLE": "3677", "REGION": "Southern Desert", "ASSOCIATION": "USA - CA", "POINTS": "2", "BONUSPOINTS": "3"}}, {"type": "Feature", "geometry": {"type": "Point", "coordinates": [-116.3683, 34.2978]}, "properties": {"NAME": "W6/SD-183", "TITLE": "Goat Mountain", "REGION": "Southern Desert", "ASSOCIATION": "USA - CA", "POINTS": "2", "BONUSPOINTS": "3"}}, {"type": "Feature", "geometry": {"type": "Point", "coordinates": [-116.4109, 33.094]}, "properties": {"NAME": "W6/SD-184", "TITLE": "North Pinyon Mountains (HP)", "REGION": "Southern Desert", "ASSOCIATION": "USA - CA", "POINTS": "2", "BONUSPOINTS": "3"}}, {"type": "Feature", "geometry": {"type": "Point", "coordinates": [-116.2776, 33.1024]}, "properties": {"NAME": "W6/SD-185", "TITLE": "Sunset Mountain", "REGION": "Southern Desert", "ASSOCIATION": "USA - CA", "POINTS": "2", "BONUSPOINTS": "3"}}, {"type": "Feature", "geometry": {"type": "Point", "coordinates": [-117.226, 34.5493]}, "properties": {"NAME": "W6/SD-186", "TITLE": "Catholic Hill", "REGION": "Southern Desert", "ASSOCIATION": "USA - CA", "POINTS": "2", "BONUSPOINTS": "3"}}, {"type": "Feature", "geometry": {"type": "Point", "coordinates": [-115.9195, 33.9905]}, "properties": {"NAME": "W6/SD-187", "TITLE": "3641", "REGION": "Southern Desert", "ASSOCIATION": "USA - CA", "POINTS": "2", "BONUSPOINTS": "3"}}, {"type": "Feature", "geometry": {"type": "Point", "coordinates": [-115.4122, 34.0088]}, "properties": {"NAME": "W6/SD-188", "TITLE": "3638", "REGION": "Southern Desert", "ASSOCIATION": "USA - CA", "POINTS": "2", "BONUSPOINTS": "3"}}, {"type": "Feature", "geometry": {"type": "Point", "coordinates": [-116.4148, 34.9226]}, "properties": {"NAME": "W6/SD-189", "TITLE": "Mellon Benchmark", "REGION": "Southern Desert", "ASSOCIATION": "USA - CA", "POINTS": "2", "BONUSPOINTS": "3"}}, {"type": "Feature", "geometry": {"type": "Point", "coordinates": [-116.6846, 34.8086]}, "properties": {"NAME": "W6/SD-190", "TITLE": "Newberry Peak", "REGION": "Southern Desert", "ASSOCIATION": "USA - CA", "POINTS": "2", "BONUSPOINTS": "3"}}, {"type": "Feature", "geometry": {"type": "Point", "coordinates": [-116.3235, 35.0709]}, "properties": {"NAME": "W6/SD-191", "TITLE": "Cave Mountain", "REGION": "Southern Desert", "ASSOCIATION": "USA - CA", "POINTS": "2", "BONUSPOINTS": "3"}}, {"type": "Feature", "geometry": {"type": "Point", "coordinates": [-115.9432, 34.7564]}, "properties": {"NAME": "W6/SD-192", "TITLE": "3622", "REGION": "Southern Desert", "ASSOCIATION": "USA - CA", "POINTS": "2", "BONUSPOINTS": "3"}}, {"type": "Feature", "geometry": {"type": "Point", "coordinates": [-116.0534, 34.9289]}, "properties": {"NAME": "W6/SD-193", "TITLE": "3618", "REGION": "Southern Desert", "ASSOCIATION": "USA - CA", "POINTS": "2", "BONUSPOINTS": "3"}}, {"type": "Feature", "geometry": {"type": "Point", "coordinates": [-115.0948, 33.7709]}, "properties": {"NAME": "W6/SD-194", "TITLE": "3618", "REGION": "Southern Desert", "ASSOCIATION": "USA - CA", "POINTS": "2", "BONUSPOINTS": "3"}}, {"type": "Feature", "geometry": {"type": "Point", "coordinates": [-115.9273, 34.9494]}, "properties": {"NAME": "W6/SD-195", "TITLE": "Sands Benchmark", "REGION": "Southern Desert", "ASSOCIATION": "USA - CA", "POINTS": "2", "BONUSPOINTS": "3"}}, {"type": "Feature", "geometry": {"type": "Point", "coordinates": [-116.1061, 34.3959]}, "properties": {"NAME": "W6/SD-196", "TITLE": "3613", "REGION": "Southern Desert", "ASSOCIATION": "USA - CA", "POINTS": "2", "BONUSPOINTS": "3"}}, {"type": "Feature", "geometry": {"type": "Point", "coordinates": [-115.0683, 34.8806]}, "properties": {"NAME": "W6/SD-197", "TITLE": "Goffs Butte", "REGION": "Southern Desert", "ASSOCIATION": "USA - CA", "POINTS": "2", "BONUSPOINTS": "3"}}, {"type": "Feature", "geometry": {"type": "Point", "coordinates": [-116.5497, 34.4046]}, "properties": {"NAME": "W6/SD-198", "TITLE": "Means Benchmark", "REGION": "Southern Desert", "ASSOCIATION": "USA - CA", "POINTS": "2", "BONUSPOINTS": "3"}}, {"type": "Feature", "geometry": {"type": "Point", "coordinates": [-114.7489, 35.0278]}, "properties": {"NAME": "W6/SD-199", "TITLE": "Mount Manchester", "REGION": "Southern Desert", "ASSOCIATION": "USA - CA", "POINTS": "2", "BONUSPOINTS": "3"}}, {"type": "Feature", "geometry": {"type": "Point", "coordinates": [-114.8248, 34.3899]}, "properties": {"NAME": "W6/SD-200", "TITLE": "3585", "REGION": "Southern Desert", "ASSOCIATION": "USA - CA", "POINTS": "2", "BONUSPOINTS": "3"}}, {"type": "Feature", "geometry": {"type": "Point", "coordinates": [-116.466, 34.3792]}, "properties": {"NAME": "W6/SD-201", "TITLE": "3584", "REGION": "Southern Desert", "ASSOCIATION": "USA - CA", "POINTS": "2", "BONUSPOINTS": "3"}}, {"type": "Feature", "geometry": {"type": "Point", "coordinates": [-116.2095, 33.0636]}, "properties": {"NAME": "W6/SD-202", "TITLE": "3583", "REGION": "Southern Desert", "ASSOCIATION": "USA - CA", "POINTS": "2", "BONUSPOINTS": "3"}}, {"type": "Feature", "geometry": {"type": "Point", "coordinates": [-116.3301, 33.0744]}, "properties": {"NAME": "W6/SD-203", "TITLE": "3567", "REGION": "Southern Desert", "ASSOCIATION": "USA - CA", "POINTS": "2", "BONUSPOINTS": "3"}}, {"type": "Feature", "geometry": {"type": "Point", "coordinates": [-115.7976, 34.3832]}, "properties": {"NAME": "W6/SD-204", "TITLE": "Buff Benchmark", "REGION": "Southern Desert", "ASSOCIATION": "USA - CA", "POINTS": "2", "BONUSPOINTS": "3"}}, {"type": "Feature", "geometry": {"type": "Point", "coordinates": [-115.0333, 34.8504]}, "properties": {"NAME": "W6/SD-205", "TITLE": "Mount Walter", "REGION": "Southern Desert", "ASSOCIATION": "USA - CA", "POINTS": "2", "BONUSPOINTS": "3"}}, {"type": "Feature", "geometry": {"type": "Point", "coordinates": [-115.2023, 34.3945]}, "properties": {"NAME": "W6/SD-206", "TITLE": "3559", "REGION": "Southern Desert", "ASSOCIATION": "USA - CA", "POINTS": "2", "BONUSPOINTS": "3"}}, {"type": "Feature", "geometry": {"type": "Point", "coordinates": [-114.7648, 34.2973]}, "properties": {"NAME": "W6/SD-207", "TITLE": "Umpah Point", "REGION": "Southern Desert", "ASSOCIATION": "USA - CA", "POINTS": "2", "BONUSPOINTS": "3"}}, {"type": "Feature", "geometry": {"type": "Point", "coordinates": [-114.5248, 34.5493]}, "properties": {"NAME": "W6/SD-208", "TITLE": "Rocky 2 Benchmark", "REGION": "Southern Desert", "ASSOCIATION": "USA - CA", "POINTS": "2", "BONUSPOINTS": "3"}}, {"type": "Feature", "geometry": {"type": "Point", "coordinates": [-115.5171, 33.8968]}, "properties": {"NAME": "W6/SD-209", "TITLE": "Mission Benchmark", "REGION": "Southern Desert", "ASSOCIATION": "USA - CA", "POINTS": "2", "BONUSPOINTS": "3"}}, {"type": "Feature", "geometry": {"type": "Point", "coordinates": [-115.4213, 33.6534]}, "properties": {"NAME": "W6/SD-210", "TITLE": "3533", "REGION": "Southern Desert", "ASSOCIATION": "USA - CA", "POINTS": "2", "BONUSPOINTS": "3"}}, {"type": "Feature", "geometry": {"type": "Point", "coordinates": [-114.7651, 34.3104]}, "properties": {"NAME": "W6/SD-211", "TITLE": "East Mopah Peaks", "REGION": "Southern Desert", "ASSOCIATION": "USA - CA", "POINTS": "2", "BONUSPOINTS": "3"}}, {"type": "Feature", "geometry": {"type": "Point", "coordinates": [-116.1925, 34.6424]}, "properties": {"NAME": "W6/SD-212", "TITLE": "Reef Benchmark", "REGION": "Southern Desert", "ASSOCIATION": "USA - CA", "POINTS": "2", "BONUSPOINTS": "3"}}, {"type": "Feature", "geometry": {"type": "Point", "coordinates": [-115.9625, 34.8669]}, "properties": {"NAME": "W6/SD-213", "TITLE": "3503", "REGION": "Southern Desert", "ASSOCIATION": "USA - CA", "POINTS": "2", "BONUSPOINTS": "3"}}, {"type": "Feature", "geometry": {"type": "Point", "coordinates": [-116.4896, 33.3897]}, "properties": {"NAME": "W6/SD-214", "TITLE": "3500", "REGION": "Southern Desert", "ASSOCIATION": "USA - CA", "POINTS": "2", "BONUSPOINTS": "3"}}, {"type": "Feature", "geometry": {"type": "Point", "coordinates": [-115.7973, 34.6853]}, "properties": {"NAME": "W6/SD-215", "TITLE": "Orange Benchmark", "REGION": "Southern Desert", "ASSOCIATION": "USA - CA", "POINTS": "2", "BONUSPOINTS": "3"}}, {"type": "Feature", "geometry": {"type": "Point", "coordinates": [-116.5323, 34.4175]}, "properties": {"NAME": "W6/SD-216", "TITLE": "3484", "REGION": "Southern Desert", "ASSOCIATION": "USA - CA", "POINTS": "2", "BONUSPOINTS": "3"}}, {"type": "Feature", "geometry": {"type": "Point", "coordinates": [-116.0792, 34.3146]}, "properties": {"NAME": "W6/SD-217", "TITLE": "Segundo Benchmark", "REGION": "Southern Desert", "ASSOCIATION": "USA - CA", "POINTS": "2", "BONUSPOINTS": "3"}}, {"type": "Feature", "geometry": {"type": "Point", "coordinates": [-117.044, 34.7849]}, "properties": {"NAME": "W6/SD-218", "TITLE": "Watkins Benchmark", "REGION": "Southern Desert", "ASSOCIATION": "USA - CA", "POINTS": "2", "BONUSPOINTS": "3"}}, {"type": "Feature", "geometry": {"type": "Point", "coordinates": [-115.0568, 34.6392]}, "properties": {"NAME": "W6/SD-219", "TITLE": "Titina Benchmark", "REGION": "Southern Desert", "ASSOCIATION": "USA - CA", "POINTS": "2", "BONUSPOINTS": "3"}}, {"type": "Feature", "geometry": {"type": "Point", "coordinates": [-116.3982, 34.3311]}, "properties": {"NAME": "W6/SD-220", "TITLE": "Spy Mountain", "REGION": "Southern Desert", "ASSOCIATION": "USA - CA", "POINTS": "2", "BONUSPOINTS": "3"}}, {"type": "Feature", "geometry": {"type": "Point", "coordinates": [-116.5374, 34.0445]}, "properties": {"NAME": "W6/SD-221", "TITLE": "3466", "REGION": "Southern Desert", "ASSOCIATION": "USA - CA", "POINTS": "2", "BONUSPOINTS": "3"}}, {"type": "Feature", "geometry": {"type": "Point", "coordinates": [-114.7867, 34.3763]}, "properties": {"NAME": "W6/SD-222", "TITLE": "3461", "REGION": "Southern Desert", "ASSOCIATION": "USA - CA", "POINTS": "2", "BONUSPOINTS": "3"}}, {"type": "Feature", "geometry": {"type": "Point", "coordinates": [-114.747, 34.2821]}, "properties": {"NAME": "W6/SD-223", "TITLE": "Kettle Benchmark", "REGION": "Southern Desert", "ASSOCIATION": "USA - CA", "POINTS": "2", "BONUSPOINTS": "3"}}, {"type": "Feature", "geometry": {"type": "Point", "coordinates": [-116.409, 32.9981]}, "properties": {"NAME": "W6/SD-224", "TITLE": "3459", "REGION": "Southern Desert", "ASSOCIATION": "USA - CA", "POINTS": "2", "BONUSPOINTS": "3"}}, {"type": "Feature", "geometry": {"type": "Point", "coordinates": [-116.4375, 34.3587]}, "properties": {"NAME": "W6/SD-225", "TITLE": "3455", "REGION": "Southern Desert", "ASSOCIATION": "USA - CA", "POINTS": "2", "BONUSPOINTS": "3"}}, {"type": "Feature", "geometry": {"type": "Point", "coordinates": [-115.1682, 33.4549]}, "properties": {"NAME": "W6/SD-226", "TITLE": "Bunch Benchmark", "REGION": "Southern Desert", "ASSOCIATION": "USA - CA", "POINTS": "2", "BONUSPOINTS": "3"}}, {"type": "Feature", "geometry": {"type": "Point", "coordinates": [-115.1035, 33.7586]}, "properties": {"NAME": "W6/SD-227", "TITLE": "3441", "REGION": "Southern Desert", "ASSOCIATION": "USA - CA", "POINTS": "2", "BONUSPOINTS": "3"}}, {"type": "Feature", "geometry": {"type": "Point", "coordinates": [-114.7777, 34.331]}, "properties": {"NAME": "W6/SD-228", "TITLE": "3428", "REGION": "Southern Desert", "ASSOCIATION": "USA - CA", "POINTS": "2", "BONUSPOINTS": "3"}}, {"type": "Feature", "geometry": {"type": "Point", "coordinates": [-115.6829, 34.0467]}, "properties": {"NAME": "W6/SD-229", "TITLE": "3399", "REGION": "Southern Desert", "ASSOCIATION": "USA - CA", "POINTS": "2", "BONUSPOINTS": "3"}}, {"type": "Feature", "geometry": {"type": "Point", "coordinates": [-116.0551, 34.8491]}, "properties": {"NAME": "W6/SD-230", "TITLE": "3389", "REGION": "Southern Desert", "ASSOCIATION": "USA - CA", "POINTS": "2", "BONUSPOINTS": "3"}}, {"type": "Feature", "geometry": {"type": "Point", "coordinates": [-114.6692, 33.8679]}, "properties": {"NAME": "W6/SD-231", "TITLE": "Big Maria Mountains (HP)", "REGION": "Southern Desert", "ASSOCIATION": "USA - CA", "POINTS": "2", "BONUSPOINTS": "3"}}, {"type": "Feature", "geometry": {"type": "Point", "coordinates": [-114.6633, 33.8783]}, "properties": {"NAME": "W6/SD-232", "TITLE": "3379", "REGION": "Southern Desert", "ASSOCIATION": "USA - CA", "POINTS": "2", "BONUSPOINTS": "3"}}, {"type": "Feature", "geometry": {"type": "Point", "coordinates": [-116.3631, 34.3232]}, "properties": {"NAME": "W6/SD-233", "TITLE": "3369", "REGION": "Southern Desert", "ASSOCIATION": "USA - CA", "POINTS": "2", "BONUSPOINTS": "3"}}, {"type": "Feature", "geometry": {"type": "Point", "coordinates": [-115.5753, 33.7829]}, "properties": {"NAME": "W6/SD-234", "TITLE": "3358", "REGION": "Southern Desert", "ASSOCIATION": "USA - CA", "POINTS": "2", "BONUSPOINTS": "3"}}, {"type": "Feature", "geometry": {"type": "Point", "coordinates": [-114.3509, 34.2868]}, "properties": {"NAME": "W6/SD-235", "TITLE": "3357", "REGION": "Southern Desert", "ASSOCIATION": "USA - CA", "POINTS": "2", "BONUSPOINTS": "3"}}, {"type": "Feature", "geometry": {"type": "Point", "coordinates": [-115.593, 34.6559]}, "properties": {"NAME": "W6/SD-236", "TITLE": "3356", "REGION": "Southern Desert", "ASSOCIATION": "USA - CA", "POINTS": "2", "BONUSPOINTS": "3"}}, {"type": "Feature", "geometry": {"type": "Point", "coordinates": [-115.998, 34.7961]}, "properties": {"NAME": "W6/SD-237", "TITLE": "Coronado Benchmark", "REGION": "Southern Desert", "ASSOCIATION": "USA - CA", "POINTS": "2", "BONUSPOINTS": "3"}}, {"type": "Feature", "geometry": {"type": "Point", "coordinates": [-115.1867, 34.138]}, "properties": {"NAME": "W6/SD-238", "TITLE": "Iron Mountains (HP)", "REGION": "Southern Desert", "ASSOCIATION": "USA - CA", "POINTS": "2", "BONUSPOINTS": "3"}}, {"type": "Feature", "geometry": {"type": "Point", "coordinates": [-115.7051, 34.0577]}, "properties": {"NAME": "W6/SD-239", "TITLE": "Ivanhoe Benchmark", "REGION": "Southern Desert", "ASSOCIATION": "USA - CA", "POINTS": "2", "BONUSPOINTS": "3"}}, {"type": "Feature", "geometry": {"type": "Point", "coordinates": [-114.8825, 34.8636]}, "properties": {"NAME": "W6/SD-240", "TITLE": "Sacramento Mountains (HP)", "REGION": "Southern Desert", "ASSOCIATION": "USA - CA", "POINTS": "2", "BONUSPOINTS": "3"}}, {"type": "Feature", "geometry": {"type": "Point", "coordinates": [-114.8585, 34.8368]}, "properties": {"NAME": "W6/SD-241", "TITLE": "Bannock Benchmark", "REGION": "Southern Desert", "ASSOCIATION": "USA - CA", "POINTS": "2", "BONUSPOINTS": "3"}}, {"type": "Feature", "geometry": {"type": "Point", "coordinates": [-114.7553, 34.7786]}, "properties": {"NAME": "W6/SD-242", "TITLE": "Eagle Peak", "REGION": "Southern Desert", "ASSOCIATION": "USA - CA", "POINTS": "2", "BONUSPOINTS": "3"}}, {"type": "Feature", "geometry": {"type": "Point", "coordinates": [-115.1846, 34.1586]}, "properties": {"NAME": "W6/SD-243", "TITLE": "North Iron Benchmark", "REGION": "Southern Desert", "ASSOCIATION": "USA - CA", "POINTS": "2", "BONUSPOINTS": "3"}}, {"type": "Feature", "geometry": {"type": "Point", "coordinates": [-115.5939, 34.028]}, "properties": {"NAME": "W6/SD-244", "TITLE": "Outlaw Benchmark", "REGION": "Southern Desert", "ASSOCIATION": "USA - CA", "POINTS": "2", "BONUSPOINTS": "3"}}, {"type": "Feature", "geometry": {"type": "Point", "coordinates": [-116.0458, 34.7545]}, "properties": {"NAME": "W6/SD-245", "TITLE": "3287", "REGION": "Southern Desert", "ASSOCIATION": "USA - CA", "POINTS": "2", "BONUSPOINTS": "3"}}, {"type": "Feature", "geometry": {"type": "Point", "coordinates": [-115.2891, 33.5113]}, "properties": {"NAME": "W6/SD-246", "TITLE": "Bau Benchmark", "REGION": "Southern Desert", "ASSOCIATION": "USA - CA", "POINTS": "2", "BONUSPOINTS": "3"}}, {"type": "Feature", "geometry": {"type": "Point", "coordinates": [-115.8964, 35.1493]}, "properties": {"NAME": "W6/SD-247", "TITLE": "3284", "REGION": "Southern Desert", "ASSOCIATION": "USA - CA", "POINTS": "2", "BONUSPOINTS": "3"}}, {"type": "Feature", "geometry": {"type": "Point", "coordinates": [-115.0578, 33.8163]}, "properties": {"NAME": "W6/SD-248", "TITLE": "3254", "REGION": "Southern Desert", "ASSOCIATION": "USA - CA", "POINTS": "2", "BONUSPOINTS": "3"}}, {"type": "Feature", "geometry": {"type": "Point", "coordinates": [-114.5156, 34.5547]}, "properties": {"NAME": "W6/SD-249", "TITLE": "3245", "REGION": "Southern Desert", "ASSOCIATION": "USA - CA", "POINTS": "2", "BONUSPOINTS": "3"}}, {"type": "Feature", "geometry": {"type": "Point", "coordinates": [-115.4017, 34.4901]}, "properties": {"NAME": "W6/SD-250", "TITLE": "Ship Benchmark", "REGION": "Southern Desert", "ASSOCIATION": "USA - CA", "POINTS": "2", "BONUSPOINTS": "3"}}, {"type": "Feature", "geometry": {"type": "Point", "coordinates": [-115.0598, 33.7823]}, "properties": {"NAME": "W6/SD-251", "TITLE": "3231", "REGION": "Southern Desert", "ASSOCIATION": "USA - CA", "POINTS": "2", "BONUSPOINTS": "3"}}, {"type": "Feature", "geometry": {"type": "Point", "coordinates": [-115.5861, 33.8769]}, "properties": {"NAME": "W6/SD-252", "TITLE": "3231", "REGION": "Southern Desert", "ASSOCIATION": "USA - CA", "POINTS": "2", "BONUSPOINTS": "3"}}, {"type": "Feature", "geometry": {"type": "Point", "coordinates": [-115.0756, 34.4948]}, "properties": {"NAME": "W6/SD-253", "TITLE": "3218", "REGION": "Southern Desert", "ASSOCIATION": "USA - CA", "POINTS": "2", "BONUSPOINTS": "3"}}, {"type": "Feature", "geometry": {"type": "Point", "coordinates": [-115.4028, 34.4781]}, "properties": {"NAME": "W6/SD-254", "TITLE": "3208", "REGION": "Southern Desert", "ASSOCIATION": "USA - CA", "POINTS": "2", "BONUSPOINTS": "3"}}, {"type": "Feature", "geometry": {"type": "Point", "coordinates": [-116.3287, 33.3434]}, "properties": {"NAME": "W6/SD-255", "TITLE": "Coyote Mountain", "REGION": "Southern Desert", "ASSOCIATION": "USA - CA", "POINTS": "2", "BONUSPOINTS": "3"}}, {"type": "Feature", "geometry": {"type": "Point", "coordinates": [-115.2214, 34.1952]}, "properties": {"NAME": "W6/SD-256", "TITLE": "3192", "REGION": "Southern Desert", "ASSOCIATION": "USA - CA", "POINTS": "2", "BONUSPOINTS": "3"}}, {"type": "Feature", "geometry": {"type": "Point", "coordinates": [-114.7334, 34.8053]}, "properties": {"NAME": "W6/SD-257", "TITLE": "Nomento Benchmark", "REGION": "Southern Desert", "ASSOCIATION": "USA - CA", "POINTS": "2", "BONUSPOINTS": "3"}}, {"type": "Feature", "geometry": {"type": "Point", "coordinates": [-115.7837, 34.0187]}, "properties": {"NAME": "W6/SD-258", "TITLE": "3172", "REGION": "Southern Desert", "ASSOCIATION": "USA - CA", "POINTS": "2", "BONUSPOINTS": "3"}}, {"type": "Feature", "geometry": {"type": "Point", "coordinates": [-115.1407, 34.4301]}, "properties": {"NAME": "W6/SD-259", "TITLE": "3159", "REGION": "Southern Desert", "ASSOCIATION": "USA - CA", "POINTS": "2", "BONUSPOINTS": "3"}}, {"type": "Feature", "geometry": {"type": "Point", "coordinates": [-115.3594, 33.6467]}, "properties": {"NAME": "W6/SD-260", "TITLE": "Hi Corn", "REGION": "Southern Desert", "ASSOCIATION": "USA - CA", "POINTS": "2", "BONUSPOINTS": "3"}}, {"type": "Feature", "geometry": {"type": "Point", "coordinates": [-115.4928, 34.0871]}, "properties": {"NAME": "W6/SD-261", "TITLE": "Duct Benchmark", "REGION": "Southern Desert", "ASSOCIATION": "USA - CA", "POINTS": "2", "BONUSPOINTS": "3"}}, {"type": "Feature", "geometry": {"type": "Point", "coordinates": [-115.5552, 34.0378]}, "properties": {"NAME": "W6/SD-262", "TITLE": "3106", "REGION": "Southern Desert", "ASSOCIATION": "USA - CA", "POINTS": "2", "BONUSPOINTS": "3"}}, {"type": "Feature", "geometry": {"type": "Point", "coordinates": [-114.8298, 34.83]}, "properties": {"NAME": "W6/SD-263", "TITLE": "Flattop Mountain", "REGION": "Southern Desert", "ASSOCIATION": "USA - CA", "POINTS": "2", "BONUSPOINTS": "3"}}, {"type": "Feature", "geometry": {"type": "Point", "coordinates": [-115.532, 34.1631]}, "properties": {"NAME": "W6/SD-264", "TITLE": "3100", "REGION": "Southern Desert", "ASSOCIATION": "USA - CA", "POINTS": "2", "BONUSPOINTS": "3"}}, {"type": "Feature", "geometry": {"type": "Point", "coordinates": [-116.2611, 34.6345]}, "properties": {"NAME": "W6/SD-265", "TITLE": "3097", "REGION": "Southern Desert", "ASSOCIATION": "USA - CA", "POINTS": "2", "BONUSPOINTS": "3"}}, {"type": "Feature", "geometry": {"type": "Point", "coordinates": [-115.3537, 33.922]}, "properties": {"NAME": "W6/SD-266", "TITLE": "3092", "REGION": "Southern Desert", "ASSOCIATION": "USA - CA", "POINTS": "2", "BONUSPOINTS": "3"}}, {"type": "Feature", "geometry": {"type": "Point", "coordinates": [-116.202, 34.1544]}, "properties": {"NAME": "W6/SD-267", "TITLE": "Copper Mountain", "REGION": "Southern Desert", "ASSOCIATION": "USA - CA", "POINTS": "2", "BONUSPOINTS": "3"}}, {"type": "Feature", "geometry": {"type": "Point", "coordinates": [-116.1557, 34.8779]}, "properties": {"NAME": "W6/SD-268", "TITLE": "3067", "REGION": "Southern Desert", "ASSOCIATION": "USA - CA", "POINTS": "2", "BONUSPOINTS": "3"}}, {"type": "Feature", "geometry": {"type": "Point", "coordinates": [-116.1598, 34.8911]}, "properties": {"NAME": "W6/SD-269", "TITLE": "3061", "REGION": "Southern Desert", "ASSOCIATION": "USA - CA", "POINTS": "2", "BONUSPOINTS": "3"}}, {"type": "Feature", "geometry": {"type": "Point", "coordinates": [-115.6166, 33.4752]}, "properties": {"NAME": "W6/SD-270", "TITLE": "Chocolate Mountains (HP)", "REGION": "Southern Desert", "ASSOCIATION": "USA - CA", "POINTS": "2", "BONUSPOINTS": "3"}}, {"type": "Feature", "geometry": {"type": "Point", "coordinates": [-114.7983, 34.4069]}, "properties": {"NAME": "W6/SD-271", "TITLE": "3054", "REGION": "Southern Desert", "ASSOCIATION": "USA - CA", "POINTS": "2", "BONUSPOINTS": "3"}}, {"type": "Feature", "geometry": {"type": "Point", "coordinates": [-114.9262, 33.9002]}, "properties": {"NAME": "W6/SD-272", "TITLE": "Buck Benchmark", "REGION": "Southern Desert", "ASSOCIATION": "USA - CA", "POINTS": "2", "BONUSPOINTS": "3"}}, {"type": "Feature", "geometry": {"type": "Point", "coordinates": [-115.3601, 33.9129]}, "properties": {"NAME": "W6/SD-273", "TITLE": "Cox Benchmark", "REGION": "Southern Desert", "ASSOCIATION": "USA - CA", "POINTS": "2", "BONUSPOINTS": "3"}}, {"type": "Feature", "geometry": {"type": "Point", "coordinates": [-114.8807, 34.2635]}, "properties": {"NAME": "W6/SD-274", "TITLE": "3024", "REGION": "Southern Desert", "ASSOCIATION": "USA - CA", "POINTS": "2", "BONUSPOINTS": "3"}}, {"type": "Feature", "geometry": {"type": "Point", "coordinates": [-114.2858, 34.3017]}, "properties": {"NAME": "W6/SD-275", "TITLE": "3012", "REGION": "Southern Desert", "ASSOCIATION": "USA - CA", "POINTS": "2", "BONUSPOINTS": "3"}}, {"type": "Feature", "geometry": {"type": "Point", "coordinates": [-115.9918, 34.9967]}, "properties": {"NAME": "W6/SD-276", "TITLE": "3001", "REGION": "Southern Desert", "ASSOCIATION": "USA - CA", "POINTS": "2", "BONUSPOINTS": "3"}}, {"type": "Feature", "geometry": {"type": "Point", "coordinates": [-115.2138, 34.4248]}, "properties": {"NAME": "W6/SD-277", "TITLE": "3001", "REGION": "Southern Desert", "ASSOCIATION": "USA - CA", "POINTS": "2", "BONUSPOINTS": "3"}}, {"type": "Feature", "geometry": {"type": "Point", "coordinates": [-115.6045, 34.1638]}, "properties": {"NAME": "W6/SD-278", "TITLE": "2995", "REGION": "Southern Desert", "ASSOCIATION": "USA - CA", "POINTS": "2", "BONUSPOINTS": "3"}}, {"type": "Feature", "geometry": {"type": "Point", "coordinates": [-114.6454, 33.8155]}, "properties": {"NAME": "W6/SD-279", "TITLE": "2990", "REGION": "Southern Desert", "ASSOCIATION": "USA - CA", "POINTS": "2", "BONUSPOINTS": "3"}}, {"type": "Feature", "geometry": {"type": "Point", "coordinates": [-114.5835, 34.6298]}, "properties": {"NAME": "W6/SD-280", "TITLE": "2987", "REGION": "Southern Desert", "ASSOCIATION": "USA - CA", "POINTS": "2", "BONUSPOINTS": "3"}}, {"type": "Feature", "geometry": {"type": "Point", "coordinates": [-115.3275, 33.8579]}, "properties": {"NAME": "W6/SD-281", "TITLE": "2973", "REGION": "Southern Desert", "ASSOCIATION": "USA - CA", "POINTS": "2", "BONUSPOINTS": "3"}}, {"type": "Feature", "geometry": {"type": "Point", "coordinates": [-115.0401, 33.8543]}, "properties": {"NAME": "W6/SD-282", "TITLE": "2969", "REGION": "Southern Desert", "ASSOCIATION": "USA - CA", "POINTS": "2", "BONUSPOINTS": "3"}}, {"type": "Feature", "geometry": {"type": "Point", "coordinates": [-115.451, 34.0124]}, "properties": {"NAME": "W6/SD-283", "TITLE": "2956", "REGION": "Southern Desert", "ASSOCIATION": "USA - CA", "POINTS": "2", "BONUSPOINTS": "3"}}, {"type": "Feature", "geometry": {"type": "Point", "coordinates": [-114.3265, 34.3077]}, "properties": {"NAME": "W6/SD-284", "TITLE": "2940", "REGION": "Southern Desert", "ASSOCIATION": "USA - CA", "POINTS": "2", "BONUSPOINTS": "3"}}, {"type": "Feature", "geometry": {"type": "Point", "coordinates": [-115.2768, 33.5752]}, "properties": {"NAME": "W6/SD-285", "TITLE": "2940", "REGION": "Southern Desert", "ASSOCIATION": "USA - CA", "POINTS": "2", "BONUSPOINTS": "3"}}, {"type": "Feature", "geometry": {"type": "Point", "coordinates": [-115.141, 33.4576]}, "properties": {"NAME": "W6/SD-286", "TITLE": "2940", "REGION": "Southern Desert", "ASSOCIATION": "USA - CA", "POINTS": "2", "BONUSPOINTS": "3"}}, {"type": "Feature", "geometry": {"type": "Point", "coordinates": [-114.8305, 34.6916]}, "properties": {"NAME": "W6/SD-287", "TITLE": "Big Chief Benchmark", "REGION": "Southern Desert", "ASSOCIATION": "USA - CA", "POINTS": "2", "BONUSPOINTS": "3"}}, {"type": "Feature", "geometry": {"type": "Point", "coordinates": [-115.3692, 34.0665]}, "properties": {"NAME": "W6/SD-288", "TITLE": "2936", "REGION": "Southern Desert", "ASSOCIATION": "USA - CA", "POINTS": "2", "BONUSPOINTS": "3"}}, {"type": "Feature", "geometry": {"type": "Point", "coordinates": [-114.7785, 34.2677]}, "properties": {"NAME": "W6/SD-289", "TITLE": "Castle Rock", "REGION": "Southern Desert", "ASSOCIATION": "USA - CA", "POINTS": "2", "BONUSPOINTS": "3"}}, {"type": "Feature", "geometry": {"type": "Point", "coordinates": [-115.3683, 33.6576]}, "properties": {"NAME": "W6/SD-290", "TITLE": "2927", "REGION": "Southern Desert", "ASSOCIATION": "USA - CA", "POINTS": "2", "BONUSPOINTS": "3"}}, {"type": "Feature", "geometry": {"type": "Point", "coordinates": [-114.8734, 34.5886]}, "properties": {"NAME": "W6/SD-291", "TITLE": "Stepladder Mountains (HP)", "REGION": "Southern Desert", "ASSOCIATION": "USA - CA", "POINTS": "2", "BONUSPOINTS": "3"}}, {"type": "Feature", "geometry": {"type": "Point", "coordinates": [-115.1684, 34.0244]}, "properties": {"NAME": "W6/SD-292", "TITLE": "2913", "REGION": "Southern Desert", "ASSOCIATION": "USA - CA", "POINTS": "2", "BONUSPOINTS": "3"}}, {"type": "Feature", "geometry": {"type": "Point", "coordinates": [-115.317, 33.6373]}, "properties": {"NAME": "W6/SD-293", "TITLE": "2906", "REGION": "Southern Desert", "ASSOCIATION": "USA - CA", "POINTS": "2", "BONUSPOINTS": "3"}}, {"type": "Feature", "geometry": {"type": "Point", "coordinates": [-115.3088, 33.5964]}, "properties": {"NAME": "W6/SD-294", "TITLE": "2905", "REGION": "Southern Desert", "ASSOCIATION": "USA - CA", "POINTS": "2", "BONUSPOINTS": "3"}}, {"type": "Feature", "geometry": {"type": "Point", "coordinates": [-115.1138, 33.8007]}, "properties": {"NAME": "W6/SD-295", "TITLE": "2903", "REGION": "Southern Desert", "ASSOCIATION": "USA - CA", "POINTS": "2", "BONUSPOINTS": "3"}}, {"type": "Feature", "geometry": {"type": "Point", "coordinates": [-115.9379, 34.4673]}, "properties": {"NAME": "W6/SD-296", "TITLE": "Lead Mountain", "REGION": "Southern Desert", "ASSOCIATION": "USA - CA", "POINTS": "2", "BONUSPOINTS": "3"}}, {"type": "Feature", "geometry": {"type": "Point", "coordinates": [-114.7643, 33.8864]}, "properties": {"NAME": "W6/SD-297", "TITLE": "West Maria Benchmark", "REGION": "Southern Desert", "ASSOCIATION": "USA - CA", "POINTS": "2", "BONUSPOINTS": "3"}}, {"type": "Feature", "geometry": {"type": "Point", "coordinates": [-115.6822, 34.6005]}, "properties": {"NAME": "W6/SD-298", "TITLE": "East Bristol Benchmark", "REGION": "Southern Desert", "ASSOCIATION": "USA - CA", "POINTS": "2", "BONUSPOINTS": "3"}}, {"type": "Feature", "geometry": {"type": "Point", "coordinates": [-114.3249, 34.346]}, "properties": {"NAME": "W6/SD-299", "TITLE": "Cupcake Mountain", "REGION": "Southern Desert", "ASSOCIATION": "USA - CA", "POINTS": "2", "BONUSPOINTS": "3"}}, {"type": "Feature", "geometry": {"type": "Point", "coordinates": [-114.7159, 34.7344]}, "properties": {"NAME": "W6/SD-300", "TITLE": "2871", "REGION": "Southern Desert", "ASSOCIATION": "USA - CA", "POINTS": "2", "BONUSPOINTS": "3"}}, {"type": "Feature", "geometry": {"type": "Point", "coordinates": [-114.9541, 33.9097]}, "properties": {"NAME": "W6/SD-301", "TITLE": "2870", "REGION": "Southern Desert", "ASSOCIATION": "USA - CA", "POINTS": "2", "BONUSPOINTS": "3"}}, {"type": "Feature", "geometry": {"type": "Point", "coordinates": [-116.3808, 33.1206]}, "properties": {"NAME": "W6/SD-302", "TITLE": "2860", "REGION": "Southern Desert", "ASSOCIATION": "USA - CA", "POINTS": "2", "BONUSPOINTS": "3"}}, {"type": "Feature", "geometry": {"type": "Point", "coordinates": [-114.268, 34.3304]}, "properties": {"NAME": "W6/SD-303", "TITLE": "2860", "REGION": "Southern Desert", "ASSOCIATION": "USA - CA", "POINTS": "2", "BONUSPOINTS": "3"}}, {"type": "Feature", "geometry": {"type": "Point", "coordinates": [-114.8174, 34.1818]}, "properties": {"NAME": "W6/SD-304", "TITLE": "2841", "REGION": "Southern Desert", "ASSOCIATION": "USA - CA", "POINTS": "2", "BONUSPOINTS": "3"}}, {"type": "Feature", "geometry": {"type": "Point", "coordinates": [-114.6702, 34.694]}, "properties": {"NAME": "W6/SD-305", "TITLE": "Sacram Benchmark", "REGION": "Southern Desert", "ASSOCIATION": "USA - CA", "POINTS": "2", "BONUSPOINTS": "3"}}, {"type": "Feature", "geometry": {"type": "Point", "coordinates": [-114.8446, 33.6892]}, "properties": {"NAME": "W6/SD-306", "TITLE": "McCoy Mountain Benchmark", "REGION": "Southern Desert", "ASSOCIATION": "USA - CA", "POINTS": "2", "BONUSPOINTS": "3"}}, {"type": "Feature", "geometry": {"type": "Point", "coordinates": [-116.2856, 32.915]}, "properties": {"NAME": "W6/SD-307", "TITLE": "Stage Benchmark", "REGION": "Southern Desert", "ASSOCIATION": "USA - CA", "POINTS": "2", "BONUSPOINTS": "3"}}, {"type": "Feature", "geometry": {"type": "Point", "coordinates": [-115.4487, 34.0685]}, "properties": {"NAME": "W6/SD-308", "TITLE": "2811", "REGION": "Southern Desert", "ASSOCIATION": "USA - CA", "POINTS": "2", "BONUSPOINTS": "3"}}, {"type": "Feature", "geometry": {"type": "Point", "coordinates": [-115.5792, 33.6453]}, "properties": {"NAME": "W6/SD-309", "TITLE": "2799", "REGION": "Southern Desert", "ASSOCIATION": "USA - CA", "POINTS": "2", "BONUSPOINTS": "3"}}, {"type": "Feature", "geometry": {"type": "Point", "coordinates": [-115.6048, 34.0739]}, "properties": {"NAME": "W6/SD-310", "TITLE": "2795", "REGION": "Southern Desert", "ASSOCIATION": "USA - CA", "POINTS": "2", "BONUSPOINTS": "3"}}, {"type": "Feature", "geometry": {"type": "Point", "coordinates": [-114.8978, 34.6299]}, "properties": {"NAME": "W6/SD-311", "TITLE": "2785", "REGION": "Southern Desert", "ASSOCIATION": "USA - CA", "POINTS": "2", "BONUSPOINTS": "3"}}, {"type": "Feature", "geometry": {"type": "Point", "coordinates": [-115.7539, 34.9913]}, "properties": {"NAME": "W6/SD-312", "TITLE": "Flynn Benchmark", "REGION": "Southern Desert", "ASSOCIATION": "USA - CA", "POINTS": "2", "BONUSPOINTS": "3"}}, {"type": "Feature", "geometry": {"type": "Point", "coordinates": [-115.2531, 33.5106]}, "properties": {"NAME": "W6/SD-313", "TITLE": "2779", "REGION": "Southern Desert", "ASSOCIATION": "USA - CA", "POINTS": "2", "BONUSPOINTS": "3"}}, {"type": "Feature", "geometry": {"type": "Point", "coordinates": [-115.6748, 33.6393]}, "properties": {"NAME": "W6/SD-314", "TITLE": "2776", "REGION": "Southern Desert", "ASSOCIATION": "USA - CA", "POINTS": "2", "BONUSPOINTS": "3"}}, {"type": "Feature", "geometry": {"type": "Point", "coordinates": [-114.2617, 34.2849]}, "properties": {"NAME": "W6/SD-315", "TITLE": "2768", "REGION": "Southern Desert", "ASSOCIATION": "USA - CA", "POINTS": "2", "BONUSPOINTS": "3"}}, {"type": "Feature", "geometry": {"type": "Point", "coordinates": [-114.8609, 33.8638]}, "properties": {"NAME": "W6/SD-316", "TITLE": "2732", "REGION": "Southern Desert", "ASSOCIATION": "USA - CA", "POINTS": "2", "BONUSPOINTS": "3"}}, {"type": "Feature", "geometry": {"type": "Point", "coordinates": [-115.5529, 34.0928]}, "properties": {"NAME": "W6/SD-317", "TITLE": "2729", "REGION": "Southern Desert", "ASSOCIATION": "USA - CA", "POINTS": "2", "BONUSPOINTS": "3"}}, {"type": "Feature", "geometry": {"type": "Point", "coordinates": [-114.3218, 34.3272]}, "properties": {"NAME": "W6/SD-318", "TITLE": "2716", "REGION": "Southern Desert", "ASSOCIATION": "USA - CA", "POINTS": "2", "BONUSPOINTS": "3"}}, {"type": "Feature", "geometry": {"type": "Point", "coordinates": [-114.3141, 34.3387]}, "properties": {"NAME": "W6/SD-319", "TITLE": "2712", "REGION": "Southern Desert", "ASSOCIATION": "USA - CA", "POINTS": "2", "BONUSPOINTS": "3"}}, {"type": "Feature", "geometry": {"type": "Point", "coordinates": [-114.2951, 34.2942]}, "properties": {"NAME": "W6/SD-320", "TITLE": "2710", "REGION": "Southern Desert", "ASSOCIATION": "USA - CA", "POINTS": "2", "BONUSPOINTS": "3"}}, {"type": "Feature", "geometry": {"type": "Point", "coordinates": [-114.8469, 33.8596]}, "properties": {"NAME": "W6/SD-321", "TITLE": "2709", "REGION": "Southern Desert", "ASSOCIATION": "USA - CA", "POINTS": "2", "BONUSPOINTS": "3"}}, {"type": "Feature", "geometry": {"type": "Point", "coordinates": [-114.7389, 34.2517]}, "properties": {"NAME": "W6/SD-322", "TITLE": "2708", "REGION": "Southern Desert", "ASSOCIATION": "USA - CA", "POINTS": "2", "BONUSPOINTS": "3"}}, {"type": "Feature", "geometry": {"type": "Point", "coordinates": [-114.809, 34.1324]}, "properties": {"NAME": "W6/SD-323", "TITLE": "Turtle Benchmark", "REGION": "Southern Desert", "ASSOCIATION": "USA - CA", "POINTS": "2", "BONUSPOINTS": "3"}}, {"type": "Feature", "geometry": {"type": "Point", "coordinates": [-114.8733, 33.7407]}, "properties": {"NAME": "W6/SD-324", "TITLE": "2706", "REGION": "Southern Desert", "ASSOCIATION": "USA - CA", "POINTS": "2", "BONUSPOINTS": "3"}}, {"type": "Feature", "geometry": {"type": "Point", "coordinates": [-115.1084, 33.1847]}, "properties": {"NAME": "W6/SD-325", "TITLE": "Late Benchmark", "REGION": "Southern Desert", "ASSOCIATION": "USA - CA", "POINTS": "2", "BONUSPOINTS": "3"}}, {"type": "Feature", "geometry": {"type": "Point", "coordinates": [-116.126, 33.3079]}, "properties": {"NAME": "W6/SD-326", "TITLE": "Palm Benchmark", "REGION": "Southern Desert", "ASSOCIATION": "USA - CA", "POINTS": "2", "BONUSPOINTS": "3"}}, {"type": "Feature", "geometry": {"type": "Point", "coordinates": [-114.5328, 34.2761]}, "properties": {"NAME": "W6/SD-327", "TITLE": "Savahia Peak", "REGION": "Southern Desert", "ASSOCIATION": "USA - CA", "POINTS": "2", "BONUSPOINTS": "3"}}, {"type": "Feature", "geometry": {"type": "Point", "coordinates": [-114.7301, 34.2864]}, "properties": {"NAME": "W6/SD-328", "TITLE": "2688", "REGION": "Southern Desert", "ASSOCIATION": "USA - CA", "POINTS": "2", "BONUSPOINTS": "3"}}, {"type": "Feature", "geometry": {"type": "Point", "coordinates": [-114.6244, 33.8239]}, "properties": {"NAME": "W6/SD-329", "TITLE": "2685", "REGION": "Southern Desert", "ASSOCIATION": "USA - CA", "POINTS": "2", "BONUSPOINTS": "3"}}, {"type": "Feature", "geometry": {"type": "Point", "coordinates": [-114.8632, 34.5628]}, "properties": {"NAME": "W6/SD-330", "TITLE": "Conical Benchmark", "REGION": "Southern Desert", "ASSOCIATION": "USA - CA", "POINTS": "2", "BONUSPOINTS": "3"}}, {"type": "Feature", "geometry": {"type": "Point", "coordinates": [-114.8322, 34.1457]}, "properties": {"NAME": "W6/SD-331", "TITLE": "2673", "REGION": "Southern Desert", "ASSOCIATION": "USA - CA", "POINTS": "2", "BONUSPOINTS": "3"}}, {"type": "Feature", "geometry": {"type": "Point", "coordinates": [-114.7543, 34.318]}, "properties": {"NAME": "W6/SD-332", "TITLE": "2673", "REGION": "Southern Desert", "ASSOCIATION": "USA - CA", "POINTS": "2", "BONUSPOINTS": "3"}}, {"type": "Feature", "geometry": {"type": "Point", "coordinates": [-114.6479, 34.0574]}, "properties": {"NAME": "W6/SD-333", "TITLE": "West Riverside Mountains (HP)", "REGION": "Southern Desert", "ASSOCIATION": "USA - CA", "POINTS": "2", "BONUSPOINTS": "3"}}, {"type": "Feature", "geometry": {"type": "Point", "coordinates": [-114.9227, 33.7991]}, "properties": {"NAME": "W6/SD-334", "TITLE": "2664", "REGION": "Southern Desert", "ASSOCIATION": "USA - CA", "POINTS": "2", "BONUSPOINTS": "3"}}, {"type": "Feature", "geometry": {"type": "Point", "coordinates": [-116.521, 34.8556]}, "properties": {"NAME": "W6/SD-335", "TITLE": "Troy Benchmark", "REGION": "Southern Desert", "ASSOCIATION": "USA - CA", "POINTS": "2", "BONUSPOINTS": "3"}}, {"type": "Feature", "geometry": {"type": "Point", "coordinates": [-115.0603, 33.1597]}, "properties": {"NAME": "W6/SD-336", "TITLE": "2634", "REGION": "Southern Desert", "ASSOCIATION": "USA - CA", "POINTS": "2", "BONUSPOINTS": "3"}}, {"type": "Feature", "geometry": {"type": "Point", "coordinates": [-114.9182, 33.7789]}, "properties": {"NAME": "W6/SD-337", "TITLE": "2598", "REGION": "Southern Desert", "ASSOCIATION": "USA - CA", "POINTS": "2", "BONUSPOINTS": "3"}}, {"type": "Feature", "geometry": {"type": "Point", "coordinates": [-115.5419, 34.6063]}, "properties": {"NAME": "W6/SD-338", "TITLE": "2588", "REGION": "Southern Desert", "ASSOCIATION": "USA - CA", "POINTS": "2", "BONUSPOINTS": "3"}}, {"type": "Feature", "geometry": {"type": "Point", "coordinates": [-114.9231, 33.9158]}, "properties": {"NAME": "W6/SD-339", "TITLE": "2585", "REGION": "Southern Desert", "ASSOCIATION": "USA - CA", "POINTS": "2", "BONUSPOINTS": "3"}}, {"type": "Feature", "geometry": {"type": "Point", "coordinates": [-114.6357, 33.792]}, "properties": {"NAME": "W6/SD-340", "TITLE": "2575", "REGION": "Southern Desert", "ASSOCIATION": "USA - CA", "POINTS": "2", "BONUSPOINTS": "3"}}, {"type": "Feature", "geometry": {"type": "Point", "coordinates": [-114.2794, 34.3351]}, "properties": {"NAME": "W6/SD-341", "TITLE": "2562", "REGION": "Southern Desert", "ASSOCIATION": "USA - CA", "POINTS": "2", "BONUSPOINTS": "3"}}, {"type": "Feature", "geometry": {"type": "Point", "coordinates": [-115.3583, 33.3546]}, "properties": {"NAME": "W6/SD-342", "TITLE": "Beals Benchmark", "REGION": "Southern Desert", "ASSOCIATION": "USA - CA", "POINTS": "2", "BONUSPOINTS": "3"}}, {"type": "Feature", "geometry": {"type": "Point", "coordinates": [-114.5153, 34.2944]}, "properties": {"NAME": "W6/SD-343", "TITLE": "2550", "REGION": "Southern Desert", "ASSOCIATION": "USA - CA", "POINTS": "2", "BONUSPOINTS": "3"}}, {"type": "Feature", "geometry": {"type": "Point", "coordinates": [-115.7307, 34.2103]}, "properties": {"NAME": "W6/SD-344", "TITLE": "2542", "REGION": "Southern Desert", "ASSOCIATION": "USA - CA", "POINTS": "2", "BONUSPOINTS": "3"}}, {"type": "Feature", "geometry": {"type": "Point", "coordinates": [-114.7052, 34.2465]}, "properties": {"NAME": "W6/SD-345", "TITLE": "Negro Peak", "REGION": "Southern Desert", "ASSOCIATION": "USA - CA", "POINTS": "2", "BONUSPOINTS": "3"}}, {"type": "Feature", "geometry": {"type": "Point", "coordinates": [-114.2955, 34.2815]}, "properties": {"NAME": "W6/SD-346", "TITLE": "2525", "REGION": "Southern Desert", "ASSOCIATION": "USA - CA", "POINTS": "2", "BONUSPOINTS": "3"}}, {"type": "Feature", "geometry": {"type": "Point", "coordinates": [-115.0432, 33.1504]}, "properties": {"NAME": "W6/SD-347", "TITLE": "2519", "REGION": "Southern Desert", "ASSOCIATION": "USA - CA", "POINTS": "2", "BONUSPOINTS": "3"}}, {"type": "Feature", "geometry": {"type": "Point", "coordinates": [-114.7172, 33.8713]}, "properties": {"NAME": "W6/SD-348", "TITLE": "2516", "REGION": "Southern Desert", "ASSOCIATION": "USA - CA", "POINTS": "2", "BONUSPOINTS": "3"}}, {"type": "Feature", "geometry": {"type": "Point", "coordinates": [-115.1684, 33.1928]}, "properties": {"NAME": "W6/SD-349", "TITLE": "2508", "REGION": "Southern Desert", "ASSOCIATION": "USA - CA", "POINTS": "2", "BONUSPOINTS": "3"}}, {"type": "Feature", "geometry": {"type": "Point", "coordinates": [-114.8146, 34.433]}, "properties": {"NAME": "W6/SD-350", "TITLE": "2480", "REGION": "Southern Desert", "ASSOCIATION": "USA - CA", "POINTS": "1", "BONUSPOINTS": "3"}}, {"type": "Feature", "geometry": {"type": "Point", "coordinates": [-114.9445, 33.1499]}, "properties": {"NAME": "W6/SD-351", "TITLE": "Mount Barrow", "REGION": "Southern Desert", "ASSOCIATION": "USA - CA", "POINTS": "1", "BONUSPOINTS": "3"}}, {"type": "Feature", "geometry": {"type": "Point", "coordinates": [-115.5176, 34.5944]}, "properties": {"NAME": "W6/SD-352", "TITLE": "Marble Benchmark", "REGION": "Southern Desert", "ASSOCIATION": "USA - CA", "POINTS": "1", "BONUSPOINTS": "3"}}, {"type": "Feature", "geometry": {"type": "Point", "coordinates": [-114.6498, 33.8456]}, "properties": {"NAME": "W6/SD-353", "TITLE": "2449", "REGION": "Southern Desert", "ASSOCIATION": "USA - CA", "POINTS": "1", "BONUSPOINTS": "3"}}, {"type": "Feature", "geometry": {"type": "Point", "coordinates": [-116.1519, 35.1613]}, "properties": {"NAME": "W6/SD-354", "TITLE": "2444", "REGION": "Southern Desert", "ASSOCIATION": "USA - CA", "POINTS": "1", "BONUSPOINTS": "3"}}, {"type": "Feature", "geometry": {"type": "Point", "coordinates": [-116.2006, 35.0969]}, "properties": {"NAME": "W6/SD-355", "TITLE": "Mollhausen Mountains HP", "REGION": "Southern Desert", "ASSOCIATION": "USA - CA", "POINTS": "1", "BONUSPOINTS": "3"}}, {"type": "Feature", "geometry": {"type": "Point", "coordinates": [-116.0152, 32.8252]}, "properties": {"NAME": "W6/SD-356", "TITLE": "Carrizo Mountain", "REGION": "Southern Desert", "ASSOCIATION": "USA - CA", "POINTS": "1", "BONUSPOINTS": "3"}}, {"type": "Feature", "geometry": {"type": "Point", "coordinates": [-116.002, 32.9782]}, "properties": {"NAME": "W6/SD-357", "TITLE": "Eagle Benchmark", "REGION": "Southern Desert", "ASSOCIATION": "USA - CA", "POINTS": "1", "BONUSPOINTS": "3"}}, {"type": "Feature", "geometry": {"type": "Point", "coordinates": [-115.9808, 32.9817]}, "properties": {"NAME": "W6/SD-358", "TITLE": "Fish Benchmark", "REGION": "Southern Desert", "ASSOCIATION": "USA - CA", "POINTS": "1", "BONUSPOINTS": "3"}}, {"type": "Feature", "geometry": {"type": "Point", "coordinates": [-114.5918, 33.7604]}, "properties": {"NAME": "W6/SD-359", "TITLE": "Tosco Benchmark", "REGION": "Southern Desert", "ASSOCIATION": "USA - CA", "POINTS": "1", "BONUSPOINTS": "3"}}, {"type": "Feature", "geometry": {"type": "Point", "coordinates": [-114.6141, 33.916]}, "properties": {"NAME": "W6/SD-360", "TITLE": "Quien Sabe Benchmark", "REGION": "Southern Desert", "ASSOCIATION": "USA - CA", "POINTS": "1", "BONUSPOINTS": "3"}}, {"type": "Feature", "geometry": {"type": "Point", "coordinates": [-114.5181, 34.0357]}, "properties": {"NAME": "W6/SD-361", "TITLE": "Riverside Mountains (HP)", "REGION": "Southern Desert", "ASSOCIATION": "USA - CA", "POINTS": "1", "BONUSPOINTS": "3"}}, {"type": "Feature", "geometry": {"type": "Point", "coordinates": [-114.6241, 33.8508]}, "properties": {"NAME": "W6/SD-362", "TITLE": "2254", "REGION": "Southern Desert", "ASSOCIATION": "USA - CA", "POINTS": "1", "BONUSPOINTS": "3"}}, {"type": "Feature", "geometry": {"type": "Point", "coordinates": [-115.9941, 35.1353]}, "properties": {"NAME": "W6/SD-363", "TITLE": "Cowhole Mountain", "REGION": "Southern Desert", "ASSOCIATION": "USA - CA", "POINTS": "1", "BONUSPOINTS": "3"}}, {"type": "Feature", "geometry": {"type": "Point", "coordinates": [-116.0774, 33.3823]}, "properties": {"NAME": "W6/SD-364", "TITLE": "Coolidge Benchmark", "REGION": "Southern Desert", "ASSOCIATION": "USA - CA", "POINTS": "1", "BONUSPOINTS": "3"}}, {"type": "Feature", "geometry": {"type": "Point", "coordinates": [-114.9751, 33.1848]}, "properties": {"NAME": "W6/SD-365", "TITLE": "Sawtooth Mountain", "REGION": "Southern Desert", "ASSOCIATION": "USA - CA", "POINTS": "1", "BONUSPOINTS": "3"}}, {"type": "Feature", "geometry": {"type": "Point", "coordinates": [-114.7984, 32.8926]}, "properties": {"NAME": "W6/SD-366", "TITLE": "Cargo Muchacho Mountains (HP)", "REGION": "Southern Desert", "ASSOCIATION": "USA - CA", "POINTS": "1", "BONUSPOINTS": "3"}}, {"type": "Feature", "geometry": {"type": "Point", "coordinates": [-115.37, 34.5302]}, "properties": {"NAME": "W6/SD-367", "TITLE": "2214", "REGION": "Southern Desert", "ASSOCIATION": "USA - CA", "POINTS": "1", "BONUSPOINTS": "3"}}, {"type": "Feature", "geometry": {"type": "Point", "coordinates": [-116.4998, 33.765]}, "properties": {"NAME": "W6/SD-368", "TITLE": "Murray Hill", "REGION": "Southern Desert", "ASSOCIATION": "USA - CA", "POINTS": "1", "BONUSPOINTS": "3"}}, {"type": "Feature", "geometry": {"type": "Point", "coordinates": [-114.7567, 34.9175]}, "properties": {"NAME": "W6/SD-369", "TITLE": "2201", "REGION": "Southern Desert", "ASSOCIATION": "USA - CA", "POINTS": "1", "BONUSPOINTS": "3"}}, {"type": "Feature", "geometry": {"type": "Point", "coordinates": [-116.0383, 32.9892]}, "properties": {"NAME": "W6/SD-370", "TITLE": "2181", "REGION": "Southern Desert", "ASSOCIATION": "USA - CA", "POINTS": "1", "BONUSPOINTS": "3"}}, {"type": "Feature", "geometry": {"type": "Point", "coordinates": [-115.0799, 33.4547]}, "properties": {"NAME": "W6/SD-371", "TITLE": "Little Chuckwalla Mountains (HP)", "REGION": "Southern Desert", "ASSOCIATION": "USA - CA", "POINTS": "1", "BONUSPOINTS": "3"}}, {"type": "Feature", "geometry": {"type": "Point", "coordinates": [-114.8229, 33.0891]}, "properties": {"NAME": "W6/SD-372", "TITLE": "Quartz Peak", "REGION": "Southern Desert", "ASSOCIATION": "USA - CA", "POINTS": "1", "BONUSPOINTS": "3"}}, {"type": "Feature", "geometry": {"type": "Point", "coordinates": [-114.8279, 33.0548]}, "properties": {"NAME": "W6/SD-373", "TITLE": "Black Mountain", "REGION": "Southern Desert", "ASSOCIATION": "USA - CA", "POINTS": "1", "BONUSPOINTS": "3"}}, {"type": "Feature", "geometry": {"type": "Point", "coordinates": [-114.222, 34.2981]}, "properties": {"NAME": "W6/SD-374", "TITLE": "2158", "REGION": "Southern Desert", "ASSOCIATION": "USA - CA", "POINTS": "1", "BONUSPOINTS": "3"}}, {"type": "Feature", "geometry": {"type": "Point", "coordinates": [-114.5148, 34.0134]}, "properties": {"NAME": "W6/SD-375", "TITLE": "Riverside Mountain", "REGION": "Southern Desert", "ASSOCIATION": "USA - CA", "POINTS": "1", "BONUSPOINTS": "3"}}, {"type": "Feature", "geometry": {"type": "Point", "coordinates": [-116.0139, 32.9858]}, "properties": {"NAME": "W6/SD-376", "TITLE": "2140", "REGION": "Southern Desert", "ASSOCIATION": "USA - CA", "POINTS": "1", "BONUSPOINTS": "3"}}, {"type": "Feature", "geometry": {"type": "Point", "coordinates": [-115.125, 33.4681]}, "properties": {"NAME": "W6/SD-377", "TITLE": "2140", "REGION": "Southern Desert", "ASSOCIATION": "USA - CA", "POINTS": "1", "BONUSPOINTS": "3"}}, {"type": "Feature", "geometry": {"type": "Point", "coordinates": [-114.7526, 32.8576]}, "properties": {"NAME": "W6/SD-378", "TITLE": "Stud Mountain", "REGION": "Southern Desert", "ASSOCIATION": "USA - CA", "POINTS": "1", "BONUSPOINTS": "3"}}, {"type": "Feature", "geometry": {"type": "Point", "coordinates": [-116.062, 32.9689]}, "properties": {"NAME": "W6/SD-379", "TITLE": "2121", "REGION": "Southern Desert", "ASSOCIATION": "USA - CA", "POINTS": "1", "BONUSPOINTS": "3"}}, {"type": "Feature", "geometry": {"type": "Point", "coordinates": [-114.9933, 33.1694]}, "properties": {"NAME": "W6/SD-380", "TITLE": "2121", "REGION": "Southern Desert", "ASSOCIATION": "USA - CA", "POINTS": "1", "BONUSPOINTS": "3"}}, {"type": "Feature", "geometry": {"type": "Point", "coordinates": [-114.933, 34.0244]}, "properties": {"NAME": "W6/SD-381", "TITLE": "Arica Mountains (HP)", "REGION": "Southern Desert", "ASSOCIATION": "USA - CA", "POINTS": "1", "BONUSPOINTS": "3"}}, {"type": "Feature", "geometry": {"type": "Point", "coordinates": [-114.8007, 33.0418]}, "properties": {"NAME": "W6/SD-382", "TITLE": "Top Benchmark", "REGION": "Southern Desert", "ASSOCIATION": "USA - CA", "POINTS": "1", "BONUSPOINTS": "3"}}, {"type": "Feature", "geometry": {"type": "Point", "coordinates": [-114.2034, 34.3305]}, "properties": {"NAME": "W6/SD-383", "TITLE": "2056", "REGION": "Southern Desert", "ASSOCIATION": "USA - CA", "POINTS": "1", "BONUSPOINTS": "3"}}, {"type": "Feature", "geometry": {"type": "Point", "coordinates": [-114.8534, 33.6492]}, "properties": {"NAME": "W6/SD-384", "TITLE": "McCoy Peak", "REGION": "Southern Desert", "ASSOCIATION": "USA - CA", "POINTS": "1", "BONUSPOINTS": "3"}}, {"type": "Feature", "geometry": {"type": "Point", "coordinates": [-115.1411, 34.1508]}, "properties": {"NAME": "W6/SD-385", "TITLE": "East Iron Benchmark", "REGION": "Southern Desert", "ASSOCIATION": "USA - CA", "POINTS": "1", "BONUSPOINTS": "3"}}, {"type": "Feature", "geometry": {"type": "Point", "coordinates": [-115.0451, 33.9098]}, "properties": {"NAME": "W6/SD-386", "TITLE": "Gyp Benchmark", "REGION": "Southern Desert", "ASSOCIATION": "USA - CA", "POINTS": "1", "BONUSPOINTS": "3"}}, {"type": "Feature", "geometry": {"type": "Point", "coordinates": [-116.1591, 35.1506]}, "properties": {"NAME": "W6/SD-387", "TITLE": "2043", "REGION": "Southern Desert", "ASSOCIATION": "USA - CA", "POINTS": "1", "BONUSPOINTS": "3"}}, {"type": "Feature", "geometry": {"type": "Point", "coordinates": [-114.2285, 34.3395]}, "properties": {"NAME": "W6/SD-388", "TITLE": "2037", "REGION": "Southern Desert", "ASSOCIATION": "USA - CA", "POINTS": "1", "BONUSPOINTS": "3"}}, {"type": "Feature", "geometry": {"type": "Point", "coordinates": [-114.9864, 33.4955]}, "properties": {"NAME": "W6/SD-389", "TITLE": "Chuckwalla Benchmark", "REGION": "Southern Desert", "ASSOCIATION": "USA - CA", "POINTS": "1", "BONUSPOINTS": "3"}}, {"type": "Feature", "geometry": {"type": "Point", "coordinates": [-114.2156, 34.3255]}, "properties": {"NAME": "W6/SD-390", "TITLE": "1990", "REGION": "Southern Desert", "ASSOCIATION": "USA - CA", "POINTS": "1", "BONUSPOINTS": "3"}}, {"type": "Feature", "geometry": {"type": "Point", "coordinates": [-114.6643, 32.9714]}, "properties": {"NAME": "W6/SD-391", "TITLE": "Picacho Peak", "REGION": "Southern Desert", "ASSOCIATION": "USA - CA", "POINTS": "1", "BONUSPOINTS": "3"}}, {"type": "Feature", "geometry": {"type": "Point", "coordinates": [-114.2051, 34.2839]}, "properties": {"NAME": "W6/SD-392", "TITLE": "1896", "REGION": "Southern Desert", "ASSOCIATION": "USA - CA", "POINTS": "1", "BONUSPOINTS": "3"}}, {"type": "Feature", "geometry": {"type": "Point", "coordinates": [-115.1129, 33.1627]}, "properties": {"NAME": "W6/SD-393", "TITLE": "1890", "REGION": "Southern Desert", "ASSOCIATION": "USA - CA", "POINTS": "1", "BONUSPOINTS": "3"}}, {"type": "Feature", "geometry": {"type": "Point", "coordinates": [-115.9762, 35.1164]}, "properties": {"NAME": "W6/SD-394", "TITLE": "South Cowhole Mountain", "REGION": "Southern Desert", "ASSOCIATION": "USA - CA", "POINTS": "1", "BONUSPOINTS": "3"}}, {"type": "Feature", "geometry": {"type": "Point", "coordinates": [-114.2729, 34.3591]}, "properties": {"NAME": "W6/SD-395", "TITLE": "1860", "REGION": "Southern Desert", "ASSOCIATION": "USA - CA", "POINTS": "1", "BONUSPOINTS": "3"}}, {"type": "Feature", "geometry": {"type": "Point", "coordinates": [-116.1343, 32.8318]}, "properties": {"NAME": "W6/SD-396", "TITLE": "Mine Benchmark", "REGION": "Southern Desert", "ASSOCIATION": "USA - CA", "POINTS": "1", "BONUSPOINTS": "3"}}, {"type": "Feature", "geometry": {"type": "Point", "coordinates": [-114.7747, 32.8887]}, "properties": {"NAME": "W6/SD-397", "TITLE": "1835", "REGION": "Southern Desert", "ASSOCIATION": "USA - CA", "POINTS": "1", "BONUSPOINTS": "3"}}, {"type": "Feature", "geometry": {"type": "Point", "coordinates": [-115.9354, 32.6366]}, "properties": {"NAME": "W6/SD-398", "TITLE": "1815", "REGION": "Southern Desert", "ASSOCIATION": "USA - CA", "POINTS": "1", "BONUSPOINTS": "3"}}, {"type": "Feature", "geometry": {"type": "Point", "coordinates": [-114.8054, 33.5333]}, "properties": {"NAME": "W6/SD-399", "TITLE": "Mule Mountain Benchmark", "REGION": "Southern Desert", "ASSOCIATION": "USA - CA", "POINTS": "1", "BONUSPOINTS": "3"}}, {"type": "Feature", "geometry": {"type": "Point", "coordinates": [-115.0501, 33.4862]}, "properties": {"NAME": "W6/SD-400", "TITLE": "1799", "REGION": "Southern Desert", "ASSOCIATION": "USA - CA", "POINTS": "1", "BONUSPOINTS": "3"}}, {"type": "Feature", "geometry": {"type": "Point", "coordinates": [-114.777, 33.3294]}, "properties": {"NAME": "W6/SD-401", "TITLE": "Palo Verde Peak", "REGION": "Southern Desert", "ASSOCIATION": "USA - CA", "POINTS": "1", "BONUSPOINTS": "3"}}, {"type": "Feature", "geometry": {"type": "Point", "coordinates": [-114.7769, 32.8728]}, "properties": {"NAME": "W6/SD-402", "TITLE": "1780", "REGION": "Southern Desert", "ASSOCIATION": "USA - CA", "POINTS": "1", "BONUSPOINTS": "3"}}, {"type": "Feature", "geometry": {"type": "Point", "coordinates": [-115.5954, 34.3891]}, "properties": {"NAME": "W6/SD-403", "TITLE": "1774", "REGION": "Southern Desert", "ASSOCIATION": "USA - CA", "POINTS": "1", "BONUSPOINTS": "3"}}, {"type": "Feature", "geometry": {"type": "Point", "coordinates": [-114.7978, 33.5255]}, "properties": {"NAME": "W6/SD-404", "TITLE": "1761", "REGION": "Southern Desert", "ASSOCIATION": "USA - CA", "POINTS": "1", "BONUSPOINTS": "3"}}, {"type": "Feature", "geometry": {"type": "Point", "coordinates": [-116.2253, 33.802]}, "properties": {"NAME": "W6/SD-405", "TITLE": "N Indio Benchmark", "REGION": "Southern Desert", "ASSOCIATION": "USA - CA", "POINTS": "1", "BONUSPOINTS": "3"}}, {"type": "Feature", "geometry": {"type": "Point", "coordinates": [-114.1654, 34.3094]}, "properties": {"NAME": "W6/SD-406", "TITLE": "Metal Benchmark", "REGION": "Southern Desert", "ASSOCIATION": "USA - CA", "POINTS": "1", "BONUSPOINTS": "3"}}, {"type": "Feature", "geometry": {"type": "Point", "coordinates": [-114.6095, 33.7543]}, "properties": {"NAME": "W6/SD-407", "TITLE": "1700", "REGION": "Southern Desert", "ASSOCIATION": "USA - CA", "POINTS": "1", "BONUSPOINTS": "3"}}, {"type": "Feature", "geometry": {"type": "Point", "coordinates": [-116.0086, 35.1772]}, "properties": {"NAME": "W6/SD-408", "TITLE": "Little Cowhole Mountain", "REGION": "Southern Desert", "ASSOCIATION": "USA - CA", "POINTS": "1", "BONUSPOINTS": "3"}}, {"type": "Feature", "geometry": {"type": "Point", "coordinates": [-115.3091, 34.3119]}, "properties": {"NAME": "W6/SD-409", "TITLE": "Kilbeck Hills", "REGION": "Southern Desert", "ASSOCIATION": "USA - CA", "POINTS": "1", "BONUSPOINTS": "3"}}, {"type": "Feature", "geometry": {"type": "Point", "coordinates": [-114.299, 34.3714]}, "properties": {"NAME": "W6/SD-410", "TITLE": "1660", "REGION": "Southern Desert", "ASSOCIATION": "USA - CA", "POINTS": "1", "BONUSPOINTS": "3"}}, {"type": "Feature", "geometry": {"type": "Point", "coordinates": [-115.1319, 33.7303]}, "properties": {"NAME": "W6/SD-411", "TITLE": "1656", "REGION": "Southern Desert", "ASSOCIATION": "USA - CA", "POINTS": "1", "BONUSPOINTS": "3"}}, {"type": "Feature", "geometry": {"type": "Point", "coordinates": [-116.0295, 33.6342]}, "properties": {"NAME": "W6/SD-412", "TITLE": "Mecca Hills", "REGION": "Southern Desert", "ASSOCIATION": "USA - CA", "POINTS": "1", "BONUSPOINTS": "3"}}, {"type": "Feature", "geometry": {"type": "Point", "coordinates": [-115.177, 34.295]}, "properties": {"NAME": "W6/SD-413", "TITLE": "Fishel Benchmark", "REGION": "Southern Desert", "ASSOCIATION": "USA - CA", "POINTS": "1", "BONUSPOINTS": "3"}}, {"type": "Feature", "geometry": {"type": "Point", "coordinates": [-114.8686, 33.376]}, "properties": {"NAME": "W6/SD-414", "TITLE": "North Flat Tops", "REGION": "Southern Desert", "ASSOCIATION": "USA - CA", "POINTS": "1", "BONUSPOINTS": "3"}}, {"type": "Feature", "geometry": {"type": "Point", "coordinates": [-114.2763, 34.2509]}, "properties": {"NAME": "W6/SD-415", "TITLE": "1586", "REGION": "Southern Desert", "ASSOCIATION": "USA - CA", "POINTS": "1", "BONUSPOINTS": "3"}}, {"type": "Feature", "geometry": {"type": "Point", "coordinates": [-114.8573, 33.3624]}, "properties": {"NAME": "W6/SD-416", "TITLE": "South Flat Tops", "REGION": "Southern Desert", "ASSOCIATION": "USA - CA", "POINTS": "1", "BONUSPOINTS": "3"}}, {"type": "Feature", "geometry": {"type": "Point", "coordinates": [-114.7612, 32.8224]}, "properties": {"NAME": "W6/SD-417", "TITLE": "Pasadena Mountain", "REGION": "Southern Desert", "ASSOCIATION": "USA - CA", "POINTS": "1", "BONUSPOINTS": "3"}}, {"type": "Feature", "geometry": {"type": "Point", "coordinates": [-114.6669, 32.9605]}, "properties": {"NAME": "W6/SD-418", "TITLE": "1568", "REGION": "Southern Desert", "ASSOCIATION": "USA - CA", "POINTS": "1", "BONUSPOINTS": "3"}}, {"type": "Feature", "geometry": {"type": "Point", "coordinates": [-114.742, 33.1248]}, "properties": {"NAME": "W6/SD-419", "TITLE": "Lava Benchmark", "REGION": "Southern Desert", "ASSOCIATION": "USA - CA", "POINTS": "1", "BONUSPOINTS": "3"}}, {"type": "Feature", "geometry": {"type": "Point", "coordinates": [-114.7021, 33.8302]}, "properties": {"NAME": "W6/SD-420", "TITLE": "1561", "REGION": "Southern Desert", "ASSOCIATION": "USA - CA", "POINTS": "1", "BONUSPOINTS": "3"}}, {"type": "Feature", "geometry": {"type": "Point", "coordinates": [-114.662, 32.9852]}, "properties": {"NAME": "W6/SD-421", "TITLE": "Little Picacho Benchmark", "REGION": "Southern Desert", "ASSOCIATION": "USA - CA", "POINTS": "1", "BONUSPOINTS": "3"}}, {"type": "Feature", "geometry": {"type": "Point", "coordinates": [-114.8154, 33.3386]}, "properties": {"NAME": "W6/SD-422", "TITLE": "1534", "REGION": "Southern Desert", "ASSOCIATION": "USA - CA", "POINTS": "1", "BONUSPOINTS": "3"}}, {"type": "Feature", "geometry": {"type": "Point", "coordinates": [-114.5637, 32.8967]}, "properties": {"NAME": "W6/SD-423", "TITLE": "Ridge Benchmark", "REGION": "Southern Desert", "ASSOCIATION": "USA - CA", "POINTS": "1", "BONUSPOINTS": "3"}}, {"type": "Feature", "geometry": {"type": "Point", "coordinates": [-114.8939, 33.3944]}, "properties": {"NAME": "W6/SD-424", "TITLE": "1519", "REGION": "Southern Desert", "ASSOCIATION": "USA - CA", "POINTS": "1", "BONUSPOINTS": "3"}}, {"type": "Feature", "geometry": {"type": "Point", "coordinates": [-114.6703, 32.9731]}, "properties": {"NAME": "W6/SD-425", "TITLE": "1474", "REGION": "Southern Desert", "ASSOCIATION": "USA - CA", "POINTS": "1", "BONUSPOINTS": "3"}}, {"type": "Feature", "geometry": {"type": "Point", "coordinates": [-114.6008, 32.8793]}, "properties": {"NAME": "W6/SD-426", "TITLE": "Mala Pais Benchmark", "REGION": "Southern Desert", "ASSOCIATION": "USA - CA", "POINTS": "1", "BONUSPOINTS": "3"}}, {"type": "Feature", "geometry": {"type": "Point", "coordinates": [-114.9603, 33.5061]}, "properties": {"NAME": "W6/SD-427", "TITLE": "1414", "REGION": "Southern Desert", "ASSOCIATION": "USA - CA", "POINTS": "1", "BONUSPOINTS": "3"}}, {"type": "Feature", "geometry": {"type": "Point", "coordinates": [-116.0129, 32.9153]}, "properties": {"NAME": "W6/SD-428", "TITLE": "1401", "REGION": "Southern Desert", "ASSOCIATION": "USA - CA", "POINTS": "1", "BONUSPOINTS": "3"}}, {"type": "Feature", "geometry": {"type": "Point", "coordinates": [-114.8364, 33.5052]}, "properties": {"NAME": "W6/SD-429", "TITLE": "1397", "REGION": "Southern Desert", "ASSOCIATION": "USA - CA", "POINTS": "1", "BONUSPOINTS": "3"}}, {"type": "Feature", "geometry": {"type": "Point", "coordinates": [-114.8665, 33.4064]}, "properties": {"NAME": "W6/SD-430", "TITLE": "Thumb Peak", "REGION": "Southern Desert", "ASSOCIATION": "USA - CA", "POINTS": "1", "BONUSPOINTS": "3"}}, {"type": "Feature", "geometry": {"type": "Point", "coordinates": [-114.8692, 33.4597]}, "properties": {"NAME": "W6/SD-431", "TITLE": "Paint Mountain Benchmark", "REGION": "Southern Desert", "ASSOCIATION": "USA - CA", "POINTS": "1", "BONUSPOINTS": "3"}}, {"type": "Feature", "geometry": {"type": "Point", "coordinates": [-116.168, 33.1699]}, "properties": {"NAME": "W6/SD-432", "TITLE": "East Butte", "REGION": "Southern Desert", "ASSOCIATION": "USA - CA", "POINTS": "1", "BONUSPOINTS": "3"}}, {"type": "Feature", "geometry": {"type": "Point", "coordinates": [-114.5524, 32.9971]}, "properties": {"NAME": "W6/SD-433", "TITLE": "Little Picacho Peak", "REGION": "Southern Desert", "ASSOCIATION": "USA - CA", "POINTS": "1", "BONUSPOINTS": "3"}}, {"type": "Feature", "geometry": {"type": "Point", "coordinates": [-114.4592, 34.6667]}, "properties": {"NAME": "W6/SD-434", "TITLE": "1180", "REGION": "Southern Desert", "ASSOCIATION": "USA - CA", "POINTS": "1", "BONUSPOINTS": "3"}}, {"type": "Feature", "geometry": {"type": "Point", "coordinates": [-114.7469, 32.7324]}, "properties": {"NAME": "W6/SD-435", "TITLE": "Pilot Knob", "REGION": "Southern Desert", "ASSOCIATION": "USA - CA", "POINTS": "1", "BONUSPOINTS": "3"}}, {"type": "Feature", "geometry": {"type": "Point", "coordinates": [-116.8749, 34.0647]}, "properties": {"NAME": "W6/SD-436", "TITLE": "Wanat Peak", "REGION": "Southern Desert", "ASSOCIATION": "USA - CA", "POINTS": "8", "BONUSPOINTS": "3"}}, {"type": "Feature", "geometry": {"type": "Point", "coordinates": [-115.9407, 35.7596]}, "properties": {"NAME": "W6/SD-437", "TITLE": "6689", "REGION": "Southern Desert", "ASSOCIATION": "USA - CA", "POINTS": "6", "BONUSPOINTS": "3"}}, {"type": "Feature", "geometry": {"type": "Point", "coordinates": [-115.3544, 35.2604]}, "properties": {"NAME": "W6/SD-438", "TITLE": "6676", "REGION": "Southern Desert", "ASSOCIATION": "USA - CA", "POINTS": "6", "BONUSPOINTS": "3"}}, {"type": "Feature", "geometry": {"type": "Point", "coordinates": [-116.6164, 34.2784]}, "properties": {"NAME": "W6/SD-439", "TITLE": "6093", "REGION": "Southern Desert", "ASSOCIATION": "USA - CA", "POINTS": "6", "BONUSPOINTS": "3"}}, {"type": "Feature", "geometry": {"type": "Point", "coordinates": [-115.5077, 35.3855]}, "properties": {"NAME": "W6/SD-440", "TITLE": "5921", "REGION": "Southern Desert", "ASSOCIATION": "USA - CA", "POINTS": "6", "BONUSPOINTS": "3"}}, {"type": "Feature", "geometry": {"type": "Point", "coordinates": [-116.3672, 35.526]}, "properties": {"NAME": "W6/SD-441", "TITLE": "5692", "REGION": "Southern Desert", "ASSOCIATION": "USA - CA", "POINTS": "6", "BONUSPOINTS": "3"}}, {"type": "Feature", "geometry": {"type": "Point", "coordinates": [-117.321, 34.2364]}, "properties": {"NAME": "W6/SD-442", "TITLE": "5380", "REGION": "Southern Desert", "ASSOCIATION": "USA - CA", "POINTS": "4", "BONUSPOINTS": "3"}}, {"type": "Feature", "geometry": {"type": "Point", "coordinates": [-116.9241, 34.6659]}, "properties": {"NAME": "W6/SD-443", "TITLE": "Goat Mountain", "REGION": "Southern Desert", "ASSOCIATION": "USA - CA", "POINTS": "4", "BONUSPOINTS": "3"}}, {"type": "Feature", "geometry": {"type": "Point", "coordinates": [-115.072, 35.3533]}, "properties": {"NAME": "W6/SD-444", "TITLE": "5101", "REGION": "Southern Desert", "ASSOCIATION": "USA - CA", "POINTS": "4", "BONUSPOINTS": "3"}}, {"type": "Feature", "geometry": {"type": "Point", "coordinates": [-116.685, 34.0678]}, "properties": {"NAME": "W6/SD-445", "TITLE": "5052", "REGION": "Southern Desert", "ASSOCIATION": "USA - CA", "POINTS": "4", "BONUSPOINTS": "3"}}, {"type": "Feature", "geometry": {"type": "Point", "coordinates": [-117.084, 35.429]}, "properties": {"NAME": "W6/SD-446", "TITLE": "4931", "REGION": "Southern Desert", "ASSOCIATION": "USA - CA", "POINTS": "4", "BONUSPOINTS": "3"}}, {"type": "Feature", "geometry": {"type": "Point", "coordinates": [-115.0155, 35.2051]}, "properties": {"NAME": "W6/SD-447", "TITLE": "Piute Range (HP)", "REGION": "Southern Desert", "ASSOCIATION": "USA - CA", "POINTS": "4", "BONUSPOINTS": "3"}}, {"type": "Feature", "geometry": {"type": "Point", "coordinates": [-115.0385, 35.3063]}, "properties": {"NAME": "W6/SD-448", "TITLE": "4780", "REGION": "Southern Desert", "ASSOCIATION": "USA - CA", "POINTS": "4", "BONUSPOINTS": "3"}}, {"type": "Feature", "geometry": {"type": "Point", "coordinates": [-116.6746, 34.6277]}, "properties": {"NAME": "W6/SD-449", "TITLE": "Fry Mountains (HP)", "REGION": "Southern Desert", "ASSOCIATION": "USA - CA", "POINTS": "4", "BONUSPOINTS": "3"}}, {"type": "Feature", "geometry": {"type": "Point", "coordinates": [-116.8753, 35.5022]}, "properties": {"NAME": "W6/SD-450", "TITLE": "4675", "REGION": "Southern Desert", "ASSOCIATION": "USA - CA", "POINTS": "4", "BONUSPOINTS": "3"}}, {"type": "Feature", "geometry": {"type": "Point", "coordinates": [-116.4976, 34.1218]}, "properties": {"NAME": "W6/SD-451", "TITLE": "Pierson Benchmark", "REGION": "Southern Desert", "ASSOCIATION": "USA - CA", "POINTS": "4", "BONUSPOINTS": "3"}}, {"type": "Feature", "geometry": {"type": "Point", "coordinates": [-116.5091, 35.5284]}, "properties": {"NAME": "W6/SD-452", "TITLE": "4530", "REGION": "Southern Desert", "ASSOCIATION": "USA - CA", "POINTS": "4", "BONUSPOINTS": "3"}}, {"type": "Feature", "geometry": {"type": "Point", "coordinates": [-116.2488, 34.0691]}, "properties": {"NAME": "W6/SD-453", "TITLE": "4514", "REGION": "Southern Desert", "ASSOCIATION": "USA - CA", "POINTS": "4", "BONUSPOINTS": "3"}}, {"type": "Feature", "geometry": {"type": "Point", "coordinates": [-116.3411, 33.0564]}, "properties": {"NAME": "W6/SD-454", "TITLE": "Pinyon Mountains (HP)", "REGION": "Southern Desert", "ASSOCIATION": "USA - CA", "POINTS": "4", "BONUSPOINTS": "3"}}, {"type": "Feature", "geometry": {"type": "Point", "coordinates": [-116.8014, 35.2571]}, "properties": {"NAME": "W6/SD-455", "TITLE": "Bill Benchmark", "REGION": "Southern Desert", "ASSOCIATION": "USA - CA", "POINTS": "4", "BONUSPOINTS": "3"}}, {"type": "Feature", "geometry": {"type": "Point", "coordinates": [-116.7484, 35.5199]}, "properties": {"NAME": "W6/SD-456", "TITLE": "Granite Benchmark", "REGION": "Southern Desert", "ASSOCIATION": "USA - CA", "POINTS": "4", "BONUSPOINTS": "3"}}, {"type": "Feature", "geometry": {"type": "Point", "coordinates": [-115.1939, 34.464]}, "properties": {"NAME": "W6/SD-457", "TITLE": "4445", "REGION": "Southern Desert", "ASSOCIATION": "USA - CA", "POINTS": "4", "BONUSPOINTS": "3"}}, {"type": "Feature", "geometry": {"type": "Point", "coordinates": [-115.8699, 33.8437]}, "properties": {"NAME": "W6/SD-458", "TITLE": "4168", "REGION": "Southern Desert", "ASSOCIATION": "USA - CA", "POINTS": "4", "BONUSPOINTS": "3"}}, {"type": "Feature", "geometry": {"type": "Point", "coordinates": [-117.3005, 34.2147]}, "properties": {"NAME": "W6/SD-459", "TITLE": "4140", "REGION": "Southern Desert", "ASSOCIATION": "USA - CA", "POINTS": "4", "BONUSPOINTS": "3"}}, {"type": "Feature", "geometry": {"type": "Point", "coordinates": [-115.3807, 33.583]}, "properties": {"NAME": "W6/SD-460", "TITLE": "4118", "REGION": "Southern Desert", "ASSOCIATION": "USA - CA", "POINTS": "4", "BONUSPOINTS": "3"}}, {"type": "Feature", "geometry": {"type": "Point", "coordinates": [-116.9829, 35.434]}, "properties": {"NAME": "W6/SD-461", "TITLE": "Gus Benchmark", "REGION": "Southern Desert", "ASSOCIATION": "USA - CA", "POINTS": "4", "BONUSPOINTS": "3"}}, {"type": "Feature", "geometry": {"type": "Point", "coordinates": [-116.936, 35.1783]}, "properties": {"NAME": "W6/SD-462", "TITLE": "Goldstone Benchmark", "REGION": "Southern Desert", "ASSOCIATION": "USA - CA", "POINTS": "2", "BONUSPOINTS": "3"}}, {"type": "Feature", "geometry": {"type": "Point", "coordinates": [-117.5745, 34.7049]}, "properties": {"NAME": "W6/SD-463", "TITLE": "3996", "REGION": "Southern Desert", "ASSOCIATION": "USA - CA", "POINTS": "2", "BONUSPOINTS": "3"}}, {"type": "Feature", "geometry": {"type": "Point", "coordinates": [-115.1239, 34.7301]}, "properties": {"NAME": "W6/SD-464", "TITLE": "3966", "REGION": "Southern Desert", "ASSOCIATION": "USA - CA", "POINTS": "2", "BONUSPOINTS": "3"}}, {"type": "Feature", "geometry": {"type": "Point", "coordinates": [-117.2396, 35.1401]}, "properties": {"NAME": "W6/SD-465", "TITLE": "Black Mountain", "REGION": "Southern Desert", "ASSOCIATION": "USA - CA", "POINTS": "2", "BONUSPOINTS": "3"}}, {"type": "Feature", "geometry": {"type": "Point", "coordinates": [-114.8705, 34.3084]}, "properties": {"NAME": "W6/SD-466", "TITLE": "3920", "REGION": "Southern Desert", "ASSOCIATION": "USA - CA", "POINTS": "2", "BONUSPOINTS": "3"}}, {"type": "Feature", "geometry": {"type": "Point", "coordinates": [-115.4459, 34.7198]}, "properties": {"NAME": "W6/SD-467", "TITLE": "3854", "REGION": "Southern Desert", "ASSOCIATION": "USA - CA", "POINTS": "2", "BONUSPOINTS": "3"}}, {"type": "Feature", "geometry": {"type": "Point", "coordinates": [-117.4517, 34.2321]}, "properties": {"NAME": "W6/SD-468", "TITLE": "Lower Lytle Creek Ridge", "REGION": "Southern Desert", "ASSOCIATION": "USA - CA", "POINTS": "2", "BONUSPOINTS": "3"}}, {"type": "Feature", "geometry": {"type": "Point", "coordinates": [-115.7993, 35.2088]}, "properties": {"NAME": "W6/SD-469", "TITLE": "3763", "REGION": "Southern Desert", "ASSOCIATION": "USA - CA", "POINTS": "2", "BONUSPOINTS": "3"}}, {"type": "Feature", "geometry": {"type": "Point", "coordinates": [-115.6843, 35.7337]}, "properties": {"NAME": "W6/SD-470", "TITLE": "3763", "REGION": "Southern Desert", "ASSOCIATION": "USA - CA", "POINTS": "2", "BONUSPOINTS": "3"}}, {"type": "Feature", "geometry": {"type": "Point", "coordinates": [-116.1374, 34.9171]}, "properties": {"NAME": "W6/SD-471", "TITLE": "3723", "REGION": "Southern Desert", "ASSOCIATION": "USA - CA", "POINTS": "2", "BONUSPOINTS": "3"}}, {"type": "Feature", "geometry": {"type": "Point", "coordinates": [-117.627, 35.5431]}, "properties": {"NAME": "W6/SD-472", "TITLE": "3710", "REGION": "Southern Desert", "ASSOCIATION": "USA - CA", "POINTS": "2", "BONUSPOINTS": "3"}}, {"type": "Feature", "geometry": {"type": "Point", "coordinates": [-115.1941, 34.6238]}, "properties": {"NAME": "W6/SD-473", "TITLE": "Mercury Mountain", "REGION": "Southern Desert", "ASSOCIATION": "USA - CA", "POINTS": "2", "BONUSPOINTS": "3"}}, {"type": "Feature", "geometry": {"type": "Point", "coordinates": [-114.8342, 34.407]}, "properties": {"NAME": "W6/SD-474", "TITLE": "3687", "REGION": "Southern Desert", "ASSOCIATION": "USA - CA", "POINTS": "2", "BONUSPOINTS": "3"}}, {"type": "Feature", "geometry": {"type": "Point", "coordinates": [-115.4054, 34.723]}, "properties": {"NAME": "W6/SD-475", "TITLE": "3645", "REGION": "Southern Desert", "ASSOCIATION": "USA - CA", "POINTS": "2", "BONUSPOINTS": "3"}}, {"type": "Feature", "geometry": {"type": "Point", "coordinates": [-114.7513, 35.0561]}, "properties": {"NAME": "W6/SD-476", "TITLE": "3500", "REGION": "Southern Desert", "ASSOCIATION": "USA - CA", "POINTS": "2", "BONUSPOINTS": "3"}}, {"type": "Feature", "geometry": {"type": "Point", "coordinates": [-115.9317, 34.7517]}, "properties": {"NAME": "W6/SD-477", "TITLE": "3464", "REGION": "Southern Desert", "ASSOCIATION": "USA - CA", "POINTS": "2", "BONUSPOINTS": "3"}}, {"type": "Feature", "geometry": {"type": "Point", "coordinates": [-115.4944, 34.1906]}, "properties": {"NAME": "W6/SD-478", "TITLE": "3428", "REGION": "Southern Desert", "ASSOCIATION": "USA - CA", "POINTS": "2", "BONUSPOINTS": "3"}}, {"type": "Feature", "geometry": {"type": "Point", "coordinates": [-115.3143, 33.5376]}, "properties": {"NAME": "W6/SD-479", "TITLE": "3416", "REGION": "Southern Desert", "ASSOCIATION": "USA - CA", "POINTS": "2", "BONUSPOINTS": "3"}}, {"type": "Feature", "geometry": {"type": "Point", "coordinates": [-115.5461, 33.8604]}, "properties": {"NAME": "W6/SD-480", "TITLE": "3378", "REGION": "Southern Desert", "ASSOCIATION": "USA - CA", "POINTS": "2", "BONUSPOINTS": "3"}}, {"type": "Feature", "geometry": {"type": "Point", "coordinates": [-117.0394, 34.9704]}, "properties": {"NAME": "W6/SD-481", "TITLE": "Waterman Hills", "REGION": "Southern Desert", "ASSOCIATION": "USA - CA", "POINTS": "2", "BONUSPOINTS": "3"}}, {"type": "Feature", "geometry": {"type": "Point", "coordinates": [-115.3357, 33.5967]}, "properties": {"NAME": "W6/SD-482", "TITLE": "3272", "REGION": "Southern Desert", "ASSOCIATION": "USA - CA", "POINTS": "2", "BONUSPOINTS": "3"}}, {"type": "Feature", "geometry": {"type": "Point", "coordinates": [-115.7553, 34.6493]}, "properties": {"NAME": "W6/SD-483", "TITLE": "3251", "REGION": "Southern Desert", "ASSOCIATION": "USA - CA", "POINTS": "2", "BONUSPOINTS": "3"}}, {"type": "Feature", "geometry": {"type": "Point", "coordinates": [-115.589, 34.6428]}, "properties": {"NAME": "W6/SD-484", "TITLE": "3251", "REGION": "Southern Desert", "ASSOCIATION": "USA - CA", "POINTS": "2", "BONUSPOINTS": "3"}}, {"type": "Feature", "geometry": {"type": "Point", "coordinates": [-114.8538, 34.2426]}, "properties": {"NAME": "W6/SD-485", "TITLE": "3171", "REGION": "Southern Desert", "ASSOCIATION": "USA - CA", "POINTS": "2", "BONUSPOINTS": "3"}}, {"type": "Feature", "geometry": {"type": "Point", "coordinates": [-116.7485, 35.7308]}, "properties": {"NAME": "W6/SD-486", "TITLE": "3156", "REGION": "Southern Desert", "ASSOCIATION": "USA - CA", "POINTS": "2", "BONUSPOINTS": "3"}}, {"type": "Feature", "geometry": {"type": "Point", "coordinates": [-115.365, 33.611]}, "properties": {"NAME": "W6/SD-487", "TITLE": "3140", "REGION": "Southern Desert", "ASSOCIATION": "USA - CA", "POINTS": "2", "BONUSPOINTS": "3"}}, {"type": "Feature", "geometry": {"type": "Point", "coordinates": [-116.9542, 35.7123]}, "properties": {"NAME": "W6/SD-488", "TITLE": "Crystal Hills", "REGION": "Southern Desert", "ASSOCIATION": "USA - CA", "POINTS": "2", "BONUSPOINTS": "3"}}, {"type": "Feature", "geometry": {"type": "Point", "coordinates": [-116.0502, 34.4259]}, "properties": {"NAME": "W6/SD-489", "TITLE": "3083", "REGION": "Southern Desert", "ASSOCIATION": "USA - CA", "POINTS": "2", "BONUSPOINTS": "3"}}, {"type": "Feature", "geometry": {"type": "Point", "coordinates": [-115.5858, 33.474]}, "properties": {"NAME": "W6/SD-490", "TITLE": "3020", "REGION": "Southern Desert", "ASSOCIATION": "USA - CA", "POINTS": "2", "BONUSPOINTS": "3"}}, {"type": "Feature", "geometry": {"type": "Point", "coordinates": [-115.6441, 33.8253]}, "properties": {"NAME": "W6/SD-491", "TITLE": "3005", "REGION": "Southern Desert", "ASSOCIATION": "USA - CA", "POINTS": "2", "BONUSPOINTS": "3"}}, {"type": "Feature", "geometry": {"type": "Point", "coordinates": [-115.5574, 34.6182]}, "properties": {"NAME": "W6/SD-492", "TITLE": "3001", "REGION": "Southern Desert", "ASSOCIATION": "USA - CA", "POINTS": "2", "BONUSPOINTS": "3"}}, {"type": "Feature", "geometry": {"type": "Point", "coordinates": [-115.487, 33.6711]}, "properties": {"NAME": "W6/SD-493", "TITLE": "2994", "REGION": "Southern Desert", "ASSOCIATION": "USA - CA", "POINTS": "2", "BONUSPOINTS": "3"}}, {"type": "Feature", "geometry": {"type": "Point", "coordinates": [-115.7057, 34.0259]}, "properties": {"NAME": "W6/SD-494", "TITLE": "2992", "REGION": "Southern Desert", "ASSOCIATION": "USA - CA", "POINTS": "2", "BONUSPOINTS": "3"}}, {"type": "Feature", "geometry": {"type": "Point", "coordinates": [-115.3826, 34.4907]}, "properties": {"NAME": "W6/SD-495", "TITLE": "2916", "REGION": "Southern Desert", "ASSOCIATION": "USA - CA", "POINTS": "2", "BONUSPOINTS": "3"}}, {"type": "Feature", "geometry": {"type": "Point", "coordinates": [-117.4348, 35.6092]}, "properties": {"NAME": "W6/SD-496", "TITLE": "2859", "REGION": "Southern Desert", "ASSOCIATION": "USA - CA", "POINTS": "2", "BONUSPOINTS": "3"}}, {"type": "Feature", "geometry": {"type": "Point", "coordinates": [-116.9356, 34.9208]}, "properties": {"NAME": "W6/SD-497", "TITLE": "Lead Mountain", "REGION": "Southern Desert", "ASSOCIATION": "USA - CA", "POINTS": "2", "BONUSPOINTS": "3"}}, {"type": "Feature", "geometry": {"type": "Point", "coordinates": [-116.1147, 34.6809]}, "properties": {"NAME": "W6/SD-498", "TITLE": "2740", "REGION": "Southern Desert", "ASSOCIATION": "USA - CA", "POINTS": "2", "BONUSPOINTS": "3"}}, {"type": "Feature", "geometry": {"type": "Point", "coordinates": [-114.8419, 34.4305]}, "properties": {"NAME": "W6/SD-499", "TITLE": "2739", "REGION": "Southern Desert", "ASSOCIATION": "USA - CA", "POINTS": "2", "BONUSPOINTS": "3"}}, {"type": "Feature", "geometry": {"type": "Point", "coordinates": [-114.5945, 34.6645]}, "properties": {"NAME": "W6/SD-500", "TITLE": "2700", "REGION": "Southern Desert", "ASSOCIATION": "USA - CA", "POINTS": "2", "BONUSPOINTS": "3"}}, {"type": "Feature", "geometry": {"type": "Point", "coordinates": [-116.8967, 34.886]}, "properties": {"NAME": "W6/SD-501", "TITLE": "Elephant Mountain", "REGION": "Southern Desert", "ASSOCIATION": "USA - CA", "POINTS": "2", "BONUSPOINTS": "3"}}, {"type": "Feature", "geometry": {"type": "Point", "coordinates": [-116.216, 34.9134]}, "properties": {"NAME": "W6/SD-502", "TITLE": "2608", "REGION": "Southern Desert", "ASSOCIATION": "USA - CA", "POINTS": "2", "BONUSPOINTS": "3"}}, {"type": "Feature", "geometry": {"type": "Point", "coordinates": [-115.6265, 33.6388]}, "properties": {"NAME": "W6/SD-503", "TITLE": "2580", "REGION": "Southern Desert", "ASSOCIATION": "USA - CA", "POINTS": "2", "BONUSPOINTS": "3"}}, {"type": "Feature", "geometry": {"type": "Point", "coordinates": [-115.1185, 33.7867]}, "properties": {"NAME": "W6/SD-504", "TITLE": "2562", "REGION": "Southern Desert", "ASSOCIATION": "USA - CA", "POINTS": "2", "BONUSPOINTS": "3"}}, {"type": "Feature", "geometry": {"type": "Point", "coordinates": [-114.7485, 34.3037]}, "properties": {"NAME": "W6/SD-505", "TITLE": "2553", "REGION": "Southern Desert", "ASSOCIATION": "USA - CA", "POINTS": "2", "BONUSPOINTS": "3"}}, {"type": "Feature", "geometry": {"type": "Point", "coordinates": [-114.8943, 34.4158]}, "properties": {"NAME": "W6/SD-506", "TITLE": "2522", "REGION": "Southern Desert", "ASSOCIATION": "USA - CA", "POINTS": "2", "BONUSPOINTS": "3"}}, {"type": "Feature", "geometry": {"type": "Point", "coordinates": [-114.9982, 33.133]}, "properties": {"NAME": "W6/SD-507", "TITLE": "2500", "REGION": "Southern Desert", "ASSOCIATION": "USA - CA", "POINTS": "2", "BONUSPOINTS": "3"}}, {"type": "Feature", "geometry": {"type": "Point", "coordinates": [-115.1884, 34.0154]}, "properties": {"NAME": "W6/SD-508", "TITLE": "2381", "REGION": "Southern Desert", "ASSOCIATION": "USA - CA", "POINTS": "1", "BONUSPOINTS": "3"}}, {"type": "Feature", "geometry": {"type": "Point", "coordinates": [-116.2245, 34.8705]}, "properties": {"NAME": "W6/SD-509", "TITLE": "2329", "REGION": "Southern Desert", "ASSOCIATION": "USA - CA", "POINTS": "1", "BONUSPOINTS": "3"}}, {"type": "Feature", "geometry": {"type": "Point", "coordinates": [-116.1216, 35.1681]}, "properties": {"NAME": "W6/SD-510", "TITLE": "2280", "REGION": "Southern Desert", "ASSOCIATION": "USA - CA", "POINTS": "1", "BONUSPOINTS": "3"}}, {"type": "Feature", "geometry": {"type": "Point", "coordinates": [-115.174, 33.9991]}, "properties": {"NAME": "W6/SD-511", "TITLE": "2247", "REGION": "Southern Desert", "ASSOCIATION": "USA - CA", "POINTS": "1", "BONUSPOINTS": "3"}}, {"type": "Feature", "geometry": {"type": "Point", "coordinates": [-115.7382, 34.6066]}, "properties": {"NAME": "W6/SD-512", "TITLE": "2214", "REGION": "Southern Desert", "ASSOCIATION": "USA - CA", "POINTS": "1", "BONUSPOINTS": "3"}}, {"type": "Feature", "geometry": {"type": "Point", "coordinates": [-114.6563, 34.0771]}, "properties": {"NAME": "W6/SD-513", "TITLE": "Grommet Benchmark", "REGION": "Southern Desert", "ASSOCIATION": "USA - CA", "POINTS": "1", "BONUSPOINTS": "3"}}, {"type": "Feature", "geometry": {"type": "Point", "coordinates": [-115.307, 33.2718]}, "properties": {"NAME": "W6/SD-514", "TITLE": "Rule Benchmark", "REGION": "Southern Desert", "ASSOCIATION": "USA - CA", "POINTS": "1", "BONUSPOINTS": "3"}}, {"type": "Feature", "geometry": {"type": "Point", "coordinates": [-114.9278, 34.0149]}, "properties": {"NAME": "W6/SD-515", "TITLE": "1985", "REGION": "Southern Desert", "ASSOCIATION": "USA - CA", "POINTS": "1", "BONUSPOINTS": "3"}}, {"type": "Feature", "geometry": {"type": "Point", "coordinates": [-115.1045, 33.2435]}, "properties": {"NAME": "W6/SD-516", "TITLE": "Blue Mountain", "REGION": "Southern Desert", "ASSOCIATION": "USA - CA", "POINTS": "1", "BONUSPOINTS": "3"}}, {"type": "Feature", "geometry": {"type": "Point", "coordinates": [-115.0118, 33.4869]}, "properties": {"NAME": "W6/SD-517", "TITLE": "1841", "REGION": "Southern Desert", "ASSOCIATION": "USA - CA", "POINTS": "1", "BONUSPOINTS": "3"}}, {"type": "Feature", "geometry": {"type": "Point", "coordinates": [-115.9592, 32.6386]}, "properties": {"NAME": "W6/SD-518", "TITLE": "1730", "REGION": "Southern Desert", "ASSOCIATION": "USA - CA", "POINTS": "1", "BONUSPOINTS": "3"}}, {"type": "Feature", "geometry": {"type": "Point", "coordinates": [-114.8007, 32.8733]}, "properties": {"NAME": "W6/SD-519", "TITLE": "1687", "REGION": "Southern Desert", "ASSOCIATION": "USA - CA", "POINTS": "1", "BONUSPOINTS": "3"}}, {"type": "Feature", "geometry": {"type": "Point", "coordinates": [-114.8324, 33.1898]}, "properties": {"NAME": "W6/SD-520", "TITLE": "Well Benchmark", "REGION": "Southern Desert", "ASSOCIATION": "USA - CA", "POINTS": "1", "BONUSPOINTS": "3"}}, {"type": "Feature", "geometry": {"type": "Point", "coordinates": [-114.6161, 33.769]}, "properties": {"NAME": "W6/SD-521", "TITLE": "1579", "REGION": "Southern Desert", "ASSOCIATION": "USA - CA", "POINTS": "1", "BONUSPOINTS": "3"}}, {"type": "Feature", "geometry": {"type": "Point", "coordinates": [-116.1578, 35.0329]}, "properties": {"NAME": "W6/SD-522", "TITLE": "Crucero Hill", "REGION": "Southern Desert", "ASSOCIATION": "USA - CA", "POINTS": "1", "BONUSPOINTS": "3"}}, {"type": "Feature", "geometry": {"type": "Point", "coordinates": [-114.9621, 33.0851]}, "properties": {"NAME": "W6/SD-523", "TITLE": "1555", "REGION": "Southern Desert", "ASSOCIATION": "USA - CA", "POINTS": "1", "BONUSPOINTS": "3"}}, {"type": "Feature", "geometry": {"type": "Point", "coordinates": [-116.4276, 35.7566]}, "properties": {"NAME": "W6/SD-524", "TITLE": "1538", "REGION": "Southern Desert", "ASSOCIATION": "USA - CA", "POINTS": "1", "BONUSPOINTS": "3"}}, {"type": "Feature", "geometry": {"type": "Point", "coordinates": [-114.8172, 32.9051]}, "properties": {"NAME": "W6/SD-525", "TITLE": "1460", "REGION": "Southern Desert", "ASSOCIATION": "USA - CA", "POINTS": "1", "BONUSPOINTS": "3"}}, {"type": "Feature", "geometry": {"type": "Point", "coordinates": [-114.729, 33.1494]}, "properties": {"NAME": "W6/SD-526", "TITLE": "1455", "REGION": "Southern Desert", "ASSOCIATION": "USA - CA", "POINTS": "1", "BONUSPOINTS": "3"}}, {"type": "Feature", "geometry": {"type": "Point", "coordinates": [-114.782, 33.3071]}, "properties": {"NAME": "W6/SD-527", "TITLE": "1340", "REGION": "Southern Desert", "ASSOCIATION": "USA - CA", "POINTS": "1", "BONUSPOINTS": "3"}}, {"type": "Feature", "geometry": {"type": "Point", "coordinates": [-114.7298, 32.8388]}, "properties": {"NAME": "W6/SD-528", "TITLE": "1310", "REGION": "Southern Desert", "ASSOCIATION": "USA - CA", "POINTS": "1", "BONUSPOINTS": "3"}}, {"type": "Feature", "geometry": {"type": "Point", "coordinates": [-116.2041, 33.1913]}, "properties": {"NAME": "W6/SD-529", "TITLE": "West Butte", "REGION": "Southern Desert", "ASSOCIATION": "USA - CA", "POINTS": "1", "BONUSPOINTS": "3"}}]}