{"type": "FeatureCollection", "name": "W4V/LX SUMMITS", "features": [{"type": "Feature", "geometry": {"type": "Point", "coordinates": [-79.7958, 38.2656]}, "properties": {"NAME": "W4V/LX-001", "TITLE": "Paddy Knob", "REGION": "VA-Lexington", "ASSOCIATION": "USA - Virginia", "POINTS": "10", "BONUSPOINTS": "3"}}, {"type": "Feature", "geometry": {"type": "Point", "coordinates": [-79.7644, 38.3565]}, "properties": {"NAME": "W4V/LX-002", "TITLE": "4386", "REGION": "VA-Lexington", "ASSOCIATION": "USA - Virginia", "POINTS": "10", "BONUSPOINTS": "3"}}, {"type": "Feature", "geometry": {"type": "Point", "coordinates": [-79.5035, 38.4171]}, "properties": {"NAME": "W4V/LX-003", "TITLE": "Riven Rocks", "REGION": "VA-Lexington", "ASSOCIATION": "USA - Virginia", "POINTS": "10", "BONUSPOINTS": "3"}}, {"type": "Feature", "geometry": {"type": "Point", "coordinates": [-79.5901, 38.3464]}, "properties": {"NAME": "W4V/LX-004", "TITLE": "Sounding Knob", "REGION": "VA-Lexington", "ASSOCIATION": "USA - Virginia", "POINTS": "10", "BONUSPOINTS": "3"}}, {"type": "Feature", "geometry": {"type": "Point", "coordinates": [-79.5739, 38.3686]}, "properties": {"NAME": "W4V/LX-005", "TITLE": "4260", "REGION": "VA-Lexington", "ASSOCIATION": "USA - Virginia", "POINTS": "10", "BONUSPOINTS": "3"}}, {"type": "Feature", "geometry": {"type": "Point", "coordinates": [-79.852, 37.9243]}, "properties": {"NAME": "W4V/LX-006", "TITLE": "Bald Knob", "REGION": "VA-Lexington", "ASSOCIATION": "USA - Virginia", "POINTS": "10", "BONUSPOINTS": "3"}}, {"type": "Feature", "geometry": {"type": "Point", "coordinates": [-79.6164, 38.5288]}, "properties": {"NAME": "W4V/LX-007", "TITLE": "Stamp, The", "REGION": "VA-Lexington", "ASSOCIATION": "USA - Virginia", "POINTS": "10", "BONUSPOINTS": "3"}}, {"type": "Feature", "geometry": {"type": "Point", "coordinates": [-79.9271, 37.8486]}, "properties": {"NAME": "W4V/LX-008", "TITLE": "Big Knob", "REGION": "VA-Lexington", "ASSOCIATION": "USA - Virginia", "POINTS": "10", "BONUSPOINTS": "3"}}, {"type": "Feature", "geometry": {"type": "Point", "coordinates": [-79.6062, 38.421]}, "properties": {"NAME": "W4V/LX-009", "TITLE": "Monterey Mountain", "REGION": "VA-Lexington", "ASSOCIATION": "USA - Virginia", "POINTS": "10", "BONUSPOINTS": "3"}}, {"type": "Feature", "geometry": {"type": "Point", "coordinates": [-79.6582, 38.3526]}, "properties": {"NAME": "W4V/LX-010", "TITLE": "Back Creek Mountain", "REGION": "VA-Lexington", "ASSOCIATION": "USA - Virginia", "POINTS": "10", "BONUSPOINTS": "3"}}, {"type": "Feature", "geometry": {"type": "Point", "coordinates": [-79.6145, 38.4812]}, "properties": {"NAME": "W4V/LX-011", "TITLE": "Lantz Mountain", "REGION": "VA-Lexington", "ASSOCIATION": "USA - Virginia", "POINTS": "8", "BONUSPOINTS": "3"}}, {"type": "Feature", "geometry": {"type": "Point", "coordinates": [-79.7018, 38.1682]}, "properties": {"NAME": "W4V/LX-012", "TITLE": "Duncan Knob", "REGION": "VA-Lexington", "ASSOCIATION": "USA - Virginia", "POINTS": "8", "BONUSPOINTS": "3"}}, {"type": "Feature", "geometry": {"type": "Point", "coordinates": [-79.7292, 38.1052]}, "properties": {"NAME": "W4V/LX-013", "TITLE": "3805", "REGION": "VA-Lexington", "ASSOCIATION": "USA - Virginia", "POINTS": "8", "BONUSPOINTS": "3"}}, {"type": "Feature", "geometry": {"type": "Point", "coordinates": [-79.97, 37.6774]}, "properties": {"NAME": "W4V/LX-014", "TITLE": "Rich Patch Mountains HP", "REGION": "VA-Lexington", "ASSOCIATION": "USA - Virginia", "POINTS": "8", "BONUSPOINTS": "3"}}, {"type": "Feature", "geometry": {"type": "Point", "coordinates": [-79.961, 38.0682]}, "properties": {"NAME": "W4V/LX-015", "TITLE": "High Top", "REGION": "VA-Lexington", "ASSOCIATION": "USA - Virginia", "POINTS": "8", "BONUSPOINTS": "3"}}, {"type": "Feature", "geometry": {"type": "Point", "coordinates": [-79.562, 37.831]}, "properties": {"NAME": "W4V/LX-016", "TITLE": "Big House Mountain", "REGION": "VA-Lexington", "ASSOCIATION": "USA - Virginia", "POINTS": "8", "BONUSPOINTS": "3"}}, {"type": "Feature", "geometry": {"type": "Point", "coordinates": [-80.1562, 37.7081]}, "properties": {"NAME": "W4V/LX-017", "TITLE": "Peters Mountain", "REGION": "VA-Lexington", "ASSOCIATION": "USA - Virginia", "POINTS": "8", "BONUSPOINTS": "3"}}, {"type": "Feature", "geometry": {"type": "Point", "coordinates": [-79.6411, 37.8717]}, "properties": {"NAME": "W4V/LX-018", "TITLE": "Brushy Mountain", "REGION": "VA-Lexington", "ASSOCIATION": "USA - Virginia", "POINTS": "8", "BONUSPOINTS": "3"}}, {"type": "Feature", "geometry": {"type": "Point", "coordinates": [-80.0447, 37.9051]}, "properties": {"NAME": "W4V/LX-019", "TITLE": "Oliver Mountain", "REGION": "VA-Lexington", "ASSOCIATION": "USA - Virginia", "POINTS": "8", "BONUSPOINTS": "3"}}, {"type": "Feature", "geometry": {"type": "Point", "coordinates": [-80.0238, 37.6638]}, "properties": {"NAME": "W4V/LX-020", "TITLE": "Nicholls Knob", "REGION": "VA-Lexington", "ASSOCIATION": "USA - Virginia", "POINTS": "8", "BONUSPOINTS": "3"}}, {"type": "Feature", "geometry": {"type": "Point", "coordinates": [-79.48, 37.9001]}, "properties": {"NAME": "W4V/LX-021", "TITLE": "Big Butt", "REGION": "VA-Lexington", "ASSOCIATION": "USA - Virginia", "POINTS": "8", "BONUSPOINTS": "3"}}, {"type": "Feature", "geometry": {"type": "Point", "coordinates": [-79.9993, 37.7042]}, "properties": {"NAME": "W4V/LX-022", "TITLE": "Mud Run Mountain", "REGION": "VA-Lexington", "ASSOCIATION": "USA - Virginia", "POINTS": "8", "BONUSPOINTS": "3"}}, {"type": "Feature", "geometry": {"type": "Point", "coordinates": [-79.6409, 38.2732]}, "properties": {"NAME": "W4V/LX-023", "TITLE": "Little Mountain", "REGION": "VA-Lexington", "ASSOCIATION": "USA - Virginia", "POINTS": "8", "BONUSPOINTS": "3"}}, {"type": "Feature", "geometry": {"type": "Point", "coordinates": [-80.1418, 37.697]}, "properties": {"NAME": "W4V/LX-024", "TITLE": "High Point", "REGION": "VA-Lexington", "ASSOCIATION": "USA - Virginia", "POINTS": "8", "BONUSPOINTS": "3"}}, {"type": "Feature", "geometry": {"type": "Point", "coordinates": [-79.4164, 38.425]}, "properties": {"NAME": "W4V/LX-025", "TITLE": "3420", "REGION": "VA-Lexington", "ASSOCIATION": "USA - Virginia", "POINTS": "8", "BONUSPOINTS": "3"}}, {"type": "Feature", "geometry": {"type": "Point", "coordinates": [-80.1628, 37.8734]}, "properties": {"NAME": "W4V/LX-026", "TITLE": "Smith Knob", "REGION": "VA-Lexington", "ASSOCIATION": "USA - Virginia", "POINTS": "8", "BONUSPOINTS": "3"}}, {"type": "Feature", "geometry": {"type": "Point", "coordinates": [-80.1129, 37.714]}, "properties": {"NAME": "W4V/LX-027", "TITLE": "Morning Knob", "REGION": "VA-Lexington", "ASSOCIATION": "USA - Virginia", "POINTS": "8", "BONUSPOINTS": "3"}}, {"type": "Feature", "geometry": {"type": "Point", "coordinates": [-79.5475, 37.8271]}, "properties": {"NAME": "W4V/LX-028", "TITLE": "Little House Mountain", "REGION": "VA-Lexington", "ASSOCIATION": "USA - Virginia", "POINTS": "8", "BONUSPOINTS": "3"}}, {"type": "Feature", "geometry": {"type": "Point", "coordinates": [-79.5512, 37.8987]}, "properties": {"NAME": "W4V/LX-029", "TITLE": "White Rock Mountain", "REGION": "VA-Lexington", "ASSOCIATION": "USA - Virginia", "POINTS": "8", "BONUSPOINTS": "3"}}, {"type": "Feature", "geometry": {"type": "Point", "coordinates": [-79.5255, 37.9234]}, "properties": {"NAME": "W4V/LX-030", "TITLE": "Ragged Mountain", "REGION": "VA-Lexington", "ASSOCIATION": "USA - Virginia", "POINTS": "8", "BONUSPOINTS": "3"}}, {"type": "Feature", "geometry": {"type": "Point", "coordinates": [-79.9561, 37.7328]}, "properties": {"NAME": "W4V/LX-031", "TITLE": "Little Mountain", "REGION": "VA-Lexington", "ASSOCIATION": "USA - Virginia", "POINTS": "8", "BONUSPOINTS": "3"}}, {"type": "Feature", "geometry": {"type": "Point", "coordinates": [-80.2054, 37.8196]}, "properties": {"NAME": "W4V/LX-032", "TITLE": "Hickory Knob", "REGION": "VA-Lexington", "ASSOCIATION": "USA - Virginia", "POINTS": "8", "BONUSPOINTS": "3"}}, {"type": "Feature", "geometry": {"type": "Point", "coordinates": [-79.5423, 38.0794]}, "properties": {"NAME": "W4V/LX-033", "TITLE": "Chestnut Ridge", "REGION": "VA-Lexington", "ASSOCIATION": "USA - Virginia", "POINTS": "8", "BONUSPOINTS": "3"}}, {"type": "Feature", "geometry": {"type": "Point", "coordinates": [-79.9192, 37.9013]}, "properties": {"NAME": "W4V/LX-034", "TITLE": "Little Mountain", "REGION": "VA-Lexington", "ASSOCIATION": "USA - Virginia", "POINTS": "8", "BONUSPOINTS": "3"}}, {"type": "Feature", "geometry": {"type": "Point", "coordinates": [-79.4769, 38.3099]}, "properties": {"NAME": "W4V/LX-035", "TITLE": "3260", "REGION": "VA-Lexington", "ASSOCIATION": "USA - Virginia", "POINTS": "8", "BONUSPOINTS": "3"}}, {"type": "Feature", "geometry": {"type": "Point", "coordinates": [-79.7363, 38.2856]}, "properties": {"NAME": "W4V/LX-036", "TITLE": "Little Mountain", "REGION": "VA-Lexington", "ASSOCIATION": "USA - Virginia", "POINTS": "8", "BONUSPOINTS": "3"}}, {"type": "Feature", "geometry": {"type": "Point", "coordinates": [-79.6495, 38.1399]}, "properties": {"NAME": "W4V/LX-037", "TITLE": "Tower Hill Mountain", "REGION": "VA-Lexington", "ASSOCIATION": "USA - Virginia", "POINTS": "6", "BONUSPOINTS": "3"}}, {"type": "Feature", "geometry": {"type": "Point", "coordinates": [-79.8495, 37.9876]}, "properties": {"NAME": "W4V/LX-038", "TITLE": "3220", "REGION": "VA-Lexington", "ASSOCIATION": "USA - Virginia", "POINTS": "6", "BONUSPOINTS": "3"}}, {"type": "Feature", "geometry": {"type": "Point", "coordinates": [-79.9273, 37.7382]}, "properties": {"NAME": "W4V/LX-039", "TITLE": "Porter Mountain", "REGION": "VA-Lexington", "ASSOCIATION": "USA - Virginia", "POINTS": "6", "BONUSPOINTS": "3"}}, {"type": "Feature", "geometry": {"type": "Point", "coordinates": [-79.8454, 37.7826]}, "properties": {"NAME": "W4V/LX-040", "TITLE": "Waits Mountain", "REGION": "VA-Lexington", "ASSOCIATION": "USA - Virginia", "POINTS": "6", "BONUSPOINTS": "3"}}, {"type": "Feature", "geometry": {"type": "Point", "coordinates": [-79.8038, 38.0395]}, "properties": {"NAME": "W4V/LX-041", "TITLE": "3190", "REGION": "VA-Lexington", "ASSOCIATION": "USA - Virginia", "POINTS": "6", "BONUSPOINTS": "3"}}, {"type": "Feature", "geometry": {"type": "Point", "coordinates": [-79.8382, 37.8954]}, "properties": {"NAME": "W4V/LX-042", "TITLE": "Middle Mountain", "REGION": "VA-Lexington", "ASSOCIATION": "USA - Virginia", "POINTS": "6", "BONUSPOINTS": "3"}}, {"type": "Feature", "geometry": {"type": "Point", "coordinates": [-79.9308, 37.9886]}, "properties": {"NAME": "W4V/LX-043", "TITLE": "Coles Mountain", "REGION": "VA-Lexington", "ASSOCIATION": "USA - Virginia", "POINTS": "6", "BONUSPOINTS": "3"}}, {"type": "Feature", "geometry": {"type": "Point", "coordinates": [-80.1713, 37.8108]}, "properties": {"NAME": "W4V/LX-044", "TITLE": "Brushy Mountain", "REGION": "VA-Lexington", "ASSOCIATION": "USA - Virginia", "POINTS": "6", "BONUSPOINTS": "3"}}, {"type": "Feature", "geometry": {"type": "Point", "coordinates": [-79.8238, 38.015]}, "properties": {"NAME": "W4V/LX-045", "TITLE": "3168", "REGION": "VA-Lexington", "ASSOCIATION": "USA - Virginia", "POINTS": "6", "BONUSPOINTS": "3"}}, {"type": "Feature", "geometry": {"type": "Point", "coordinates": [-79.4182, 37.9479]}, "properties": {"NAME": "W4V/LX-046", "TITLE": "Jump Rock", "REGION": "VA-Lexington", "ASSOCIATION": "USA - Virginia", "POINTS": "6", "BONUSPOINTS": "3"}}, {"type": "Feature", "geometry": {"type": "Point", "coordinates": [-79.7838, 38.0641]}, "properties": {"NAME": "W4V/LX-047", "TITLE": "3130", "REGION": "VA-Lexington", "ASSOCIATION": "USA - Virginia", "POINTS": "6", "BONUSPOINTS": "3"}}, {"type": "Feature", "geometry": {"type": "Point", "coordinates": [-79.4934, 38.0725]}, "properties": {"NAME": "W4V/LX-048", "TITLE": "Sideling Hill", "REGION": "VA-Lexington", "ASSOCIATION": "USA - Virginia", "POINTS": "6", "BONUSPOINTS": "3"}}, {"type": "Feature", "geometry": {"type": "Point", "coordinates": [-80.2247, 37.7654]}, "properties": {"NAME": "W4V/LX-049", "TITLE": "Lewis Mountain", "REGION": "VA-Lexington", "ASSOCIATION": "USA - Virginia", "POINTS": "6", "BONUSPOINTS": "3"}}, {"type": "Feature", "geometry": {"type": "Point", "coordinates": [-79.902, 37.7473]}, "properties": {"NAME": "W4V/LX-050", "TITLE": "Johnson Mountain", "REGION": "VA-Lexington", "ASSOCIATION": "USA - Virginia", "POINTS": "6", "BONUSPOINTS": "3"}}, {"type": "Feature", "geometry": {"type": "Point", "coordinates": [-79.8779, 37.8398]}, "properties": {"NAME": "W4V/LX-051", "TITLE": "Fore Mountain", "REGION": "VA-Lexington", "ASSOCIATION": "USA - Virginia", "POINTS": "6", "BONUSPOINTS": "3"}}, {"type": "Feature", "geometry": {"type": "Point", "coordinates": [-80.0306, 37.8372]}, "properties": {"NAME": "W4V/LX-052", "TITLE": "Lick Mountain", "REGION": "VA-Lexington", "ASSOCIATION": "USA - Virginia", "POINTS": "6", "BONUSPOINTS": "3"}}, {"type": "Feature", "geometry": {"type": "Point", "coordinates": [-79.7849, 38.1014]}, "properties": {"NAME": "W4V/LX-053", "TITLE": "Cobbler Mountain", "REGION": "VA-Lexington", "ASSOCIATION": "USA - Virginia", "POINTS": "6", "BONUSPOINTS": "3"}}, {"type": "Feature", "geometry": {"type": "Point", "coordinates": [-79.3014, 37.7715]}, "properties": {"NAME": "W4V/LX-054", "TITLE": "Whites Peak", "REGION": "VA-Lexington", "ASSOCIATION": "USA - Virginia", "POINTS": "6", "BONUSPOINTS": "3"}}, {"type": "Feature", "geometry": {"type": "Point", "coordinates": [-79.5876, 37.9508]}, "properties": {"NAME": "W4V/LX-055", "TITLE": "Mill Mountain", "REGION": "VA-Lexington", "ASSOCIATION": "USA - Virginia", "POINTS": "6", "BONUSPOINTS": "3"}}, {"type": "Feature", "geometry": {"type": "Point", "coordinates": [-79.9339, 37.7632]}, "properties": {"NAME": "W4V/LX-056", "TITLE": "Horse Mountain", "REGION": "VA-Lexington", "ASSOCIATION": "USA - Virginia", "POINTS": "6", "BONUSPOINTS": "3"}}, {"type": "Feature", "geometry": {"type": "Point", "coordinates": [-79.7555, 37.9313]}, "properties": {"NAME": "W4V/LX-057", "TITLE": "Beards Mountain", "REGION": "VA-Lexington", "ASSOCIATION": "USA - Virginia", "POINTS": "6", "BONUSPOINTS": "3"}}, {"type": "Feature", "geometry": {"type": "Point", "coordinates": [-79.7208, 37.8964]}, "properties": {"NAME": "W4V/LX-058", "TITLE": "Rough Mountain", "REGION": "VA-Lexington", "ASSOCIATION": "USA - Virginia", "POINTS": "6", "BONUSPOINTS": "3"}}, {"type": "Feature", "geometry": {"type": "Point", "coordinates": [-80.2116, 37.7397]}, "properties": {"NAME": "W4V/LX-059", "TITLE": "2781", "REGION": "VA-Lexington", "ASSOCIATION": "USA - Virginia", "POINTS": "6", "BONUSPOINTS": "3"}}, {"type": "Feature", "geometry": {"type": "Point", "coordinates": [-80.1081, 37.8654]}, "properties": {"NAME": "W4V/LX-060", "TITLE": "2770", "REGION": "VA-Lexington", "ASSOCIATION": "USA - Virginia", "POINTS": "6", "BONUSPOINTS": "3"}}, {"type": "Feature", "geometry": {"type": "Point", "coordinates": [-79.617, 38.2001]}, "properties": {"NAME": "W4V/LX-061", "TITLE": "Chesnut Ridge", "REGION": "VA-Lexington", "ASSOCIATION": "USA - Virginia", "POINTS": "6", "BONUSPOINTS": "3"}}, {"type": "Feature", "geometry": {"type": "Point", "coordinates": [-79.9037, 38.0611]}, "properties": {"NAME": "W4V/LX-062", "TITLE": "Bolar Mountain", "REGION": "VA-Lexington", "ASSOCIATION": "USA - Virginia", "POINTS": "6", "BONUSPOINTS": "3"}}, {"type": "Feature", "geometry": {"type": "Point", "coordinates": [-80.1549, 37.636]}, "properties": {"NAME": "W4V/LX-063", "TITLE": "Mill Ridge", "REGION": "VA-Lexington", "ASSOCIATION": "USA - Virginia", "POINTS": "6", "BONUSPOINTS": "3"}}, {"type": "Feature", "geometry": {"type": "Point", "coordinates": [-79.2942, 37.7896]}, "properties": {"NAME": "W4V/LX-064", "TITLE": "Coates Mountain", "REGION": "VA-Lexington", "ASSOCIATION": "USA - Virginia", "POINTS": "6", "BONUSPOINTS": "3"}}, {"type": "Feature", "geometry": {"type": "Point", "coordinates": [-79.639, 37.9373]}, "properties": {"NAME": "W4V/LX-065", "TITLE": "Short Mountain", "REGION": "VA-Lexington", "ASSOCIATION": "USA - Virginia", "POINTS": "4", "BONUSPOINTS": "0"}}, {"type": "Feature", "geometry": {"type": "Point", "coordinates": [-79.3721, 37.6823]}, "properties": {"NAME": "W4V/LX-066", "TITLE": "Target Hill", "REGION": "VA-Lexington", "ASSOCIATION": "USA - Virginia", "POINTS": "4", "BONUSPOINTS": "0"}}, {"type": "Feature", "geometry": {"type": "Point", "coordinates": [-80.1053, 37.8022]}, "properties": {"NAME": "W4V/LX-067", "TITLE": "2300", "REGION": "VA-Lexington", "ASSOCIATION": "USA - Virginia", "POINTS": "4", "BONUSPOINTS": "0"}}, {"type": "Feature", "geometry": {"type": "Point", "coordinates": [-79.4845, 37.971]}, "properties": {"NAME": "W4V/LX-068", "TITLE": "Knob Mountain", "REGION": "VA-Lexington", "ASSOCIATION": "USA - Virginia", "POINTS": "4", "BONUSPOINTS": "0"}}, {"type": "Feature", "geometry": {"type": "Point", "coordinates": [-79.4875, 37.7885]}, "properties": {"NAME": "W4V/LX-069", "TITLE": "Brushy Hill", "REGION": "VA-Lexington", "ASSOCIATION": "USA - Virginia", "POINTS": "2", "BONUSPOINTS": "0"}}, {"type": "Feature", "geometry": {"type": "Point", "coordinates": [-79.792, 37.8126]}, "properties": {"NAME": "W4V/LX-070", "TITLE": "Wilson Mountain", "REGION": "VA-Lexington", "ASSOCIATION": "USA - Virginia", "POINTS": "2", "BONUSPOINTS": "0"}}, {"type": "Feature", "geometry": {"type": "Point", "coordinates": [-79.4855, 37.6391]}, "properties": {"NAME": "W4V/LX-071", "TITLE": "Sallings Mountain", "REGION": "VA-Lexington", "ASSOCIATION": "USA - Virginia", "POINTS": "2", "BONUSPOINTS": "0"}}, {"type": "Feature", "geometry": {"type": "Point", "coordinates": [-79.4606, 37.6504]}, "properties": {"NAME": "W4V/LX-072", "TITLE": "Miller Mountain", "REGION": "VA-Lexington", "ASSOCIATION": "USA - Virginia", "POINTS": "2", "BONUSPOINTS": "0"}}, {"type": "Feature", "geometry": {"type": "Point", "coordinates": [-79.5163, 37.5962]}, "properties": {"NAME": "W4V/LX-073", "TITLE": "Furnace Mountain", "REGION": "VA-Lexington", "ASSOCIATION": "USA - Virginia", "POINTS": "2", "BONUSPOINTS": "0"}}, {"type": "Feature", "geometry": {"type": "Point", "coordinates": [-79.4223, 37.6706]}, "properties": {"NAME": "W4V/LX-074", "TITLE": "Brady Hill", "REGION": "VA-Lexington", "ASSOCIATION": "USA - Virginia", "POINTS": "2", "BONUSPOINTS": "0"}}]}