{"type": "FeatureCollection", "name": "W4V/GC SUMMITS", "features": [{"type": "Feature", "geometry": {"type": "Point", "coordinates": [-82.6293, 36.8928]}, "properties": {"NAME": "W4V/GC-001", "TITLE": "High Knob", "REGION": "VA-Gate City", "ASSOCIATION": "USA - Virginia", "POINTS": "10", "BONUSPOINTS": "3"}}, {"type": "Feature", "geometry": {"type": "Point", "coordinates": [-82.7113, 37.0302]}, "properties": {"NAME": "W4V/GC-002", "TITLE": "Indian Mountain", "REGION": "VA-Gate City", "ASSOCIATION": "USA - Virginia", "POINTS": "8", "BONUSPOINTS": "3"}}, {"type": "Feature", "geometry": {"type": "Point", "coordinates": [-82.8114, 36.9819]}, "properties": {"NAME": "W4V/GC-003", "TITLE": "Bluff Spur", "REGION": "VA-Gate City", "ASSOCIATION": "USA - Virginia", "POINTS": "8", "BONUSPOINTS": "3"}}, {"type": "Feature", "geometry": {"type": "Point", "coordinates": [-82.7911, 36.776]}, "properties": {"NAME": "W4V/GC-004", "TITLE": "Bowling Knob", "REGION": "VA-Gate City", "ASSOCIATION": "USA - Virginia", "POINTS": "8", "BONUSPOINTS": "3"}}, {"type": "Feature", "geometry": {"type": "Point", "coordinates": [-83.4514, 36.6652]}, "properties": {"NAME": "W4V/GC-005", "TITLE": "White Rock Benchmark", "REGION": "VA-Gate City", "ASSOCIATION": "USA - Virginia", "POINTS": "8", "BONUSPOINTS": "3"}}, {"type": "Feature", "geometry": {"type": "Point", "coordinates": [-82.7035, 36.9087]}, "properties": {"NAME": "W4V/GC-006", "TITLE": "Little Stone Mountain", "REGION": "VA-Gate City", "ASSOCIATION": "USA - Virginia", "POINTS": "8", "BONUSPOINTS": "3"}}, {"type": "Feature", "geometry": {"type": "Point", "coordinates": [-82.7386, 36.8972]}, "properties": {"NAME": "W4V/GC-007", "TITLE": "Stonega Lookout Tower", "REGION": "VA-Gate City", "ASSOCIATION": "USA - Virginia", "POINTS": "8", "BONUSPOINTS": "3"}}, {"type": "Feature", "geometry": {"type": "Point", "coordinates": [-82.5004, 36.6704]}, "properties": {"NAME": "W4V/GC-008", "TITLE": "3250", "REGION": "VA-Gate City", "ASSOCIATION": "USA - Virginia", "POINTS": "8", "BONUSPOINTS": "3"}}, {"type": "Feature", "geometry": {"type": "Point", "coordinates": [-82.9494, 36.7356]}, "properties": {"NAME": "W4V/GC-009", "TITLE": "Buzzard Roost", "REGION": "VA-Gate City", "ASSOCIATION": "USA - Virginia", "POINTS": "6", "BONUSPOINTS": "3"}}, {"type": "Feature", "geometry": {"type": "Point", "coordinates": [-82.642, 37.0541]}, "properties": {"NAME": "W4V/GC-010", "TITLE": "Buck Knob", "REGION": "VA-Gate City", "ASSOCIATION": "USA - Virginia", "POINTS": "6", "BONUSPOINTS": "3"}}, {"type": "Feature", "geometry": {"type": "Point", "coordinates": [-82.7974, 36.826]}, "properties": {"NAME": "W4V/GC-011", "TITLE": "Big Stone Gap No 2 Benchmark", "REGION": "VA-Gate City", "ASSOCIATION": "USA - Virginia", "POINTS": "6", "BONUSPOINTS": "3"}}, {"type": "Feature", "geometry": {"type": "Point", "coordinates": [-82.9018, 36.817]}, "properties": {"NAME": "W4V/GC-012", "TITLE": "Stone Mountain", "REGION": "VA-Gate City", "ASSOCIATION": "USA - Virginia", "POINTS": "6", "BONUSPOINTS": "3"}}, {"type": "Feature", "geometry": {"type": "Point", "coordinates": [-82.6657, 37.1425]}, "properties": {"NAME": "W4V/GC-013", "TITLE": "3100", "REGION": "VA-Gate City", "ASSOCIATION": "USA - Virginia", "POINTS": "6", "BONUSPOINTS": "3"}}, {"type": "Feature", "geometry": {"type": "Point", "coordinates": [-82.8415, 36.7507]}, "properties": {"NAME": "W4V/GC-014", "TITLE": "Big Stone Gap No 12 Benchmark", "REGION": "VA-Gate City", "ASSOCIATION": "USA - Virginia", "POINTS": "6", "BONUSPOINTS": "3"}}, {"type": "Feature", "geometry": {"type": "Point", "coordinates": [-82.6167, 37.1685]}, "properties": {"NAME": "W4V/GC-015", "TITLE": "Bentley Benchmark", "REGION": "VA-Gate City", "ASSOCIATION": "USA - Virginia", "POINTS": "6", "BONUSPOINTS": "3"}}, {"type": "Feature", "geometry": {"type": "Point", "coordinates": [-83.1833, 36.7396]}, "properties": {"NAME": "W4V/GC-016", "TITLE": "MLB 357 Benchmark", "REGION": "VA-Gate City", "ASSOCIATION": "USA - Virginia", "POINTS": "6", "BONUSPOINTS": "3"}}, {"type": "Feature", "geometry": {"type": "Point", "coordinates": [-82.8739, 36.7991]}, "properties": {"NAME": "W4V/GC-017", "TITLE": "Stocker Knob", "REGION": "VA-Gate City", "ASSOCIATION": "USA - Virginia", "POINTS": "6", "BONUSPOINTS": "3"}}, {"type": "Feature", "geometry": {"type": "Point", "coordinates": [-82.5084, 36.9427]}, "properties": {"NAME": "W4V/GC-018", "TITLE": "Wise 10 Benchmark", "REGION": "VA-Gate City", "ASSOCIATION": "USA - Virginia", "POINTS": "6", "BONUSPOINTS": "3"}}, {"type": "Feature", "geometry": {"type": "Point", "coordinates": [-82.5655, 37.0705]}, "properties": {"NAME": "W4V/GC-019", "TITLE": "Bold Camp Mountain", "REGION": "VA-Gate City", "ASSOCIATION": "USA - Virginia", "POINTS": "6", "BONUSPOINTS": "3"}}, {"type": "Feature", "geometry": {"type": "Point", "coordinates": [-82.9324, 36.6707]}, "properties": {"NAME": "W4V/GC-020", "TITLE": "Stone Ridge", "REGION": "VA-Gate City", "ASSOCIATION": "USA - Virginia", "POINTS": "6", "BONUSPOINTS": "3"}}, {"type": "Feature", "geometry": {"type": "Point", "coordinates": [-83.1094, 36.6204]}, "properties": {"NAME": "W4V/GC-021", "TITLE": "2550", "REGION": "VA-Gate City", "ASSOCIATION": "USA - Virginia", "POINTS": "6", "BONUSPOINTS": "3"}}, {"type": "Feature", "geometry": {"type": "Point", "coordinates": [-82.3781, 36.6274]}, "properties": {"NAME": "W4V/GC-022", "TITLE": "Fido Benchmark", "REGION": "VA-Gate City", "ASSOCIATION": "USA - Virginia", "POINTS": "4", "BONUSPOINTS": "0"}}, {"type": "Feature", "geometry": {"type": "Point", "coordinates": [-83.1702, 36.7236]}, "properties": {"NAME": "W4V/GC-023", "TITLE": "Poor Valley Ridge", "REGION": "VA-Gate City", "ASSOCIATION": "USA - Virginia", "POINTS": "4", "BONUSPOINTS": "0"}}, {"type": "Feature", "geometry": {"type": "Point", "coordinates": [-83.2562, 36.5992]}, "properties": {"NAME": "W4V/GC-024", "TITLE": "Robinson Benchmark", "REGION": "VA-Gate City", "ASSOCIATION": "USA - Virginia", "POINTS": "4", "BONUSPOINTS": "0"}}, {"type": "Feature", "geometry": {"type": "Point", "coordinates": [-82.6743, 36.7715]}, "properties": {"NAME": "W4V/GC-025", "TITLE": "Chestnut Ridge", "REGION": "VA-Gate City", "ASSOCIATION": "USA - Virginia", "POINTS": "4", "BONUSPOINTS": "0"}}, {"type": "Feature", "geometry": {"type": "Point", "coordinates": [-82.6953, 36.6475]}, "properties": {"NAME": "W4V/GC-026", "TITLE": "2190", "REGION": "VA-Gate City", "ASSOCIATION": "USA - Virginia", "POINTS": "4", "BONUSPOINTS": "0"}}, {"type": "Feature", "geometry": {"type": "Point", "coordinates": [-82.9663, 36.7827]}, "properties": {"NAME": "W4V/GC-027", "TITLE": "2180", "REGION": "VA-Gate City", "ASSOCIATION": "USA - Virginia", "POINTS": "4", "BONUSPOINTS": "0"}}, {"type": "Feature", "geometry": {"type": "Point", "coordinates": [-82.6545, 36.7274]}, "properties": {"NAME": "W4V/GC-028", "TITLE": "2170", "REGION": "VA-Gate City", "ASSOCIATION": "USA - Virginia", "POINTS": "4", "BONUSPOINTS": "0"}}, {"type": "Feature", "geometry": {"type": "Point", "coordinates": [-82.9645, 36.6402]}, "properties": {"NAME": "W4V/GC-029", "TITLE": "2170", "REGION": "VA-Gate City", "ASSOCIATION": "USA - Virginia", "POINTS": "4", "BONUSPOINTS": "0"}}, {"type": "Feature", "geometry": {"type": "Point", "coordinates": [-82.7872, 36.6936]}, "properties": {"NAME": "W4V/GC-030", "TITLE": "Purchase Ridge", "REGION": "VA-Gate City", "ASSOCIATION": "USA - Virginia", "POINTS": "4", "BONUSPOINTS": "0"}}, {"type": "Feature", "geometry": {"type": "Point", "coordinates": [-82.7881, 36.656]}, "properties": {"NAME": "W4V/GC-031", "TITLE": "Colt Ridge", "REGION": "VA-Gate City", "ASSOCIATION": "USA - Virginia", "POINTS": "4", "BONUSPOINTS": "0"}}, {"type": "Feature", "geometry": {"type": "Point", "coordinates": [-82.5786, 36.6784]}, "properties": {"NAME": "W4V/GC-032", "TITLE": "RFG 133 Benchmark", "REGION": "VA-Gate City", "ASSOCIATION": "USA - Virginia", "POINTS": "4", "BONUSPOINTS": "0"}}, {"type": "Feature", "geometry": {"type": "Point", "coordinates": [-82.583, 36.8149]}, "properties": {"NAME": "W4V/GC-033", "TITLE": "Buckner Ridge", "REGION": "VA-Gate City", "ASSOCIATION": "USA - Virginia", "POINTS": "4", "BONUSPOINTS": "0"}}, {"type": "Feature", "geometry": {"type": "Point", "coordinates": [-82.7602, 36.7144]}, "properties": {"NAME": "W4V/GC-034", "TITLE": "Kinel Benchmark", "REGION": "VA-Gate City", "ASSOCIATION": "USA - Virginia", "POINTS": "4", "BONUSPOINTS": "0"}}, {"type": "Feature", "geometry": {"type": "Point", "coordinates": [-82.7225, 36.691]}, "properties": {"NAME": "W4V/GC-035", "TITLE": "2090", "REGION": "VA-Gate City", "ASSOCIATION": "USA - Virginia", "POINTS": "4", "BONUSPOINTS": "0"}}, {"type": "Feature", "geometry": {"type": "Point", "coordinates": [-82.6591, 36.6672]}, "properties": {"NAME": "W4V/GC-036", "TITLE": "2090", "REGION": "VA-Gate City", "ASSOCIATION": "USA - Virginia", "POINTS": "4", "BONUSPOINTS": "0"}}, {"type": "Feature", "geometry": {"type": "Point", "coordinates": [-82.5652, 36.6815]}, "properties": {"NAME": "W4V/GC-037", "TITLE": "2090", "REGION": "VA-Gate City", "ASSOCIATION": "USA - Virginia", "POINTS": "4", "BONUSPOINTS": "0"}}, {"type": "Feature", "geometry": {"type": "Point", "coordinates": [-83.111, 36.5996]}, "properties": {"NAME": "W4V/GC-038", "TITLE": "2090", "REGION": "VA-Gate City", "ASSOCIATION": "USA - Virginia", "POINTS": "4", "BONUSPOINTS": "0"}}, {"type": "Feature", "geometry": {"type": "Point", "coordinates": [-82.9226, 36.6145]}, "properties": {"NAME": "W4V/GC-039", "TITLE": "Pattonsville 8 Benchmark", "REGION": "VA-Gate City", "ASSOCIATION": "USA - Virginia", "POINTS": "4", "BONUSPOINTS": "0"}}, {"type": "Feature", "geometry": {"type": "Point", "coordinates": [-82.6826, 36.7069]}, "properties": {"NAME": "W4V/GC-040", "TITLE": "2070", "REGION": "VA-Gate City", "ASSOCIATION": "USA - Virginia", "POINTS": "4", "BONUSPOINTS": "0"}}, {"type": "Feature", "geometry": {"type": "Point", "coordinates": [-82.7435, 36.6836]}, "properties": {"NAME": "W4V/GC-041", "TITLE": "Gate City 15 Benchmark", "REGION": "VA-Gate City", "ASSOCIATION": "USA - Virginia", "POINTS": "4", "BONUSPOINTS": "0"}}, {"type": "Feature", "geometry": {"type": "Point", "coordinates": [-82.6584, 36.7445]}, "properties": {"NAME": "W4V/GC-042", "TITLE": "Cedar Ridge", "REGION": "VA-Gate City", "ASSOCIATION": "USA - Virginia", "POINTS": "4", "BONUSPOINTS": "0"}}, {"type": "Feature", "geometry": {"type": "Point", "coordinates": [-82.6326, 36.7697]}, "properties": {"NAME": "W4V/GC-043", "TITLE": "Kerns Ridge", "REGION": "VA-Gate City", "ASSOCIATION": "USA - Virginia", "POINTS": "4", "BONUSPOINTS": "0"}}, {"type": "Feature", "geometry": {"type": "Point", "coordinates": [-82.6872, 36.6662]}, "properties": {"NAME": "W4V/GC-044", "TITLE": "2030", "REGION": "VA-Gate City", "ASSOCIATION": "USA - Virginia", "POINTS": "4", "BONUSPOINTS": "0"}}, {"type": "Feature", "geometry": {"type": "Point", "coordinates": [-82.8586, 36.5979]}, "properties": {"NAME": "W4V/GC-045", "TITLE": "2010", "REGION": "VA-Gate City", "ASSOCIATION": "USA - Virginia", "POINTS": "4", "BONUSPOINTS": "0"}}, {"type": "Feature", "geometry": {"type": "Point", "coordinates": [-82.7568, 36.5959]}, "properties": {"NAME": "W4V/GC-046", "TITLE": "Possum Knobs", "REGION": "VA-Gate City", "ASSOCIATION": "USA - Virginia", "POINTS": "4", "BONUSPOINTS": "0"}}, {"type": "Feature", "geometry": {"type": "Point", "coordinates": [-82.6901, 36.7036]}, "properties": {"NAME": "W4V/GC-047", "TITLE": "1990", "REGION": "VA-Gate City", "ASSOCIATION": "USA - Virginia", "POINTS": "2", "BONUSPOINTS": "0"}}, {"type": "Feature", "geometry": {"type": "Point", "coordinates": [-82.4661, 36.6496]}, "properties": {"NAME": "W4V/GC-048", "TITLE": "1930", "REGION": "VA-Gate City", "ASSOCIATION": "USA - Virginia", "POINTS": "2", "BONUSPOINTS": "0"}}, {"type": "Feature", "geometry": {"type": "Point", "coordinates": [-82.4546, 36.6547]}, "properties": {"NAME": "W4V/GC-049", "TITLE": "1910", "REGION": "VA-Gate City", "ASSOCIATION": "USA - Virginia", "POINTS": "2", "BONUSPOINTS": "0"}}, {"type": "Feature", "geometry": {"type": "Point", "coordinates": [-82.4187, 36.6619]}, "properties": {"NAME": "W4V/GC-050", "TITLE": "1910", "REGION": "VA-Gate City", "ASSOCIATION": "USA - Virginia", "POINTS": "2", "BONUSPOINTS": "0"}}, {"type": "Feature", "geometry": {"type": "Point", "coordinates": [-82.396, 36.6694]}, "properties": {"NAME": "W4V/GC-051", "TITLE": "1910", "REGION": "VA-Gate City", "ASSOCIATION": "USA - Virginia", "POINTS": "2", "BONUSPOINTS": "0"}}, {"type": "Feature", "geometry": {"type": "Point", "coordinates": [-82.5594, 36.5999]}, "properties": {"NAME": "W4V/GC-052", "TITLE": "Long Ridge", "REGION": "VA-Gate City", "ASSOCIATION": "USA - Virginia", "POINTS": "2", "BONUSPOINTS": "0"}}, {"type": "Feature", "geometry": {"type": "Point", "coordinates": [-82.9877, 36.6043]}, "properties": {"NAME": "W4V/GC-053", "TITLE": "1910", "REGION": "VA-Gate City", "ASSOCIATION": "USA - Virginia", "POINTS": "2", "BONUSPOINTS": "0"}}, {"type": "Feature", "geometry": {"type": "Point", "coordinates": [-82.9637, 36.6125]}, "properties": {"NAME": "W4V/GC-054", "TITLE": "1890", "REGION": "VA-Gate City", "ASSOCIATION": "USA - Virginia", "POINTS": "2", "BONUSPOINTS": "0"}}, {"type": "Feature", "geometry": {"type": "Point", "coordinates": [-82.3686, 36.6776]}, "properties": {"NAME": "W4V/GC-055", "TITLE": "1870", "REGION": "VA-Gate City", "ASSOCIATION": "USA - Virginia", "POINTS": "2", "BONUSPOINTS": "0"}}, {"type": "Feature", "geometry": {"type": "Point", "coordinates": [-82.9389, 36.6247]}, "properties": {"NAME": "W4V/GC-056", "TITLE": "1850", "REGION": "VA-Gate City", "ASSOCIATION": "USA - Virginia", "POINTS": "2", "BONUSPOINTS": "0"}}]}