{"type": "FeatureCollection", "name": "W4V/BR SUMMITS", "features": [{"type": "Feature", "geometry": {"type": "Point", "coordinates": [-79.1804, 37.7953]}, "properties": {"NAME": "W4V/BR-001", "TITLE": "Rocky Mountain", "REGION": "VA-Blue Ridge", "ASSOCIATION": "USA - Virginia", "POINTS": "10", "BONUSPOINTS": "3"}}, {"type": "Feature", "geometry": {"type": "Point", "coordinates": [-79.0625, 37.8199]}, "properties": {"NAME": "W4V/BR-002", "TITLE": "Priest, The", "REGION": "VA-Blue Ridge", "ASSOCIATION": "USA - Virginia", "POINTS": "10", "BONUSPOINTS": "3"}}, {"type": "Feature", "geometry": {"type": "Point", "coordinates": [-79.1221, 37.8307]}, "properties": {"NAME": "W4V/BR-003", "TITLE": "Maintop Mountain", "REGION": "VA-Blue Ridge", "ASSOCIATION": "USA - Virginia", "POINTS": "10", "BONUSPOINTS": "3"}}, {"type": "Feature", "geometry": {"type": "Point", "coordinates": [-79.2234, 37.7401]}, "properties": {"NAME": "W4V/BR-004", "TITLE": "Bald Knob", "REGION": "VA-Blue Ridge", "ASSOCIATION": "USA - Virginia", "POINTS": "10", "BONUSPOINTS": "3"}}, {"type": "Feature", "geometry": {"type": "Point", "coordinates": [-79.1712, 37.7409]}, "properties": {"NAME": "W4V/BR-005", "TITLE": "Pleasant, Mount", "REGION": "VA-Blue Ridge", "ASSOCIATION": "USA - Virginia", "POINTS": "10", "BONUSPOINTS": "3"}}, {"type": "Feature", "geometry": {"type": "Point", "coordinates": [-79.2052, 37.751]}, "properties": {"NAME": "W4V/BR-006", "TITLE": "Cole Mountain", "REGION": "VA-Blue Ridge", "ASSOCIATION": "USA - Virginia", "POINTS": "10", "BONUSPOINTS": "3"}}, {"type": "Feature", "geometry": {"type": "Point", "coordinates": [-78.984, 37.8584]}, "properties": {"NAME": "W4V/BR-007", "TITLE": "Three Ridges", "REGION": "VA-Blue Ridge", "ASSOCIATION": "USA - Virginia", "POINTS": "8", "BONUSPOINTS": "3"}}, {"type": "Feature", "geometry": {"type": "Point", "coordinates": [-79.1527, 37.8812]}, "properties": {"NAME": "W4V/BR-008", "TITLE": "3490", "REGION": "VA-Blue Ridge", "ASSOCIATION": "USA - Virginia", "POINTS": "8", "BONUSPOINTS": "3"}}, {"type": "Feature", "geometry": {"type": "Point", "coordinates": [-78.6705, 38.2475]}, "properties": {"NAME": "W4V/BR-009", "TITLE": "Big Flat Mountain", "REGION": "VA-Blue Ridge", "ASSOCIATION": "USA - Virginia", "POINTS": "8", "BONUSPOINTS": "3"}}, {"type": "Feature", "geometry": {"type": "Point", "coordinates": [-79.3465, 37.66]}, "properties": {"NAME": "W4V/BR-010", "TITLE": "Bluff Mountain", "REGION": "VA-Blue Ridge", "ASSOCIATION": "USA - Virginia", "POINTS": "8", "BONUSPOINTS": "3"}}, {"type": "Feature", "geometry": {"type": "Point", "coordinates": [-79.1064, 37.7697]}, "properties": {"NAME": "W4V/BR-011", "TITLE": "Friar, The", "REGION": "VA-Blue Ridge", "ASSOCIATION": "USA - Virginia", "POINTS": "8", "BONUSPOINTS": "3"}}, {"type": "Feature", "geometry": {"type": "Point", "coordinates": [-78.7083, 38.2173]}, "properties": {"NAME": "W4V/BR-012", "TITLE": "Cedar Mountain", "REGION": "VA-Blue Ridge", "ASSOCIATION": "USA - Virginia", "POINTS": "8", "BONUSPOINTS": "3"}}, {"type": "Feature", "geometry": {"type": "Point", "coordinates": [-78.744, 38.1051]}, "properties": {"NAME": "W4V/BR-013", "TITLE": "Bucks Elbow Mountain", "REGION": "VA-Blue Ridge", "ASSOCIATION": "USA - Virginia", "POINTS": "6", "BONUSPOINTS": "3"}}, {"type": "Feature", "geometry": {"type": "Point", "coordinates": [-78.7753, 38.1417]}, "properties": {"NAME": "W4V/BR-014", "TITLE": "3100", "REGION": "VA-Blue Ridge", "ASSOCIATION": "USA - Virginia", "POINTS": "6", "BONUSPOINTS": "3"}}, {"type": "Feature", "geometry": {"type": "Point", "coordinates": [-78.7822, 38.0808]}, "properties": {"NAME": "W4V/BR-015", "TITLE": "Calf Mountain", "REGION": "VA-Blue Ridge", "ASSOCIATION": "USA - Virginia", "POINTS": "6", "BONUSPOINTS": "3"}}, {"type": "Feature", "geometry": {"type": "Point", "coordinates": [-79.1904, 37.5654]}, "properties": {"NAME": "W4V/BR-016", "TITLE": "High Peak", "REGION": "VA-Blue Ridge", "ASSOCIATION": "USA - Virginia", "POINTS": "6", "BONUSPOINTS": "3"}}, {"type": "Feature", "geometry": {"type": "Point", "coordinates": [-78.7229, 38.1792]}, "properties": {"NAME": "W4V/BR-017", "TITLE": "Pasture Fence Mountain", "REGION": "VA-Blue Ridge", "ASSOCIATION": "USA - Virginia", "POINTS": "6", "BONUSPOINTS": "3"}}, {"type": "Feature", "geometry": {"type": "Point", "coordinates": [-78.6361, 38.2082]}, "properties": {"NAME": "W4V/BR-018", "TITLE": "Gibson Mountain", "REGION": "VA-Blue Ridge", "ASSOCIATION": "USA - Virginia", "POINTS": "4", "BONUSPOINTS": "3"}}, {"type": "Feature", "geometry": {"type": "Point", "coordinates": [-78.9006, 37.8418]}, "properties": {"NAME": "W4V/BR-019", "TITLE": "Horseshoe Mountain", "REGION": "VA-Blue Ridge", "ASSOCIATION": "USA - Virginia", "POINTS": "4", "BONUSPOINTS": "0"}}, {"type": "Feature", "geometry": {"type": "Point", "coordinates": [-78.7393, 37.9299]}, "properties": {"NAME": "W4V/BR-020", "TITLE": "Heard Mountain", "REGION": "VA-Blue Ridge", "ASSOCIATION": "USA - Virginia", "POINTS": "4", "BONUSPOINTS": "0"}}, {"type": "Feature", "geometry": {"type": "Point", "coordinates": [-78.7272, 37.9499]}, "properties": {"NAME": "W4V/BR-021", "TITLE": "Castle Rock", "REGION": "VA-Blue Ridge", "ASSOCIATION": "USA - Virginia", "POINTS": "4", "BONUSPOINTS": "0"}}, {"type": "Feature", "geometry": {"type": "Point", "coordinates": [-78.6474, 38.192]}, "properties": {"NAME": "W4V/BR-022", "TITLE": "High Top Mountain", "REGION": "VA-Blue Ridge", "ASSOCIATION": "USA - Virginia", "POINTS": "4", "BONUSPOINTS": "0"}}, {"type": "Feature", "geometry": {"type": "Point", "coordinates": [-78.8206, 37.7824]}, "properties": {"NAME": "W4V/BR-023", "TITLE": "Sugarloaf Mountain", "REGION": "VA-Blue Ridge", "ASSOCIATION": "USA - Virginia", "POINTS": "4", "BONUSPOINTS": "0"}}, {"type": "Feature", "geometry": {"type": "Point", "coordinates": [-79.1573, 37.6178]}, "properties": {"NAME": "W4V/BR-024", "TITLE": "Shady Mountain", "REGION": "VA-Blue Ridge", "ASSOCIATION": "USA - Virginia", "POINTS": "4", "BONUSPOINTS": "0"}}, {"type": "Feature", "geometry": {"type": "Point", "coordinates": [-78.903, 37.7981]}, "properties": {"NAME": "W4V/BR-025", "TITLE": "High Top Mountain", "REGION": "VA-Blue Ridge", "ASSOCIATION": "USA - Virginia", "POINTS": "4", "BONUSPOINTS": "0"}}, {"type": "Feature", "geometry": {"type": "Point", "coordinates": [-79.2498, 37.6579]}, "properties": {"NAME": "W4V/BR-026", "TITLE": "Banks Mountain", "REGION": "VA-Blue Ridge", "ASSOCIATION": "USA - Virginia", "POINTS": "4", "BONUSPOINTS": "0"}}, {"type": "Feature", "geometry": {"type": "Point", "coordinates": [-78.7679, 37.9268]}, "properties": {"NAME": "W4V/BR-027", "TITLE": "Massies Mountain", "REGION": "VA-Blue Ridge", "ASSOCIATION": "USA - Virginia", "POINTS": "4", "BONUSPOINTS": "0"}}, {"type": "Feature", "geometry": {"type": "Point", "coordinates": [-79.1832, 37.5983]}, "properties": {"NAME": "W4V/BR-028", "TITLE": "2156", "REGION": "VA-Blue Ridge", "ASSOCIATION": "USA - Virginia", "POINTS": "4", "BONUSPOINTS": "0"}}, {"type": "Feature", "geometry": {"type": "Point", "coordinates": [-79.3192, 37.6379]}, "properties": {"NAME": "W4V/BR-029", "TITLE": "Big Piney Mountain", "REGION": "VA-Blue Ridge", "ASSOCIATION": "USA - Virginia", "POINTS": "4", "BONUSPOINTS": "0"}}, {"type": "Feature", "geometry": {"type": "Point", "coordinates": [-78.7345, 37.9119]}, "properties": {"NAME": "W4V/BR-030", "TITLE": "Boaz Mountains HP", "REGION": "VA-Blue Ridge", "ASSOCIATION": "USA - Virginia", "POINTS": "4", "BONUSPOINTS": "0"}}, {"type": "Feature", "geometry": {"type": "Point", "coordinates": [-78.8332, 37.7527]}, "properties": {"NAME": "W4V/BR-031", "TITLE": "Naked Mountain", "REGION": "VA-Blue Ridge", "ASSOCIATION": "USA - Virginia", "POINTS": "4", "BONUSPOINTS": "0"}}, {"type": "Feature", "geometry": {"type": "Point", "coordinates": [-78.6123, 38.2573]}, "properties": {"NAME": "W4V/BR-032", "TITLE": "County Line Mountain", "REGION": "VA-Blue Ridge", "ASSOCIATION": "USA - Virginia", "POINTS": "2", "BONUSPOINTS": "0"}}, {"type": "Feature", "geometry": {"type": "Point", "coordinates": [-78.8135, 37.8998]}, "properties": {"NAME": "W4V/BR-033", "TITLE": "Pilot Mountain", "REGION": "VA-Blue Ridge", "ASSOCIATION": "USA - Virginia", "POINTS": "2", "BONUSPOINTS": "0"}}, {"type": "Feature", "geometry": {"type": "Point", "coordinates": [-78.7585, 37.9015]}, "properties": {"NAME": "W4V/BR-034", "TITLE": "1911", "REGION": "VA-Blue Ridge", "ASSOCIATION": "USA - Virginia", "POINTS": "2", "BONUSPOINTS": "0"}}, {"type": "Feature", "geometry": {"type": "Point", "coordinates": [-78.6889, 37.8597]}, "properties": {"NAME": "W4V/BR-035", "TITLE": "Appleberry Mountain", "REGION": "VA-Blue Ridge", "ASSOCIATION": "USA - Virginia", "POINTS": "2", "BONUSPOINTS": "0"}}, {"type": "Feature", "geometry": {"type": "Point", "coordinates": [-78.7813, 37.7959]}, "properties": {"NAME": "W4V/BR-036", "TITLE": "Willoughby Mountain", "REGION": "VA-Blue Ridge", "ASSOCIATION": "USA - Virginia", "POINTS": "2", "BONUSPOINTS": "0"}}, {"type": "Feature", "geometry": {"type": "Point", "coordinates": [-78.7959, 37.8943]}, "properties": {"NAME": "W4V/BR-037", "TITLE": "Perry Mountain", "REGION": "VA-Blue Ridge", "ASSOCIATION": "USA - Virginia", "POINTS": "2", "BONUSPOINTS": "0"}}, {"type": "Feature", "geometry": {"type": "Point", "coordinates": [-78.2869, 38.1267]}, "properties": {"NAME": "W4V/BR-038", "TITLE": "Peters Mountain", "REGION": "VA-Blue Ridge", "ASSOCIATION": "USA - Virginia", "POINTS": "2", "BONUSPOINTS": "0"}}, {"type": "Feature", "geometry": {"type": "Point", "coordinates": [-78.5836, 37.9716]}, "properties": {"NAME": "W4V/BR-039", "TITLE": "Dudley Mountain", "REGION": "VA-Blue Ridge", "ASSOCIATION": "USA - Virginia", "POINTS": "2", "BONUSPOINTS": "0"}}, {"type": "Feature", "geometry": {"type": "Point", "coordinates": [-78.7735, 37.8617]}, "properties": {"NAME": "W4V/BR-040", "TITLE": "Diggs Mountain", "REGION": "VA-Blue Ridge", "ASSOCIATION": "USA - Virginia", "POINTS": "2", "BONUSPOINTS": "0"}}, {"type": "Feature", "geometry": {"type": "Point", "coordinates": [-78.763, 37.5617]}, "properties": {"NAME": "W4V/BR-041", "TITLE": "Spears Mountain", "REGION": "VA-Blue Ridge", "ASSOCIATION": "USA - Virginia", "POINTS": "2", "BONUSPOINTS": "0"}}, {"type": "Feature", "geometry": {"type": "Point", "coordinates": [-78.489, 37.9804]}, "properties": {"NAME": "W4V/BR-042", "TITLE": "Carters Mountain", "REGION": "VA-Blue Ridge", "ASSOCIATION": "USA - Virginia", "POINTS": "2", "BONUSPOINTS": "0"}}, {"type": "Feature", "geometry": {"type": "Point", "coordinates": [-78.6342, 38.144]}, "properties": {"NAME": "W4V/BR-043", "TITLE": "Pigeon Top Mountain", "REGION": "VA-Blue Ridge", "ASSOCIATION": "USA - Virginia", "POINTS": "2", "BONUSPOINTS": "0"}}, {"type": "Feature", "geometry": {"type": "Point", "coordinates": [-79.1864, 37.6444]}, "properties": {"NAME": "W4V/BR-044", "TITLE": "Turkey Mountain", "REGION": "VA-Blue Ridge", "ASSOCIATION": "USA - Virginia", "POINTS": "2", "BONUSPOINTS": "0"}}, {"type": "Feature", "geometry": {"type": "Point", "coordinates": [-78.8133, 37.9686]}, "properties": {"NAME": "W4V/BR-045", "TITLE": "Ennis Mountain", "REGION": "VA-Blue Ridge", "ASSOCIATION": "USA - Virginia", "POINTS": "2", "BONUSPOINTS": "0"}}, {"type": "Feature", "geometry": {"type": "Point", "coordinates": [-78.367, 38.0574]}, "properties": {"NAME": "W4V/BR-046", "TITLE": "Sugarloaf Mountain", "REGION": "VA-Blue Ridge", "ASSOCIATION": "USA - Virginia", "POINTS": "2", "BONUSPOINTS": "0"}}, {"type": "Feature", "geometry": {"type": "Point", "coordinates": [-78.4003, 38.0421]}, "properties": {"NAME": "W4V/BR-047", "TITLE": "Wolfpit Mountain", "REGION": "VA-Blue Ridge", "ASSOCIATION": "USA - Virginia", "POINTS": "1", "BONUSPOINTS": "0"}}, {"type": "Feature", "geometry": {"type": "Point", "coordinates": [-78.9584, 37.7868]}, "properties": {"NAME": "W4V/BR-048", "TITLE": "Mars Knob", "REGION": "VA-Blue Ridge", "ASSOCIATION": "USA - Virginia", "POINTS": "1", "BONUSPOINTS": "0"}}, {"type": "Feature", "geometry": {"type": "Point", "coordinates": [-78.6295, 38.1722]}, "properties": {"NAME": "W4V/BR-049", "TITLE": "Currant Mountain", "REGION": "VA-Blue Ridge", "ASSOCIATION": "USA - Virginia", "POINTS": "1", "BONUSPOINTS": "0"}}, {"type": "Feature", "geometry": {"type": "Point", "coordinates": [-78.642, 38.0101]}, "properties": {"NAME": "W4V/BR-050", "TITLE": "Taylors Mountain", "REGION": "VA-Blue Ridge", "ASSOCIATION": "USA - Virginia", "POINTS": "1", "BONUSPOINTS": "0"}}, {"type": "Feature", "geometry": {"type": "Point", "coordinates": [-78.7928, 37.7285]}, "properties": {"NAME": "W4V/BR-051", "TITLE": "Peavine Mountain", "REGION": "VA-Blue Ridge", "ASSOCIATION": "USA - Virginia", "POINTS": "1", "BONUSPOINTS": "0"}}, {"type": "Feature", "geometry": {"type": "Point", "coordinates": [-78.5635, 38.1937]}, "properties": {"NAME": "W4V/BR-052", "TITLE": "Buck Mountain", "REGION": "VA-Blue Ridge", "ASSOCIATION": "USA - Virginia", "POINTS": "1", "BONUSPOINTS": "0"}}, {"type": "Feature", "geometry": {"type": "Point", "coordinates": [-78.619, 37.9418]}, "properties": {"NAME": "W4V/BR-053", "TITLE": "Gay Mountain", "REGION": "VA-Blue Ridge", "ASSOCIATION": "USA - Virginia", "POINTS": "1", "BONUSPOINTS": "0"}}, {"type": "Feature", "geometry": {"type": "Point", "coordinates": [-78.7495, 37.756]}, "properties": {"NAME": "W4V/BR-054", "TITLE": "Monasco Mountain", "REGION": "VA-Blue Ridge", "ASSOCIATION": "USA - Virginia", "POINTS": "1", "BONUSPOINTS": "0"}}, {"type": "Feature", "geometry": {"type": "Point", "coordinates": [-78.7613, 37.8393]}, "properties": {"NAME": "W4V/BR-055", "TITLE": "Rock Spring Mountain", "REGION": "VA-Blue Ridge", "ASSOCIATION": "USA - Virginia", "POINTS": "1", "BONUSPOINTS": "0"}}, {"type": "Feature", "geometry": {"type": "Point", "coordinates": [-78.8583, 37.8791]}, "properties": {"NAME": "W4V/BR-056", "TITLE": "McLean Mountain", "REGION": "VA-Blue Ridge", "ASSOCIATION": "USA - Virginia", "POINTS": "1", "BONUSPOINTS": "0"}}, {"type": "Feature", "geometry": {"type": "Point", "coordinates": [-79.109, 37.6297]}, "properties": {"NAME": "W4V/BR-057", "TITLE": "Mobley Mountain", "REGION": "VA-Blue Ridge", "ASSOCIATION": "USA - Virginia", "POINTS": "1", "BONUSPOINTS": "0"}}, {"type": "Feature", "geometry": {"type": "Point", "coordinates": [-78.5991, 37.9918]}, "properties": {"NAME": "W4V/BR-058", "TITLE": "Gibson Mountain", "REGION": "VA-Blue Ridge", "ASSOCIATION": "USA - Virginia", "POINTS": "1", "BONUSPOINTS": "0"}}, {"type": "Feature", "geometry": {"type": "Point", "coordinates": [-79.2796, 37.5606]}, "properties": {"NAME": "W4V/BR-059", "TITLE": "Miners Mountain", "REGION": "VA-Blue Ridge", "ASSOCIATION": "USA - Virginia", "POINTS": "1", "BONUSPOINTS": "0"}}, {"type": "Feature", "geometry": {"type": "Point", "coordinates": [-78.4638, 37.4769]}, "properties": {"NAME": "W4V/BR-060", "TITLE": "Willis Mountain", "REGION": "VA-Blue Ridge", "ASSOCIATION": "USA - Virginia", "POINTS": "1", "BONUSPOINTS": "0"}}, {"type": "Feature", "geometry": {"type": "Point", "coordinates": [-78.4194, 38.1799]}, "properties": {"NAME": "W4V/BR-061", "TITLE": "Piney Mountain", "REGION": "VA-Blue Ridge", "ASSOCIATION": "USA - Virginia", "POINTS": "1", "BONUSPOINTS": "0"}}]}