{"type": "FeatureCollection", "name": "W4V/AB SUMMITS", "features": [{"type": "Feature", "geometry": {"type": "Point", "coordinates": [-81.4135, 37.0814]}, "properties": {"NAME": "W4V/AB-001", "TITLE": "Garden Mountain", "REGION": "VA-Abingdon", "ASSOCIATION": "USA - Virginia", "POINTS": "10", "BONUSPOINTS": "3"}}, {"type": "Feature", "geometry": {"type": "Point", "coordinates": [-81.8962, 36.9275]}, "properties": {"NAME": "W4V/AB-002", "TITLE": "Beartown Mountain", "REGION": "VA-Abingdon", "ASSOCIATION": "USA - Virginia", "POINTS": "10", "BONUSPOINTS": "3"}}, {"type": "Feature", "geometry": {"type": "Point", "coordinates": [-81.6171, 37.0493]}, "properties": {"NAME": "W4V/AB-003", "TITLE": "Morris Knob", "REGION": "VA-Abingdon", "ASSOCIATION": "USA - Virginia", "POINTS": "10", "BONUSPOINTS": "3"}}, {"type": "Feature", "geometry": {"type": "Point", "coordinates": [-81.4088, 37.1685]}, "properties": {"NAME": "W4V/AB-004", "TITLE": "East River Mountain", "REGION": "VA-Abingdon", "ASSOCIATION": "USA - Virginia", "POINTS": "10", "BONUSPOINTS": "3"}}, {"type": "Feature", "geometry": {"type": "Point", "coordinates": [-81.7807, 36.9584]}, "properties": {"NAME": "W4V/AB-005", "TITLE": "Brushy Mountain", "REGION": "VA-Abingdon", "ASSOCIATION": "USA - Virginia", "POINTS": "10", "BONUSPOINTS": "3"}}, {"type": "Feature", "geometry": {"type": "Point", "coordinates": [-81.4995, 37.0969]}, "properties": {"NAME": "W4V/AB-006", "TITLE": "Wynne Peak", "REGION": "VA-Abingdon", "ASSOCIATION": "USA - Virginia", "POINTS": "10", "BONUSPOINTS": "3"}}, {"type": "Feature", "geometry": {"type": "Point", "coordinates": [-82.0417, 36.8367]}, "properties": {"NAME": "W4V/AB-007", "TITLE": "Brumley Mountain", "REGION": "VA-Abingdon", "ASSOCIATION": "USA - Virginia", "POINTS": "10", "BONUSPOINTS": "3"}}, {"type": "Feature", "geometry": {"type": "Point", "coordinates": [-81.9783, 36.8712]}, "properties": {"NAME": "W4V/AB-008", "TITLE": "Middle Knob", "REGION": "VA-Abingdon", "ASSOCIATION": "USA - Virginia", "POINTS": "10", "BONUSPOINTS": "3"}}, {"type": "Feature", "geometry": {"type": "Point", "coordinates": [-81.5378, 37.0377]}, "properties": {"NAME": "W4V/AB-009", "TITLE": "Clinch Mountain", "REGION": "VA-Abingdon", "ASSOCIATION": "USA - Virginia", "POINTS": "10", "BONUSPOINTS": "3"}}, {"type": "Feature", "geometry": {"type": "Point", "coordinates": [-81.6849, 36.6265]}, "properties": {"NAME": "W4V/AB-010", "TITLE": "Chestnut Mountain", "REGION": "VA-Abingdon", "ASSOCIATION": "USA - Virginia", "POINTS": "10", "BONUSPOINTS": "3"}}, {"type": "Feature", "geometry": {"type": "Point", "coordinates": [-81.5992, 37.1009]}, "properties": {"NAME": "W4V/AB-011", "TITLE": "Deskin Mountain East", "REGION": "VA-Abingdon", "ASSOCIATION": "USA - Virginia", "POINTS": "8", "BONUSPOINTS": "3"}}, {"type": "Feature", "geometry": {"type": "Point", "coordinates": [-82.0357, 37.0525]}, "properties": {"NAME": "W4V/AB-012", "TITLE": "Big A Mountain", "REGION": "VA-Abingdon", "ASSOCIATION": "USA - Virginia", "POINTS": "8", "BONUSPOINTS": "3"}}, {"type": "Feature", "geometry": {"type": "Point", "coordinates": [-81.673, 37.0779]}, "properties": {"NAME": "W4V/AB-013", "TITLE": "Deskin Mountain West", "REGION": "VA-Abingdon", "ASSOCIATION": "USA - Virginia", "POINTS": "8", "BONUSPOINTS": "3"}}, {"type": "Feature", "geometry": {"type": "Point", "coordinates": [-81.4956, 37.0154]}, "properties": {"NAME": "W4V/AB-014", "TITLE": "Little Brushy Mountain", "REGION": "VA-Abingdon", "ASSOCIATION": "USA - Virginia", "POINTS": "8", "BONUSPOINTS": "3"}}, {"type": "Feature", "geometry": {"type": "Point", "coordinates": [-81.7082, 37.0508]}, "properties": {"NAME": "W4V/AB-015", "TITLE": "Paint Lick Mountain West", "REGION": "VA-Abingdon", "ASSOCIATION": "USA - Virginia", "POINTS": "8", "BONUSPOINTS": "3"}}, {"type": "Feature", "geometry": {"type": "Point", "coordinates": [-81.649, 37.0738]}, "properties": {"NAME": "W4V/AB-016", "TITLE": "Paint Lick Mountain East", "REGION": "VA-Abingdon", "ASSOCIATION": "USA - Virginia", "POINTS": "8", "BONUSPOINTS": "3"}}, {"type": "Feature", "geometry": {"type": "Point", "coordinates": [-81.6497, 37.0832]}, "properties": {"NAME": "W4V/AB-017", "TITLE": "3650", "REGION": "VA-Abingdon", "ASSOCIATION": "USA - Virginia", "POINTS": "8", "BONUSPOINTS": "3"}}, {"type": "Feature", "geometry": {"type": "Point", "coordinates": [-81.5081, 37.194]}, "properties": {"NAME": "W4V/AB-018", "TITLE": "Lone Tree Benchmark", "REGION": "VA-Abingdon", "ASSOCIATION": "USA - Virginia", "POINTS": "8", "BONUSPOINTS": "3"}}, {"type": "Feature", "geometry": {"type": "Point", "coordinates": [-81.8803, 36.9995]}, "properties": {"NAME": "W4V/AB-019", "TITLE": "House and Barn Mountain", "REGION": "VA-Abingdon", "ASSOCIATION": "USA - Virginia", "POINTS": "8", "BONUSPOINTS": "3"}}, {"type": "Feature", "geometry": {"type": "Point", "coordinates": [-81.7368, 36.6215]}, "properties": {"NAME": "W4V/AB-020", "TITLE": "Fork Mountain", "REGION": "VA-Abingdon", "ASSOCIATION": "USA - Virginia", "POINTS": "8", "BONUSPOINTS": "3"}}, {"type": "Feature", "geometry": {"type": "Point", "coordinates": [-81.568, 37.1765]}, "properties": {"NAME": "W4V/AB-021", "TITLE": "3340", "REGION": "VA-Abingdon", "ASSOCIATION": "USA - Virginia", "POINTS": "8", "BONUSPOINTS": "3"}}, {"type": "Feature", "geometry": {"type": "Point", "coordinates": [-82.1041, 36.7986]}, "properties": {"NAME": "W4V/AB-022", "TITLE": "Carterton 18 Benchmark", "REGION": "VA-Abingdon", "ASSOCIATION": "USA - Virginia", "POINTS": "8", "BONUSPOINTS": "3"}}, {"type": "Feature", "geometry": {"type": "Point", "coordinates": [-82.0038, 36.9432]}, "properties": {"NAME": "W4V/AB-023", "TITLE": "Little Rock", "REGION": "VA-Abingdon", "ASSOCIATION": "USA - Virginia", "POINTS": "6", "BONUSPOINTS": "3"}}, {"type": "Feature", "geometry": {"type": "Point", "coordinates": [-81.6864, 36.7048]}, "properties": {"NAME": "W4V/AB-024", "TITLE": "Rafferty Knob", "REGION": "VA-Abingdon", "ASSOCIATION": "USA - Virginia", "POINTS": "6", "BONUSPOINTS": "3"}}, {"type": "Feature", "geometry": {"type": "Point", "coordinates": [-82.458, 37.238]}, "properties": {"NAME": "W4V/AB-025", "TITLE": "Dickenson County HP", "REGION": "VA-Abingdon", "ASSOCIATION": "USA - Virginia", "POINTS": "6", "BONUSPOINTS": "3"}}, {"type": "Feature", "geometry": {"type": "Point", "coordinates": [-81.7354, 37.2186]}, "properties": {"NAME": "W4V/AB-026", "TITLE": "3140", "REGION": "VA-Abingdon", "ASSOCIATION": "USA - Virginia", "POINTS": "6", "BONUSPOINTS": "3"}}, {"type": "Feature", "geometry": {"type": "Point", "coordinates": [-82.2535, 37.0161]}, "properties": {"NAME": "W4V/AB-027", "TITLE": "Flat Spur", "REGION": "VA-Abingdon", "ASSOCIATION": "USA - Virginia", "POINTS": "6", "BONUSPOINTS": "3"}}, {"type": "Feature", "geometry": {"type": "Point", "coordinates": [-81.745, 36.8285]}, "properties": {"NAME": "W4V/AB-028", "TITLE": "2950", "REGION": "VA-Abingdon", "ASSOCIATION": "USA - Virginia", "POINTS": "6", "BONUSPOINTS": "3"}}, {"type": "Feature", "geometry": {"type": "Point", "coordinates": [-81.6506, 37.1653]}, "properties": {"NAME": "W4V/AB-029", "TITLE": "Rocky Ridge", "REGION": "VA-Abingdon", "ASSOCIATION": "USA - Virginia", "POINTS": "6", "BONUSPOINTS": "3"}}, {"type": "Feature", "geometry": {"type": "Point", "coordinates": [-81.908, 37.0653]}, "properties": {"NAME": "W4V/AB-030", "TITLE": "Stone Mountain", "REGION": "VA-Abingdon", "ASSOCIATION": "USA - Virginia", "POINTS": "6", "BONUSPOINTS": "3"}}, {"type": "Feature", "geometry": {"type": "Point", "coordinates": [-81.6739, 37.1316]}, "properties": {"NAME": "W4V/AB-031", "TITLE": "2938", "REGION": "VA-Abingdon", "ASSOCIATION": "USA - Virginia", "POINTS": "6", "BONUSPOINTS": "3"}}, {"type": "Feature", "geometry": {"type": "Point", "coordinates": [-81.8077, 36.8845]}, "properties": {"NAME": "W4V/AB-032", "TITLE": "Glade Spring 7 Benchmark", "REGION": "VA-Abingdon", "ASSOCIATION": "USA - Virginia", "POINTS": "6", "BONUSPOINTS": "3"}}, {"type": "Feature", "geometry": {"type": "Point", "coordinates": [-81.5948, 37.198]}, "properties": {"NAME": "W4V/AB-033", "TITLE": "2820", "REGION": "VA-Abingdon", "ASSOCIATION": "USA - Virginia", "POINTS": "6", "BONUSPOINTS": "3"}}, {"type": "Feature", "geometry": {"type": "Point", "coordinates": [-81.779, 37.068]}, "properties": {"NAME": "W4V/AB-034", "TITLE": "Kents Ridge", "REGION": "VA-Abingdon", "ASSOCIATION": "USA - Virginia", "POINTS": "6", "BONUSPOINTS": "3"}}, {"type": "Feature", "geometry": {"type": "Point", "coordinates": [-81.8124, 36.803]}, "properties": {"NAME": "W4V/AB-035", "TITLE": "Kelly Benchmark", "REGION": "VA-Abingdon", "ASSOCIATION": "USA - Virginia", "POINTS": "6", "BONUSPOINTS": "3"}}, {"type": "Feature", "geometry": {"type": "Point", "coordinates": [-81.867, 36.8634]}, "properties": {"NAME": "W4V/AB-036", "TITLE": "Glade Spring 6 Benchmark", "REGION": "VA-Abingdon", "ASSOCIATION": "USA - Virginia", "POINTS": "6", "BONUSPOINTS": "3"}}, {"type": "Feature", "geometry": {"type": "Point", "coordinates": [-82.3148, 36.9676]}, "properties": {"NAME": "W4V/AB-037", "TITLE": "2740", "REGION": "VA-Abingdon", "ASSOCIATION": "USA - Virginia", "POINTS": "6", "BONUSPOINTS": "3"}}, {"type": "Feature", "geometry": {"type": "Point", "coordinates": [-81.9321, 37.2326]}, "properties": {"NAME": "W4V/AB-038", "TITLE": "Keen Mountain", "REGION": "VA-Abingdon", "ASSOCIATION": "USA - Virginia", "POINTS": "6", "BONUSPOINTS": "3"}}, {"type": "Feature", "geometry": {"type": "Point", "coordinates": [-81.7804, 36.8177]}, "properties": {"NAME": "W4V/AB-039", "TITLE": "2710", "REGION": "VA-Abingdon", "ASSOCIATION": "USA - Virginia", "POINTS": "6", "BONUSPOINTS": "3"}}, {"type": "Feature", "geometry": {"type": "Point", "coordinates": [-82.1267, 36.9225]}, "properties": {"NAME": "W4V/AB-040", "TITLE": "Copper Benchmark", "REGION": "VA-Abingdon", "ASSOCIATION": "USA - Virginia", "POINTS": "6", "BONUSPOINTS": "3"}}, {"type": "Feature", "geometry": {"type": "Point", "coordinates": [-82.1289, 36.9977]}, "properties": {"NAME": "W4V/AB-041", "TITLE": "Buffalo Mountain", "REGION": "VA-Abingdon", "ASSOCIATION": "USA - Virginia", "POINTS": "6", "BONUSPOINTS": "3"}}, {"type": "Feature", "geometry": {"type": "Point", "coordinates": [-82.1718, 36.6857]}, "properties": {"NAME": "W4V/AB-042", "TITLE": "2650", "REGION": "VA-Abingdon", "ASSOCIATION": "USA - Virginia", "POINTS": "6", "BONUSPOINTS": "3"}}, {"type": "Feature", "geometry": {"type": "Point", "coordinates": [-81.968, 37.2952]}, "properties": {"NAME": "W4V/AB-043", "TITLE": "2614", "REGION": "VA-Abingdon", "ASSOCIATION": "USA - Virginia", "POINTS": "6", "BONUSPOINTS": "3"}}, {"type": "Feature", "geometry": {"type": "Point", "coordinates": [-81.9747, 36.8145]}, "properties": {"NAME": "W4V/AB-044", "TITLE": "2610", "REGION": "VA-Abingdon", "ASSOCIATION": "USA - Virginia", "POINTS": "6", "BONUSPOINTS": "3"}}, {"type": "Feature", "geometry": {"type": "Point", "coordinates": [-82.2613, 36.6525]}, "properties": {"NAME": "W4V/AB-045", "TITLE": "Dickey Mountain", "REGION": "VA-Abingdon", "ASSOCIATION": "USA - Virginia", "POINTS": "6", "BONUSPOINTS": "3"}}, {"type": "Feature", "geometry": {"type": "Point", "coordinates": [-82.0087, 36.9872]}, "properties": {"NAME": "W4V/AB-046", "TITLE": "Chestnut Ridge", "REGION": "VA-Abingdon", "ASSOCIATION": "USA - Virginia", "POINTS": "6", "BONUSPOINTS": "3"}}, {"type": "Feature", "geometry": {"type": "Point", "coordinates": [-82.0508, 36.7931]}, "properties": {"NAME": "W4V/AB-047", "TITLE": "2540", "REGION": "VA-Abingdon", "ASSOCIATION": "USA - Virginia", "POINTS": "6", "BONUSPOINTS": "3"}}, {"type": "Feature", "geometry": {"type": "Point", "coordinates": [-82.0153, 36.9074]}, "properties": {"NAME": "W4V/AB-048", "TITLE": "MLB 1385 Benchmark", "REGION": "VA-Abingdon", "ASSOCIATION": "USA - Virginia", "POINTS": "6", "BONUSPOINTS": "3"}}, {"type": "Feature", "geometry": {"type": "Point", "coordinates": [-82.5462, 37.1251]}, "properties": {"NAME": "W4V/AB-049", "TITLE": "Clinchfield 11 Benchmark", "REGION": "VA-Abingdon", "ASSOCIATION": "USA - Virginia", "POINTS": "6", "BONUSPOINTS": "3"}}, {"type": "Feature", "geometry": {"type": "Point", "coordinates": [-82.1442, 37.2001]}, "properties": {"NAME": "W4V/AB-050", "TITLE": "2450", "REGION": "VA-Abingdon", "ASSOCIATION": "USA - Virginia", "POINTS": "4", "BONUSPOINTS": "0"}}, {"type": "Feature", "geometry": {"type": "Point", "coordinates": [-82.2123, 37.1028]}, "properties": {"NAME": "W4V/AB-051", "TITLE": "2420", "REGION": "VA-Abingdon", "ASSOCIATION": "USA - Virginia", "POINTS": "4", "BONUSPOINTS": "0"}}, {"type": "Feature", "geometry": {"type": "Point", "coordinates": [-82.1352, 37.3835]}, "properties": {"NAME": "W4V/AB-052", "TITLE": "2420", "REGION": "VA-Abingdon", "ASSOCIATION": "USA - Virginia", "POINTS": "4", "BONUSPOINTS": "0"}}, {"type": "Feature", "geometry": {"type": "Point", "coordinates": [-81.9851, 37.3314]}, "properties": {"NAME": "W4V/AB-053", "TITLE": "2420", "REGION": "VA-Abingdon", "ASSOCIATION": "USA - Virginia", "POINTS": "4", "BONUSPOINTS": "0"}}, {"type": "Feature", "geometry": {"type": "Point", "coordinates": [-82.1539, 37.2311]}, "properties": {"NAME": "W4V/AB-054", "TITLE": "2413", "REGION": "VA-Abingdon", "ASSOCIATION": "USA - Virginia", "POINTS": "4", "BONUSPOINTS": "0"}}, {"type": "Feature", "geometry": {"type": "Point", "coordinates": [-82.3793, 36.8814]}, "properties": {"NAME": "W4V/AB-055", "TITLE": "Pine Ridge", "REGION": "VA-Abingdon", "ASSOCIATION": "USA - Virginia", "POINTS": "4", "BONUSPOINTS": "0"}}, {"type": "Feature", "geometry": {"type": "Point", "coordinates": [-82.4753, 37.0592]}, "properties": {"NAME": "W4V/AB-056", "TITLE": "Davis Ridge", "REGION": "VA-Abingdon", "ASSOCIATION": "USA - Virginia", "POINTS": "4", "BONUSPOINTS": "0"}}, {"type": "Feature", "geometry": {"type": "Point", "coordinates": [-82.0778, 37.3745]}, "properties": {"NAME": "W4V/AB-057", "TITLE": "2308", "REGION": "VA-Abingdon", "ASSOCIATION": "USA - Virginia", "POINTS": "4", "BONUSPOINTS": "0"}}, {"type": "Feature", "geometry": {"type": "Point", "coordinates": [-82.139, 36.9644]}, "properties": {"NAME": "W4V/AB-058", "TITLE": "2260", "REGION": "VA-Abingdon", "ASSOCIATION": "USA - Virginia", "POINTS": "4", "BONUSPOINTS": "0"}}, {"type": "Feature", "geometry": {"type": "Point", "coordinates": [-82.4725, 37.1329]}, "properties": {"NAME": "W4V/AB-059", "TITLE": "2260", "REGION": "VA-Abingdon", "ASSOCIATION": "USA - Virginia", "POINTS": "4", "BONUSPOINTS": "0"}}, {"type": "Feature", "geometry": {"type": "Point", "coordinates": [-82.0042, 37.4798]}, "properties": {"NAME": "W4V/AB-060", "TITLE": "Elk Benchmark", "REGION": "VA-Abingdon", "ASSOCIATION": "USA - Virginia", "POINTS": "4", "BONUSPOINTS": "0"}}, {"type": "Feature", "geometry": {"type": "Point", "coordinates": [-82.3149, 36.6606]}, "properties": {"NAME": "W4V/AB-061", "TITLE": "2190", "REGION": "VA-Abingdon", "ASSOCIATION": "USA - Virginia", "POINTS": "4", "BONUSPOINTS": "0"}}, {"type": "Feature", "geometry": {"type": "Point", "coordinates": [-82.1936, 37.136]}, "properties": {"NAME": "W4V/AB-062", "TITLE": "2181", "REGION": "VA-Abingdon", "ASSOCIATION": "USA - Virginia", "POINTS": "4", "BONUSPOINTS": "0"}}, {"type": "Feature", "geometry": {"type": "Point", "coordinates": [-81.9965, 37.458]}, "properties": {"NAME": "W4V/AB-063", "TITLE": "2180", "REGION": "VA-Abingdon", "ASSOCIATION": "USA - Virginia", "POINTS": "4", "BONUSPOINTS": "0"}}, {"type": "Feature", "geometry": {"type": "Point", "coordinates": [-82.1404, 36.764]}, "properties": {"NAME": "W4V/AB-064", "TITLE": "River Ridge", "REGION": "VA-Abingdon", "ASSOCIATION": "USA - Virginia", "POINTS": "4", "BONUSPOINTS": "0"}}, {"type": "Feature", "geometry": {"type": "Point", "coordinates": [-82.0884, 37.4065]}, "properties": {"NAME": "W4V/AB-065", "TITLE": "2100", "REGION": "VA-Abingdon", "ASSOCIATION": "USA - Virginia", "POINTS": "4", "BONUSPOINTS": "0"}}, {"type": "Feature", "geometry": {"type": "Point", "coordinates": [-82.0895, 36.7796]}, "properties": {"NAME": "W4V/AB-066", "TITLE": "2090", "REGION": "VA-Abingdon", "ASSOCIATION": "USA - Virginia", "POINTS": "4", "BONUSPOINTS": "0"}}, {"type": "Feature", "geometry": {"type": "Point", "coordinates": [-82.1921, 36.7511]}, "properties": {"NAME": "W4V/AB-067", "TITLE": "2060", "REGION": "VA-Abingdon", "ASSOCIATION": "USA - Virginia", "POINTS": "4", "BONUSPOINTS": "0"}}, {"type": "Feature", "geometry": {"type": "Point", "coordinates": [-82.2162, 36.7436]}, "properties": {"NAME": "W4V/AB-068", "TITLE": "2010", "REGION": "VA-Abingdon", "ASSOCIATION": "USA - Virginia", "POINTS": "4", "BONUSPOINTS": "0"}}]}