{"type": "FeatureCollection", "name": "W4V/FC SUMMITS", "features": [{"type": "Feature", "geometry": {"type": "Point", "coordinates": [-80.5373, 37.3501]}, "properties": {"NAME": "W4V/FC-001", "TITLE": "Salt Pond Mountain", "REGION": "VA-Fincastle", "ASSOCIATION": "USA - Virginia", "POINTS": "10", "BONUSPOINTS": "3"}}, {"type": "Feature", "geometry": {"type": "Point", "coordinates": [-80.622, 37.3696]}, "properties": {"NAME": "W4V/FC-002", "TITLE": "Butt Mountain", "REGION": "VA-Fincastle", "ASSOCIATION": "USA - Virginia", "POINTS": "10", "BONUSPOINTS": "3"}}, {"type": "Feature", "geometry": {"type": "Point", "coordinates": [-80.854, 37.2475]}, "properties": {"NAME": "W4V/FC-003", "TITLE": "Sugar Run Mountain", "REGION": "VA-Fincastle", "ASSOCIATION": "USA - Virginia", "POINTS": "10", "BONUSPOINTS": "3"}}, {"type": "Feature", "geometry": {"type": "Point", "coordinates": [-80.5247, 37.4769]}, "properties": {"NAME": "W4V/FC-004", "TITLE": "Wrights Peak", "REGION": "VA-Fincastle", "ASSOCIATION": "USA - Virginia", "POINTS": "10", "BONUSPOINTS": "3"}}, {"type": "Feature", "geometry": {"type": "Point", "coordinates": [-80.4775, 36.796]}, "properties": {"NAME": "W4V/FC-005", "TITLE": "Buffalo Mountain", "REGION": "VA-Fincastle", "ASSOCIATION": "USA - Virginia", "POINTS": "8", "BONUSPOINTS": "3"}}, {"type": "Feature", "geometry": {"type": "Point", "coordinates": [-80.8279, 37.2678]}, "properties": {"NAME": "W4V/FC-006", "TITLE": "3947", "REGION": "VA-Fincastle", "ASSOCIATION": "USA - Virginia", "POINTS": "8", "BONUSPOINTS": "3"}}, {"type": "Feature", "geometry": {"type": "Point", "coordinates": [-80.3442, 37.4921]}, "properties": {"NAME": "W4V/FC-007", "TITLE": "Arnolds Knob", "REGION": "VA-Fincastle", "ASSOCIATION": "USA - Virginia", "POINTS": "8", "BONUSPOINTS": "3"}}, {"type": "Feature", "geometry": {"type": "Point", "coordinates": [-80.4431, 37.3609]}, "properties": {"NAME": "W4V/FC-008", "TITLE": "Johns Creek Mountain", "REGION": "VA-Fincastle", "ASSOCIATION": "USA - Virginia", "POINTS": "8", "BONUSPOINTS": "3"}}, {"type": "Feature", "geometry": {"type": "Point", "coordinates": [-80.2014, 37.4369]}, "properties": {"NAME": "W4V/FC-009", "TITLE": "Sinking Creek Mountain", "REGION": "VA-Fincastle", "ASSOCIATION": "USA - Virginia", "POINTS": "8", "BONUSPOINTS": "3"}}, {"type": "Feature", "geometry": {"type": "Point", "coordinates": [-79.6948, 37.658]}, "properties": {"NAME": "W4V/FC-010", "TITLE": "Sugarloaf Mountain", "REGION": "VA-Fincastle", "ASSOCIATION": "USA - Virginia", "POINTS": "8", "BONUSPOINTS": "3"}}, {"type": "Feature", "geometry": {"type": "Point", "coordinates": [-80.4064, 36.7875]}, "properties": {"NAME": "W4V/FC-011", "TITLE": "Hog Mountain", "REGION": "VA-Fincastle", "ASSOCIATION": "USA - Virginia", "POINTS": "8", "BONUSPOINTS": "3"}}, {"type": "Feature", "geometry": {"type": "Point", "coordinates": [-79.6782, 37.7469]}, "properties": {"NAME": "W4V/FC-012", "TITLE": "North Mountain", "REGION": "VA-Fincastle", "ASSOCIATION": "USA - Virginia", "POINTS": "8", "BONUSPOINTS": "3"}}, {"type": "Feature", "geometry": {"type": "Point", "coordinates": [-80.4247, 36.9293]}, "properties": {"NAME": "W4V/FC-013", "TITLE": "Wills Ridge", "REGION": "VA-Fincastle", "ASSOCIATION": "USA - Virginia", "POINTS": "8", "BONUSPOINTS": "3"}}, {"type": "Feature", "geometry": {"type": "Point", "coordinates": [-80.4896, 36.845]}, "properties": {"NAME": "W4V/FC-014", "TITLE": "Indian Ridge", "REGION": "VA-Fincastle", "ASSOCIATION": "USA - Virginia", "POINTS": "8", "BONUSPOINTS": "3"}}, {"type": "Feature", "geometry": {"type": "Point", "coordinates": [-80.1238, 37.1076]}, "properties": {"NAME": "W4V/FC-015", "TITLE": "3333", "REGION": "VA-Fincastle", "ASSOCIATION": "USA - Virginia", "POINTS": "8", "BONUSPOINTS": "3"}}, {"type": "Feature", "geometry": {"type": "Point", "coordinates": [-80.2539, 36.8665]}, "properties": {"NAME": "W4V/FC-016", "TITLE": "Pocket Ridge", "REGION": "VA-Fincastle", "ASSOCIATION": "USA - Virginia", "POINTS": "6", "BONUSPOINTS": "3"}}, {"type": "Feature", "geometry": {"type": "Point", "coordinates": [-79.643, 37.6237]}, "properties": {"NAME": "W4V/FC-017", "TITLE": "Short Hills HP", "REGION": "VA-Fincastle", "ASSOCIATION": "USA - Virginia", "POINTS": "6", "BONUSPOINTS": "3"}}, {"type": "Feature", "geometry": {"type": "Point", "coordinates": [-80.5509, 37.2867]}, "properties": {"NAME": "W4V/FC-018", "TITLE": "Spruce Run Mountain", "REGION": "VA-Fincastle", "ASSOCIATION": "USA - Virginia", "POINTS": "6", "BONUSPOINTS": "3"}}, {"type": "Feature", "geometry": {"type": "Point", "coordinates": [-80.2198, 37.5754]}, "properties": {"NAME": "W4V/FC-019", "TITLE": "Middle Mountain", "REGION": "VA-Fincastle", "ASSOCIATION": "USA - Virginia", "POINTS": "6", "BONUSPOINTS": "3"}}, {"type": "Feature", "geometry": {"type": "Point", "coordinates": [-80.5551, 36.97]}, "properties": {"NAME": "W4V/FC-020", "TITLE": "3130", "REGION": "VA-Fincastle", "ASSOCIATION": "USA - Virginia", "POINTS": "6", "BONUSPOINTS": "3"}}, {"type": "Feature", "geometry": {"type": "Point", "coordinates": [-80.231, 37.3617]}, "properties": {"NAME": "W4V/FC-021", "TITLE": "Brush Mountain", "REGION": "VA-Fincastle", "ASSOCIATION": "USA - Virginia", "POINTS": "6", "BONUSPOINTS": "3"}}, {"type": "Feature", "geometry": {"type": "Point", "coordinates": [-80.0801, 37.4192]}, "properties": {"NAME": "W4V/FC-022", "TITLE": "North Mountain", "REGION": "VA-Fincastle", "ASSOCIATION": "USA - Virginia", "POINTS": "6", "BONUSPOINTS": "3"}}, {"type": "Feature", "geometry": {"type": "Point", "coordinates": [-80.6763, 37.222]}, "properties": {"NAME": "W4V/FC-023", "TITLE": "3016", "REGION": "VA-Fincastle", "ASSOCIATION": "USA - Virginia", "POINTS": "6", "BONUSPOINTS": "3"}}, {"type": "Feature", "geometry": {"type": "Point", "coordinates": [-80.5055, 37.2741]}, "properties": {"NAME": "W4V/FC-024", "TITLE": "Gap Mountain", "REGION": "VA-Fincastle", "ASSOCIATION": "USA - Virginia", "POINTS": "6", "BONUSPOINTS": "3"}}, {"type": "Feature", "geometry": {"type": "Point", "coordinates": [-80.3359, 37.2349]}, "properties": {"NAME": "W4V/FC-025", "TITLE": "Paris Mountain", "REGION": "VA-Fincastle", "ASSOCIATION": "USA - Virginia", "POINTS": "6", "BONUSPOINTS": "3"}}, {"type": "Feature", "geometry": {"type": "Point", "coordinates": [-79.6891, 37.5623]}, "properties": {"NAME": "W4V/FC-026", "TITLE": "Purgatory Mountain", "REGION": "VA-Fincastle", "ASSOCIATION": "USA - Virginia", "POINTS": "6", "BONUSPOINTS": "3"}}, {"type": "Feature", "geometry": {"type": "Point", "coordinates": [-79.9989, 37.4347]}, "properties": {"NAME": "W4V/FC-027", "TITLE": "Tinker Mountain", "REGION": "VA-Fincastle", "ASSOCIATION": "USA - Virginia", "POINTS": "6", "BONUSPOINTS": "3"}}, {"type": "Feature", "geometry": {"type": "Point", "coordinates": [-80.0016, 37.5169]}, "properties": {"NAME": "W4V/FC-028", "TITLE": "Broad Run Mountain", "REGION": "VA-Fincastle", "ASSOCIATION": "USA - Virginia", "POINTS": "6", "BONUSPOINTS": "3"}}, {"type": "Feature", "geometry": {"type": "Point", "coordinates": [-80.3061, 37.0925]}, "properties": {"NAME": "W4V/FC-029", "TITLE": "Fishers View Mountain", "REGION": "VA-Fincastle", "ASSOCIATION": "USA - Virginia", "POINTS": "6", "BONUSPOINTS": "3"}}, {"type": "Feature", "geometry": {"type": "Point", "coordinates": [-80.282, 37.2784]}, "properties": {"NAME": "W4V/FC-030", "TITLE": "2924", "REGION": "VA-Fincastle", "ASSOCIATION": "USA - Virginia", "POINTS": "6", "BONUSPOINTS": "3"}}, {"type": "Feature", "geometry": {"type": "Point", "coordinates": [-80.6396, 37.2567]}, "properties": {"NAME": "W4V/FC-031", "TITLE": "Buckeye Mountain", "REGION": "VA-Fincastle", "ASSOCIATION": "USA - Virginia", "POINTS": "6", "BONUSPOINTS": "3"}}, {"type": "Feature", "geometry": {"type": "Point", "coordinates": [-79.6854, 37.7121]}, "properties": {"NAME": "W4V/FC-032", "TITLE": "Biggs Mountain", "REGION": "VA-Fincastle", "ASSOCIATION": "USA - Virginia", "POINTS": "6", "BONUSPOINTS": "3"}}, {"type": "Feature", "geometry": {"type": "Point", "coordinates": [-80.4856, 37.0326]}, "properties": {"NAME": "W4V/FC-033", "TITLE": "Calfee Knob", "REGION": "VA-Fincastle", "ASSOCIATION": "USA - Virginia", "POINTS": "6", "BONUSPOINTS": "3"}}, {"type": "Feature", "geometry": {"type": "Point", "coordinates": [-80.1262, 37.531]}, "properties": {"NAME": "W4V/FC-034", "TITLE": "Nutters Mountain", "REGION": "VA-Fincastle", "ASSOCIATION": "USA - Virginia", "POINTS": "6", "BONUSPOINTS": "3"}}, {"type": "Feature", "geometry": {"type": "Point", "coordinates": [-80.339, 37.4606]}, "properties": {"NAME": "W4V/FC-035", "TITLE": "Sevenmile Mountain", "REGION": "VA-Fincastle", "ASSOCIATION": "USA - Virginia", "POINTS": "6", "BONUSPOINTS": "3"}}, {"type": "Feature", "geometry": {"type": "Point", "coordinates": [-79.9519, 37.5615]}, "properties": {"NAME": "W4V/FC-036", "TITLE": "Price Mountain", "REGION": "VA-Fincastle", "ASSOCIATION": "USA - Virginia", "POINTS": "6", "BONUSPOINTS": "3"}}, {"type": "Feature", "geometry": {"type": "Point", "coordinates": [-79.9178, 37.5685]}, "properties": {"NAME": "W4V/FC-037", "TITLE": "Switzer Mountain", "REGION": "VA-Fincastle", "ASSOCIATION": "USA - Virginia", "POINTS": "6", "BONUSPOINTS": "3"}}, {"type": "Feature", "geometry": {"type": "Point", "coordinates": [-79.651, 37.4923]}, "properties": {"NAME": "W4V/FC-038", "TITLE": "Cove Mountain", "REGION": "VA-Fincastle", "ASSOCIATION": "USA - Virginia", "POINTS": "6", "BONUSPOINTS": "3"}}, {"type": "Feature", "geometry": {"type": "Point", "coordinates": [-79.758, 37.6635]}, "properties": {"NAME": "W4V/FC-039", "TITLE": "Sheets Mountain", "REGION": "VA-Fincastle", "ASSOCIATION": "USA - Virginia", "POINTS": "6", "BONUSPOINTS": "3"}}, {"type": "Feature", "geometry": {"type": "Point", "coordinates": [-79.6648, 37.597]}, "properties": {"NAME": "W4V/FC-040", "TITLE": "Knob, The", "REGION": "VA-Fincastle", "ASSOCIATION": "USA - Virginia", "POINTS": "6", "BONUSPOINTS": "3"}}, {"type": "Feature", "geometry": {"type": "Point", "coordinates": [-79.8538, 37.3987]}, "properties": {"NAME": "W4V/FC-041", "TITLE": "2670", "REGION": "VA-Fincastle", "ASSOCIATION": "USA - Virginia", "POINTS": "6", "BONUSPOINTS": "3"}}, {"type": "Feature", "geometry": {"type": "Point", "coordinates": [-80.335, 37.2051]}, "properties": {"NAME": "W4V/FC-042", "TITLE": "Hightop Mountain", "REGION": "VA-Fincastle", "ASSOCIATION": "USA - Virginia", "POINTS": "6", "BONUSPOINTS": "3"}}, {"type": "Feature", "geometry": {"type": "Point", "coordinates": [-80.575, 37.2383]}, "properties": {"NAME": "W4V/FC-043", "TITLE": "2613", "REGION": "VA-Fincastle", "ASSOCIATION": "USA - Virginia", "POINTS": "6", "BONUSPOINTS": "3"}}, {"type": "Feature", "geometry": {"type": "Point", "coordinates": [-79.7383, 37.7629]}, "properties": {"NAME": "W4V/FC-044", "TITLE": "Anthony Knobs", "REGION": "VA-Fincastle", "ASSOCIATION": "USA - Virginia", "POINTS": "4", "BONUSPOINTS": "0"}}, {"type": "Feature", "geometry": {"type": "Point", "coordinates": [-79.9804, 37.3848]}, "properties": {"NAME": "W4V/FC-045", "TITLE": "Brushy Mountain", "REGION": "VA-Fincastle", "ASSOCIATION": "USA - Virginia", "POINTS": "4", "BONUSPOINTS": "0"}}, {"type": "Feature", "geometry": {"type": "Point", "coordinates": [-79.8348, 37.63]}, "properties": {"NAME": "W4V/FC-046", "TITLE": "Crawford Mountain", "REGION": "VA-Fincastle", "ASSOCIATION": "USA - Virginia", "POINTS": "4", "BONUSPOINTS": "0"}}, {"type": "Feature", "geometry": {"type": "Point", "coordinates": [-79.9273, 37.6224]}, "properties": {"NAME": "W4V/FC-047", "TITLE": "Patterson Mountain", "REGION": "VA-Fincastle", "ASSOCIATION": "USA - Virginia", "POINTS": "4", "BONUSPOINTS": "0"}}, {"type": "Feature", "geometry": {"type": "Point", "coordinates": [-80.8116, 37.3973]}, "properties": {"NAME": "W4V/FC-048", "TITLE": "Wylie Mountain", "REGION": "VA-Fincastle", "ASSOCIATION": "USA - Virginia", "POINTS": "4", "BONUSPOINTS": "0"}}, {"type": "Feature", "geometry": {"type": "Point", "coordinates": [-79.9271, 37.3731]}, "properties": {"NAME": "W4V/FC-049", "TITLE": "2228", "REGION": "VA-Fincastle", "ASSOCIATION": "USA - Virginia", "POINTS": "4", "BONUSPOINTS": "0"}}, {"type": "Feature", "geometry": {"type": "Point", "coordinates": [-79.8709, 37.3689]}, "properties": {"NAME": "W4V/FC-050", "TITLE": "Coyner Mountain", "REGION": "VA-Fincastle", "ASSOCIATION": "USA - Virginia", "POINTS": "4", "BONUSPOINTS": "0"}}, {"type": "Feature", "geometry": {"type": "Point", "coordinates": [-79.6035, 37.5339]}, "properties": {"NAME": "W4V/FC-051", "TITLE": "2042", "REGION": "VA-Fincastle", "ASSOCIATION": "USA - Virginia", "POINTS": "4", "BONUSPOINTS": "0"}}, {"type": "Feature", "geometry": {"type": "Point", "coordinates": [-79.6897, 37.5052]}, "properties": {"NAME": "W4V/FC-052", "TITLE": "1708", "REGION": "VA-Fincastle", "ASSOCIATION": "USA - Virginia", "POINTS": "2", "BONUSPOINTS": "0"}}, {"type": "Feature", "geometry": {"type": "Point", "coordinates": [-79.8173, 37.7235]}, "properties": {"NAME": "W4V/FC-053", "TITLE": "Big Hill", "REGION": "VA-Fincastle", "ASSOCIATION": "USA - Virginia", "POINTS": "2", "BONUSPOINTS": "0"}}]}