{"type": "FeatureCollection", "name": "W4V/RA SUMMITS", "features": [{"type": "Feature", "geometry": {"type": "Point", "coordinates": [-79.5103, 37.5172]}, "properties": {"NAME": "W4V/RA-001", "TITLE": "Apple Orchard Mountain", "REGION": "VA-Roanoke", "ASSOCIATION": "USA - Virginia", "POINTS": "10", "BONUSPOINTS": "3"}}, {"type": "Feature", "geometry": {"type": "Point", "coordinates": [-79.5827, 37.4519]}, "properties": {"NAME": "W4V/RA-002", "TITLE": "Flat Top Mountain", "REGION": "VA-Roanoke", "ASSOCIATION": "USA - Virginia", "POINTS": "8", "BONUSPOINTS": "3"}}, {"type": "Feature", "geometry": {"type": "Point", "coordinates": [-80.1626, 37.1795]}, "properties": {"NAME": "W4V/RA-003", "TITLE": "Poor Mountain", "REGION": "VA-Roanoke", "ASSOCIATION": "USA - Virginia", "POINTS": "8", "BONUSPOINTS": "3"}}, {"type": "Feature", "geometry": {"type": "Point", "coordinates": [-79.6048, 37.4334]}, "properties": {"NAME": "W4V/RA-004", "TITLE": "Sharp Top Mountain", "REGION": "VA-Roanoke", "ASSOCIATION": "USA - Virginia", "POINTS": "8", "BONUSPOINTS": "3"}}, {"type": "Feature", "geometry": {"type": "Point", "coordinates": [-79.5452, 37.4795]}, "properties": {"NAME": "W4V/RA-005", "TITLE": "Headforemost Mountain", "REGION": "VA-Roanoke", "ASSOCIATION": "USA - Virginia", "POINTS": "8", "BONUSPOINTS": "3"}}, {"type": "Feature", "geometry": {"type": "Point", "coordinates": [-80.0155, 37.1172]}, "properties": {"NAME": "W4V/RA-006", "TITLE": "Cahas Mountain", "REGION": "VA-Roanoke", "ASSOCIATION": "USA - Virginia", "POINTS": "8", "BONUSPOINTS": "3"}}, {"type": "Feature", "geometry": {"type": "Point", "coordinates": [-79.4606, 37.52]}, "properties": {"NAME": "W4V/RA-007", "TITLE": "Terrapin Mountain", "REGION": "VA-Roanoke", "ASSOCIATION": "USA - Virginia", "POINTS": "8", "BONUSPOINTS": "3"}}, {"type": "Feature", "geometry": {"type": "Point", "coordinates": [-79.6169, 37.4581]}, "properties": {"NAME": "W4V/RA-008", "TITLE": "Harkening Hill", "REGION": "VA-Roanoke", "ASSOCIATION": "USA - Virginia", "POINTS": "8", "BONUSPOINTS": "3"}}, {"type": "Feature", "geometry": {"type": "Point", "coordinates": [-80.1602, 37.3091]}, "properties": {"NAME": "W4V/RA-009", "TITLE": "Fort Lewis Mountain", "REGION": "VA-Roanoke", "ASSOCIATION": "USA - Virginia", "POINTS": "8", "BONUSPOINTS": "3"}}, {"type": "Feature", "geometry": {"type": "Point", "coordinates": [-80.0635, 37.1643]}, "properties": {"NAME": "W4V/RA-010", "TITLE": "3250", "REGION": "VA-Roanoke", "ASSOCIATION": "USA - Virginia", "POINTS": "8", "BONUSPOINTS": "3"}}, {"type": "Feature", "geometry": {"type": "Point", "coordinates": [-80.2251, 36.6929]}, "properties": {"NAME": "W4V/RA-011", "TITLE": "Bull Mountain", "REGION": "VA-Roanoke", "ASSOCIATION": "USA - Virginia", "POINTS": "6", "BONUSPOINTS": "3"}}, {"type": "Feature", "geometry": {"type": "Point", "coordinates": [-80.0367, 37.3927]}, "properties": {"NAME": "W4V/RA-012", "TITLE": "McAfee Knob", "REGION": "VA-Roanoke", "ASSOCIATION": "USA - Virginia", "POINTS": "6", "BONUSPOINTS": "3"}}, {"type": "Feature", "geometry": {"type": "Point", "coordinates": [-80.0319, 37.1746]}, "properties": {"NAME": "W4V/RA-013", "TITLE": "Masons Knob", "REGION": "VA-Roanoke", "ASSOCIATION": "USA - Virginia", "POINTS": "6", "BONUSPOINTS": "3"}}, {"type": "Feature", "geometry": {"type": "Point", "coordinates": [-79.4406, 37.5636]}, "properties": {"NAME": "W4V/RA-014", "TITLE": "Highcock Knob", "REGION": "VA-Roanoke", "ASSOCIATION": "USA - Virginia", "POINTS": "6", "BONUSPOINTS": "3"}}, {"type": "Feature", "geometry": {"type": "Point", "coordinates": [-80.2036, 37.2782]}, "properties": {"NAME": "W4V/RA-015", "TITLE": "3053", "REGION": "VA-Roanoke", "ASSOCIATION": "USA - Virginia", "POINTS": "6", "BONUSPOINTS": "3"}}, {"type": "Feature", "geometry": {"type": "Point", "coordinates": [-80.1731, 37.3621]}, "properties": {"NAME": "W4V/RA-016", "TITLE": "Cove Mountain", "REGION": "VA-Roanoke", "ASSOCIATION": "USA - Virginia", "POINTS": "6", "BONUSPOINTS": "3"}}, {"type": "Feature", "geometry": {"type": "Point", "coordinates": [-79.452, 37.5873]}, "properties": {"NAME": "W4V/RA-017", "TITLE": "2847", "REGION": "VA-Roanoke", "ASSOCIATION": "USA - Virginia", "POINTS": "6", "BONUSPOINTS": "3"}}, {"type": "Feature", "geometry": {"type": "Point", "coordinates": [-79.3758, 37.4702]}, "properties": {"NAME": "W4V/RA-018", "TITLE": "No Business Mountain", "REGION": "VA-Roanoke", "ASSOCIATION": "USA - Virginia", "POINTS": "6", "BONUSPOINTS": "3"}}, {"type": "Feature", "geometry": {"type": "Point", "coordinates": [-79.7709, 37.4186]}, "properties": {"NAME": "W4V/RA-019", "TITLE": "Blue Knob", "REGION": "VA-Roanoke", "ASSOCIATION": "USA - Virginia", "POINTS": "6", "BONUSPOINTS": "3"}}, {"type": "Feature", "geometry": {"type": "Point", "coordinates": [-79.823, 37.3039]}, "properties": {"NAME": "W4V/RA-020", "TITLE": "Weaver Knob", "REGION": "VA-Roanoke", "ASSOCIATION": "USA - Virginia", "POINTS": "6", "BONUSPOINTS": "3"}}, {"type": "Feature", "geometry": {"type": "Point", "coordinates": [-79.7717, 37.3726]}, "properties": {"NAME": "W4V/RA-021", "TITLE": "Foster Knob", "REGION": "VA-Roanoke", "ASSOCIATION": "USA - Virginia", "POINTS": "6", "BONUSPOINTS": "3"}}, {"type": "Feature", "geometry": {"type": "Point", "coordinates": [-79.6673, 37.3899]}, "properties": {"NAME": "W4V/RA-022", "TITLE": "Taylors Mountain", "REGION": "VA-Roanoke", "ASSOCIATION": "USA - Virginia", "POINTS": "6", "BONUSPOINTS": "3"}}, {"type": "Feature", "geometry": {"type": "Point", "coordinates": [-79.7956, 37.3204]}, "properties": {"NAME": "W4V/RA-023", "TITLE": "Greens Knob", "REGION": "VA-Roanoke", "ASSOCIATION": "USA - Virginia", "POINTS": "6", "BONUSPOINTS": "3"}}, {"type": "Feature", "geometry": {"type": "Point", "coordinates": [-79.731, 37.3507]}, "properties": {"NAME": "W4V/RA-024", "TITLE": "Porter Mountain", "REGION": "VA-Roanoke", "ASSOCIATION": "USA - Virginia", "POINTS": "4", "BONUSPOINTS": "0"}}, {"type": "Feature", "geometry": {"type": "Point", "coordinates": [-79.6536, 37.429]}, "properties": {"NAME": "W4V/RA-025", "TITLE": "Campbells Mountain", "REGION": "VA-Roanoke", "ASSOCIATION": "USA - Virginia", "POINTS": "4", "BONUSPOINTS": "0"}}, {"type": "Feature", "geometry": {"type": "Point", "coordinates": [-79.3458, 37.4738]}, "properties": {"NAME": "W4V/RA-026", "TITLE": "Rocky Mountain", "REGION": "VA-Roanoke", "ASSOCIATION": "USA - Virginia", "POINTS": "4", "BONUSPOINTS": "0"}}, {"type": "Feature", "geometry": {"type": "Point", "coordinates": [-79.8993, 37.3413]}, "properties": {"NAME": "W4V/RA-027", "TITLE": "Read Mountain", "REGION": "VA-Roanoke", "ASSOCIATION": "USA - Virginia", "POINTS": "4", "BONUSPOINTS": "0"}}, {"type": "Feature", "geometry": {"type": "Point", "coordinates": [-80.3024, 36.6277]}, "properties": {"NAME": "W4V/RA-028", "TITLE": "Carter Mountain", "REGION": "VA-Roanoke", "ASSOCIATION": "USA - Virginia", "POINTS": "4", "BONUSPOINTS": "0"}}, {"type": "Feature", "geometry": {"type": "Point", "coordinates": [-80.0317, 37.35]}, "properties": {"NAME": "W4V/RA-029", "TITLE": "2290", "REGION": "VA-Roanoke", "ASSOCIATION": "USA - Virginia", "POINTS": "4", "BONUSPOINTS": "0"}}, {"type": "Feature", "geometry": {"type": "Point", "coordinates": [-79.9534, 37.1394]}, "properties": {"NAME": "W4V/RA-030", "TITLE": "Murray Knob", "REGION": "VA-Roanoke", "ASSOCIATION": "USA - Virginia", "POINTS": "4", "BONUSPOINTS": "0"}}, {"type": "Feature", "geometry": {"type": "Point", "coordinates": [-80.0976, 36.9419]}, "properties": {"NAME": "W4V/RA-031", "TITLE": "2250", "REGION": "VA-Roanoke", "ASSOCIATION": "USA - Virginia", "POINTS": "4", "BONUSPOINTS": "0"}}, {"type": "Feature", "geometry": {"type": "Point", "coordinates": [-79.8549, 37.1942]}, "properties": {"NAME": "W4V/RA-032", "TITLE": "Lynville Mountain", "REGION": "VA-Roanoke", "ASSOCIATION": "USA - Virginia", "POINTS": "4", "BONUSPOINTS": "0"}}, {"type": "Feature", "geometry": {"type": "Point", "coordinates": [-79.9905, 36.9456]}, "properties": {"NAME": "W4V/RA-033", "TITLE": "Cooks Knob", "REGION": "VA-Roanoke", "ASSOCIATION": "USA - Virginia", "POINTS": "4", "BONUSPOINTS": "0"}}, {"type": "Feature", "geometry": {"type": "Point", "coordinates": [-79.9354, 37.2095]}, "properties": {"NAME": "W4V/RA-034", "TITLE": "Roanoke Mountain", "REGION": "VA-Roanoke", "ASSOCIATION": "USA - Virginia", "POINTS": "4", "BONUSPOINTS": "0"}}, {"type": "Feature", "geometry": {"type": "Point", "coordinates": [-79.5062, 37.458]}, "properties": {"NAME": "W4V/RA-035", "TITLE": "Suck Mountain", "REGION": "VA-Roanoke", "ASSOCIATION": "USA - Virginia", "POINTS": "4", "BONUSPOINTS": "0"}}, {"type": "Feature", "geometry": {"type": "Point", "coordinates": [-80.08, 36.9325]}, "properties": {"NAME": "W4V/RA-036", "TITLE": "2170", "REGION": "VA-Roanoke", "ASSOCIATION": "USA - Virginia", "POINTS": "4", "BONUSPOINTS": "0"}}, {"type": "Feature", "geometry": {"type": "Point", "coordinates": [-80.286, 36.6708]}, "properties": {"NAME": "W4V/RA-037", "TITLE": "2126", "REGION": "VA-Roanoke", "ASSOCIATION": "USA - Virginia", "POINTS": "4", "BONUSPOINTS": "0"}}, {"type": "Feature", "geometry": {"type": "Point", "coordinates": [-79.3154, 37.453]}, "properties": {"NAME": "W4V/RA-038", "TITLE": "Fleming Mountain", "REGION": "VA-Roanoke", "ASSOCIATION": "USA - Virginia", "POINTS": "4", "BONUSPOINTS": "0"}}, {"type": "Feature", "geometry": {"type": "Point", "coordinates": [-79.5656, 37.0143]}, "properties": {"NAME": "W4V/RA-039", "TITLE": "Smith Mountain", "REGION": "VA-Roanoke", "ASSOCIATION": "USA - Virginia", "POINTS": "4", "BONUSPOINTS": "0"}}, {"type": "Feature", "geometry": {"type": "Point", "coordinates": [-80.0277, 36.9415]}, "properties": {"NAME": "W4V/RA-040", "TITLE": "2030", "REGION": "VA-Roanoke", "ASSOCIATION": "USA - Virginia", "POINTS": "4", "BONUSPOINTS": "0"}}, {"type": "Feature", "geometry": {"type": "Point", "coordinates": [-79.8411, 36.8521]}, "properties": {"NAME": "W4V/RA-041", "TITLE": "Fork Mountain", "REGION": "VA-Roanoke", "ASSOCIATION": "USA - Virginia", "POINTS": "4", "BONUSPOINTS": "0"}}, {"type": "Feature", "geometry": {"type": "Point", "coordinates": [-80.1729, 36.649]}, "properties": {"NAME": "W4V/RA-042", "TITLE": "No Business Mountain", "REGION": "VA-Roanoke", "ASSOCIATION": "USA - Virginia", "POINTS": "2", "BONUSPOINTS": "0"}}, {"type": "Feature", "geometry": {"type": "Point", "coordinates": [-79.9786, 37.1906]}, "properties": {"NAME": "W4V/RA-043", "TITLE": "Buck Mountain", "REGION": "VA-Roanoke", "ASSOCIATION": "USA - Virginia", "POINTS": "2", "BONUSPOINTS": "0"}}, {"type": "Feature", "geometry": {"type": "Point", "coordinates": [-79.8935, 37.0243]}, "properties": {"NAME": "W4V/RA-044", "TITLE": "Grassy Hill", "REGION": "VA-Roanoke", "ASSOCIATION": "USA - Virginia", "POINTS": "2", "BONUSPOINTS": "0"}}, {"type": "Feature", "geometry": {"type": "Point", "coordinates": [-80.0884, 37.3065]}, "properties": {"NAME": "W4V/RA-045", "TITLE": "Little Brushy Mountain", "REGION": "VA-Roanoke", "ASSOCIATION": "USA - Virginia", "POINTS": "2", "BONUSPOINTS": "0"}}, {"type": "Feature", "geometry": {"type": "Point", "coordinates": [-79.634, 37.3147]}, "properties": {"NAME": "W4V/RA-046", "TITLE": "Thaxton Mountain", "REGION": "VA-Roanoke", "ASSOCIATION": "USA - Virginia", "POINTS": "2", "BONUSPOINTS": "0"}}, {"type": "Feature", "geometry": {"type": "Point", "coordinates": [-79.7083, 36.8215]}, "properties": {"NAME": "W4V/RA-047", "TITLE": "Turkeycock Mountain", "REGION": "VA-Roanoke", "ASSOCIATION": "USA - Virginia", "POINTS": "2", "BONUSPOINTS": "0"}}, {"type": "Feature", "geometry": {"type": "Point", "coordinates": [-79.4569, 37.4888]}, "properties": {"NAME": "W4V/RA-048", "TITLE": "Flint Stone Mountain", "REGION": "VA-Roanoke", "ASSOCIATION": "USA - Virginia", "POINTS": "2", "BONUSPOINTS": "0"}}, {"type": "Feature", "geometry": {"type": "Point", "coordinates": [-79.7356, 37.2941]}, "properties": {"NAME": "W4V/RA-049", "TITLE": "Lick Mountain", "REGION": "VA-Roanoke", "ASSOCIATION": "USA - Virginia", "POINTS": "2", "BONUSPOINTS": "0"}}, {"type": "Feature", "geometry": {"type": "Point", "coordinates": [-79.7548, 36.9074]}, "properties": {"NAME": "W4V/RA-050", "TITLE": "Chesnut Mountain", "REGION": "VA-Roanoke", "ASSOCIATION": "USA - Virginia", "POINTS": "2", "BONUSPOINTS": "0"}}, {"type": "Feature", "geometry": {"type": "Point", "coordinates": [-79.7032, 37.292]}, "properties": {"NAME": "W4V/RA-051", "TITLE": "High Knob", "REGION": "VA-Roanoke", "ASSOCIATION": "USA - Virginia", "POINTS": "2", "BONUSPOINTS": "0"}}, {"type": "Feature", "geometry": {"type": "Point", "coordinates": [-79.4086, 37.451]}, "properties": {"NAME": "W4V/RA-052", "TITLE": "Jackson Mountain", "REGION": "VA-Roanoke", "ASSOCIATION": "USA - Virginia", "POINTS": "2", "BONUSPOINTS": "0"}}, {"type": "Feature", "geometry": {"type": "Point", "coordinates": [-79.4402, 37.4598]}, "properties": {"NAME": "W4V/RA-053", "TITLE": "Hurricane Mountain", "REGION": "VA-Roanoke", "ASSOCIATION": "USA - Virginia", "POINTS": "2", "BONUSPOINTS": "0"}}, {"type": "Feature", "geometry": {"type": "Point", "coordinates": [-79.5263, 37.049]}, "properties": {"NAME": "W4V/RA-054", "TITLE": "Smith Mountain North", "REGION": "VA-Roanoke", "ASSOCIATION": "USA - Virginia", "POINTS": "2", "BONUSPOINTS": "0"}}, {"type": "Feature", "geometry": {"type": "Point", "coordinates": [-79.9179, 36.6135]}, "properties": {"NAME": "W4V/RA-055", "TITLE": "Chestnut Knob", "REGION": "VA-Roanoke", "ASSOCIATION": "USA - Virginia", "POINTS": "2", "BONUSPOINTS": "0"}}, {"type": "Feature", "geometry": {"type": "Point", "coordinates": [-79.0861, 37.291]}, "properties": {"NAME": "W4V/RA-056", "TITLE": "Long Mountain", "REGION": "VA-Roanoke", "ASSOCIATION": "USA - Virginia", "POINTS": "1", "BONUSPOINTS": "0"}}, {"type": "Feature", "geometry": {"type": "Point", "coordinates": [-79.1678, 37.3491]}, "properties": {"NAME": "W4V/RA-057", "TITLE": "Candler Mountain", "REGION": "VA-Roanoke", "ASSOCIATION": "USA - Virginia", "POINTS": "1", "BONUSPOINTS": "0"}}]}