{"type": "FeatureCollection", "name": "W2/EH SUMMITS", "features": [{"type": "Feature", "geometry": {"type": "Point", "coordinates": [-73.2862, 42.692]}, "properties": {"NAME": "W2/EH-001", "TITLE": "Berlin Mountain", "REGION": "East of the Hudson", "ASSOCIATION": "USA - NJ / NY", "POINTS": "2", "BONUSPOINTS": "3"}}, {"type": "Feature", "geometry": {"type": "Point", "coordinates": [-73.4257, 42.3128]}, "properties": {"NAME": "W2/EH-002", "TITLE": "Harvey Mountain", "REGION": "East of the Hudson", "ASSOCIATION": "USA - NJ / NY", "POINTS": "1", "BONUSPOINTS": "0"}}, {"type": "Feature", "geometry": {"type": "Point", "coordinates": [-73.9447, 41.4814]}, "properties": {"NAME": "W2/EH-003", "TITLE": "South Beacon Mountain", "REGION": "East of the Hudson", "ASSOCIATION": "USA - NJ / NY", "POINTS": "1", "BONUSPOINTS": "0"}}, {"type": "Feature", "geometry": {"type": "Point", "coordinates": [-73.39, 42.6642]}, "properties": {"NAME": "W2/EH-004", "TITLE": "2093", "REGION": "East of the Hudson", "ASSOCIATION": "USA - NJ / NY", "POINTS": "1", "BONUSPOINTS": "0"}}, {"type": "Feature", "geometry": {"type": "Point", "coordinates": [-73.5997, 42.7885]}, "properties": {"NAME": "W2/EH-005", "TITLE": "1197", "REGION": "East of the Hudson", "ASSOCIATION": "USA - NJ / NY", "POINTS": "1", "BONUSPOINTS": "0"}}, {"type": "Feature", "geometry": {"type": "Point", "coordinates": [-73.4162, 42.4315]}, "properties": {"NAME": "W2/EH-006", "TITLE": "Knob; The", "REGION": "East of the Hudson", "ASSOCIATION": "USA - NJ / NY", "POINTS": "1", "BONUSPOINTS": "0"}}, {"type": "Feature", "geometry": {"type": "Point", "coordinates": [-73.4113, 42.4991]}, "properties": {"NAME": "W2/EH-007", "TITLE": "West Hill", "REGION": "East of the Hudson", "ASSOCIATION": "USA - NJ / NY", "POINTS": "1", "BONUSPOINTS": "0"}}, {"type": "Feature", "geometry": {"type": "Point", "coordinates": [-73.445, 42.4473]}, "properties": {"NAME": "W2/EH-008", "TITLE": "1525", "REGION": "East of the Hudson", "ASSOCIATION": "USA - NJ / NY", "POINTS": "1", "BONUSPOINTS": "0"}}, {"type": "Feature", "geometry": {"type": "Point", "coordinates": [-73.5422, 42.1666]}, "properties": {"NAME": "W2/EH-009", "TITLE": "Scutt Hill", "REGION": "East of the Hudson", "ASSOCIATION": "USA - NJ / NY", "POINTS": "1", "BONUSPOINTS": "0"}}, {"type": "Feature", "geometry": {"type": "Point", "coordinates": [-73.6448, 42.0873]}, "properties": {"NAME": "W2/EH-010", "TITLE": "1145", "REGION": "East of the Hudson", "ASSOCIATION": "USA - NJ / NY", "POINTS": "1", "BONUSPOINTS": "0"}}, {"type": "Feature", "geometry": {"type": "Point", "coordinates": [-73.5179, 41.7101]}, "properties": {"NAME": "W2/EH-011", "TITLE": "Preston Hill", "REGION": "East of the Hudson", "ASSOCIATION": "USA - NJ / NY", "POINTS": "1", "BONUSPOINTS": "0"}}, {"type": "Feature", "geometry": {"type": "Point", "coordinates": [-73.5738, 41.9297]}, "properties": {"NAME": "W2/EH-012", "TITLE": "Silver Mountains HP", "REGION": "East of the Hudson", "ASSOCIATION": "USA - NJ / NY", "POINTS": "1", "BONUSPOINTS": "0"}}, {"type": "Feature", "geometry": {"type": "Point", "coordinates": [-73.6933, 41.9566]}, "properties": {"NAME": "W2/EH-013", "TITLE": "Stissing Mountain", "REGION": "East of the Hudson", "ASSOCIATION": "USA - NJ / NY", "POINTS": "1", "BONUSPOINTS": "0"}}, {"type": "Feature", "geometry": {"type": "Point", "coordinates": [-73.6933, 41.6883]}, "properties": {"NAME": "W2/EH-014", "TITLE": "Clove Mountain", "REGION": "East of the Hudson", "ASSOCIATION": "USA - NJ / NY", "POINTS": "1", "BONUSPOINTS": "0"}}, {"type": "Feature", "geometry": {"type": "Point", "coordinates": [-73.5998, 41.8077]}, "properties": {"NAME": "W2/EH-015", "TITLE": "1365", "REGION": "East of the Hudson", "ASSOCIATION": "USA - NJ / NY", "POINTS": "1", "BONUSPOINTS": "0"}}, {"type": "Feature", "geometry": {"type": "Point", "coordinates": [-73.6868, 41.5332]}, "properties": {"NAME": "W2/EH-016", "TITLE": "1336", "REGION": "East of the Hudson", "ASSOCIATION": "USA - NJ / NY", "POINTS": "1", "BONUSPOINTS": "0"}}, {"type": "Feature", "geometry": {"type": "Point", "coordinates": [-73.5415, 41.5879]}, "properties": {"NAME": "W2/EH-017", "TITLE": "Observatory Hill", "REGION": "East of the Hudson", "ASSOCIATION": "USA - NJ / NY", "POINTS": "1", "BONUSPOINTS": "0"}}, {"type": "Feature", "geometry": {"type": "Point", "coordinates": [-73.535, 41.8264]}, "properties": {"NAME": "W2/EH-018", "TITLE": "Rattlesnake Benchmark", "REGION": "East of the Hudson", "ASSOCIATION": "USA - NJ / NY", "POINTS": "1", "BONUSPOINTS": "0"}}, {"type": "Feature", "geometry": {"type": "Point", "coordinates": [-73.9564, 41.4383]}, "properties": {"NAME": "W2/EH-019", "TITLE": "Bull Hill", "REGION": "East of the Hudson", "ASSOCIATION": "USA - NJ / NY", "POINTS": "1", "BONUSPOINTS": "0"}}, {"type": "Feature", "geometry": {"type": "Point", "coordinates": [-73.5348, 41.5203]}, "properties": {"NAME": "W2/EH-020", "TITLE": "1336", "REGION": "East of the Hudson", "ASSOCIATION": "USA - NJ / NY", "POINTS": "1", "BONUSPOINTS": "0"}}, {"type": "Feature", "geometry": {"type": "Point", "coordinates": [-73.8502, 41.4699]}, "properties": {"NAME": "W2/EH-021", "TITLE": "1324", "REGION": "East of the Hudson", "ASSOCIATION": "USA - NJ / NY", "POINTS": "1", "BONUSPOINTS": "0"}}, {"type": "Feature", "geometry": {"type": "Point", "coordinates": [-73.5908, 41.4722]}, "properties": {"NAME": "W2/EH-022", "TITLE": "1045", "REGION": "East of the Hudson", "ASSOCIATION": "USA - NJ / NY", "POINTS": "1", "BONUSPOINTS": "0"}}]}