{"type": "FeatureCollection", "name": "W2/GC SUMMITS", "features": [{"type": "Feature", "geometry": {"type": "Point", "coordinates": [-74.3862, 41.9991]}, "properties": {"NAME": "W2/GC-001", "TITLE": "Slide Mountain", "REGION": "Greater Catskills", "ASSOCIATION": "USA - NJ / NY", "POINTS": "10", "BONUSPOINTS": "3"}}, {"type": "Feature", "geometry": {"type": "Point", "coordinates": [-74.2307, 42.1776]}, "properties": {"NAME": "W2/GC-002", "TITLE": "Hunter Mountain", "REGION": "Greater Catskills", "ASSOCIATION": "USA - NJ / NY", "POINTS": "10", "BONUSPOINTS": "3"}}, {"type": "Feature", "geometry": {"type": "Point", "coordinates": [-74.1235, 42.2701]}, "properties": {"NAME": "W2/GC-003", "TITLE": "Black Dome", "REGION": "Greater Catskills", "ASSOCIATION": "USA - NJ / NY", "POINTS": "10", "BONUSPOINTS": "3"}}, {"type": "Feature", "geometry": {"type": "Point", "coordinates": [-74.29, 42.1678]}, "properties": {"NAME": "W2/GC-004", "TITLE": "West Kill Mountain", "REGION": "Greater Catskills", "ASSOCIATION": "USA - NJ / NY", "POINTS": "8", "BONUSPOINTS": "3"}}, {"type": "Feature", "geometry": {"type": "Point", "coordinates": [-74.5284, 42.0273]}, "properties": {"NAME": "W2/GC-005", "TITLE": "Doubletop Mountain", "REGION": "Greater Catskills", "ASSOCIATION": "USA - NJ / NY", "POINTS": "8", "BONUSPOINTS": "3"}}, {"type": "Feature", "geometry": {"type": "Point", "coordinates": [-74.1747, 42.1378]}, "properties": {"NAME": "W2/GC-006", "TITLE": "Plateau Mountain", "REGION": "Greater Catskills", "ASSOCIATION": "USA - NJ / NY", "POINTS": "8", "BONUSPOINTS": "3"}}, {"type": "Feature", "geometry": {"type": "Point", "coordinates": [-74.1507, 42.1314]}, "properties": {"NAME": "W2/GC-007", "TITLE": "Sugarloaf Mountain", "REGION": "Greater Catskills", "ASSOCIATION": "USA - NJ / NY", "POINTS": "8", "BONUSPOINTS": "3"}}, {"type": "Feature", "geometry": {"type": "Point", "coordinates": [-74.0806, 42.162]}, "properties": {"NAME": "W2/GC-008", "TITLE": "High Peak", "REGION": "Greater Catskills", "ASSOCIATION": "USA - NJ / NY", "POINTS": "8", "BONUSPOINTS": "3"}}, {"type": "Feature", "geometry": {"type": "Point", "coordinates": [-74.3494, 42.1736]}, "properties": {"NAME": "W2/GC-009", "TITLE": "North Dome", "REGION": "Greater Catskills", "ASSOCIATION": "USA - NJ / NY", "POINTS": "8", "BONUSPOINTS": "3"}}, {"type": "Feature", "geometry": {"type": "Point", "coordinates": [-74.4742, 42.2652]}, "properties": {"NAME": "W2/GC-010", "TITLE": "Bearpen Mountain", "REGION": "Greater Catskills", "ASSOCIATION": "USA - NJ / NY", "POINTS": "8", "BONUSPOINTS": "3"}}, {"type": "Feature", "geometry": {"type": "Point", "coordinates": [-74.3466, 42.3556]}, "properties": {"NAME": "W2/GC-011", "TITLE": "Huntersfield Mountain", "REGION": "Greater Catskills", "ASSOCIATION": "USA - NJ / NY", "POINTS": "6", "BONUSPOINTS": "3"}}, {"type": "Feature", "geometry": {"type": "Point", "coordinates": [-74.7362, 42.221]}, "properties": {"NAME": "W2/GC-012", "TITLE": "Pisgah; Mount", "REGION": "Greater Catskills", "ASSOCIATION": "USA - NJ / NY", "POINTS": "6", "BONUSPOINTS": "3"}}, {"type": "Feature", "geometry": {"type": "Point", "coordinates": [-74.6639, 42.2855]}, "properties": {"NAME": "W2/GC-013", "TITLE": "3350", "REGION": "Greater Catskills", "ASSOCIATION": "USA - NJ / NY", "POINTS": "6", "BONUSPOINTS": "3"}}, {"type": "Feature", "geometry": {"type": "Point", "coordinates": [-74.2471, 42.286]}, "properties": {"NAME": "W2/GC-014", "TITLE": "Cave Mountain", "REGION": "Greater Catskills", "ASSOCIATION": "USA - NJ / NY", "POINTS": "4", "BONUSPOINTS": "3"}}, {"type": "Feature", "geometry": {"type": "Point", "coordinates": [-74.2878, 41.9246]}, "properties": {"NAME": "W2/GC-015", "TITLE": "High Point B", "REGION": "Greater Catskills", "ASSOCIATION": "USA - NJ / NY", "POINTS": "4", "BONUSPOINTS": "3"}}, {"type": "Feature", "geometry": {"type": "Point", "coordinates": [-74.3333, 42.2852]}, "properties": {"NAME": "W2/GC-016", "TITLE": "Tower Mountain", "REGION": "Greater Catskills", "ASSOCIATION": "USA - NJ / NY", "POINTS": "4", "BONUSPOINTS": "3"}}, {"type": "Feature", "geometry": {"type": "Point", "coordinates": [-74.2487, 42.096]}, "properties": {"NAME": "W2/GC-017", "TITLE": "Carl Mountain", "REGION": "Greater Catskills", "ASSOCIATION": "USA - NJ / NY", "POINTS": "2", "BONUSPOINTS": "3"}}, {"type": "Feature", "geometry": {"type": "Point", "coordinates": [-74.2161, 42.0583]}, "properties": {"NAME": "W2/GC-018", "TITLE": "Tobias; Mount", "REGION": "Greater Catskills", "ASSOCIATION": "USA - NJ / NY", "POINTS": "1", "BONUSPOINTS": "0"}}, {"type": "Feature", "geometry": {"type": "Point", "coordinates": [-74.2179, 42.0031]}, "properties": {"NAME": "W2/GC-019", "TITLE": "Ticetonyk Mountain", "REGION": "Greater Catskills", "ASSOCIATION": "USA - NJ / NY", "POINTS": "1", "BONUSPOINTS": "0"}}, {"type": "Feature", "geometry": {"type": "Point", "coordinates": [-74.3534, 41.6874]}, "properties": {"NAME": "W2/GC-020", "TITLE": "Shawangunk Mountains HP", "REGION": "Greater Catskills", "ASSOCIATION": "USA - NJ / NY", "POINTS": "1", "BONUSPOINTS": "0"}}, {"type": "Feature", "geometry": {"type": "Point", "coordinates": [-74.1166, 41.3919]}, "properties": {"NAME": "W2/GC-021", "TITLE": "Schunnemunk Mountain", "REGION": "Greater Catskills", "ASSOCIATION": "USA - NJ / NY", "POINTS": "1", "BONUSPOINTS": "0"}}, {"type": "Feature", "geometry": {"type": "Point", "coordinates": [-74.6045, 42.1129]}, "properties": {"NAME": "W2/GC-022", "TITLE": "Dry Brook Ridge", "REGION": "Greater Catskills", "ASSOCIATION": "USA - NJ / NY", "POINTS": "6", "BONUSPOINTS": "3"}}, {"type": "Feature", "geometry": {"type": "Point", "coordinates": [-74.516, 42.3187]}, "properties": {"NAME": "W2/GC-023", "TITLE": "Schultice Mountain", "REGION": "Greater Catskills", "ASSOCIATION": "USA - NJ / NY", "POINTS": "6", "BONUSPOINTS": "3"}}, {"type": "Feature", "geometry": {"type": "Point", "coordinates": [-74.5651, 42.3745]}, "properties": {"NAME": "W2/GC-024", "TITLE": "Moresville Range HP", "REGION": "Greater Catskills", "ASSOCIATION": "USA - NJ / NY", "POINTS": "4", "BONUSPOINTS": "3"}}, {"type": "Feature", "geometry": {"type": "Point", "coordinates": [-74.6169, 42.3342]}, "properties": {"NAME": "W2/GC-025", "TITLE": "3230", "REGION": "Greater Catskills", "ASSOCIATION": "USA - NJ / NY", "POINTS": "4", "BONUSPOINTS": "3"}}, {"type": "Feature", "geometry": {"type": "Point", "coordinates": [-74.5901, 42.399]}, "properties": {"NAME": "W2/GC-026", "TITLE": "Utsayantha Mountain", "REGION": "Greater Catskills", "ASSOCIATION": "USA - NJ / NY", "POINTS": "4", "BONUSPOINTS": "3"}}, {"type": "Feature", "geometry": {"type": "Point", "coordinates": [-74.6556, 42.3402]}, "properties": {"NAME": "W2/GC-027", "TITLE": "Cowan Mountain", "REGION": "Greater Catskills", "ASSOCIATION": "USA - NJ / NY", "POINTS": "4", "BONUSPOINTS": "3"}}, {"type": "Feature", "geometry": {"type": "Point", "coordinates": [-74.5385, 42.2289]}, "properties": {"NAME": "W2/GC-028", "TITLE": "Red Kill Ridge", "REGION": "Greater Catskills", "ASSOCIATION": "USA - NJ / NY", "POINTS": "4", "BONUSPOINTS": "3"}}, {"type": "Feature", "geometry": {"type": "Point", "coordinates": [-74.6105, 42.3887]}, "properties": {"NAME": "W2/GC-029", "TITLE": "Churchill Mountain", "REGION": "Greater Catskills", "ASSOCIATION": "USA - NJ / NY", "POINTS": "4", "BONUSPOINTS": "3"}}, {"type": "Feature", "geometry": {"type": "Point", "coordinates": [-74.6489, 42.2158]}, "properties": {"NAME": "W2/GC-030", "TITLE": "3010 B", "REGION": "Greater Catskills", "ASSOCIATION": "USA - NJ / NY", "POINTS": "4", "BONUSPOINTS": "3"}}, {"type": "Feature", "geometry": {"type": "Point", "coordinates": [-74.7955, 42.0402]}, "properties": {"NAME": "W2/GC-031", "TITLE": "Middle Mountain", "REGION": "Greater Catskills", "ASSOCIATION": "USA - NJ / NY", "POINTS": "4", "BONUSPOINTS": "3"}}, {"type": "Feature", "geometry": {"type": "Point", "coordinates": [-74.7617, 42.0533]}, "properties": {"NAME": "W2/GC-032", "TITLE": "Cabot Benchmark", "REGION": "Greater Catskills", "ASSOCIATION": "USA - NJ / NY", "POINTS": "4", "BONUSPOINTS": "3"}}, {"type": "Feature", "geometry": {"type": "Point", "coordinates": [-74.8199, 42.0329]}, "properties": {"NAME": "W2/GC-033", "TITLE": "2942", "REGION": "Greater Catskills", "ASSOCIATION": "USA - NJ / NY", "POINTS": "2", "BONUSPOINTS": "3"}}, {"type": "Feature", "geometry": {"type": "Point", "coordinates": [-74.5642, 42.1433]}, "properties": {"NAME": "W2/GC-034", "TITLE": "Fleischmann Mountain", "REGION": "Greater Catskills", "ASSOCIATION": "USA - NJ / NY", "POINTS": "2", "BONUSPOINTS": "3"}}, {"type": "Feature", "geometry": {"type": "Point", "coordinates": [-74.5725, 42.2535]}, "properties": {"NAME": "W2/GC-036", "TITLE": "Cator Roundtop", "REGION": "Greater Catskills", "ASSOCIATION": "USA - NJ / NY", "POINTS": "2", "BONUSPOINTS": "3"}}, {"type": "Feature", "geometry": {"type": "Point", "coordinates": [-74.7522, 42.1786]}, "properties": {"NAME": "W2/GC-037", "TITLE": "Grays Mountain", "REGION": "Greater Catskills", "ASSOCIATION": "USA - NJ / NY", "POINTS": "2", "BONUSPOINTS": "3"}}, {"type": "Feature", "geometry": {"type": "Point", "coordinates": [-74.8184, 42.2973]}, "properties": {"NAME": "W2/GC-038", "TITLE": "Bramley Mountain", "REGION": "Greater Catskills", "ASSOCIATION": "USA - NJ / NY", "POINTS": "2", "BONUSPOINTS": "3"}}, {"type": "Feature", "geometry": {"type": "Point", "coordinates": [-74.8968, 42.0438]}, "properties": {"NAME": "W2/GC-039", "TITLE": "Brock Mountain", "REGION": "Greater Catskills", "ASSOCIATION": "USA - NJ / NY", "POINTS": "2", "BONUSPOINTS": "3"}}, {"type": "Feature", "geometry": {"type": "Point", "coordinates": [-74.8516, 42.1689]}, "properties": {"NAME": "W2/GC-040", "TITLE": "2675", "REGION": "Greater Catskills", "ASSOCIATION": "USA - NJ / NY", "POINTS": "2", "BONUSPOINTS": "3"}}, {"type": "Feature", "geometry": {"type": "Point", "coordinates": [-74.8657, 42.0175]}, "properties": {"NAME": "W2/GC-041", "TITLE": "2672", "REGION": "Greater Catskills", "ASSOCIATION": "USA - NJ / NY", "POINTS": "2", "BONUSPOINTS": "3"}}, {"type": "Feature", "geometry": {"type": "Point", "coordinates": [-74.5719, 42.1822]}, "properties": {"NAME": "W2/GC-042", "TITLE": "Hog Mountain", "REGION": "Greater Catskills", "ASSOCIATION": "USA - NJ / NY", "POINTS": "1", "BONUSPOINTS": "0"}}, {"type": "Feature", "geometry": {"type": "Point", "coordinates": [-75.0999, 42.1068]}, "properties": {"NAME": "W2/GC-043", "TITLE": "Crawford Benchmark", "REGION": "Greater Catskills", "ASSOCIATION": "USA - NJ / NY", "POINTS": "1", "BONUSPOINTS": "0"}}, {"type": "Feature", "geometry": {"type": "Point", "coordinates": [-74.7768, 42.4023]}, "properties": {"NAME": "W2/GC-044", "TITLE": "2570", "REGION": "Greater Catskills", "ASSOCIATION": "USA - NJ / NY", "POINTS": "1", "BONUSPOINTS": "0"}}, {"type": "Feature", "geometry": {"type": "Point", "coordinates": [-74.6723, 42.4233]}, "properties": {"NAME": "W2/GC-045", "TITLE": "Peters Hill", "REGION": "Greater Catskills", "ASSOCIATION": "USA - NJ / NY", "POINTS": "1", "BONUSPOINTS": "0"}}, {"type": "Feature", "geometry": {"type": "Point", "coordinates": [-74.905, 42.4036]}, "properties": {"NAME": "W2/GC-046", "TITLE": "2515", "REGION": "Greater Catskills", "ASSOCIATION": "USA - NJ / NY", "POINTS": "1", "BONUSPOINTS": "0"}}, {"type": "Feature", "geometry": {"type": "Point", "coordinates": [-74.8552, 42.2996]}, "properties": {"NAME": "W2/GC-047", "TITLE": "Boomhower Hill", "REGION": "Greater Catskills", "ASSOCIATION": "USA - NJ / NY", "POINTS": "1", "BONUSPOINTS": "0"}}, {"type": "Feature", "geometry": {"type": "Point", "coordinates": [-74.9209, 42.2395]}, "properties": {"NAME": "W2/GC-048", "TITLE": "Scotch Mountain", "REGION": "Greater Catskills", "ASSOCIATION": "USA - NJ / NY", "POINTS": "1", "BONUSPOINTS": "0"}}, {"type": "Feature", "geometry": {"type": "Point", "coordinates": [-75.1223, 42.1457]}, "properties": {"NAME": "W2/GC-049", "TITLE": "Bear Spring Mountain", "REGION": "Greater Catskills", "ASSOCIATION": "USA - NJ / NY", "POINTS": "1", "BONUSPOINTS": "0"}}, {"type": "Feature", "geometry": {"type": "Point", "coordinates": [-75.2672, 42.0833]}, "properties": {"NAME": "W2/GC-050", "TITLE": "2350", "REGION": "Greater Catskills", "ASSOCIATION": "USA - NJ / NY", "POINTS": "1", "BONUSPOINTS": "0"}}, {"type": "Feature", "geometry": {"type": "Point", "coordinates": [-74.8123, 42.1011]}, "properties": {"NAME": "W2/GC-051", "TITLE": "Perch Lake Mountain", "REGION": "Greater Catskills", "ASSOCIATION": "USA - NJ / NY", "POINTS": "1", "BONUSPOINTS": "0"}}, {"type": "Feature", "geometry": {"type": "Point", "coordinates": [-75.0898, 42.0037]}, "properties": {"NAME": "W2/GC-052", "TITLE": "2310", "REGION": "Greater Catskills", "ASSOCIATION": "USA - NJ / NY", "POINTS": "1", "BONUSPOINTS": "0"}}, {"type": "Feature", "geometry": {"type": "Point", "coordinates": [-75.3061, 42.1004]}, "properties": {"NAME": "W2/GC-053", "TITLE": "Speedwell Mountain", "REGION": "Greater Catskills", "ASSOCIATION": "USA - NJ / NY", "POINTS": "1", "BONUSPOINTS": "0"}}, {"type": "Feature", "geometry": {"type": "Point", "coordinates": [-74.0128, 41.2859]}, "properties": {"NAME": "W2/GC-054", "TITLE": "West Mountain", "REGION": "Greater Catskills", "ASSOCIATION": "USA - NJ / NY", "POINTS": "1", "BONUSPOINTS": "0"}}, {"type": "Feature", "geometry": {"type": "Point", "coordinates": [-73.9184, 41.1208]}, "properties": {"NAME": "W2/GC-055", "TITLE": "Hook Mountain", "REGION": "Greater Catskills", "ASSOCIATION": "USA - NJ / NY", "POINTS": "1", "BONUSPOINTS": "0"}}, {"type": "Feature", "geometry": {"type": "Point", "coordinates": [-74.1053, 42.2676]}, "properties": {"NAME": "W2/GC-056", "TITLE": "Blackhead", "REGION": "Greater Catskills", "ASSOCIATION": "USA - NJ / NY", "POINTS": "10", "BONUSPOINTS": "3"}}, {"type": "Feature", "geometry": {"type": "Point", "coordinates": [-74.2774, 42.2008]}, "properties": {"NAME": "W2/GC-057", "TITLE": "Rusk Mountain", "REGION": "Greater Catskills", "ASSOCIATION": "USA - NJ / NY", "POINTS": "8", "BONUSPOINTS": "3"}}, {"type": "Feature", "geometry": {"type": "Point", "coordinates": [-74.1298, 42.1255]}, "properties": {"NAME": "W2/GC-058", "TITLE": "Twin Mountain North", "REGION": "Greater Catskills", "ASSOCIATION": "USA - NJ / NY", "POINTS": "8", "BONUSPOINTS": "3"}}, {"type": "Feature", "geometry": {"type": "Point", "coordinates": [-74.1149, 42.1163]}, "properties": {"NAME": "W2/GC-059", "TITLE": "Indian Head Mountain", "REGION": "Greater Catskills", "ASSOCIATION": "USA - NJ / NY", "POINTS": "6", "BONUSPOINTS": "3"}}, {"type": "Feature", "geometry": {"type": "Point", "coordinates": [-74.3733, 42.1756]}, "properties": {"NAME": "W2/GC-060", "TITLE": "Sherrill; Mount", "REGION": "Greater Catskills", "ASSOCIATION": "USA - NJ / NY", "POINTS": "6", "BONUSPOINTS": "3"}}, {"type": "Feature", "geometry": {"type": "Point", "coordinates": [-74.4383, 42.18]}, "properties": {"NAME": "W2/GC-061", "TITLE": "Halcott Mountain", "REGION": "Greater Catskills", "ASSOCIATION": "USA - NJ / NY", "POINTS": "6", "BONUSPOINTS": "3"}}, {"type": "Feature", "geometry": {"type": "Point", "coordinates": [-74.4488, 42.2457]}, "properties": {"NAME": "W2/GC-062", "TITLE": "Vly Mountain", "REGION": "Greater Catskills", "ASSOCIATION": "USA - NJ / NY", "POINTS": "6", "BONUSPOINTS": "3"}}, {"type": "Feature", "geometry": {"type": "Point", "coordinates": [-74.1434, 42.3147]}, "properties": {"NAME": "W2/GC-063", "TITLE": "Windham High Peak", "REGION": "Greater Catskills", "ASSOCIATION": "USA - NJ / NY", "POINTS": "6", "BONUSPOINTS": "3"}}, {"type": "Feature", "geometry": {"type": "Point", "coordinates": [-74.0656, 42.2251]}, "properties": {"NAME": "W2/GC-064", "TITLE": "Stoppel Point", "REGION": "Greater Catskills", "ASSOCIATION": "USA - NJ / NY", "POINTS": "6", "BONUSPOINTS": "3"}}, {"type": "Feature", "geometry": {"type": "Point", "coordinates": [-74.1683, 42.2222]}, "properties": {"NAME": "W2/GC-065", "TITLE": "Onteora Mountain", "REGION": "Greater Catskills", "ASSOCIATION": "USA - NJ / NY", "POINTS": "4", "BONUSPOINTS": "3"}}, {"type": "Feature", "geometry": {"type": "Point", "coordinates": [-74.2708, 42.3673]}, "properties": {"NAME": "W2/GC-066", "TITLE": "Richmond Mountain", "REGION": "Greater Catskills", "ASSOCIATION": "USA - NJ / NY", "POINTS": "4", "BONUSPOINTS": "3"}}, {"type": "Feature", "geometry": {"type": "Point", "coordinates": [-74.3331, 42.2202]}, "properties": {"NAME": "W2/GC-067", "TITLE": "3150", "REGION": "Greater Catskills", "ASSOCIATION": "USA - NJ / NY", "POINTS": "4", "BONUSPOINTS": "3"}}, {"type": "Feature", "geometry": {"type": "Point", "coordinates": [-74.1985, 42.2326]}, "properties": {"NAME": "W2/GC-068", "TITLE": "East Jewett Range HP", "REGION": "Greater Catskills", "ASSOCIATION": "USA - NJ / NY", "POINTS": "4", "BONUSPOINTS": "3"}}, {"type": "Feature", "geometry": {"type": "Point", "coordinates": [-74.3593, 42.2177]}, "properties": {"NAME": "W2/GC-069", "TITLE": "3110 B", "REGION": "Greater Catskills", "ASSOCIATION": "USA - NJ / NY", "POINTS": "4", "BONUSPOINTS": "3"}}, {"type": "Feature", "geometry": {"type": "Point", "coordinates": [-74.0866, 42.1075]}, "properties": {"NAME": "W2/GC-070", "TITLE": "Plattekill Mountain", "REGION": "Greater Catskills", "ASSOCIATION": "USA - NJ / NY", "POINTS": "4", "BONUSPOINTS": "3"}}, {"type": "Feature", "geometry": {"type": "Point", "coordinates": [-74.2275, 42.1228]}, "properties": {"NAME": "W2/GC-071", "TITLE": "3010", "REGION": "Greater Catskills", "ASSOCIATION": "USA - NJ / NY", "POINTS": "4", "BONUSPOINTS": "3"}}, {"type": "Feature", "geometry": {"type": "Point", "coordinates": [-74.219, 42.3587]}, "properties": {"NAME": "W2/GC-072", "TITLE": "Hayden; Mount", "REGION": "Greater Catskills", "ASSOCIATION": "USA - NJ / NY", "POINTS": "2", "BONUSPOINTS": "3"}}, {"type": "Feature", "geometry": {"type": "Point", "coordinates": [-74.2142, 42.2708]}, "properties": {"NAME": "W2/GC-073", "TITLE": "Round Hill", "REGION": "Greater Catskills", "ASSOCIATION": "USA - NJ / NY", "POINTS": "1", "BONUSPOINTS": "0"}}, {"type": "Feature", "geometry": {"type": "Point", "coordinates": [-73.998, 42.2589]}, "properties": {"NAME": "W2/GC-074", "TITLE": "Cairo Round Top", "REGION": "Greater Catskills", "ASSOCIATION": "USA - NJ / NY", "POINTS": "1", "BONUSPOINTS": "0"}}, {"type": "Feature", "geometry": {"type": "Point", "coordinates": [-74.0217, 41.3908]}, "properties": {"NAME": "W2/GC-075", "TITLE": "Spy Rock", "REGION": "Greater Catskills", "ASSOCIATION": "USA - NJ / NY", "POINTS": "1", "BONUSPOINTS": "0"}}, {"type": "Feature", "geometry": {"type": "Point", "coordinates": [-74.2384, 41.2624]}, "properties": {"NAME": "W2/GC-076", "TITLE": "Sterling Benchmark", "REGION": "Greater Catskills", "ASSOCIATION": "USA - NJ / NY", "POINTS": "1", "BONUSPOINTS": "0"}}, {"type": "Feature", "geometry": {"type": "Point", "coordinates": [-74.0064, 41.3128]}, "properties": {"NAME": "W2/GC-077", "TITLE": "Bear Mountain", "REGION": "Greater Catskills", "ASSOCIATION": "USA - NJ / NY", "POINTS": "1", "BONUSPOINTS": "0"}}, {"type": "Feature", "geometry": {"type": "Point", "coordinates": [-74.2717, 41.3152]}, "properties": {"NAME": "W2/GC-078", "TITLE": "Sugarloaf Mountain", "REGION": "Greater Catskills", "ASSOCIATION": "USA - NJ / NY", "POINTS": "1", "BONUSPOINTS": "0"}}, {"type": "Feature", "geometry": {"type": "Point", "coordinates": [-74.4148, 41.3014]}, "properties": {"NAME": "W2/GC-079", "TITLE": "Mount Eve", "REGION": "Greater Catskills", "ASSOCIATION": "USA - NJ / NY", "POINTS": "1", "BONUSPOINTS": "0"}}, {"type": "Feature", "geometry": {"type": "Point", "coordinates": [-74.6451, 42.6564]}, "properties": {"NAME": "W2/GC-080", "TITLE": "Pine Mountain", "REGION": "Greater Catskills", "ASSOCIATION": "USA - NJ / NY", "POINTS": "1", "BONUSPOINTS": "0"}}, {"type": "Feature", "geometry": {"type": "Point", "coordinates": [-74.7042, 42.7817]}, "properties": {"NAME": "W2/GC-081", "TITLE": "2306", "REGION": "Greater Catskills", "ASSOCIATION": "USA - NJ / NY", "POINTS": "1", "BONUSPOINTS": "0"}}, {"type": "Feature", "geometry": {"type": "Point", "coordinates": [-74.9124, 42.6583]}, "properties": {"NAME": "W2/GC-082", "TITLE": "Cornish Hill", "REGION": "Greater Catskills", "ASSOCIATION": "USA - NJ / NY", "POINTS": "1", "BONUSPOINTS": "0"}}, {"type": "Feature", "geometry": {"type": "Point", "coordinates": [-74.6837, 42.7225]}, "properties": {"NAME": "W2/GC-083", "TITLE": "Honey Hill", "REGION": "Greater Catskills", "ASSOCIATION": "USA - NJ / NY", "POINTS": "1", "BONUSPOINTS": "0"}}, {"type": "Feature", "geometry": {"type": "Point", "coordinates": [-75.1152, 42.7607]}, "properties": {"NAME": "W2/GC-084", "TITLE": "2130 B", "REGION": "Greater Catskills", "ASSOCIATION": "USA - NJ / NY", "POINTS": "1", "BONUSPOINTS": "0"}}, {"type": "Feature", "geometry": {"type": "Point", "coordinates": [-75.0293, 42.6548]}, "properties": {"NAME": "W2/GC-085", "TITLE": "2030", "REGION": "Greater Catskills", "ASSOCIATION": "USA - NJ / NY", "POINTS": "1", "BONUSPOINTS": "0"}}, {"type": "Feature", "geometry": {"type": "Point", "coordinates": [-74.2083, 42.7951]}, "properties": {"NAME": "W2/GC-086", "TITLE": "Schenetady County HP", "REGION": "Greater Catskills", "ASSOCIATION": "USA - NJ / NY", "POINTS": "1", "BONUSPOINTS": "0"}}, {"type": "Feature", "geometry": {"type": "Point", "coordinates": [-74.347, 42.3555]}, "properties": {"NAME": "W2/GC-087", "TITLE": "Huntersfield Mountain", "REGION": "Greater Catskills", "ASSOCIATION": "USA - NJ / NY", "POINTS": "6", "BONUSPOINTS": "3"}}, {"type": "Feature", "geometry": {"type": "Point", "coordinates": [-74.2712, 42.3672]}, "properties": {"NAME": "W2/GC-088", "TITLE": "Richmond Mountain", "REGION": "Greater Catskills", "ASSOCIATION": "USA - NJ / NY", "POINTS": "4", "BONUSPOINTS": "3"}}, {"type": "Feature", "geometry": {"type": "Point", "coordinates": [-74.5981, 42.4447]}, "properties": {"NAME": "W2/GC-089", "TITLE": "Mine Hill", "REGION": "Greater Catskills", "ASSOCIATION": "USA - NJ / NY", "POINTS": "2", "BONUSPOINTS": "3"}}, {"type": "Feature", "geometry": {"type": "Point", "coordinates": [-74.594, 42.4235]}, "properties": {"NAME": "W2/GC-090", "TITLE": "Bald Mountain", "REGION": "Greater Catskills", "ASSOCIATION": "USA - NJ / NY", "POINTS": "2", "BONUSPOINTS": "3"}}, {"type": "Feature", "geometry": {"type": "Point", "coordinates": [-74.3131, 42.4284]}, "properties": {"NAME": "W2/GC-091", "TITLE": "High Knob", "REGION": "Greater Catskills", "ASSOCIATION": "USA - NJ / NY", "POINTS": "2", "BONUSPOINTS": "3"}}, {"type": "Feature", "geometry": {"type": "Point", "coordinates": [-74.6139, 42.6056]}, "properties": {"NAME": "W2/GC-092", "TITLE": "2470", "REGION": "Greater Catskills", "ASSOCIATION": "USA - NJ / NY", "POINTS": "1", "BONUSPOINTS": "0"}}, {"type": "Feature", "geometry": {"type": "Point", "coordinates": [-74.4493, 42.6329]}, "properties": {"NAME": "W2/GC-093", "TITLE": "Petersburg Mountain", "REGION": "Greater Catskills", "ASSOCIATION": "USA - NJ / NY", "POINTS": "1", "BONUSPOINTS": "0"}}, {"type": "Feature", "geometry": {"type": "Point", "coordinates": [-74.2743, 42.5433]}, "properties": {"NAME": "W2/GC-094", "TITLE": "East Hill", "REGION": "Greater Catskills", "ASSOCIATION": "USA - NJ / NY", "POINTS": "1", "BONUSPOINTS": "0"}}, {"type": "Feature", "geometry": {"type": "Point", "coordinates": [-74.5569, 42.7423]}, "properties": {"NAME": "W2/GC-095", "TITLE": "1890", "REGION": "Greater Catskills", "ASSOCIATION": "USA - NJ / NY", "POINTS": "1", "BONUSPOINTS": "0"}}, {"type": "Feature", "geometry": {"type": "Point", "coordinates": [-74.3693, 42.6677]}, "properties": {"NAME": "W2/GC-096", "TITLE": "1770", "REGION": "Greater Catskills", "ASSOCIATION": "USA - NJ / NY", "POINTS": "1", "BONUSPOINTS": "0"}}, {"type": "Feature", "geometry": {"type": "Point", "coordinates": [-74.5397, 41.9028]}, "properties": {"NAME": "W2/GC-097", "TITLE": "Denman Mountain", "REGION": "Greater Catskills", "ASSOCIATION": "USA - NJ / NY", "POINTS": "4", "BONUSPOINTS": "3"}}, {"type": "Feature", "geometry": {"type": "Point", "coordinates": [-74.6031, 41.9281]}, "properties": {"NAME": "W2/GC-098", "TITLE": "2754", "REGION": "Greater Catskills", "ASSOCIATION": "USA - NJ / NY", "POINTS": "2", "BONUSPOINTS": "3"}}, {"type": "Feature", "geometry": {"type": "Point", "coordinates": [-74.9564, 41.888]}, "properties": {"NAME": "W2/GC-099", "TITLE": "2410", "REGION": "Greater Catskills", "ASSOCIATION": "USA - NJ / NY", "POINTS": "1", "BONUSPOINTS": "0"}}, {"type": "Feature", "geometry": {"type": "Point", "coordinates": [-74.5768, 41.8349]}, "properties": {"NAME": "W2/GC-100", "TITLE": "Thunder Hill", "REGION": "Greater Catskills", "ASSOCIATION": "USA - NJ / NY", "POINTS": "1", "BONUSPOINTS": "0"}}, {"type": "Feature", "geometry": {"type": "Point", "coordinates": [-74.5148, 41.8263]}, "properties": {"NAME": "W2/GC-101", "TITLE": "South Hill", "REGION": "Greater Catskills", "ASSOCIATION": "USA - NJ / NY", "POINTS": "1", "BONUSPOINTS": "0"}}, {"type": "Feature", "geometry": {"type": "Point", "coordinates": [-74.3574, 42.0016]}, "properties": {"NAME": "W2/GC-102", "TITLE": "Cornell Mountain", "REGION": "Greater Catskills", "ASSOCIATION": "USA - NJ / NY", "POINTS": "8", "BONUSPOINTS": "3"}}, {"type": "Feature", "geometry": {"type": "Point", "coordinates": [-74.5496, 42.0394]}, "properties": {"NAME": "W2/GC-103", "TITLE": "Graham Mountain", "REGION": "Greater Catskills", "ASSOCIATION": "USA - NJ / NY", "POINTS": "8", "BONUSPOINTS": "3"}}, {"type": "Feature", "geometry": {"type": "Point", "coordinates": [-74.4053, 41.9586]}, "properties": {"NAME": "W2/GC-104", "TITLE": "Table Mountain", "REGION": "Greater Catskills", "ASSOCIATION": "USA - NJ / NY", "POINTS": "8", "BONUSPOINTS": "3"}}, {"type": "Feature", "geometry": {"type": "Point", "coordinates": [-74.3947, 42.0563]}, "properties": {"NAME": "W2/GC-105", "TITLE": "Panther Mountain", "REGION": "Greater Catskills", "ASSOCIATION": "USA - NJ / NY", "POINTS": "8", "BONUSPOINTS": "3"}}, {"type": "Feature", "geometry": {"type": "Point", "coordinates": [-74.497, 42.035]}, "properties": {"NAME": "W2/GC-106", "TITLE": "Big Indian Mountain", "REGION": "Greater Catskills", "ASSOCIATION": "USA - NJ / NY", "POINTS": "8", "BONUSPOINTS": "3"}}, {"type": "Feature", "geometry": {"type": "Point", "coordinates": [-74.4885, 42.0908]}, "properties": {"NAME": "W2/GC-107", "TITLE": "Balsam Mountain", "REGION": "Greater Catskills", "ASSOCIATION": "USA - NJ / NY", "POINTS": "8", "BONUSPOINTS": "3"}}, {"type": "Feature", "geometry": {"type": "Point", "coordinates": [-74.5096, 42.0616]}, "properties": {"NAME": "W2/GC-108", "TITLE": "Eagle Mountain", "REGION": "Greater Catskills", "ASSOCIATION": "USA - NJ / NY", "POINTS": "8", "BONUSPOINTS": "3"}}, {"type": "Feature", "geometry": {"type": "Point", "coordinates": [-74.5195, 42.1286]}, "properties": {"NAME": "W2/GC-109", "TITLE": "Belle Ayr Mountain", "REGION": "Greater Catskills", "ASSOCIATION": "USA - NJ / NY", "POINTS": "6", "BONUSPOINTS": "3"}}, {"type": "Feature", "geometry": {"type": "Point", "coordinates": [-74.5918, 41.9937]}, "properties": {"NAME": "W2/GC-110", "TITLE": "Beaver Kill Range HP", "REGION": "Greater Catskills", "ASSOCIATION": "USA - NJ / NY", "POINTS": "6", "BONUSPOINTS": "3"}}, {"type": "Feature", "geometry": {"type": "Point", "coordinates": [-74.7002, 41.9935]}, "properties": {"NAME": "W2/GC-111", "TITLE": "Mongaup Mountain", "REGION": "Greater Catskills", "ASSOCIATION": "USA - NJ / NY", "POINTS": "4", "BONUSPOINTS": "3"}}, {"type": "Feature", "geometry": {"type": "Point", "coordinates": [-74.0934, 42.0849]}, "properties": {"NAME": "W2/GC-112", "TITLE": "Overlook Mountain", "REGION": "Greater Catskills", "ASSOCIATION": "USA - NJ / NY", "POINTS": "4", "BONUSPOINTS": "3"}}, {"type": "Feature", "geometry": {"type": "Point", "coordinates": [-74.4383, 42.1506]}, "properties": {"NAME": "W2/GC-113", "TITLE": "Rose Mountain", "REGION": "Greater Catskills", "ASSOCIATION": "USA - NJ / NY", "POINTS": "4", "BONUSPOINTS": "3"}}, {"type": "Feature", "geometry": {"type": "Point", "coordinates": [-74.3327, 41.9184]}, "properties": {"NAME": "W2/GC-114", "TITLE": "Little Rocky", "REGION": "Greater Catskills", "ASSOCIATION": "USA - NJ / NY", "POINTS": "4", "BONUSPOINTS": "3"}}, {"type": "Feature", "geometry": {"type": "Point", "coordinates": [-74.5177, 41.9239]}, "properties": {"NAME": "W2/GC-115", "TITLE": "Red Hill", "REGION": "Greater Catskills", "ASSOCIATION": "USA - NJ / NY", "POINTS": "4", "BONUSPOINTS": "3"}}, {"type": "Feature", "geometry": {"type": "Point", "coordinates": [-74.4028, 41.9103]}, "properties": {"NAME": "W2/GC-116", "TITLE": "Samson Mountain", "REGION": "Greater Catskills", "ASSOCIATION": "USA - NJ / NY", "POINTS": "2", "BONUSPOINTS": "3"}}, {"type": "Feature", "geometry": {"type": "Point", "coordinates": [-74.1563, 41.7638]}, "properties": {"NAME": "W2/GC-118", "TITLE": "1550", "REGION": "Greater Catskills", "ASSOCIATION": "USA - NJ / NY", "POINTS": "1", "BONUSPOINTS": "0"}}, {"type": "Feature", "geometry": {"type": "Point", "coordinates": [-74.0225, 41.643]}, "properties": {"NAME": "W2/GC-119", "TITLE": "Marlboro Mountain South", "REGION": "Greater Catskills", "ASSOCIATION": "USA - NJ / NY", "POINTS": "1", "BONUSPOINTS": "0"}}, {"type": "Feature", "geometry": {"type": "Point", "coordinates": [-73.9952, 41.7204]}, "properties": {"NAME": "W2/GC-120", "TITLE": "Illinois Mountain", "REGION": "Greater Catskills", "ASSOCIATION": "USA - NJ / NY", "POINTS": "1", "BONUSPOINTS": "0"}}, {"type": "Feature", "geometry": {"type": "Point", "coordinates": [-73.9945, 41.8853]}, "properties": {"NAME": "W2/GC-121", "TITLE": "Hussey Hill", "REGION": "Greater Catskills", "ASSOCIATION": "USA - NJ / NY", "POINTS": "1", "BONUSPOINTS": "0"}}, {"type": "Feature", "geometry": {"type": "Point", "coordinates": [-73.9911, 41.841]}, "properties": {"NAME": "W2/GC-122", "TITLE": "Shaupeneak Mountain", "REGION": "Greater Catskills", "ASSOCIATION": "USA - NJ / NY", "POINTS": "1", "BONUSPOINTS": "0"}}]}