{"type": "FeatureCollection", "name": "W2/WE SUMMITS", "features": [{"type": "Feature", "geometry": {"type": "Point", "coordinates": [-77.4427, 42.711]}, "properties": {"NAME": "W2/WE-001", "TITLE": "Frost Hill", "REGION": "Western New York", "ASSOCIATION": "USA - NJ / NY", "POINTS": "1", "BONUSPOINTS": "0"}}, {"type": "Feature", "geometry": {"type": "Point", "coordinates": [-77.5203, 42.6797]}, "properties": {"NAME": "W2/WE-002", "TITLE": "Canadice Hill", "REGION": "Western New York", "ASSOCIATION": "USA - NJ / NY", "POINTS": "1", "BONUSPOINTS": "0"}}, {"type": "Feature", "geometry": {"type": "Point", "coordinates": [-76.6694, 42.3864]}, "properties": {"NAME": "W2/WE-003", "TITLE": "Connecticut Hill", "REGION": "Western New York", "ASSOCIATION": "USA - NJ / NY", "POINTS": "1", "BONUSPOINTS": "0"}}, {"type": "Feature", "geometry": {"type": "Point", "coordinates": [-78.5666, 42.5761]}, "properties": {"NAME": "W2/WE-004", "TITLE": "Sardinia Benchmark", "REGION": "Western New York", "ASSOCIATION": "USA - NJ / NY", "POINTS": "1", "BONUSPOINTS": "0"}}, {"type": "Feature", "geometry": {"type": "Point", "coordinates": [-78.7073, 42.6544]}, "properties": {"NAME": "W2/WE-005", "TITLE": "East Hill", "REGION": "Western New York", "ASSOCIATION": "USA - NJ / NY", "POINTS": "1", "BONUSPOINTS": "0"}}, {"type": "Feature", "geometry": {"type": "Point", "coordinates": [-77.0027, 42.3869]}, "properties": {"NAME": "W2/WE-006", "TITLE": "Sugar Hill Lookout", "REGION": "Western New York", "ASSOCIATION": "USA - NJ / NY", "POINTS": "1", "BONUSPOINTS": "0"}}, {"type": "Feature", "geometry": {"type": "Point", "coordinates": [-76.7987, 42.5153]}, "properties": {"NAME": "W2/WE-007", "TITLE": "Hector Backbone", "REGION": "Western New York", "ASSOCIATION": "USA - NJ / NY", "POINTS": "1", "BONUSPOINTS": "0"}}, {"type": "Feature", "geometry": {"type": "Point", "coordinates": [-76.7903, 42.401]}, "properties": {"NAME": "W2/WE-008", "TITLE": "Foots Hill", "REGION": "Western New York", "ASSOCIATION": "USA - NJ / NY", "POINTS": "1", "BONUSPOINTS": "0"}}, {"type": "Feature", "geometry": {"type": "Point", "coordinates": [-76.7053, 42.2999]}, "properties": {"NAME": "W2/WE-009", "TITLE": "1745", "REGION": "Western New York", "ASSOCIATION": "USA - NJ / NY", "POINTS": "1", "BONUSPOINTS": "0"}}, {"type": "Feature", "geometry": {"type": "Point", "coordinates": [-79.166, 42.2935]}, "properties": {"NAME": "W2/WE-010", "TITLE": "2125", "REGION": "Western New York", "ASSOCIATION": "USA - NJ / NY", "POINTS": "1", "BONUSPOINTS": "0"}}, {"type": "Feature", "geometry": {"type": "Point", "coordinates": [-79.3384, 42.1719]}, "properties": {"NAME": "W2/WE-011", "TITLE": "1815", "REGION": "Western New York", "ASSOCIATION": "USA - NJ / NY", "POINTS": "1", "BONUSPOINTS": "0"}}, {"type": "Feature", "geometry": {"type": "Point", "coordinates": [-78.0125, 42.0494]}, "properties": {"NAME": "W2/WE-012", "TITLE": "Alma Hill", "REGION": "Western New York", "ASSOCIATION": "USA - NJ / NY", "POINTS": "1", "BONUSPOINTS": "0"}}, {"type": "Feature", "geometry": {"type": "Point", "coordinates": [-78.0681, 42.0447]}, "properties": {"NAME": "W2/WE-013", "TITLE": "White Hill", "REGION": "Western New York", "ASSOCIATION": "USA - NJ / NY", "POINTS": "1", "BONUSPOINTS": "0"}}, {"type": "Feature", "geometry": {"type": "Point", "coordinates": [-78.0856, 42.1059]}, "properties": {"NAME": "W2/WE-014", "TITLE": "Wirt Benchmark", "REGION": "Western New York", "ASSOCIATION": "USA - NJ / NY", "POINTS": "1", "BONUSPOINTS": "0"}}, {"type": "Feature", "geometry": {"type": "Point", "coordinates": [-77.8118, 42.2318]}, "properties": {"NAME": "W2/WE-015", "TITLE": "Jericho Hill", "REGION": "Western New York", "ASSOCIATION": "USA - NJ / NY", "POINTS": "1", "BONUSPOINTS": "0"}}, {"type": "Feature", "geometry": {"type": "Point", "coordinates": [-78.2169, 42.2433]}, "properties": {"NAME": "W2/WE-016", "TITLE": "Jackson Hill", "REGION": "Western New York", "ASSOCIATION": "USA - NJ / NY", "POINTS": "1", "BONUSPOINTS": "0"}}, {"type": "Feature", "geometry": {"type": "Point", "coordinates": [-77.8642, 42.5036]}, "properties": {"NAME": "W2/WE-017", "TITLE": "East Hill", "REGION": "Western New York", "ASSOCIATION": "USA - NJ / NY", "POINTS": "1", "BONUSPOINTS": "0"}}, {"type": "Feature", "geometry": {"type": "Point", "coordinates": [-78.2516, 42.3559]}, "properties": {"NAME": "W2/WE-018", "TITLE": "2145", "REGION": "Western New York", "ASSOCIATION": "USA - NJ / NY", "POINTS": "1", "BONUSPOINTS": "0"}}, {"type": "Feature", "geometry": {"type": "Point", "coordinates": [-78.3013, 42.2325]}, "properties": {"NAME": "W2/WE-019", "TITLE": "Reservation Hill", "REGION": "Western New York", "ASSOCIATION": "USA - NJ / NY", "POINTS": "1", "BONUSPOINTS": "0"}}, {"type": "Feature", "geometry": {"type": "Point", "coordinates": [-75.498, 42.1042]}, "properties": {"NAME": "W2/WE-020", "TITLE": "2024", "REGION": "Western New York", "ASSOCIATION": "USA - NJ / NY", "POINTS": "1", "BONUSPOINTS": "0"}}, {"type": "Feature", "geometry": {"type": "Point", "coordinates": [-75.6262, 42.1116]}, "properties": {"NAME": "W2/WE-021", "TITLE": "1648", "REGION": "Western New York", "ASSOCIATION": "USA - NJ / NY", "POINTS": "1", "BONUSPOINTS": "0"}}, {"type": "Feature", "geometry": {"type": "Point", "coordinates": [-78.8276, 42.2129]}, "properties": {"NAME": "W2/WE-022", "TITLE": "Shutts Hill", "REGION": "Western New York", "ASSOCIATION": "USA - NJ / NY", "POINTS": "1", "BONUSPOINTS": "0"}}, {"type": "Feature", "geometry": {"type": "Point", "coordinates": [-78.5491, 42.1712]}, "properties": {"NAME": "W2/WE-023", "TITLE": "2407", "REGION": "Western New York", "ASSOCIATION": "USA - NJ / NY", "POINTS": "1", "BONUSPOINTS": "0"}}, {"type": "Feature", "geometry": {"type": "Point", "coordinates": [-78.7181, 42.2173]}, "properties": {"NAME": "W2/WE-024", "TITLE": "2350", "REGION": "Western New York", "ASSOCIATION": "USA - NJ / NY", "POINTS": "1", "BONUSPOINTS": "0"}}, {"type": "Feature", "geometry": {"type": "Point", "coordinates": [-78.6982, 42.3087]}, "properties": {"NAME": "W2/WE-025", "TITLE": "Poverty Hill", "REGION": "Western New York", "ASSOCIATION": "USA - NJ / NY", "POINTS": "1", "BONUSPOINTS": "0"}}, {"type": "Feature", "geometry": {"type": "Point", "coordinates": [-78.6384, 42.3366]}, "properties": {"NAME": "W2/WE-026", "TITLE": "Irish Hill", "REGION": "Western New York", "ASSOCIATION": "USA - NJ / NY", "POINTS": "1", "BONUSPOINTS": "0"}}, {"type": "Feature", "geometry": {"type": "Point", "coordinates": [-78.3906, 42.3453]}, "properties": {"NAME": "W2/WE-027", "TITLE": "Shipman Benchmark", "REGION": "Western New York", "ASSOCIATION": "USA - NJ / NY", "POINTS": "1", "BONUSPOINTS": "0"}}, {"type": "Feature", "geometry": {"type": "Point", "coordinates": [-78.921, 42.0923]}, "properties": {"NAME": "W2/WE-028", "TITLE": "2210", "REGION": "Western New York", "ASSOCIATION": "USA - NJ / NY", "POINTS": "1", "BONUSPOINTS": "0"}}, {"type": "Feature", "geometry": {"type": "Point", "coordinates": [-79.0538, 42.0666]}, "properties": {"NAME": "W2/WE-029", "TITLE": "2170", "REGION": "Western New York", "ASSOCIATION": "USA - NJ / NY", "POINTS": "1", "BONUSPOINTS": "0"}}, {"type": "Feature", "geometry": {"type": "Point", "coordinates": [-78.9014, 42.3074]}, "properties": {"NAME": "W2/WE-030", "TITLE": "2047", "REGION": "Western New York", "ASSOCIATION": "USA - NJ / NY", "POINTS": "1", "BONUSPOINTS": "0"}}, {"type": "Feature", "geometry": {"type": "Point", "coordinates": [-76.2848, 42.7543]}, "properties": {"NAME": "W2/WE-031", "TITLE": "Cayuga County HP", "REGION": "Western New York", "ASSOCIATION": "USA - NJ / NY", "POINTS": "1", "BONUSPOINTS": "0"}}, {"type": "Feature", "geometry": {"type": "Point", "coordinates": [-76.466, 42.7042]}, "properties": {"NAME": "W2/WE-032", "TITLE": "Jewett Hill", "REGION": "Western New York", "ASSOCIATION": "USA - NJ / NY", "POINTS": "1", "BONUSPOINTS": "0"}}, {"type": "Feature", "geometry": {"type": "Point", "coordinates": [-76.932, 42.2424]}, "properties": {"NAME": "W2/WE-033", "TITLE": "Chemung County HP", "REGION": "Western New York", "ASSOCIATION": "USA - NJ / NY", "POINTS": "1", "BONUSPOINTS": "0"}}, {"type": "Feature", "geometry": {"type": "Point", "coordinates": [-76.6465, 42.2212]}, "properties": {"NAME": "W2/WE-034", "TITLE": "Austin Hill", "REGION": "Western New York", "ASSOCIATION": "USA - NJ / NY", "POINTS": "1", "BONUSPOINTS": "0"}}, {"type": "Feature", "geometry": {"type": "Point", "coordinates": [-76.8958, 42.1034]}, "properties": {"NAME": "W2/WE-035", "TITLE": "Harris Hill", "REGION": "Western New York", "ASSOCIATION": "USA - NJ / NY", "POINTS": "1", "BONUSPOINTS": "0"}}, {"type": "Feature", "geometry": {"type": "Point", "coordinates": [-76.8647, 42.2738]}, "properties": {"NAME": "W2/WE-036", "TITLE": "1715", "REGION": "Western New York", "ASSOCIATION": "USA - NJ / NY", "POINTS": "1", "BONUSPOINTS": "0"}}, {"type": "Feature", "geometry": {"type": "Point", "coordinates": [-76.7218, 42.1272]}, "properties": {"NAME": "W2/WE-037", "TITLE": "1675", "REGION": "Western New York", "ASSOCIATION": "USA - NJ / NY", "POINTS": "1", "BONUSPOINTS": "0"}}, {"type": "Feature", "geometry": {"type": "Point", "coordinates": [-75.7262, 42.643]}, "properties": {"NAME": "W2/WE-038", "TITLE": "2010", "REGION": "Western New York", "ASSOCIATION": "USA - NJ / NY", "POINTS": "1", "BONUSPOINTS": "0"}}, {"type": "Feature", "geometry": {"type": "Point", "coordinates": [-75.4408, 42.5916]}, "properties": {"NAME": "W2/WE-039", "TITLE": "1990", "REGION": "Western New York", "ASSOCIATION": "USA - NJ / NY", "POINTS": "1", "BONUSPOINTS": "0"}}, {"type": "Feature", "geometry": {"type": "Point", "coordinates": [-75.5187, 42.6369]}, "properties": {"NAME": "W2/WE-040", "TITLE": "Steam Sawmill Hill", "REGION": "Western New York", "ASSOCIATION": "USA - NJ / NY", "POINTS": "1", "BONUSPOINTS": "0"}}, {"type": "Feature", "geometry": {"type": "Point", "coordinates": [-75.5499, 42.6784]}, "properties": {"NAME": "W2/WE-041", "TITLE": "1710", "REGION": "Western New York", "ASSOCIATION": "USA - NJ / NY", "POINTS": "1", "BONUSPOINTS": "0"}}, {"type": "Feature", "geometry": {"type": "Point", "coordinates": [-76.1403, 42.4927]}, "properties": {"NAME": "W2/WE-042", "TITLE": "Virgil Mountain", "REGION": "Western New York", "ASSOCIATION": "USA - NJ / NY", "POINTS": "1", "BONUSPOINTS": "0"}}, {"type": "Feature", "geometry": {"type": "Point", "coordinates": [-76.1379, 42.5438]}, "properties": {"NAME": "W2/WE-043", "TITLE": "2110", "REGION": "Western New York", "ASSOCIATION": "USA - NJ / NY", "POINTS": "1", "BONUSPOINTS": "0"}}, {"type": "Feature", "geometry": {"type": "Point", "coordinates": [-75.9069, 42.7008]}, "properties": {"NAME": "W2/WE-044", "TITLE": "2090", "REGION": "Western New York", "ASSOCIATION": "USA - NJ / NY", "POINTS": "1", "BONUSPOINTS": "0"}}, {"type": "Feature", "geometry": {"type": "Point", "coordinates": [-76.2042, 42.4692]}, "properties": {"NAME": "W2/WE-045", "TITLE": "2035", "REGION": "Western New York", "ASSOCIATION": "USA - NJ / NY", "POINTS": "1", "BONUSPOINTS": "0"}}, {"type": "Feature", "geometry": {"type": "Point", "coordinates": [-76.0854, 42.7471]}, "properties": {"NAME": "W2/WE-046", "TITLE": "2030", "REGION": "Western New York", "ASSOCIATION": "USA - NJ / NY", "POINTS": "1", "BONUSPOINTS": "0"}}, {"type": "Feature", "geometry": {"type": "Point", "coordinates": [-76.0044, 42.6383]}, "properties": {"NAME": "W2/WE-047", "TITLE": "1990", "REGION": "Western New York", "ASSOCIATION": "USA - NJ / NY", "POINTS": "1", "BONUSPOINTS": "0"}}, {"type": "Feature", "geometry": {"type": "Point", "coordinates": [-75.9474, 42.6368]}, "properties": {"NAME": "W2/WE-048", "TITLE": "Allen Hill", "REGION": "Western New York", "ASSOCIATION": "USA - NJ / NY", "POINTS": "1", "BONUSPOINTS": "0"}}, {"type": "Feature", "geometry": {"type": "Point", "coordinates": [-76.1658, 42.7663]}, "properties": {"NAME": "W2/WE-049", "TITLE": "1930", "REGION": "Western New York", "ASSOCIATION": "USA - NJ / NY", "POINTS": "1", "BONUSPOINTS": "0"}}, {"type": "Feature", "geometry": {"type": "Point", "coordinates": [-76.0802, 42.5725]}, "properties": {"NAME": "W2/WE-050", "TITLE": "South Hill B", "REGION": "Western New York", "ASSOCIATION": "USA - NJ / NY", "POINTS": "1", "BONUSPOINTS": "0"}}, {"type": "Feature", "geometry": {"type": "Point", "coordinates": [-76.1439, 42.4234]}, "properties": {"NAME": "W2/WE-051", "TITLE": "1895", "REGION": "Western New York", "ASSOCIATION": "USA - NJ / NY", "POINTS": "1", "BONUSPOINTS": "0"}}, {"type": "Feature", "geometry": {"type": "Point", "coordinates": [-77.5164, 42.6623]}, "properties": {"NAME": "W2/WE-052", "TITLE": "Tabor Benchmark", "REGION": "Western New York", "ASSOCIATION": "USA - NJ / NY", "POINTS": "1", "BONUSPOINTS": "0"}}, {"type": "Feature", "geometry": {"type": "Point", "coordinates": [-77.6602, 42.6391]}, "properties": {"NAME": "W2/WE-053", "TITLE": "2070", "REGION": "Western New York", "ASSOCIATION": "USA - NJ / NY", "POINTS": "1", "BONUSPOINTS": "0"}}, {"type": "Feature", "geometry": {"type": "Point", "coordinates": [-77.6225, 42.6828]}, "properties": {"NAME": "W2/WE-054", "TITLE": "Marrowback Hill", "REGION": "Western New York", "ASSOCIATION": "USA - NJ / NY", "POINTS": "1", "BONUSPOINTS": "0"}}, {"type": "Feature", "geometry": {"type": "Point", "coordinates": [-77.7316, 42.6913]}, "properties": {"NAME": "W2/WE-055", "TITLE": "1470", "REGION": "Western New York", "ASSOCIATION": "USA - NJ / NY", "POINTS": "1", "BONUSPOINTS": "0"}}, {"type": "Feature", "geometry": {"type": "Point", "coordinates": [-75.751, 42.8133]}, "properties": {"NAME": "W2/WE-056", "TITLE": "Madison County HP", "REGION": "Western New York", "ASSOCIATION": "USA - NJ / NY", "POINTS": "1", "BONUSPOINTS": "0"}}, {"type": "Feature", "geometry": {"type": "Point", "coordinates": [-75.8687, 42.7364]}, "properties": {"NAME": "W2/WE-057", "TITLE": "South Hill", "REGION": "Western New York", "ASSOCIATION": "USA - NJ / NY", "POINTS": "1", "BONUSPOINTS": "0"}}, {"type": "Feature", "geometry": {"type": "Point", "coordinates": [-75.8479, 42.8245]}, "properties": {"NAME": "W2/WE-058", "TITLE": "Kinney Hill", "REGION": "Western New York", "ASSOCIATION": "USA - NJ / NY", "POINTS": "1", "BONUSPOINTS": "0"}}, {"type": "Feature", "geometry": {"type": "Point", "coordinates": [-75.4602, 42.8767]}, "properties": {"NAME": "W2/WE-059", "TITLE": "1850", "REGION": "Western New York", "ASSOCIATION": "USA - NJ / NY", "POINTS": "1", "BONUSPOINTS": "0"}}, {"type": "Feature", "geometry": {"type": "Point", "coordinates": [-75.9839, 42.7954]}, "properties": {"NAME": "W2/WE-060", "TITLE": "Morgan Hill", "REGION": "Western New York", "ASSOCIATION": "USA - NJ / NY", "POINTS": "1", "BONUSPOINTS": "0"}}, {"type": "Feature", "geometry": {"type": "Point", "coordinates": [-76.0214, 42.811]}, "properties": {"NAME": "W2/WE-061", "TITLE": "Fellows Hill", "REGION": "Western New York", "ASSOCIATION": "USA - NJ / NY", "POINTS": "1", "BONUSPOINTS": "0"}}, {"type": "Feature", "geometry": {"type": "Point", "coordinates": [-76.2408, 42.7902]}, "properties": {"NAME": "W2/WE-062", "TITLE": "Ripley Hill", "REGION": "Western New York", "ASSOCIATION": "USA - NJ / NY", "POINTS": "1", "BONUSPOINTS": "0"}}, {"type": "Feature", "geometry": {"type": "Point", "coordinates": [-75.9165, 42.8225]}, "properties": {"NAME": "W2/WE-063", "TITLE": "Arab Hill", "REGION": "Western New York", "ASSOCIATION": "USA - NJ / NY", "POINTS": "1", "BONUSPOINTS": "0"}}, {"type": "Feature", "geometry": {"type": "Point", "coordinates": [-75.9678, 42.8197]}, "properties": {"NAME": "W2/WE-064", "TITLE": "Hogsback", "REGION": "Western New York", "ASSOCIATION": "USA - NJ / NY", "POINTS": "1", "BONUSPOINTS": "0"}}, {"type": "Feature", "geometry": {"type": "Point", "coordinates": [-76.0917, 42.8258]}, "properties": {"NAME": "W2/WE-065", "TITLE": "Meeker Hill", "REGION": "Western New York", "ASSOCIATION": "USA - NJ / NY", "POINTS": "1", "BONUSPOINTS": "0"}}, {"type": "Feature", "geometry": {"type": "Point", "coordinates": [-76.1987, 42.9633]}, "properties": {"NAME": "W2/WE-066", "TITLE": "1350", "REGION": "Western New York", "ASSOCIATION": "USA - NJ / NY", "POINTS": "1", "BONUSPOINTS": "0"}}, {"type": "Feature", "geometry": {"type": "Point", "coordinates": [-77.4724, 42.6875]}, "properties": {"NAME": "W2/WE-067", "TITLE": "2270", "REGION": "Western New York", "ASSOCIATION": "USA - NJ / NY", "POINTS": "1", "BONUSPOINTS": "0"}}, {"type": "Feature", "geometry": {"type": "Point", "coordinates": [-77.4087, 42.7]}, "properties": {"NAME": "W2/WE-068", "TITLE": "Gannett Hill", "REGION": "Western New York", "ASSOCIATION": "USA - NJ / NY", "POINTS": "1", "BONUSPOINTS": "0"}}, {"type": "Feature", "geometry": {"type": "Point", "coordinates": [-77.4264, 42.7311]}, "properties": {"NAME": "W2/WE-069", "TITLE": "Worden Hill", "REGION": "Western New York", "ASSOCIATION": "USA - NJ / NY", "POINTS": "1", "BONUSPOINTS": "0"}}, {"type": "Feature", "geometry": {"type": "Point", "coordinates": [-77.3875, 42.7467]}, "properties": {"NAME": "W2/WE-070", "TITLE": "Stid Hill", "REGION": "Western New York", "ASSOCIATION": "USA - NJ / NY", "POINTS": "1", "BONUSPOINTS": "0"}}, {"type": "Feature", "geometry": {"type": "Point", "coordinates": [-77.5826, 42.7067]}, "properties": {"NAME": "W2/WE-071", "TITLE": "Bald Hill", "REGION": "Western New York", "ASSOCIATION": "USA - NJ / NY", "POINTS": "1", "BONUSPOINTS": "0"}}, {"type": "Feature", "geometry": {"type": "Point", "coordinates": [-77.6893, 42.2113]}, "properties": {"NAME": "W2/WE-072", "TITLE": "Call Hill", "REGION": "Western New York", "ASSOCIATION": "USA - NJ / NY", "POINTS": "1", "BONUSPOINTS": "0"}}, {"type": "Feature", "geometry": {"type": "Point", "coordinates": [-77.4912, 42.2043]}, "properties": {"NAME": "W2/WE-073", "TITLE": "Swan Benchmark", "REGION": "Western New York", "ASSOCIATION": "USA - NJ / NY", "POINTS": "1", "BONUSPOINTS": "0"}}, {"type": "Feature", "geometry": {"type": "Point", "coordinates": [-77.3253, 42.5483]}, "properties": {"NAME": "W2/WE-074", "TITLE": "2196", "REGION": "Western New York", "ASSOCIATION": "USA - NJ / NY", "POINTS": "1", "BONUSPOINTS": "0"}}, {"type": "Feature", "geometry": {"type": "Point", "coordinates": [-77.451, 42.0219]}, "properties": {"NAME": "W2/WE-075", "TITLE": "2190", "REGION": "Western New York", "ASSOCIATION": "USA - NJ / NY", "POINTS": "1", "BONUSPOINTS": "0"}}, {"type": "Feature", "geometry": {"type": "Point", "coordinates": [-77.5267, 42.3051]}, "properties": {"NAME": "W2/WE-076", "TITLE": "2190 B", "REGION": "Western New York", "ASSOCIATION": "USA - NJ / NY", "POINTS": "1", "BONUSPOINTS": "0"}}, {"type": "Feature", "geometry": {"type": "Point", "coordinates": [-77.5024, 42.2743]}, "properties": {"NAME": "W2/WE-077", "TITLE": "2188", "REGION": "Western New York", "ASSOCIATION": "USA - NJ / NY", "POINTS": "1", "BONUSPOINTS": "0"}}, {"type": "Feature", "geometry": {"type": "Point", "coordinates": [-77.5805, 42.2915]}, "properties": {"NAME": "W2/WE-078", "TITLE": "Van Skiver Benchmark", "REGION": "Western New York", "ASSOCIATION": "USA - NJ / NY", "POINTS": "1", "BONUSPOINTS": "0"}}, {"type": "Feature", "geometry": {"type": "Point", "coordinates": [-77.4078, 42.527]}, "properties": {"NAME": "W2/WE-079", "TITLE": "Lent Hill", "REGION": "Western New York", "ASSOCIATION": "USA - NJ / NY", "POINTS": "1", "BONUSPOINTS": "0"}}, {"type": "Feature", "geometry": {"type": "Point", "coordinates": [-77.6385, 42.2632]}, "properties": {"NAME": "W2/WE-080", "TITLE": "Hinkley Hill", "REGION": "Western New York", "ASSOCIATION": "USA - NJ / NY", "POINTS": "1", "BONUSPOINTS": "0"}}, {"type": "Feature", "geometry": {"type": "Point", "coordinates": [-76.9942, 42.2615]}, "properties": {"NAME": "W2/WE-081", "TITLE": "Hornby Benchmark", "REGION": "Western New York", "ASSOCIATION": "USA - NJ / NY", "POINTS": "1", "BONUSPOINTS": "0"}}, {"type": "Feature", "geometry": {"type": "Point", "coordinates": [-77.4886, 42.5352]}, "properties": {"NAME": "W2/WE-082", "TITLE": "2012", "REGION": "Western New York", "ASSOCIATION": "USA - NJ / NY", "POINTS": "1", "BONUSPOINTS": "0"}}, {"type": "Feature", "geometry": {"type": "Point", "coordinates": [-77.3264, 42.4115]}, "properties": {"NAME": "W2/WE-083", "TITLE": "1970", "REGION": "Western New York", "ASSOCIATION": "USA - NJ / NY", "POINTS": "1", "BONUSPOINTS": "0"}}, {"type": "Feature", "geometry": {"type": "Point", "coordinates": [-77.2541, 42.4278]}, "properties": {"NAME": "W2/WE-084", "TITLE": "Urbana Benchmark", "REGION": "Western New York", "ASSOCIATION": "USA - NJ / NY", "POINTS": "1", "BONUSPOINTS": "0"}}, {"type": "Feature", "geometry": {"type": "Point", "coordinates": [-77.1875, 42.3815]}, "properties": {"NAME": "W2/WE-085", "TITLE": "Washington; Mount", "REGION": "Western New York", "ASSOCIATION": "USA - NJ / NY", "POINTS": "1", "BONUSPOINTS": "0"}}, {"type": "Feature", "geometry": {"type": "Point", "coordinates": [-77.6914, 42.3505]}, "properties": {"NAME": "W2/WE-086", "TITLE": "Bald Hill", "REGION": "Western New York", "ASSOCIATION": "USA - NJ / NY", "POINTS": "1", "BONUSPOINTS": "0"}}, {"type": "Feature", "geometry": {"type": "Point", "coordinates": [-77.2792, 42.2748]}, "properties": {"NAME": "W2/WE-087", "TITLE": "Peters Hill", "REGION": "Western New York", "ASSOCIATION": "USA - NJ / NY", "POINTS": "1", "BONUSPOINTS": "0"}}, {"type": "Feature", "geometry": {"type": "Point", "coordinates": [-76.5287, 42.1575]}, "properties": {"NAME": "W2/WE-088", "TITLE": "1728", "REGION": "Western New York", "ASSOCIATION": "USA - NJ / NY", "POINTS": "1", "BONUSPOINTS": "0"}}, {"type": "Feature", "geometry": {"type": "Point", "coordinates": [-76.4042, 42.2051]}, "properties": {"NAME": "W2/WE-089", "TITLE": "1655", "REGION": "Western New York", "ASSOCIATION": "USA - NJ / NY", "POINTS": "1", "BONUSPOINTS": "0"}}, {"type": "Feature", "geometry": {"type": "Point", "coordinates": [-76.2747, 42.431]}, "properties": {"NAME": "W2/WE-090", "TITLE": "2014", "REGION": "Western New York", "ASSOCIATION": "USA - NJ / NY", "POINTS": "1", "BONUSPOINTS": "0"}}, {"type": "Feature", "geometry": {"type": "Point", "coordinates": [-76.2703, 42.3645]}, "properties": {"NAME": "W2/WE-091", "TITLE": "Padlock Lookout", "REGION": "Western New York", "ASSOCIATION": "USA - NJ / NY", "POINTS": "1", "BONUSPOINTS": "0"}}, {"type": "Feature", "geometry": {"type": "Point", "coordinates": [-76.3762, 42.3596]}, "properties": {"NAME": "W2/WE-092", "TITLE": "1885", "REGION": "Western New York", "ASSOCIATION": "USA - NJ / NY", "POINTS": "1", "BONUSPOINTS": "0"}}, {"type": "Feature", "geometry": {"type": "Point", "coordinates": [-76.4166, 42.3342]}, "properties": {"NAME": "W2/WE-093", "TITLE": "Roundtop", "REGION": "Western New York", "ASSOCIATION": "USA - NJ / NY", "POINTS": "1", "BONUSPOINTS": "0"}}, {"type": "Feature", "geometry": {"type": "Point", "coordinates": [-76.4265, 42.3163]}, "properties": {"NAME": "W2/WE-094", "TITLE": "1765", "REGION": "Western New York", "ASSOCIATION": "USA - NJ / NY", "POINTS": "1", "BONUSPOINTS": "0"}}, {"type": "Feature", "geometry": {"type": "Point", "coordinates": [-76.3902, 42.4084]}, "properties": {"NAME": "W2/WE-095", "TITLE": "Snyder Hill", "REGION": "Western New York", "ASSOCIATION": "USA - NJ / NY", "POINTS": "1", "BONUSPOINTS": "0"}}, {"type": "Feature", "geometry": {"type": "Point", "coordinates": [-77.3125, 42.6133]}, "properties": {"NAME": "W2/WE-096", "TITLE": "West Italy Hill", "REGION": "Western New York", "ASSOCIATION": "USA - NJ / NY", "POINTS": "1", "BONUSPOINTS": "0"}}, {"type": "Feature", "geometry": {"type": "Point", "coordinates": [-77.3358, 42.687]}, "properties": {"NAME": "W2/WE-097", "TITLE": "South Hill", "REGION": "Western New York", "ASSOCIATION": "USA - NJ / NY", "POINTS": "1", "BONUSPOINTS": "0"}}, {"type": "Feature", "geometry": {"type": "Point", "coordinates": [-77.3127, 42.737]}, "properties": {"NAME": "W2/WE-098", "TITLE": "Bare Hill", "REGION": "Western New York", "ASSOCIATION": "USA - NJ / NY", "POINTS": "1", "BONUSPOINTS": "0"}}, {"type": "Feature", "geometry": {"type": "Point", "coordinates": [-77.1332, 42.5144]}, "properties": {"NAME": "W2/WE-099", "TITLE": "Bluff Point", "REGION": "Western New York", "ASSOCIATION": "USA - NJ / NY", "POINTS": "1", "BONUSPOINTS": "0"}}]}