{"type": "FeatureCollection", "name": "W8V/MV SUMMITS", "features": [{"type": "Feature", "geometry": {"type": "Point", "coordinates": [-82.0183, 37.6245]}, "properties": {"NAME": "W8V/MV-001", "TITLE": "2455", "REGION": "Metro Valley", "ASSOCIATION": "USA - West Virginia", "POINTS": "4", "BONUSPOINTS": "0"}}, {"type": "Feature", "geometry": {"type": "Point", "coordinates": [-81.9995, 37.6049]}, "properties": {"NAME": "W8V/MV-002", "TITLE": "2340", "REGION": "Metro Valley", "ASSOCIATION": "USA - West Virginia", "POINTS": "4", "BONUSPOINTS": "0"}}, {"type": "Feature", "geometry": {"type": "Point", "coordinates": [-82.0433, 37.6706]}, "properties": {"NAME": "W8V/MV-003", "TITLE": "2340", "REGION": "Metro Valley", "ASSOCIATION": "USA - West Virginia", "POINTS": "4", "BONUSPOINTS": "0"}}, {"type": "Feature", "geometry": {"type": "Point", "coordinates": [-82.0957, 37.619]}, "properties": {"NAME": "W8V/MV-004", "TITLE": "2340", "REGION": "Metro Valley", "ASSOCIATION": "USA - West Virginia", "POINTS": "4", "BONUSPOINTS": "0"}}, {"type": "Feature", "geometry": {"type": "Point", "coordinates": [-81.8406, 37.6399]}, "properties": {"NAME": "W8V/MV-005", "TITLE": "2330", "REGION": "Metro Valley", "ASSOCIATION": "USA - West Virginia", "POINTS": "4", "BONUSPOINTS": "0"}}, {"type": "Feature", "geometry": {"type": "Point", "coordinates": [-82.1805, 37.6627]}, "properties": {"NAME": "W8V/MV-006", "TITLE": "2078", "REGION": "Metro Valley", "ASSOCIATION": "USA - West Virginia", "POINTS": "4", "BONUSPOINTS": "0"}}, {"type": "Feature", "geometry": {"type": "Point", "coordinates": [-82.1546, 37.6505]}, "properties": {"NAME": "W8V/MV-007", "TITLE": "2031", "REGION": "Metro Valley", "ASSOCIATION": "USA - West Virginia", "POINTS": "4", "BONUSPOINTS": "0"}}, {"type": "Feature", "geometry": {"type": "Point", "coordinates": [-82.1989, 37.6853]}, "properties": {"NAME": "W8V/MV-008", "TITLE": "1972", "REGION": "Metro Valley", "ASSOCIATION": "USA - West Virginia", "POINTS": "2", "BONUSPOINTS": "0"}}, {"type": "Feature", "geometry": {"type": "Point", "coordinates": [-82.2073, 37.6575]}, "properties": {"NAME": "W8V/MV-009", "TITLE": "1949", "REGION": "Metro Valley", "ASSOCIATION": "USA - West Virginia", "POINTS": "2", "BONUSPOINTS": "0"}}, {"type": "Feature", "geometry": {"type": "Point", "coordinates": [-82.1383, 37.7164]}, "properties": {"NAME": "W8V/MV-010", "TITLE": "1940", "REGION": "Metro Valley", "ASSOCIATION": "USA - West Virginia", "POINTS": "2", "BONUSPOINTS": "0"}}, {"type": "Feature", "geometry": {"type": "Point", "coordinates": [-82.2089, 37.8693]}, "properties": {"NAME": "W8V/MV-011", "TITLE": "1900", "REGION": "Metro Valley", "ASSOCIATION": "USA - West Virginia", "POINTS": "2", "BONUSPOINTS": "0"}}, {"type": "Feature", "geometry": {"type": "Point", "coordinates": [-82.2398, 37.6912]}, "properties": {"NAME": "W8V/MV-012", "TITLE": "1887", "REGION": "Metro Valley", "ASSOCIATION": "USA - West Virginia", "POINTS": "2", "BONUSPOINTS": "0"}}, {"type": "Feature", "geometry": {"type": "Point", "coordinates": [-82.3204, 37.8793]}, "properties": {"NAME": "W8V/MV-013", "TITLE": "Antley Knob", "REGION": "Metro Valley", "ASSOCIATION": "USA - West Virginia", "POINTS": "2", "BONUSPOINTS": "0"}}, {"type": "Feature", "geometry": {"type": "Point", "coordinates": [-82.1131, 37.5703]}, "properties": {"NAME": "W8V/MV-014", "TITLE": "1775", "REGION": "Metro Valley", "ASSOCIATION": "USA - West Virginia", "POINTS": "2", "BONUSPOINTS": "0"}}, {"type": "Feature", "geometry": {"type": "Point", "coordinates": [-82.2425, 37.8127]}, "properties": {"NAME": "W8V/MV-015", "TITLE": "1580", "REGION": "Metro Valley", "ASSOCIATION": "USA - West Virginia", "POINTS": "1", "BONUSPOINTS": "0"}}, {"type": "Feature", "geometry": {"type": "Point", "coordinates": [-82.3603, 37.8873]}, "properties": {"NAME": "W8V/MV-016", "TITLE": "1540", "REGION": "Metro Valley", "ASSOCIATION": "USA - West Virginia", "POINTS": "1", "BONUSPOINTS": "0"}}]}