{"type": "FeatureCollection", "name": "W8V/NR SUMMITS", "features": [{"type": "Feature", "geometry": {"type": "Point", "coordinates": [-80.4968, 38.0654]}, "properties": {"NAME": "W8V/NR-001", "TITLE": "Grassy Knob", "REGION": "New River", "ASSOCIATION": "USA - West Virginia", "POINTS": "10", "BONUSPOINTS": "3"}}, {"type": "Feature", "geometry": {"type": "Point", "coordinates": [-80.5905, 37.9726]}, "properties": {"NAME": "W8V/NR-002", "TITLE": "Cross Mountain", "REGION": "New River", "ASSOCIATION": "USA - West Virginia", "POINTS": "8", "BONUSPOINTS": "3"}}, {"type": "Feature", "geometry": {"type": "Point", "coordinates": [-80.7052, 37.7734]}, "properties": {"NAME": "W8V/NR-003", "TITLE": "Keeney Knob", "REGION": "New River", "ASSOCIATION": "USA - West Virginia", "POINTS": "8", "BONUSPOINTS": "3"}}, {"type": "Feature", "geometry": {"type": "Point", "coordinates": [-80.4934, 37.4632]}, "properties": {"NAME": "W8V/NR-004", "TITLE": "Fork Mountain", "REGION": "New River", "ASSOCIATION": "USA - West Virginia", "POINTS": "8", "BONUSPOINTS": "3"}}, {"type": "Feature", "geometry": {"type": "Point", "coordinates": [-80.4887, 38.1988]}, "properties": {"NAME": "W8V/NR-005", "TITLE": "Sugar Knob", "REGION": "New River", "ASSOCIATION": "USA - West Virginia", "POINTS": "8", "BONUSPOINTS": "3"}}, {"type": "Feature", "geometry": {"type": "Point", "coordinates": [-81.4911, 37.7877]}, "properties": {"NAME": "W8V/NR-006", "TITLE": "Ivy Knob", "REGION": "New River", "ASSOCIATION": "USA - West Virginia", "POINTS": "8", "BONUSPOINTS": "3"}}, {"type": "Feature", "geometry": {"type": "Point", "coordinates": [-80.7801, 37.9196]}, "properties": {"NAME": "W8V/NR-007", "TITLE": "Boggs Knob", "REGION": "New River", "ASSOCIATION": "USA - West Virginia", "POINTS": "8", "BONUSPOINTS": "3"}}, {"type": "Feature", "geometry": {"type": "Point", "coordinates": [-80.2646, 38.0467]}, "properties": {"NAME": "W8V/NR-008", "TITLE": "Droop Mountain", "REGION": "New River", "ASSOCIATION": "USA - West Virginia", "POINTS": "8", "BONUSPOINTS": "3"}}, {"type": "Feature", "geometry": {"type": "Point", "coordinates": [-81.1145, 37.5895]}, "properties": {"NAME": "W8V/NR-009", "TITLE": "Huff Knob", "REGION": "New River", "ASSOCIATION": "USA - West Virginia", "POINTS": "8", "BONUSPOINTS": "3"}}, {"type": "Feature", "geometry": {"type": "Point", "coordinates": [-81.2098, 37.519]}, "properties": {"NAME": "W8V/NR-010", "TITLE": "Bluff Mountain", "REGION": "New River", "ASSOCIATION": "USA - West Virginia", "POINTS": "8", "BONUSPOINTS": "3"}}, {"type": "Feature", "geometry": {"type": "Point", "coordinates": [-80.6977, 37.9335]}, "properties": {"NAME": "W8V/NR-011", "TITLE": "Little Sewell Mountain", "REGION": "New River", "ASSOCIATION": "USA - West Virginia", "POINTS": "8", "BONUSPOINTS": "3"}}, {"type": "Feature", "geometry": {"type": "Point", "coordinates": [-80.8068, 37.9749]}, "properties": {"NAME": "W8V/NR-012", "TITLE": "Myles Knob", "REGION": "New River", "ASSOCIATION": "USA - West Virginia", "POINTS": "8", "BONUSPOINTS": "3"}}, {"type": "Feature", "geometry": {"type": "Point", "coordinates": [-80.9544, 37.7142]}, "properties": {"NAME": "W8V/NR-013", "TITLE": "Freezeland Mountain", "REGION": "New River", "ASSOCIATION": "USA - West Virginia", "POINTS": "8", "BONUSPOINTS": "3"}}, {"type": "Feature", "geometry": {"type": "Point", "coordinates": [-81.3066, 37.4237]}, "properties": {"NAME": "W8V/NR-014", "TITLE": "3420", "REGION": "New River", "ASSOCIATION": "USA - West Virginia", "POINTS": "8", "BONUSPOINTS": "3"}}, {"type": "Feature", "geometry": {"type": "Point", "coordinates": [-80.3779, 37.622]}, "properties": {"NAME": "W8V/NR-015", "TITLE": "Elk Knob", "REGION": "New River", "ASSOCIATION": "USA - West Virginia", "POINTS": "8", "BONUSPOINTS": "3"}}, {"type": "Feature", "geometry": {"type": "Point", "coordinates": [-81.3907, 37.8811]}, "properties": {"NAME": "W8V/NR-016", "TITLE": "Coal River Mountain", "REGION": "New River", "ASSOCIATION": "USA - West Virginia", "POINTS": "8", "BONUSPOINTS": "3"}}, {"type": "Feature", "geometry": {"type": "Point", "coordinates": [-80.3201, 37.5979]}, "properties": {"NAME": "W8V/NR-017", "TITLE": "High Head Mountain", "REGION": "New River", "ASSOCIATION": "USA - West Virginia", "POINTS": "8", "BONUSPOINTS": "3"}}, {"type": "Feature", "geometry": {"type": "Point", "coordinates": [-80.3016, 37.7638]}, "properties": {"NAME": "W8V/NR-018", "TITLE": "Kates Mountain", "REGION": "New River", "ASSOCIATION": "USA - West Virginia", "POINTS": "8", "BONUSPOINTS": "3"}}, {"type": "Feature", "geometry": {"type": "Point", "coordinates": [-80.5653, 37.6312]}, "properties": {"NAME": "W8V/NR-019", "TITLE": "Bickett Knob", "REGION": "New River", "ASSOCIATION": "USA - West Virginia", "POINTS": "8", "BONUSPOINTS": "3"}}, {"type": "Feature", "geometry": {"type": "Point", "coordinates": [-80.3265, 37.8173]}, "properties": {"NAME": "W8V/NR-020", "TITLE": "Greenbrier Mountain", "REGION": "New River", "ASSOCIATION": "USA - West Virginia", "POINTS": "8", "BONUSPOINTS": "3"}}, {"type": "Feature", "geometry": {"type": "Point", "coordinates": [-80.2117, 38.0095]}, "properties": {"NAME": "W8V/NR-021", "TITLE": "Slabcamp Mountain", "REGION": "New River", "ASSOCIATION": "USA - West Virginia", "POINTS": "8", "BONUSPOINTS": "3"}}, {"type": "Feature", "geometry": {"type": "Point", "coordinates": [-81.5787, 37.7603]}, "properties": {"NAME": "W8V/NR-022", "TITLE": "3302", "REGION": "New River", "ASSOCIATION": "USA - West Virginia", "POINTS": "8", "BONUSPOINTS": "3"}}, {"type": "Feature", "geometry": {"type": "Point", "coordinates": [-80.2528, 37.9459]}, "properties": {"NAME": "W8V/NR-023", "TITLE": "Hopkins Mountain", "REGION": "New River", "ASSOCIATION": "USA - West Virginia", "POINTS": "6", "BONUSPOINTS": "3"}}, {"type": "Feature", "geometry": {"type": "Point", "coordinates": [-80.7476, 37.9343]}, "properties": {"NAME": "W8V/NR-024", "TITLE": "Goddard Mountain", "REGION": "New River", "ASSOCIATION": "USA - West Virginia", "POINTS": "6", "BONUSPOINTS": "3"}}, {"type": "Feature", "geometry": {"type": "Point", "coordinates": [-80.2003, 38.0276]}, "properties": {"NAME": "W8V/NR-025", "TITLE": "3284", "REGION": "New River", "ASSOCIATION": "USA - West Virginia", "POINTS": "6", "BONUSPOINTS": "3"}}, {"type": "Feature", "geometry": {"type": "Point", "coordinates": [-81.1816, 37.3642]}, "properties": {"NAME": "W8V/NR-026", "TITLE": "Black Oak Mountain", "REGION": "New River", "ASSOCIATION": "USA - West Virginia", "POINTS": "6", "BONUSPOINTS": "3"}}, {"type": "Feature", "geometry": {"type": "Point", "coordinates": [-80.3744, 37.6859]}, "properties": {"NAME": "W8V/NR-027", "TITLE": "Rich Mountain", "REGION": "New River", "ASSOCIATION": "USA - West Virginia", "POINTS": "6", "BONUSPOINTS": "3"}}, {"type": "Feature", "geometry": {"type": "Point", "coordinates": [-80.8752, 37.8148]}, "properties": {"NAME": "W8V/NR-028", "TITLE": "Hump Mountain", "REGION": "New River", "ASSOCIATION": "USA - West Virginia", "POINTS": "6", "BONUSPOINTS": "3"}}, {"type": "Feature", "geometry": {"type": "Point", "coordinates": [-81.3083, 37.9477]}, "properties": {"NAME": "W8V/NR-029", "TITLE": "Lick Knob", "REGION": "New River", "ASSOCIATION": "USA - West Virginia", "POINTS": "6", "BONUSPOINTS": "3"}}, {"type": "Feature", "geometry": {"type": "Point", "coordinates": [-80.8181, 37.7705]}, "properties": {"NAME": "W8V/NR-030", "TITLE": "Big Swell Mountain", "REGION": "New River", "ASSOCIATION": "USA - West Virginia", "POINTS": "6", "BONUSPOINTS": "3"}}, {"type": "Feature", "geometry": {"type": "Point", "coordinates": [-80.5784, 37.6801]}, "properties": {"NAME": "W8V/NR-031", "TITLE": "Flat Top Mountain", "REGION": "New River", "ASSOCIATION": "USA - West Virginia", "POINTS": "6", "BONUSPOINTS": "3"}}, {"type": "Feature", "geometry": {"type": "Point", "coordinates": [-80.2463, 37.8084]}, "properties": {"NAME": "W8V/NR-032", "TITLE": "Brushy Mountain", "REGION": "New River", "ASSOCIATION": "USA - West Virginia", "POINTS": "6", "BONUSPOINTS": "3"}}, {"type": "Feature", "geometry": {"type": "Point", "coordinates": [-80.3739, 37.761]}, "properties": {"NAME": "W8V/NR-033", "TITLE": "White Rock Mountain", "REGION": "New River", "ASSOCIATION": "USA - West Virginia", "POINTS": "6", "BONUSPOINTS": "3"}}, {"type": "Feature", "geometry": {"type": "Point", "coordinates": [-81.2054, 37.283]}, "properties": {"NAME": "W8V/NR-034", "TITLE": "Stony Ridge", "REGION": "New River", "ASSOCIATION": "USA - West Virginia", "POINTS": "6", "BONUSPOINTS": "3"}}, {"type": "Feature", "geometry": {"type": "Point", "coordinates": [-80.311, 37.6332]}, "properties": {"NAME": "W8V/NR-035", "TITLE": "Middle Mountain", "REGION": "New River", "ASSOCIATION": "USA - West Virginia", "POINTS": "6", "BONUSPOINTS": "3"}}, {"type": "Feature", "geometry": {"type": "Point", "coordinates": [-80.4473, 37.5511]}, "properties": {"NAME": "W8V/NR-036", "TITLE": "Gap Mountain", "REGION": "New River", "ASSOCIATION": "USA - West Virginia", "POINTS": "6", "BONUSPOINTS": "3"}}, {"type": "Feature", "geometry": {"type": "Point", "coordinates": [-80.2609, 37.7776]}, "properties": {"NAME": "W8V/NR-037", "TITLE": "O'Neill Knob", "REGION": "New River", "ASSOCIATION": "USA - West Virginia", "POINTS": "6", "BONUSPOINTS": "3"}}, {"type": "Feature", "geometry": {"type": "Point", "coordinates": [-81.2857, 37.3251]}, "properties": {"NAME": "W8V/NR-038", "TITLE": "Pinnacle", "REGION": "New River", "ASSOCIATION": "USA - West Virginia", "POINTS": "6", "BONUSPOINTS": "3"}}, {"type": "Feature", "geometry": {"type": "Point", "coordinates": [-80.2826, 37.6281]}, "properties": {"NAME": "W8V/NR-039", "TITLE": "Moss Mountain", "REGION": "New River", "ASSOCIATION": "USA - West Virginia", "POINTS": "6", "BONUSPOINTS": "3"}}, {"type": "Feature", "geometry": {"type": "Point", "coordinates": [-80.2478, 37.8909]}, "properties": {"NAME": "W8V/NR-040", "TITLE": "Coles Mountain", "REGION": "New River", "ASSOCIATION": "USA - West Virginia", "POINTS": "6", "BONUSPOINTS": "3"}}, {"type": "Feature", "geometry": {"type": "Point", "coordinates": [-81.0004, 37.468]}, "properties": {"NAME": "W8V/NR-041", "TITLE": "Bent Mountain", "REGION": "New River", "ASSOCIATION": "USA - West Virginia", "POINTS": "6", "BONUSPOINTS": "3"}}, {"type": "Feature", "geometry": {"type": "Point", "coordinates": [-81.3421, 37.9696]}, "properties": {"NAME": "W8V/NR-042", "TITLE": "3100", "REGION": "New River", "ASSOCIATION": "USA - West Virginia", "POINTS": "6", "BONUSPOINTS": "3"}}, {"type": "Feature", "geometry": {"type": "Point", "coordinates": [-81.1085, 37.3092]}, "properties": {"NAME": "W8V/NR-043", "TITLE": "3070", "REGION": "New River", "ASSOCIATION": "USA - West Virginia", "POINTS": "6", "BONUSPOINTS": "3"}}, {"type": "Feature", "geometry": {"type": "Point", "coordinates": [-81.3011, 37.8966]}, "properties": {"NAME": "W8V/NR-044", "TITLE": "3060", "REGION": "New River", "ASSOCIATION": "USA - West Virginia", "POINTS": "6", "BONUSPOINTS": "3"}}, {"type": "Feature", "geometry": {"type": "Point", "coordinates": [-80.3915, 37.5884]}, "properties": {"NAME": "W8V/NR-045", "TITLE": "3036", "REGION": "New River", "ASSOCIATION": "USA - West Virginia", "POINTS": "6", "BONUSPOINTS": "3"}}, {"type": "Feature", "geometry": {"type": "Point", "coordinates": [-81.6975, 37.6941]}, "properties": {"NAME": "W8V/NR-046", "TITLE": "Burning Rock", "REGION": "New River", "ASSOCIATION": "USA - West Virginia", "POINTS": "6", "BONUSPOINTS": "3"}}, {"type": "Feature", "geometry": {"type": "Point", "coordinates": [-81.422, 37.7415]}, "properties": {"NAME": "W8V/NR-047", "TITLE": "3002", "REGION": "New River", "ASSOCIATION": "USA - West Virginia", "POINTS": "6", "BONUSPOINTS": "3"}}, {"type": "Feature", "geometry": {"type": "Point", "coordinates": [-81.6212, 37.7224]}, "properties": {"NAME": "W8V/NR-048", "TITLE": "Panther Knob", "REGION": "New River", "ASSOCIATION": "USA - West Virginia", "POINTS": "6", "BONUSPOINTS": "3"}}, {"type": "Feature", "geometry": {"type": "Point", "coordinates": [-80.27, 37.9088]}, "properties": {"NAME": "W8V/NR-049", "TITLE": "Round Mountain", "REGION": "New River", "ASSOCIATION": "USA - West Virginia", "POINTS": "6", "BONUSPOINTS": "3"}}, {"type": "Feature", "geometry": {"type": "Point", "coordinates": [-80.5192, 37.7924]}, "properties": {"NAME": "W8V/NR-050", "TITLE": "Muddy Creek Mountain", "REGION": "New River", "ASSOCIATION": "USA - West Virginia", "POINTS": "6", "BONUSPOINTS": "3"}}, {"type": "Feature", "geometry": {"type": "Point", "coordinates": [-80.4608, 37.8917]}, "properties": {"NAME": "W8V/NR-051", "TITLE": "Miller Ridge", "REGION": "New River", "ASSOCIATION": "USA - West Virginia", "POINTS": "6", "BONUSPOINTS": "3"}}, {"type": "Feature", "geometry": {"type": "Point", "coordinates": [-80.8394, 37.5751]}, "properties": {"NAME": "W8V/NR-052", "TITLE": "2904", "REGION": "New River", "ASSOCIATION": "USA - West Virginia", "POINTS": "6", "BONUSPOINTS": "3"}}, {"type": "Feature", "geometry": {"type": "Point", "coordinates": [-81.5087, 37.727]}, "properties": {"NAME": "W8V/NR-053", "TITLE": "2882", "REGION": "New River", "ASSOCIATION": "USA - West Virginia", "POINTS": "6", "BONUSPOINTS": "3"}}, {"type": "Feature", "geometry": {"type": "Point", "coordinates": [-80.4494, 37.8617]}, "properties": {"NAME": "W8V/NR-054", "TITLE": "Weaver Knob", "REGION": "New River", "ASSOCIATION": "USA - West Virginia", "POINTS": "6", "BONUSPOINTS": "3"}}, {"type": "Feature", "geometry": {"type": "Point", "coordinates": [-81.2028, 38.041]}, "properties": {"NAME": "W8V/NR-055", "TITLE": "2848", "REGION": "New River", "ASSOCIATION": "USA - West Virginia", "POINTS": "6", "BONUSPOINTS": "3"}}, {"type": "Feature", "geometry": {"type": "Point", "coordinates": [-81.4353, 37.4033]}, "properties": {"NAME": "W8V/NR-056", "TITLE": "Shawnee Mountain", "REGION": "New River", "ASSOCIATION": "USA - West Virginia", "POINTS": "6", "BONUSPOINTS": "3"}}, {"type": "Feature", "geometry": {"type": "Point", "coordinates": [-81.5567, 37.2275]}, "properties": {"NAME": "W8V/NR-057", "TITLE": "2820", "REGION": "New River", "ASSOCIATION": "USA - West Virginia", "POINTS": "6", "BONUSPOINTS": "3"}}, {"type": "Feature", "geometry": {"type": "Point", "coordinates": [-81.0837, 37.8982]}, "properties": {"NAME": "W8V/NR-058", "TITLE": "Garden Ground Mountain", "REGION": "New River", "ASSOCIATION": "USA - West Virginia", "POINTS": "6", "BONUSPOINTS": "3"}}, {"type": "Feature", "geometry": {"type": "Point", "coordinates": [-81.3165, 38.0119]}, "properties": {"NAME": "W8V/NR-059", "TITLE": "Payne Knob", "REGION": "New River", "ASSOCIATION": "USA - West Virginia", "POINTS": "6", "BONUSPOINTS": "3"}}, {"type": "Feature", "geometry": {"type": "Point", "coordinates": [-81.5781, 37.6978]}, "properties": {"NAME": "W8V/NR-060", "TITLE": "2780", "REGION": "New River", "ASSOCIATION": "USA - West Virginia", "POINTS": "6", "BONUSPOINTS": "3"}}, {"type": "Feature", "geometry": {"type": "Point", "coordinates": [-81.6663, 37.7157]}, "properties": {"NAME": "W8V/NR-061", "TITLE": "2774", "REGION": "New River", "ASSOCIATION": "USA - West Virginia", "POINTS": "6", "BONUSPOINTS": "3"}}, {"type": "Feature", "geometry": {"type": "Point", "coordinates": [-80.6676, 37.6772]}, "properties": {"NAME": "W8V/NR-062", "TITLE": "Wolf Creek Mountain", "REGION": "New River", "ASSOCIATION": "USA - West Virginia", "POINTS": "6", "BONUSPOINTS": "3"}}, {"type": "Feature", "geometry": {"type": "Point", "coordinates": [-80.5635, 37.5288]}, "properties": {"NAME": "W8V/NR-063", "TITLE": "Pynes Mountain", "REGION": "New River", "ASSOCIATION": "USA - West Virginia", "POINTS": "6", "BONUSPOINTS": "3"}}, {"type": "Feature", "geometry": {"type": "Point", "coordinates": [-81.2539, 37.998]}, "properties": {"NAME": "W8V/NR-064", "TITLE": "2706", "REGION": "New River", "ASSOCIATION": "USA - West Virginia", "POINTS": "6", "BONUSPOINTS": "3"}}, {"type": "Feature", "geometry": {"type": "Point", "coordinates": [-81.2178, 37.9239]}, "properties": {"NAME": "W8V/NR-065", "TITLE": "Packs Mountain", "REGION": "New River", "ASSOCIATION": "USA - West Virginia", "POINTS": "4", "BONUSPOINTS": "0"}}, {"type": "Feature", "geometry": {"type": "Point", "coordinates": [-80.7068, 37.575]}, "properties": {"NAME": "W8V/NR-066", "TITLE": "High Top", "REGION": "New River", "ASSOCIATION": "USA - West Virginia", "POINTS": "4", "BONUSPOINTS": "0"}}, {"type": "Feature", "geometry": {"type": "Point", "coordinates": [-81.3738, 37.8079]}, "properties": {"NAME": "W8V/NR-067", "TITLE": "2580", "REGION": "New River", "ASSOCIATION": "USA - West Virginia", "POINTS": "4", "BONUSPOINTS": "0"}}, {"type": "Feature", "geometry": {"type": "Point", "coordinates": [-81.1645, 38.0182]}, "properties": {"NAME": "W8V/NR-068", "TITLE": "2580", "REGION": "New River", "ASSOCIATION": "USA - West Virginia", "POINTS": "4", "BONUSPOINTS": "0"}}, {"type": "Feature", "geometry": {"type": "Point", "coordinates": [-80.617, 37.5312]}, "properties": {"NAME": "W8V/NR-069", "TITLE": "Walnut Knob", "REGION": "New River", "ASSOCIATION": "USA - West Virginia", "POINTS": "4", "BONUSPOINTS": "0"}}, {"type": "Feature", "geometry": {"type": "Point", "coordinates": [-81.1151, 38.1528]}, "properties": {"NAME": "W8V/NR-070", "TITLE": "Gauley Mountain", "REGION": "New River", "ASSOCIATION": "USA - West Virginia", "POINTS": "4", "BONUSPOINTS": "0"}}, {"type": "Feature", "geometry": {"type": "Point", "coordinates": [-81.609, 37.6435]}, "properties": {"NAME": "W8V/NR-071", "TITLE": "2540", "REGION": "New River", "ASSOCIATION": "USA - West Virginia", "POINTS": "4", "BONUSPOINTS": "0"}}, {"type": "Feature", "geometry": {"type": "Point", "coordinates": [-81.6203, 37.2506]}, "properties": {"NAME": "W8V/NR-072", "TITLE": "2540", "REGION": "New River", "ASSOCIATION": "USA - West Virginia", "POINTS": "4", "BONUSPOINTS": "0"}}, {"type": "Feature", "geometry": {"type": "Point", "coordinates": [-81.4793, 37.6513]}, "properties": {"NAME": "W8V/NR-073", "TITLE": "2540", "REGION": "New River", "ASSOCIATION": "USA - West Virginia", "POINTS": "4", "BONUSPOINTS": "0"}}, {"type": "Feature", "geometry": {"type": "Point", "coordinates": [-81.2076, 37.9557]}, "properties": {"NAME": "W8V/NR-074", "TITLE": "Haystack Mountain", "REGION": "New River", "ASSOCIATION": "USA - West Virginia", "POINTS": "4", "BONUSPOINTS": "0"}}, {"type": "Feature", "geometry": {"type": "Point", "coordinates": [-81.7372, 37.4952]}, "properties": {"NAME": "W8V/NR-075", "TITLE": "Hensley Knob", "REGION": "New River", "ASSOCIATION": "USA - West Virginia", "POINTS": "4", "BONUSPOINTS": "0"}}, {"type": "Feature", "geometry": {"type": "Point", "coordinates": [-81.6485, 37.3161]}, "properties": {"NAME": "W8V/NR-076", "TITLE": "2507", "REGION": "New River", "ASSOCIATION": "USA - West Virginia", "POINTS": "4", "BONUSPOINTS": "0"}}, {"type": "Feature", "geometry": {"type": "Point", "coordinates": [-81.0808, 38.1555]}, "properties": {"NAME": "W8V/NR-077", "TITLE": "2497", "REGION": "New River", "ASSOCIATION": "USA - West Virginia", "POINTS": "4", "BONUSPOINTS": "0"}}, {"type": "Feature", "geometry": {"type": "Point", "coordinates": [-81.633, 37.6334]}, "properties": {"NAME": "W8V/NR-078", "TITLE": "2404", "REGION": "New River", "ASSOCIATION": "USA - West Virginia", "POINTS": "4", "BONUSPOINTS": "0"}}, {"type": "Feature", "geometry": {"type": "Point", "coordinates": [-81.6835, 37.2843]}, "properties": {"NAME": "W8V/NR-079", "TITLE": "2382", "REGION": "New River", "ASSOCIATION": "USA - West Virginia", "POINTS": "4", "BONUSPOINTS": "0"}}, {"type": "Feature", "geometry": {"type": "Point", "coordinates": [-81.8289, 37.5138]}, "properties": {"NAME": "W8V/NR-080", "TITLE": "2358", "REGION": "New River", "ASSOCIATION": "USA - West Virginia", "POINTS": "4", "BONUSPOINTS": "0"}}, {"type": "Feature", "geometry": {"type": "Point", "coordinates": [-81.7597, 37.5644]}, "properties": {"NAME": "W8V/NR-081", "TITLE": "2300", "REGION": "New River", "ASSOCIATION": "USA - West Virginia", "POINTS": "4", "BONUSPOINTS": "0"}}, {"type": "Feature", "geometry": {"type": "Point", "coordinates": [-81.5052, 37.9513]}, "properties": {"NAME": "W8V/NR-082", "TITLE": "2300", "REGION": "New River", "ASSOCIATION": "USA - West Virginia", "POINTS": "4", "BONUSPOINTS": "0"}}, {"type": "Feature", "geometry": {"type": "Point", "coordinates": [-80.7745, 37.6327]}, "properties": {"NAME": "W8V/NR-083", "TITLE": "Big Bend Mountain", "REGION": "New River", "ASSOCIATION": "USA - West Virginia", "POINTS": "4", "BONUSPOINTS": "0"}}, {"type": "Feature", "geometry": {"type": "Point", "coordinates": [-81.5619, 37.5648]}, "properties": {"NAME": "W8V/NR-084", "TITLE": "2284", "REGION": "New River", "ASSOCIATION": "USA - West Virginia", "POINTS": "4", "BONUSPOINTS": "0"}}, {"type": "Feature", "geometry": {"type": "Point", "coordinates": [-81.7987, 37.5085]}, "properties": {"NAME": "W8V/NR-085", "TITLE": "2260", "REGION": "New River", "ASSOCIATION": "USA - West Virginia", "POINTS": "4", "BONUSPOINTS": "0"}}, {"type": "Feature", "geometry": {"type": "Point", "coordinates": [-81.2364, 38.1425]}, "properties": {"NAME": "W8V/NR-086", "TITLE": "2220", "REGION": "New River", "ASSOCIATION": "USA - West Virginia", "POINTS": "4", "BONUSPOINTS": "0"}}, {"type": "Feature", "geometry": {"type": "Point", "coordinates": [-81.6341, 37.6841]}, "properties": {"NAME": "W8V/NR-087", "TITLE": "2158", "REGION": "New River", "ASSOCIATION": "USA - West Virginia", "POINTS": "4", "BONUSPOINTS": "0"}}, {"type": "Feature", "geometry": {"type": "Point", "coordinates": [-81.8137, 37.5484]}, "properties": {"NAME": "W8V/NR-088", "TITLE": "2132", "REGION": "New River", "ASSOCIATION": "USA - West Virginia", "POINTS": "4", "BONUSPOINTS": "0"}}, {"type": "Feature", "geometry": {"type": "Point", "coordinates": [-81.7386, 37.5925]}, "properties": {"NAME": "W8V/NR-089", "TITLE": "2060", "REGION": "New River", "ASSOCIATION": "USA - West Virginia", "POINTS": "4", "BONUSPOINTS": "0"}}, {"type": "Feature", "geometry": {"type": "Point", "coordinates": [-81.8685, 37.4811]}, "properties": {"NAME": "W8V/NR-090", "TITLE": "2041", "REGION": "New River", "ASSOCIATION": "USA - West Virginia", "POINTS": "4", "BONUSPOINTS": "0"}}, {"type": "Feature", "geometry": {"type": "Point", "coordinates": [-81.6828, 37.6077]}, "properties": {"NAME": "W8V/NR-091", "TITLE": "2020", "REGION": "New River", "ASSOCIATION": "USA - West Virginia", "POINTS": "4", "BONUSPOINTS": "0"}}, {"type": "Feature", "geometry": {"type": "Point", "coordinates": [-81.9225, 37.4724]}, "properties": {"NAME": "W8V/NR-092", "TITLE": "2020", "REGION": "New River", "ASSOCIATION": "USA - West Virginia", "POINTS": "4", "BONUSPOINTS": "0"}}, {"type": "Feature", "geometry": {"type": "Point", "coordinates": [-81.1332, 38.2173]}, "properties": {"NAME": "W8V/NR-093", "TITLE": "1980", "REGION": "New River", "ASSOCIATION": "USA - West Virginia", "POINTS": "2", "BONUSPOINTS": "0"}}]}