{"type": "FeatureCollection", "name": "W5A/OA SUMMITS", "features": [{"type": "Feature", "geometry": {"type": "Point", "coordinates": [-93.2266, 34.73]}, "properties": {"NAME": "W5A/OA-001", "TITLE": "Ouachita Pinnacle", "REGION": "Oak Mountains", "ASSOCIATION": "USA - Arkansas", "POINTS": "6", "BONUSPOINTS": "0"}}, {"type": "Feature", "geometry": {"type": "Point", "coordinates": [-93.0299, 34.7709]}, "properties": {"NAME": "W5A/OA-002", "TITLE": "Smith Pinnacle", "REGION": "Oak Mountains", "ASSOCIATION": "USA - Arkansas", "POINTS": "6", "BONUSPOINTS": "0"}}, {"type": "Feature", "geometry": {"type": "Point", "coordinates": [-93.1313, 34.7865]}, "properties": {"NAME": "W5A/OA-003", "TITLE": "Deckard Mountain", "REGION": "Oak Mountains", "ASSOCIATION": "USA - Arkansas", "POINTS": "6", "BONUSPOINTS": "0"}}, {"type": "Feature", "geometry": {"type": "Point", "coordinates": [-93.3461, 34.7681]}, "properties": {"NAME": "W5A/OA-004", "TITLE": "Powell Mountain", "REGION": "Oak Mountains", "ASSOCIATION": "USA - Arkansas", "POINTS": "6", "BONUSPOINTS": "0"}}, {"type": "Feature", "geometry": {"type": "Point", "coordinates": [-93.1739, 34.7737]}, "properties": {"NAME": "W5A/OA-005", "TITLE": "Brushy Mountain", "REGION": "Oak Mountains", "ASSOCIATION": "USA - Arkansas", "POINTS": "4", "BONUSPOINTS": "0"}}, {"type": "Feature", "geometry": {"type": "Point", "coordinates": [-93.032, 34.8179]}, "properties": {"NAME": "W5A/OA-006", "TITLE": "Oak Mountain", "REGION": "Oak Mountains", "ASSOCIATION": "USA - Arkansas", "POINTS": "4", "BONUSPOINTS": "0"}}, {"type": "Feature", "geometry": {"type": "Point", "coordinates": [-92.9654, 34.7739]}, "properties": {"NAME": "W5A/OA-007", "TITLE": "Angling Pinnacle", "REGION": "Oak Mountains", "ASSOCIATION": "USA - Arkansas", "POINTS": "4", "BONUSPOINTS": "0"}}, {"type": "Feature", "geometry": {"type": "Point", "coordinates": [-92.937, 34.838]}, "properties": {"NAME": "W5A/OA-008", "TITLE": "Crystal Mountain", "REGION": "Oak Mountains", "ASSOCIATION": "USA - Arkansas", "POINTS": "4", "BONUSPOINTS": "0"}}, {"type": "Feature", "geometry": {"type": "Point", "coordinates": [-93.3391, 34.7469]}, "properties": {"NAME": "W5A/OA-009", "TITLE": "1544", "REGION": "Oak Mountains", "ASSOCIATION": "USA - Arkansas", "POINTS": "4", "BONUSPOINTS": "0"}}, {"type": "Feature", "geometry": {"type": "Point", "coordinates": [-93.4706, 34.8528]}, "properties": {"NAME": "W5A/OA-010", "TITLE": "Allen Peak", "REGION": "Oak Mountains", "ASSOCIATION": "USA - Arkansas", "POINTS": "4", "BONUSPOINTS": "0"}}, {"type": "Feature", "geometry": {"type": "Point", "coordinates": [-93.4444, 34.7369]}, "properties": {"NAME": "W5A/OA-011", "TITLE": "Sandlick Mountain", "REGION": "Oak Mountains", "ASSOCIATION": "USA - Arkansas", "POINTS": "4", "BONUSPOINTS": "0"}}, {"type": "Feature", "geometry": {"type": "Point", "coordinates": [-93.0419, 34.8635]}, "properties": {"NAME": "W5A/OA-012", "TITLE": "Forked Mountain", "REGION": "Oak Mountains", "ASSOCIATION": "USA - Arkansas", "POINTS": "2", "BONUSPOINTS": "0"}}, {"type": "Feature", "geometry": {"type": "Point", "coordinates": [-93.1396, 34.6536]}, "properties": {"NAME": "W5A/OA-013", "TITLE": "Mill Creek Mountain", "REGION": "Oak Mountains", "ASSOCIATION": "USA - Arkansas", "POINTS": "2", "BONUSPOINTS": "0"}}, {"type": "Feature", "geometry": {"type": "Point", "coordinates": [-93.0537, 34.6148]}, "properties": {"NAME": "W5A/OA-014", "TITLE": "Glazypeau Mountain", "REGION": "Oak Mountains", "ASSOCIATION": "USA - Arkansas", "POINTS": "2", "BONUSPOINTS": "0"}}, {"type": "Feature", "geometry": {"type": "Point", "coordinates": [-92.497, 34.7989]}, "properties": {"NAME": "W5A/OA-015", "TITLE": "Shinall Mountain", "REGION": "Oak Mountains", "ASSOCIATION": "USA - Arkansas", "POINTS": "1", "BONUSPOINTS": "0"}}, {"type": "Feature", "geometry": {"type": "Point", "coordinates": [-92.4859, 34.8418]}, "properties": {"NAME": "W5A/OA-016", "TITLE": "Pinnacle Mountain", "REGION": "Oak Mountains", "ASSOCIATION": "USA - Arkansas", "POINTS": "1", "BONUSPOINTS": "0"}}]}