{"type": "FeatureCollection", "name": "W5A/OZ SUMMITS", "features": [{"type": "Feature", "geometry": {"type": "Point", "coordinates": [-93.5006, 35.799]}, "properties": {"NAME": "W5A/OZ-001", "TITLE": "Yates Benchmark", "REGION": "Ozark Mountains", "ASSOCIATION": "USA - Arkansas", "POINTS": "10", "BONUSPOINTS": "0"}}, {"type": "Feature", "geometry": {"type": "Point", "coordinates": [-93.7571, 35.7597]}, "properties": {"NAME": "W5A/OZ-002", "TITLE": "Hare Mountain", "REGION": "Ozark Mountains", "ASSOCIATION": "USA - Arkansas", "POINTS": "10", "BONUSPOINTS": "0"}}, {"type": "Feature", "geometry": {"type": "Point", "coordinates": [-93.9427, 35.7878]}, "properties": {"NAME": "W5A/OZ-003", "TITLE": "Health Lookout", "REGION": "Ozark Mountains", "ASSOCIATION": "USA - Arkansas", "POINTS": "10", "BONUSPOINTS": "0"}}, {"type": "Feature", "geometry": {"type": "Point", "coordinates": [-93.2502, 35.5875]}, "properties": {"NAME": "W5A/OZ-004", "TITLE": "Pilot Knob", "REGION": "Ozark Mountains", "ASSOCIATION": "USA - Arkansas", "POINTS": "8", "BONUSPOINTS": "0"}}, {"type": "Feature", "geometry": {"type": "Point", "coordinates": [-93.7556, 35.6073]}, "properties": {"NAME": "W5A/OZ-005", "TITLE": "Carter Mountain", "REGION": "Ozark Mountains", "ASSOCIATION": "USA - Arkansas", "POINTS": "8", "BONUSPOINTS": "0"}}, {"type": "Feature", "geometry": {"type": "Point", "coordinates": [-93.3478, 35.5858]}, "properties": {"NAME": "W5A/OZ-006", "TITLE": "Woods Mountain", "REGION": "Ozark Mountains", "ASSOCIATION": "USA - Arkansas", "POINTS": "8", "BONUSPOINTS": "0"}}, {"type": "Feature", "geometry": {"type": "Point", "coordinates": [-93.7406, 35.6346]}, "properties": {"NAME": "W5A/OZ-007", "TITLE": "Brushy Mountain", "REGION": "Ozark Mountains", "ASSOCIATION": "USA - Arkansas", "POINTS": "6", "BONUSPOINTS": "0"}}, {"type": "Feature", "geometry": {"type": "Point", "coordinates": [-92.8973, 35.4957]}, "properties": {"NAME": "W5A/OZ-008", "TITLE": "White Oak Mountain", "REGION": "Ozark Mountains", "ASSOCIATION": "USA - Arkansas", "POINTS": "6", "BONUSPOINTS": "0"}}, {"type": "Feature", "geometry": {"type": "Point", "coordinates": [-93.2835, 35.641]}, "properties": {"NAME": "W5A/OZ-009", "TITLE": "Hess Knob", "REGION": "Ozark Mountains", "ASSOCIATION": "USA - Arkansas", "POINTS": "6", "BONUSPOINTS": "0"}}, {"type": "Feature", "geometry": {"type": "Point", "coordinates": [-93.7852, 35.6138]}, "properties": {"NAME": "W5A/OZ-010", "TITLE": "Douglas Mountain", "REGION": "Ozark Mountains", "ASSOCIATION": "USA - Arkansas", "POINTS": "6", "BONUSPOINTS": "0"}}, {"type": "Feature", "geometry": {"type": "Point", "coordinates": [-92.2663, 35.5612]}, "properties": {"NAME": "W5A/OZ-011", "TITLE": "Sugar Loaf Mountain", "REGION": "Ozark Mountains", "ASSOCIATION": "USA - Arkansas", "POINTS": "1", "BONUSPOINTS": "0"}}, {"type": "Feature", "geometry": {"type": "Point", "coordinates": [-93.8432, 35.7567]}, "properties": {"NAME": "W5A/OZ-012", "TITLE": "Whiting Mountain", "REGION": "Ozark Mountains", "ASSOCIATION": "USA - Arkansas", "POINTS": "10", "BONUSPOINTS": "0"}}]}