{"type": "FeatureCollection", "name": "W4G/HC SUMMITS", "features": [{"type": "Feature", "geometry": {"type": "Point", "coordinates": [-84.5741, 34.8898]}, "properties": {"NAME": "W4G/HC-001", "TITLE": "Cowpen Mountain", "REGION": "Historic High Country", "ASSOCIATION": "USA - Georgia"}}, {"type": "Feature", "geometry": {"type": "Point", "coordinates": [-84.3208, 34.7516]}, "properties": {"NAME": "W4G/HC-002", "TITLE": "Big Bald Mountain", "REGION": "Historic High Country", "ASSOCIATION": "USA - Georgia"}}, {"type": "Feature", "geometry": {"type": "Point", "coordinates": [-84.6283, 34.8645]}, "properties": {"NAME": "W4G/HC-003", "TITLE": "Bald Mountain", "REGION": "Historic High Country", "ASSOCIATION": "USA - Georgia"}}, {"type": "Feature", "geometry": {"type": "Point", "coordinates": [-84.3556, 34.7148]}, "properties": {"NAME": "W4G/HC-004", "TITLE": "Stover Mountain", "REGION": "Historic High Country", "ASSOCIATION": "USA - Georgia"}}, {"type": "Feature", "geometry": {"type": "Point", "coordinates": [-84.1937, 34.6268]}, "properties": {"NAME": "W4G/HC-005", "TITLE": "Springer Mountain", "REGION": "Historic High Country", "ASSOCIATION": "USA - Georgia"}}, {"type": "Feature", "geometry": {"type": "Point", "coordinates": [-84.5043, 34.8574]}, "properties": {"NAME": "W4G/HC-006", "TITLE": "Flat Top Mountain", "REGION": "Historic High Country", "ASSOCIATION": "USA - Georgia"}}, {"type": "Feature", "geometry": {"type": "Point", "coordinates": [-84.67, 34.8619]}, "properties": {"NAME": "W4G/HC-007", "TITLE": "Grassy Mountain", "REGION": "Historic High Country", "ASSOCIATION": "USA - Georgia"}}, {"type": "Feature", "geometry": {"type": "Point", "coordinates": [-84.3219, 34.7951]}, "properties": {"NAME": "W4G/HC-008", "TITLE": "Rocky Mountain", "REGION": "Historic High Country", "ASSOCIATION": "USA - Georgia"}}, {"type": "Feature", "geometry": {"type": "Point", "coordinates": [-84.5152, 34.891]}, "properties": {"NAME": "W4G/HC-009", "TITLE": "Dyer Mountain", "REGION": "Historic High Country", "ASSOCIATION": "USA - Georgia"}}, {"type": "Feature", "geometry": {"type": "Point", "coordinates": [-84.3615, 34.5347]}, "properties": {"NAME": "W4G/HC-010", "TITLE": "Burnt Mountain", "REGION": "Historic High Country", "ASSOCIATION": "USA - Georgia"}}, {"type": "Feature", "geometry": {"type": "Point", "coordinates": [-84.1994, 34.8099]}, "properties": {"NAME": "W4G/HC-011", "TITLE": "Tipton Mountain", "REGION": "Historic High Country", "ASSOCIATION": "USA - Georgia"}}, {"type": "Feature", "geometry": {"type": "Point", "coordinates": [-84.2585, 34.7073]}, "properties": {"NAME": "W4G/HC-012", "TITLE": "Wilson Mountain", "REGION": "Historic High Country", "ASSOCIATION": "USA - Georgia"}}, {"type": "Feature", "geometry": {"type": "Point", "coordinates": [-84.6383, 34.773]}, "properties": {"NAME": "W4G/HC-013", "TITLE": "Tatum Mountain", "REGION": "Historic High Country", "ASSOCIATION": "USA - Georgia"}}, {"type": "Feature", "geometry": {"type": "Point", "coordinates": [-84.6568, 34.7292]}, "properties": {"NAME": "W4G/HC-014", "TITLE": "2842", "REGION": "Historic High Country", "ASSOCIATION": "USA - Georgia"}}, {"type": "Feature", "geometry": {"type": "Point", "coordinates": [-84.1683, 34.753]}, "properties": {"NAME": "W4G/HC-015", "TITLE": "Tooni Mountain", "REGION": "Historic High Country", "ASSOCIATION": "USA - Georgia"}}, {"type": "Feature", "geometry": {"type": "Point", "coordinates": [-84.2472, 34.9782]}, "properties": {"NAME": "W4G/HC-016", "TITLE": "Watson Mountain", "REGION": "Historic High Country", "ASSOCIATION": "USA - Georgia"}}, {"type": "Feature", "geometry": {"type": "Point", "coordinates": [-84.4085, 34.8475]}, "properties": {"NAME": "W4G/HC-017", "TITLE": "Bushy Head Mountain", "REGION": "Historic High Country", "ASSOCIATION": "USA - Georgia"}}, {"type": "Feature", "geometry": {"type": "Point", "coordinates": [-84.4121, 34.8654]}, "properties": {"NAME": "W4G/HC-018", "TITLE": "Prince Mountain", "REGION": "Historic High Country", "ASSOCIATION": "USA - Georgia"}}, {"type": "Feature", "geometry": {"type": "Point", "coordinates": [-84.3766, 34.5045]}, "properties": {"NAME": "W4G/HC-019", "TITLE": "Sharptop Mountain", "REGION": "Historic High Country", "ASSOCIATION": "USA - Georgia"}}, {"type": "Feature", "geometry": {"type": "Point", "coordinates": [-84.5106, 34.7785]}, "properties": {"NAME": "W4G/HC-020", "TITLE": "Douglas Mountain", "REGION": "Historic High Country", "ASSOCIATION": "USA - Georgia"}}, {"type": "Feature", "geometry": {"type": "Point", "coordinates": [-84.2712, 34.9575]}, "properties": {"NAME": "W4G/HC-021", "TITLE": "Piney Mountain", "REGION": "Historic High Country", "ASSOCIATION": "USA - Georgia"}}, {"type": "Feature", "geometry": {"type": "Point", "coordinates": [-85.3924, 34.8638]}, "properties": {"NAME": "W4G/HC-022", "TITLE": "High Point", "REGION": "Historic High Country", "ASSOCIATION": "USA - Georgia"}}, {"type": "Feature", "geometry": {"type": "Point", "coordinates": [-84.5073, 34.439]}, "properties": {"NAME": "W4G/HC-023", "TITLE": "Sharp Mountain", "REGION": "Historic High Country", "ASSOCIATION": "USA - Georgia"}}, {"type": "Feature", "geometry": {"type": "Point", "coordinates": [-85.3845, 34.6986]}, "properties": {"NAME": "W4G/HC-024", "TITLE": "High Point", "REGION": "Historic High Country", "ASSOCIATION": "USA - Georgia"}}, {"type": "Feature", "geometry": {"type": "Point", "coordinates": [-84.6371, 34.3218]}, "properties": {"NAME": "W4G/HC-025", "TITLE": "Pine Log Mountain", "REGION": "Historic High Country", "ASSOCIATION": "USA - Georgia"}}, {"type": "Feature", "geometry": {"type": "Point", "coordinates": [-84.4914, 34.6305]}, "properties": {"NAME": "W4G/HC-026", "TITLE": "Talona Mountain", "REGION": "Historic High Country", "ASSOCIATION": "USA - Georgia"}}, {"type": "Feature", "geometry": {"type": "Point", "coordinates": [-84.6909, 34.9606]}, "properties": {"NAME": "W4G/HC-027", "TITLE": "2032", "REGION": "Historic High Country", "ASSOCIATION": "USA - Georgia"}}, {"type": "Feature", "geometry": {"type": "Point", "coordinates": [-84.2632, 34.4368]}, "properties": {"NAME": "W4G/HC-028", "TITLE": "Potts Mountain", "REGION": "Historic High Country", "ASSOCIATION": "USA - Georgia"}}, {"type": "Feature", "geometry": {"type": "Point", "coordinates": [-85.0983, 34.6231]}, "properties": {"NAME": "W4G/HC-029", "TITLE": "Johns Mountain", "REGION": "Historic High Country", "ASSOCIATION": "USA - Georgia"}}, {"type": "Feature", "geometry": {"type": "Point", "coordinates": [-85.0508, 34.6503]}, "properties": {"NAME": "W4G/HC-030", "TITLE": "Mill Creek Mountain", "REGION": "Historic High Country", "ASSOCIATION": "USA - Georgia"}}, {"type": "Feature", "geometry": {"type": "Point", "coordinates": [-85.0719, 34.5381]}, "properties": {"NAME": "W4G/HC-031", "TITLE": "Horn Mountain", "REGION": "Historic High Country", "ASSOCIATION": "USA - Georgia"}}, {"type": "Feature", "geometry": {"type": "Point", "coordinates": [-85.3451, 34.7332]}, "properties": {"NAME": "W4G/HC-032", "TITLE": "1751", "REGION": "Historic High Country", "ASSOCIATION": "USA - Georgia"}}, {"type": "Feature", "geometry": {"type": "Point", "coordinates": [-85.2883, 34.322]}, "properties": {"NAME": "W4G/HC-033", "TITLE": "Lavender Mountain", "REGION": "Historic High Country", "ASSOCIATION": "USA - Georgia"}}, {"type": "Feature", "geometry": {"type": "Point", "coordinates": [-85.4663, 34.9667]}, "properties": {"NAME": "W4G/HC-034", "TITLE": "Tatum Mountain", "REGION": "Historic High Country", "ASSOCIATION": "USA - Georgia"}}, {"type": "Feature", "geometry": {"type": "Point", "coordinates": [-85.2538, 34.5495]}, "properties": {"NAME": "W4G/HC-035", "TITLE": "Taylor Ridge", "REGION": "Historic High Country", "ASSOCIATION": "USA - Georgia"}}, {"type": "Feature", "geometry": {"type": "Point", "coordinates": [-84.745, 34.1768]}, "properties": {"NAME": "W4G/HC-036", "TITLE": "Pine Mountain", "REGION": "Historic High Country", "ASSOCIATION": "USA - Georgia"}}, {"type": "Feature", "geometry": {"type": "Point", "coordinates": [-85.3565, 34.39]}, "properties": {"NAME": "W4G/HC-037", "TITLE": "High Point", "REGION": "Historic High Country", "ASSOCIATION": "USA - Georgia"}}, {"type": "Feature", "geometry": {"type": "Point", "coordinates": [-85.3829, 34.3015]}, "properties": {"NAME": "W4G/HC-038", "TITLE": "Simms Mountain", "REGION": "Historic High Country", "ASSOCIATION": "USA - Georgia"}}, {"type": "Feature", "geometry": {"type": "Point", "coordinates": [-85.2346, 34.2332]}, "properties": {"NAME": "W4G/HC-039", "TITLE": "Alto, Mount", "REGION": "Historic High Country", "ASSOCIATION": "USA - Georgia"}}, {"type": "Feature", "geometry": {"type": "Point", "coordinates": [-85.3641, 34.2809]}, "properties": {"NAME": "W4G/HC-040", "TITLE": "Turnip Mountain", "REGION": "Historic High Country", "ASSOCIATION": "USA - Georgia"}}, {"type": "Feature", "geometry": {"type": "Point", "coordinates": [-85.3059, 34.3456]}, "properties": {"NAME": "W4G/HC-041", "TITLE": "Rock Mountain", "REGION": "Historic High Country", "ASSOCIATION": "USA - Georgia"}}, {"type": "Feature", "geometry": {"type": "Point", "coordinates": [-85.1744, 34.5973]}, "properties": {"NAME": "W4G/HC-042", "TITLE": "Strawberry Mountain", "REGION": "Historic High Country", "ASSOCIATION": "USA - Georgia"}}, {"type": "Feature", "geometry": {"type": "Point", "coordinates": [-84.7286, 34.159]}, "properties": {"NAME": "W4G/HC-043", "TITLE": "Vineyard Mountain", "REGION": "Historic High Country", "ASSOCIATION": "USA - Georgia"}}, {"type": "Feature", "geometry": {"type": "Point", "coordinates": [-85.1236, 34.4148]}, "properties": {"NAME": "W4G/HC-044", "TITLE": "Turkey Mountain", "REGION": "Historic High Country", "ASSOCIATION": "USA - Georgia"}}, {"type": "Feature", "geometry": {"type": "Point", "coordinates": [-85.3899, 34.2523]}, "properties": {"NAME": "W4G/HC-045", "TITLE": "Heath Mountain", "REGION": "Historic High Country", "ASSOCIATION": "USA - Georgia"}}, {"type": "Feature", "geometry": {"type": "Point", "coordinates": [-85.0215, 34.5441]}, "properties": {"NAME": "W4G/HC-046", "TITLE": "Baugh Mountain", "REGION": "Historic High Country", "ASSOCIATION": "USA - Georgia"}}]}