{"type": "FeatureCollection", "name": "W4G/NG SUMMITS", "features": [{"type": "Feature", "geometry": {"type": "Point", "coordinates": [-83.8108, 34.8743]}, "properties": {"NAME": "W4G/NG-001", "TITLE": "Brasstown Bald", "REGION": "North Georgia", "ASSOCIATION": "USA - Georgia"}}, {"type": "Feature", "geometry": {"type": "Point", "coordinates": [-83.2998, 34.9656]}, "properties": {"NAME": "W4G/NG-002", "TITLE": "Rabun Bald", "REGION": "North Georgia", "ASSOCIATION": "USA - Georgia"}}, {"type": "Feature", "geometry": {"type": "Point", "coordinates": [-83.6202, 34.9848]}, "properties": {"NAME": "W4G/NG-003", "TITLE": "Hightower Bald", "REGION": "North Georgia", "ASSOCIATION": "USA - Georgia"}}, {"type": "Feature", "geometry": {"type": "Point", "coordinates": [-83.937, 34.7398]}, "properties": {"NAME": "W4G/NG-004", "TITLE": "Blood Mountain", "REGION": "North Georgia", "ASSOCIATION": "USA - Georgia"}}, {"type": "Feature", "geometry": {"type": "Point", "coordinates": [-83.6838, 34.8014]}, "properties": {"NAME": "W4G/NG-005", "TITLE": "Tray Mountain", "REGION": "North Georgia", "ASSOCIATION": "USA - Georgia"}}, {"type": "Feature", "geometry": {"type": "Point", "coordinates": [-83.9634, 34.7789]}, "properties": {"NAME": "W4G/NG-006", "TITLE": "Coosa Bald", "REGION": "North Georgia", "ASSOCIATION": "USA - Georgia"}}, {"type": "Feature", "geometry": {"type": "Point", "coordinates": [-83.6569, 34.8785]}, "properties": {"NAME": "W4G/NG-007", "TITLE": "Double Spring Knob", "REGION": "North Georgia", "ASSOCIATION": "USA - Georgia"}}, {"type": "Feature", "geometry": {"type": "Point", "coordinates": [-83.6909, 34.9643]}, "properties": {"NAME": "W4G/NG-008", "TITLE": "Eagle Mountain", "REGION": "North Georgia", "ASSOCIATION": "USA - Georgia"}}, {"type": "Feature", "geometry": {"type": "Point", "coordinates": [-83.8121, 34.802]}, "properties": {"NAME": "W4G/NG-009", "TITLE": "Horsetrough Mountain", "REGION": "North Georgia", "ASSOCIATION": "USA - Georgia"}}, {"type": "Feature", "geometry": {"type": "Point", "coordinates": [-83.7553, 34.8126]}, "properties": {"NAME": "W4G/NG-010", "TITLE": "Blue Mountain", "REGION": "North Georgia", "ASSOCIATION": "USA - Georgia"}}, {"type": "Feature", "geometry": {"type": "Point", "coordinates": [-83.7299, 34.7984]}, "properties": {"NAME": "W4G/NG-011", "TITLE": "Rocky Mountain", "REGION": "North Georgia", "ASSOCIATION": "USA - Georgia"}}, {"type": "Feature", "geometry": {"type": "Point", "coordinates": [-83.4742, 34.9642]}, "properties": {"NAME": "W4G/NG-012", "TITLE": "Wolf Knob", "REGION": "North Georgia", "ASSOCIATION": "USA - Georgia"}}, {"type": "Feature", "geometry": {"type": "Point", "coordinates": [-83.6617, 34.8482]}, "properties": {"NAME": "W4G/NG-013", "TITLE": "Round Top", "REGION": "North Georgia", "ASSOCIATION": "USA - Georgia"}}, {"type": "Feature", "geometry": {"type": "Point", "coordinates": [-83.903, 34.7322]}, "properties": {"NAME": "W4G/NG-014", "TITLE": "Levelland Mountain", "REGION": "North Georgia", "ASSOCIATION": "USA - Georgia"}}, {"type": "Feature", "geometry": {"type": "Point", "coordinates": [-83.3565, 34.9375]}, "properties": {"NAME": "W4G/NG-015", "TITLE": "Oakey Mountain", "REGION": "North Georgia", "ASSOCIATION": "USA - Georgia"}}, {"type": "Feature", "geometry": {"type": "Point", "coordinates": [-83.9994, 34.7291]}, "properties": {"NAME": "W4G/NG-016", "TITLE": "Rocky Mountain", "REGION": "North Georgia", "ASSOCIATION": "USA - Georgia"}}, {"type": "Feature", "geometry": {"type": "Point", "coordinates": [-83.9982, 34.7873]}, "properties": {"NAME": "W4G/NG-017", "TITLE": "Buckeye Knob", "REGION": "North Georgia", "ASSOCIATION": "USA - Georgia"}}, {"type": "Feature", "geometry": {"type": "Point", "coordinates": [-83.7535, 34.8491]}, "properties": {"NAME": "W4G/NG-018", "TITLE": "Spaniard Mountain", "REGION": "North Georgia", "ASSOCIATION": "USA - Georgia"}}, {"type": "Feature", "geometry": {"type": "Point", "coordinates": [-83.4405, 34.9522]}, "properties": {"NAME": "W4G/NG-019", "TITLE": "Penson Knob", "REGION": "North Georgia", "ASSOCIATION": "USA - Georgia"}}, {"type": "Feature", "geometry": {"type": "Point", "coordinates": [-83.8382, 34.7174]}, "properties": {"NAME": "W4G/NG-020", "TITLE": "Wildcat Mountain", "REGION": "North Georgia", "ASSOCIATION": "USA - Georgia"}}, {"type": "Feature", "geometry": {"type": "Point", "coordinates": [-83.6025, 34.9335]}, "properties": {"NAME": "W4G/NG-021", "TITLE": "Buzzard Knob", "REGION": "North Georgia", "ASSOCIATION": "USA - Georgia"}}, {"type": "Feature", "geometry": {"type": "Point", "coordinates": [-84.0061, 34.6749]}, "properties": {"NAME": "W4G/NG-022", "TITLE": "Black Mountain", "REGION": "North Georgia", "ASSOCIATION": "USA - Georgia"}}, {"type": "Feature", "geometry": {"type": "Point", "coordinates": [-83.9922, 34.689]}, "properties": {"NAME": "W4G/NG-023", "TITLE": "Big Cedar Mountain", "REGION": "North Georgia", "ASSOCIATION": "USA - Georgia"}}, {"type": "Feature", "geometry": {"type": "Point", "coordinates": [-83.3439, 34.9149]}, "properties": {"NAME": "W4G/NG-024", "TITLE": "Rock Mountain", "REGION": "North Georgia", "ASSOCIATION": "USA - Georgia"}}, {"type": "Feature", "geometry": {"type": "Point", "coordinates": [-83.1342, 34.9983]}, "properties": {"NAME": "W4G/NG-025", "TITLE": "Glade Mountain", "REGION": "North Georgia", "ASSOCIATION": "USA - Georgia"}}, {"type": "Feature", "geometry": {"type": "Point", "coordinates": [-83.9158, 34.943]}, "properties": {"NAME": "W4G/NG-026", "TITLE": "Ravencliff Knob", "REGION": "North Georgia", "ASSOCIATION": "USA - Georgia"}}, {"type": "Feature", "geometry": {"type": "Point", "coordinates": [-83.4206, 34.9036]}, "properties": {"NAME": "W4G/NG-027", "TITLE": "Blackrock Mountain", "REGION": "North Georgia", "ASSOCIATION": "USA - Georgia"}}, {"type": "Feature", "geometry": {"type": "Point", "coordinates": [-84.0782, 34.7998]}, "properties": {"NAME": "W4G/NG-028", "TITLE": "Parke Knob", "REGION": "North Georgia", "ASSOCIATION": "USA - Georgia"}}, {"type": "Feature", "geometry": {"type": "Point", "coordinates": [-84.0496, 34.8003]}, "properties": {"NAME": "W4G/NG-029", "TITLE": "Akin Mountain", "REGION": "North Georgia", "ASSOCIATION": "USA - Georgia"}}, {"type": "Feature", "geometry": {"type": "Point", "coordinates": [-83.7468, 34.8823]}, "properties": {"NAME": "W4G/NG-030", "TITLE": "Round Top", "REGION": "North Georgia", "ASSOCIATION": "USA - Georgia"}}, {"type": "Feature", "geometry": {"type": "Point", "coordinates": [-83.5002, 34.8453]}, "properties": {"NAME": "W4G/NG-031", "TITLE": "Glassy Mountain", "REGION": "North Georgia", "ASSOCIATION": "USA - Georgia"}}, {"type": "Feature", "geometry": {"type": "Point", "coordinates": [-83.6041, 34.9133]}, "properties": {"NAME": "W4G/NG-032", "TITLE": "Little Bald Knob", "REGION": "North Georgia", "ASSOCIATION": "USA - Georgia"}}, {"type": "Feature", "geometry": {"type": "Point", "coordinates": [-84.1195, 34.683]}, "properties": {"NAME": "W4G/NG-033", "TITLE": "Frozen Knob", "REGION": "North Georgia", "ASSOCIATION": "USA - Georgia"}}, {"type": "Feature", "geometry": {"type": "Point", "coordinates": [-83.9339, 34.7703]}, "properties": {"NAME": "W4G/NG-034", "TITLE": "Sheriff Knob", "REGION": "North Georgia", "ASSOCIATION": "USA - Georgia"}}, {"type": "Feature", "geometry": {"type": "Point", "coordinates": [-83.7291, 34.9599]}, "properties": {"NAME": "W4G/NG-035", "TITLE": "Bell Knob", "REGION": "North Georgia", "ASSOCIATION": "USA - Georgia"}}, {"type": "Feature", "geometry": {"type": "Point", "coordinates": [-83.8918, 34.8834]}, "properties": {"NAME": "W4G/NG-036", "TITLE": "Thunder-Struck Mountain", "REGION": "North Georgia", "ASSOCIATION": "USA - Georgia"}}, {"type": "Feature", "geometry": {"type": "Point", "coordinates": [-84.0217, 34.6988]}, "properties": {"NAME": "W4G/NG-037", "TITLE": "Abercrombie Bald", "REGION": "North Georgia", "ASSOCIATION": "USA - Georgia"}}, {"type": "Feature", "geometry": {"type": "Point", "coordinates": [-83.9088, 34.9191]}, "properties": {"NAME": "W4G/NG-038", "TITLE": "Hullander Knobs West", "REGION": "North Georgia", "ASSOCIATION": "USA - Georgia"}}, {"type": "Feature", "geometry": {"type": "Point", "coordinates": [-83.8174, 34.9493]}, "properties": {"NAME": "W4G/NG-039", "TITLE": "Rocky Knob", "REGION": "North Georgia", "ASSOCIATION": "USA - Georgia"}}, {"type": "Feature", "geometry": {"type": "Point", "coordinates": [-84.094, 34.6531]}, "properties": {"NAME": "W4G/NG-040", "TITLE": "Sassafras Mountain", "REGION": "North Georgia", "ASSOCIATION": "USA - Georgia"}}, {"type": "Feature", "geometry": {"type": "Point", "coordinates": [-84.0382, 34.6509]}, "properties": {"NAME": "W4G/NG-041", "TITLE": "Gooch Mountain", "REGION": "North Georgia", "ASSOCIATION": "USA - Georgia"}}, {"type": "Feature", "geometry": {"type": "Point", "coordinates": [-83.7733, 34.9147]}, "properties": {"NAME": "W4G/NG-042", "TITLE": "Harris Mountain", "REGION": "North Georgia", "ASSOCIATION": "USA - Georgia"}}, {"type": "Feature", "geometry": {"type": "Point", "coordinates": [-83.2652, 34.9571]}, "properties": {"NAME": "W4G/NG-043", "TITLE": "Hale Ridge", "REGION": "North Georgia", "ASSOCIATION": "USA - Georgia"}}, {"type": "Feature", "geometry": {"type": "Point", "coordinates": [-83.4585, 34.922]}, "properties": {"NAME": "W4G/NG-044", "TITLE": "Billy Mountain", "REGION": "North Georgia", "ASSOCIATION": "USA - Georgia"}}, {"type": "Feature", "geometry": {"type": "Point", "coordinates": [-83.3978, 34.9274]}, "properties": {"NAME": "W4G/NG-045", "TITLE": "Marsen Knob", "REGION": "North Georgia", "ASSOCIATION": "USA - Georgia"}}, {"type": "Feature", "geometry": {"type": "Point", "coordinates": [-83.531, 34.9381]}, "properties": {"NAME": "W4G/NG-046", "TITLE": "Straw Mountain", "REGION": "North Georgia", "ASSOCIATION": "USA - Georgia"}}, {"type": "Feature", "geometry": {"type": "Point", "coordinates": [-83.5456, 34.7501]}, "properties": {"NAME": "W4G/NG-047", "TITLE": "Oakey Mountain", "REGION": "North Georgia", "ASSOCIATION": "USA - Georgia"}}, {"type": "Feature", "geometry": {"type": "Point", "coordinates": [-83.7135, 34.6376]}, "properties": {"NAME": "W4G/NG-048", "TITLE": "Yonah Mountain", "REGION": "North Georgia", "ASSOCIATION": "USA - Georgia"}}, {"type": "Feature", "geometry": {"type": "Point", "coordinates": [-83.3689, 34.8936]}, "properties": {"NAME": "W4G/NG-049", "TITLE": "Pinnacle Knob", "REGION": "North Georgia", "ASSOCIATION": "USA - Georgia"}}, {"type": "Feature", "geometry": {"type": "Point", "coordinates": [-84.0861, 34.7486]}, "properties": {"NAME": "W4G/NG-050", "TITLE": "Rocky Mountain", "REGION": "North Georgia", "ASSOCIATION": "USA - Georgia"}}, {"type": "Feature", "geometry": {"type": "Point", "coordinates": [-84.1458, 34.8358]}, "properties": {"NAME": "W4G/NG-051", "TITLE": "Payne Mountain", "REGION": "North Georgia", "ASSOCIATION": "USA - Georgia"}}, {"type": "Feature", "geometry": {"type": "Point", "coordinates": [-84.0448, 34.7228]}, "properties": {"NAME": "W4G/NG-052", "TITLE": "Pilot Mountain", "REGION": "North Georgia", "ASSOCIATION": "USA - Georgia"}}, {"type": "Feature", "geometry": {"type": "Point", "coordinates": [-84.0039, 34.9821]}, "properties": {"NAME": "W4G/NG-053", "TITLE": "Rocky Top", "REGION": "North Georgia", "ASSOCIATION": "USA - Georgia"}}, {"type": "Feature", "geometry": {"type": "Point", "coordinates": [-83.4955, 34.8866]}, "properties": {"NAME": "W4G/NG-054", "TITLE": "Oakey Mountain", "REGION": "North Georgia", "ASSOCIATION": "USA - Georgia"}}, {"type": "Feature", "geometry": {"type": "Point", "coordinates": [-83.4849, 34.777]}, "properties": {"NAME": "W4G/NG-055", "TITLE": "Joe Mountain", "REGION": "North Georgia", "ASSOCIATION": "USA - Georgia"}}, {"type": "Feature", "geometry": {"type": "Point", "coordinates": [-83.3753, 34.8728]}, "properties": {"NAME": "W4G/NG-056", "TITLE": "Screamer Mountain", "REGION": "North Georgia", "ASSOCIATION": "USA - Georgia"}}, {"type": "Feature", "geometry": {"type": "Point", "coordinates": [-83.5381, 34.8354]}, "properties": {"NAME": "W4G/NG-057", "TITLE": "Charlie Mountain", "REGION": "North Georgia", "ASSOCIATION": "USA - Georgia"}}, {"type": "Feature", "geometry": {"type": "Point", "coordinates": [-83.3229, 34.8623]}, "properties": {"NAME": "W4G/NG-058", "TITLE": "Rainy Mountain", "REGION": "North Georgia", "ASSOCIATION": "USA - Georgia"}}, {"type": "Feature", "geometry": {"type": "Point", "coordinates": [-83.9258, 34.8754]}, "properties": {"NAME": "W4G/NG-059", "TITLE": "Beasley Knob", "REGION": "North Georgia", "ASSOCIATION": "USA - Georgia"}}, {"type": "Feature", "geometry": {"type": "Point", "coordinates": [-83.4471, 34.8655]}, "properties": {"NAME": "W4G/NG-060", "TITLE": "Tiger Mountain", "REGION": "North Georgia", "ASSOCIATION": "USA - Georgia"}}, {"type": "Feature", "geometry": {"type": "Point", "coordinates": [-83.1364, 34.9562]}, "properties": {"NAME": "W4G/NG-061", "TITLE": "Rand Mountain", "REGION": "North Georgia", "ASSOCIATION": "USA - Georgia"}}, {"type": "Feature", "geometry": {"type": "Point", "coordinates": [-83.952, 34.8286]}, "properties": {"NAME": "W4G/NG-062", "TITLE": "Epps Mountain", "REGION": "North Georgia", "ASSOCIATION": "USA - Georgia"}}, {"type": "Feature", "geometry": {"type": "Point", "coordinates": [-84.1074, 34.887]}, "properties": {"NAME": "W4G/NG-063", "TITLE": "Sharptop Mountain", "REGION": "North Georgia", "ASSOCIATION": "USA - Georgia"}}, {"type": "Feature", "geometry": {"type": "Point", "coordinates": [-83.8801, 34.6727]}, "properties": {"NAME": "W4G/NG-064", "TITLE": "Buzzard Mountain", "REGION": "North Georgia", "ASSOCIATION": "USA - Georgia"}}, {"type": "Feature", "geometry": {"type": "Point", "coordinates": [-83.4462, 34.743]}, "properties": {"NAME": "W4G/NG-065", "TITLE": "Pigeon Mountain", "REGION": "North Georgia", "ASSOCIATION": "USA - Georgia"}}, {"type": "Feature", "geometry": {"type": "Point", "coordinates": [-83.161, 34.9366]}, "properties": {"NAME": "W4G/NG-066", "TITLE": "Oakey Top", "REGION": "North Georgia", "ASSOCIATION": "USA - Georgia"}}, {"type": "Feature", "geometry": {"type": "Point", "coordinates": [-84.045, 34.8785]}, "properties": {"NAME": "W4G/NG-067", "TITLE": "Peter Young Mountain", "REGION": "North Georgia", "ASSOCIATION": "USA - Georgia"}}, {"type": "Feature", "geometry": {"type": "Point", "coordinates": [-83.5251, 34.9074]}, "properties": {"NAME": "W4G/NG-068", "TITLE": "Buzzard Rock Mountain", "REGION": "North Georgia", "ASSOCIATION": "USA - Georgia"}}, {"type": "Feature", "geometry": {"type": "Point", "coordinates": [-83.2727, 34.8905]}, "properties": {"NAME": "W4G/NG-069", "TITLE": "Pollywah Knob", "REGION": "North Georgia", "ASSOCIATION": "USA - Georgia"}}, {"type": "Feature", "geometry": {"type": "Point", "coordinates": [-83.8067, 34.5096]}, "properties": {"NAME": "W4G/NG-070", "TITLE": "Walker Mountain", "REGION": "North Georgia", "ASSOCIATION": "USA - Georgia"}}, {"type": "Feature", "geometry": {"type": "Point", "coordinates": [-83.208, 34.9152]}, "properties": {"NAME": "W4G/NG-071", "TITLE": "Oakey Top", "REGION": "North Georgia", "ASSOCIATION": "USA - Georgia"}}, {"type": "Feature", "geometry": {"type": "Point", "coordinates": [-83.3834, 34.8533]}, "properties": {"NAME": "W4G/NG-072", "TITLE": "Stroud Mountain", "REGION": "North Georgia", "ASSOCIATION": "USA - Georgia"}}, {"type": "Feature", "geometry": {"type": "Point", "coordinates": [-83.402, 34.8188]}, "properties": {"NAME": "W4G/NG-073", "TITLE": "2420", "REGION": "North Georgia", "ASSOCIATION": "USA - Georgia"}}, {"type": "Feature", "geometry": {"type": "Point", "coordinates": [-83.3814, 34.758]}, "properties": {"NAME": "W4G/NG-074", "TITLE": "Rocky Mountain", "REGION": "North Georgia", "ASSOCIATION": "USA - Georgia"}}, {"type": "Feature", "geometry": {"type": "Point", "coordinates": [-83.8737, 34.6525]}, "properties": {"NAME": "W4G/NG-075", "TITLE": "Ash Ridge", "REGION": "North Georgia", "ASSOCIATION": "USA - Georgia"}}, {"type": "Feature", "geometry": {"type": "Point", "coordinates": [-83.8163, 34.5239]}, "properties": {"NAME": "W4G/NG-076", "TITLE": "Piney Mountain", "REGION": "North Georgia", "ASSOCIATION": "USA - Georgia"}}, {"type": "Feature", "geometry": {"type": "Point", "coordinates": [-83.6867, 34.6605]}, "properties": {"NAME": "W4G/NG-077", "TITLE": "Sal Mountain", "REGION": "North Georgia", "ASSOCIATION": "USA - Georgia"}}, {"type": "Feature", "geometry": {"type": "Point", "coordinates": [-83.7781, 34.5659]}, "properties": {"NAME": "W4G/NG-078", "TITLE": "Long Mountain", "REGION": "North Georgia", "ASSOCIATION": "USA - Georgia"}}, {"type": "Feature", "geometry": {"type": "Point", "coordinates": [-83.584, 34.7045]}, "properties": {"NAME": "W4G/NG-079", "TITLE": "Yellow Mountain", "REGION": "North Georgia", "ASSOCIATION": "USA - Georgia"}}, {"type": "Feature", "geometry": {"type": "Point", "coordinates": [-83.7726, 34.5187]}, "properties": {"NAME": "W4G/NG-080", "TITLE": "2185", "REGION": "North Georgia", "ASSOCIATION": "USA - Georgia"}}, {"type": "Feature", "geometry": {"type": "Point", "coordinates": [-84.0612, 34.5957]}, "properties": {"NAME": "W4G/NG-081", "TITLE": "Whissenhunt Mountain", "REGION": "North Georgia", "ASSOCIATION": "USA - Georgia"}}, {"type": "Feature", "geometry": {"type": "Point", "coordinates": [-83.7438, 34.5832]}, "properties": {"NAME": "W4G/NG-082", "TITLE": "Leadpole Mountain", "REGION": "North Georgia", "ASSOCIATION": "USA - Georgia"}}, {"type": "Feature", "geometry": {"type": "Point", "coordinates": [-83.6453, 34.6919]}, "properties": {"NAME": "W4G/NG-083", "TITLE": "Lynch Mountain", "REGION": "North Georgia", "ASSOCIATION": "USA - Georgia"}}, {"type": "Feature", "geometry": {"type": "Point", "coordinates": [-83.7221, 34.5057]}, "properties": {"NAME": "W4G/NG-084", "TITLE": "Skitt Mountain", "REGION": "North Georgia", "ASSOCIATION": "USA - Georgia"}}, {"type": "Feature", "geometry": {"type": "Point", "coordinates": [-84.1605, 34.2367]}, "properties": {"NAME": "W4G/NG-085", "TITLE": "Sawnee Mountain", "REGION": "North Georgia", "ASSOCIATION": "USA - Georgia"}}, {"type": "Feature", "geometry": {"type": "Point", "coordinates": [-83.3758, 34.5292]}, "properties": {"NAME": "W4G/NG-086", "TITLE": "Currahee Mountain", "REGION": "North Georgia", "ASSOCIATION": "USA - Georgia"}}]}