{"type": "FeatureCollection", "name": "W7Y/SL SUMMITS", "features": [{"type": "Feature", "geometry": {"type": "Point", "coordinates": [-109.6312, 43.1511]}, "properties": {"NAME": "W7Y/SL-001", "TITLE": "Helen, Mount", "REGION": "Sublette", "ASSOCIATION": "USA - Wyoming", "POINTS": "10", "BONUSPOINTS": "3"}}, {"type": "Feature", "geometry": {"type": "Point", "coordinates": [-109.6658, 43.147]}, "properties": {"NAME": "W7Y/SL-002", "TITLE": "American Legion Peak", "REGION": "Sublette", "ASSOCIATION": "USA - Wyoming", "POINTS": "10", "BONUSPOINTS": "3"}}, {"type": "Feature", "geometry": {"type": "Point", "coordinates": [-109.6797, 43.2015]}, "properties": {"NAME": "W7Y/SL-003", "TITLE": "Desolation Peak", "REGION": "Sublette", "ASSOCIATION": "USA - Wyoming", "POINTS": "10", "BONUSPOINTS": "3"}}, {"type": "Feature", "geometry": {"type": "Point", "coordinates": [-109.6727, 43.1639]}, "properties": {"NAME": "W7Y/SL-004", "TITLE": "Split Mountain", "REGION": "Sublette", "ASSOCIATION": "USA - Wyoming", "POINTS": "10", "BONUSPOINTS": "3"}}, {"type": "Feature", "geometry": {"type": "Point", "coordinates": [-109.6614, 43.1375]}, "properties": {"NAME": "W7Y/SL-005", "TITLE": "Henderson Peak", "REGION": "Sublette", "ASSOCIATION": "USA - Wyoming", "POINTS": "10", "BONUSPOINTS": "3"}}, {"type": "Feature", "geometry": {"type": "Point", "coordinates": [-109.6887, 43.2363]}, "properties": {"NAME": "W7Y/SL-006", "TITLE": "Klondike Peak", "REGION": "Sublette", "ASSOCIATION": "USA - Wyoming", "POINTS": "10", "BONUSPOINTS": "3"}}, {"type": "Feature", "geometry": {"type": "Point", "coordinates": [-109.5958, 43.0938]}, "properties": {"NAME": "W7Y/SL-007", "TITLE": "Harrower Peak", "REGION": "Sublette", "ASSOCIATION": "USA - Wyoming", "POINTS": "10", "BONUSPOINTS": "3"}}, {"type": "Feature", "geometry": {"type": "Point", "coordinates": [-109.6837, 43.144]}, "properties": {"NAME": "W7Y/SL-008", "TITLE": "Bow Mountain", "REGION": "Sublette", "ASSOCIATION": "USA - Wyoming", "POINTS": "10", "BONUSPOINTS": "3"}}, {"type": "Feature", "geometry": {"type": "Point", "coordinates": [-109.6924, 43.1686]}, "properties": {"NAME": "W7Y/SL-009", "TITLE": "Whitecap, Mount", "REGION": "Sublette", "ASSOCIATION": "USA - Wyoming", "POINTS": "10", "BONUSPOINTS": "3"}}, {"type": "Feature", "geometry": {"type": "Point", "coordinates": [-109.1708, 42.6985]}, "properties": {"NAME": "W7Y/SL-010", "TITLE": "Temple Peak", "REGION": "Sublette", "ASSOCIATION": "USA - Wyoming", "POINTS": "10", "BONUSPOINTS": "3"}}, {"type": "Feature", "geometry": {"type": "Point", "coordinates": [-109.702, 43.1751]}, "properties": {"NAME": "W7Y/SL-011", "TITLE": "Ladd Peak", "REGION": "Sublette", "ASSOCIATION": "USA - Wyoming", "POINTS": "10", "BONUSPOINTS": "3"}}, {"type": "Feature", "geometry": {"type": "Point", "coordinates": [-109.1565, 42.7097]}, "properties": {"NAME": "W7Y/SL-012", "TITLE": "East Temple Peak", "REGION": "Sublette", "ASSOCIATION": "USA - Wyoming", "POINTS": "10", "BONUSPOINTS": "3"}}, {"type": "Feature", "geometry": {"type": "Point", "coordinates": [-109.3401, 42.8721]}, "properties": {"NAME": "W7Y/SL-013", "TITLE": "Bonneville, Mount", "REGION": "Sublette", "ASSOCIATION": "USA - Wyoming", "POINTS": "10", "BONUSPOINTS": "3"}}, {"type": "Feature", "geometry": {"type": "Point", "coordinates": [-109.3434, 42.8598]}, "properties": {"NAME": "W7Y/SL-014", "TITLE": "Raid Peak", "REGION": "Sublette", "ASSOCIATION": "USA - Wyoming", "POINTS": "10", "BONUSPOINTS": "3"}}, {"type": "Feature", "geometry": {"type": "Point", "coordinates": [-109.5753, 43.0565]}, "properties": {"NAME": "W7Y/SL-015", "TITLE": "12529", "REGION": "Sublette", "ASSOCIATION": "USA - Wyoming", "POINTS": "10", "BONUSPOINTS": "3"}}, {"type": "Feature", "geometry": {"type": "Point", "coordinates": [-109.3544, 42.8855]}, "properties": {"NAME": "W7Y/SL-016", "TITLE": "Pronghorn Peak", "REGION": "Sublette", "ASSOCIATION": "USA - Wyoming", "POINTS": "10", "BONUSPOINTS": "3"}}, {"type": "Feature", "geometry": {"type": "Point", "coordinates": [-109.3306, 42.8289]}, "properties": {"NAME": "W7Y/SL-017", "TITLE": "Geikie, Mount", "REGION": "Sublette", "ASSOCIATION": "USA - Wyoming", "POINTS": "10", "BONUSPOINTS": "3"}}, {"type": "Feature", "geometry": {"type": "Point", "coordinates": [-109.094, 42.6418]}, "properties": {"NAME": "W7Y/SL-018", "TITLE": "Nystrom, Mount", "REGION": "Sublette", "ASSOCIATION": "USA - Wyoming", "POINTS": "10", "BONUSPOINTS": "3"}}, {"type": "Feature", "geometry": {"type": "Point", "coordinates": [-109.6235, 43.0657]}, "properties": {"NAME": "W7Y/SL-019", "TITLE": "Lester, Mount", "REGION": "Sublette", "ASSOCIATION": "USA - Wyoming", "POINTS": "10", "BONUSPOINTS": "3"}}, {"type": "Feature", "geometry": {"type": "Point", "coordinates": [-109.6109, 43.068]}, "properties": {"NAME": "W7Y/SL-020", "TITLE": "12275", "REGION": "Sublette", "ASSOCIATION": "USA - Wyoming", "POINTS": "10", "BONUSPOINTS": "3"}}, {"type": "Feature", "geometry": {"type": "Point", "coordinates": [-109.479, 42.9614]}, "properties": {"NAME": "W7Y/SL-021", "TITLE": "Victor, Mount", "REGION": "Sublette", "ASSOCIATION": "USA - Wyoming", "POINTS": "10", "BONUSPOINTS": "3"}}, {"type": "Feature", "geometry": {"type": "Point", "coordinates": [-109.7195, 43.1454]}, "properties": {"NAME": "W7Y/SL-022", "TITLE": "Oeneis, Mount", "REGION": "Sublette", "ASSOCIATION": "USA - Wyoming", "POINTS": "10", "BONUSPOINTS": "3"}}, {"type": "Feature", "geometry": {"type": "Point", "coordinates": [-109.3387, 42.8447]}, "properties": {"NAME": "W7Y/SL-023", "TITLE": "Ambush Peak", "REGION": "Sublette", "ASSOCIATION": "USA - Wyoming", "POINTS": "10", "BONUSPOINTS": "3"}}, {"type": "Feature", "geometry": {"type": "Point", "coordinates": [-109.7649, 43.1586]}, "properties": {"NAME": "W7Y/SL-024", "TITLE": "Glover Peak", "REGION": "Sublette", "ASSOCIATION": "USA - Wyoming", "POINTS": "10", "BONUSPOINTS": "3"}}, {"type": "Feature", "geometry": {"type": "Point", "coordinates": [-109.5247, 42.9958]}, "properties": {"NAME": "W7Y/SL-025", "TITLE": "Round Top Mountain", "REGION": "Sublette", "ASSOCIATION": "USA - Wyoming", "POINTS": "10", "BONUSPOINTS": "3"}}, {"type": "Feature", "geometry": {"type": "Point", "coordinates": [-109.2943, 42.8409]}, "properties": {"NAME": "W7Y/SL-026", "TITLE": "Pyramid Peak", "REGION": "Sublette", "ASSOCIATION": "USA - Wyoming", "POINTS": "10", "BONUSPOINTS": "3"}}, {"type": "Feature", "geometry": {"type": "Point", "coordinates": [-109.1662, 42.7316]}, "properties": {"NAME": "W7Y/SL-027", "TITLE": "Haystack Mountain", "REGION": "Sublette", "ASSOCIATION": "USA - Wyoming", "POINTS": "8", "BONUSPOINTS": "3"}}, {"type": "Feature", "geometry": {"type": "Point", "coordinates": [-109.7037, 43.1129]}, "properties": {"NAME": "W7Y/SL-028", "TITLE": "Elbow Peak", "REGION": "Sublette", "ASSOCIATION": "USA - Wyoming", "POINTS": "8", "BONUSPOINTS": "3"}}, {"type": "Feature", "geometry": {"type": "Point", "coordinates": [-109.7728, 43.3316]}, "properties": {"NAME": "W7Y/SL-029", "TITLE": "Osborn Mountain", "REGION": "Sublette", "ASSOCIATION": "USA - Wyoming", "POINTS": "8", "BONUSPOINTS": "3"}}, {"type": "Feature", "geometry": {"type": "Point", "coordinates": [-109.2369, 42.7499]}, "properties": {"NAME": "W7Y/SL-030", "TITLE": "Bunion Mountain", "REGION": "Sublette", "ASSOCIATION": "USA - Wyoming", "POINTS": "8", "BONUSPOINTS": "3"}}, {"type": "Feature", "geometry": {"type": "Point", "coordinates": [-109.7612, 43.2605]}, "properties": {"NAME": "W7Y/SL-031", "TITLE": "Lost Eagle Peak", "REGION": "Sublette", "ASSOCIATION": "USA - Wyoming", "POINTS": "8", "BONUSPOINTS": "3"}}, {"type": "Feature", "geometry": {"type": "Point", "coordinates": [-109.5902, 42.9996]}, "properties": {"NAME": "W7Y/SL-032", "TITLE": "Baldy, Mount", "REGION": "Sublette", "ASSOCIATION": "USA - Wyoming", "POINTS": "8", "BONUSPOINTS": "3"}}, {"type": "Feature", "geometry": {"type": "Point", "coordinates": [-109.8327, 43.2035]}, "properties": {"NAME": "W7Y/SL-033", "TITLE": "New Benchmark", "REGION": "Sublette", "ASSOCIATION": "USA - Wyoming", "POINTS": "8", "BONUSPOINTS": "3"}}, {"type": "Feature", "geometry": {"type": "Point", "coordinates": [-109.1676, 42.6564]}, "properties": {"NAME": "W7Y/SL-034", "TITLE": "11826", "REGION": "Sublette", "ASSOCIATION": "USA - Wyoming", "POINTS": "8", "BONUSPOINTS": "3"}}, {"type": "Feature", "geometry": {"type": "Point", "coordinates": [-109.5362, 42.9811]}, "properties": {"NAME": "W7Y/SL-035", "TITLE": "11824", "REGION": "Sublette", "ASSOCIATION": "USA - Wyoming", "POINTS": "8", "BONUSPOINTS": "3"}}, {"type": "Feature", "geometry": {"type": "Point", "coordinates": [-109.8187, 43.2058]}, "properties": {"NAME": "W7Y/SL-036", "TITLE": "11820", "REGION": "Sublette", "ASSOCIATION": "USA - Wyoming", "POINTS": "8", "BONUSPOINTS": "3"}}, {"type": "Feature", "geometry": {"type": "Point", "coordinates": [-109.15, 42.6605]}, "properties": {"NAME": "W7Y/SL-037", "TITLE": "11795", "REGION": "Sublette", "ASSOCIATION": "USA - Wyoming", "POINTS": "8", "BONUSPOINTS": "3"}}, {"type": "Feature", "geometry": {"type": "Point", "coordinates": [-110.2864, 43.3475]}, "properties": {"NAME": "W7Y/SL-038", "TITLE": "Doubletop Peak", "REGION": "Sublette", "ASSOCIATION": "USA - Wyoming", "POINTS": "8", "BONUSPOINTS": "3"}}, {"type": "Feature", "geometry": {"type": "Point", "coordinates": [-109.7777, 43.3816]}, "properties": {"NAME": "W7Y/SL-039", "TITLE": "Three Waters Mountain", "REGION": "Sublette", "ASSOCIATION": "USA - Wyoming", "POINTS": "8", "BONUSPOINTS": "3"}}, {"type": "Feature", "geometry": {"type": "Point", "coordinates": [-109.7905, 43.224]}, "properties": {"NAME": "W7Y/SL-040", "TITLE": "Squaretop Mountain", "REGION": "Sublette", "ASSOCIATION": "USA - Wyoming", "POINTS": "8", "BONUSPOINTS": "3"}}, {"type": "Feature", "geometry": {"type": "Point", "coordinates": [-109.8784, 43.2569]}, "properties": {"NAME": "W7Y/SL-041", "TITLE": "11645", "REGION": "Sublette", "ASSOCIATION": "USA - Wyoming", "POINTS": "8", "BONUSPOINTS": "3"}}, {"type": "Feature", "geometry": {"type": "Point", "coordinates": [-110.3133, 43.3739]}, "properties": {"NAME": "W7Y/SL-042", "TITLE": "11626", "REGION": "Sublette", "ASSOCIATION": "USA - Wyoming", "POINTS": "8", "BONUSPOINTS": "3"}}, {"type": "Feature", "geometry": {"type": "Point", "coordinates": [-109.4529, 42.9303]}, "properties": {"NAME": "W7Y/SL-043", "TITLE": "Medina Mountain", "REGION": "Sublette", "ASSOCIATION": "USA - Wyoming", "POINTS": "8", "BONUSPOINTS": "3"}}, {"type": "Feature", "geometry": {"type": "Point", "coordinates": [-110.2826, 43.3628]}, "properties": {"NAME": "W7Y/SL-044", "TITLE": "Triangle Peak", "REGION": "Sublette", "ASSOCIATION": "USA - Wyoming", "POINTS": "8", "BONUSPOINTS": "3"}}, {"type": "Feature", "geometry": {"type": "Point", "coordinates": [-109.9062, 43.2716]}, "properties": {"NAME": "W7Y/SL-045", "TITLE": "Gypsum Mountain", "REGION": "Sublette", "ASSOCIATION": "USA - Wyoming", "POINTS": "8", "BONUSPOINTS": "3"}}, {"type": "Feature", "geometry": {"type": "Point", "coordinates": [-109.7876, 43.4553]}, "properties": {"NAME": "W7Y/SL-046", "TITLE": "Union Peak", "REGION": "Sublette", "ASSOCIATION": "USA - Wyoming", "POINTS": "8", "BONUSPOINTS": "3"}}, {"type": "Feature", "geometry": {"type": "Point", "coordinates": [-109.7179, 43.0934]}, "properties": {"NAME": "W7Y/SL-047", "TITLE": "Threlkeld Peak", "REGION": "Sublette", "ASSOCIATION": "USA - Wyoming", "POINTS": "8", "BONUSPOINTS": "3"}}, {"type": "Feature", "geometry": {"type": "Point", "coordinates": [-110.3295, 43.3596]}, "properties": {"NAME": "W7Y/SL-048", "TITLE": "Palmer Peak", "REGION": "Sublette", "ASSOCIATION": "USA - Wyoming", "POINTS": "8", "BONUSPOINTS": "3"}}, {"type": "Feature", "geometry": {"type": "Point", "coordinates": [-110.2299, 43.2817]}, "properties": {"NAME": "W7Y/SL-049", "TITLE": "Tosi Peak", "REGION": "Sublette", "ASSOCIATION": "USA - Wyoming", "POINTS": "8", "BONUSPOINTS": "3"}}, {"type": "Feature", "geometry": {"type": "Point", "coordinates": [-109.7099, 43.0831]}, "properties": {"NAME": "W7Y/SL-050", "TITLE": "Guiterrez Peak", "REGION": "Sublette", "ASSOCIATION": "USA - Wyoming", "POINTS": "8", "BONUSPOINTS": "3"}}, {"type": "Feature", "geometry": {"type": "Point", "coordinates": [-109.2423, 42.7381]}, "properties": {"NAME": "W7Y/SL-051", "TITLE": "Laturio Mountain", "REGION": "Sublette", "ASSOCIATION": "USA - Wyoming", "POINTS": "8", "BONUSPOINTS": "3"}}, {"type": "Feature", "geometry": {"type": "Point", "coordinates": [-109.9073, 43.2284]}, "properties": {"NAME": "W7Y/SL-052", "TITLE": "Saltlick Mountain", "REGION": "Sublette", "ASSOCIATION": "USA - Wyoming", "POINTS": "8", "BONUSPOINTS": "3"}}, {"type": "Feature", "geometry": {"type": "Point", "coordinates": [-109.3938, 42.8918]}, "properties": {"NAME": "W7Y/SL-053", "TITLE": "11262", "REGION": "Sublette", "ASSOCIATION": "USA - Wyoming", "POINTS": "8", "BONUSPOINTS": "3"}}, {"type": "Feature", "geometry": {"type": "Point", "coordinates": [-110.2649, 43.3183]}, "properties": {"NAME": "W7Y/SL-054", "TITLE": "Hodges Peak", "REGION": "Sublette", "ASSOCIATION": "USA - Wyoming", "POINTS": "8", "BONUSPOINTS": "3"}}, {"type": "Feature", "geometry": {"type": "Point", "coordinates": [-110.5795, 42.7927]}, "properties": {"NAME": "W7Y/SL-055", "TITLE": "Triple Peak", "REGION": "Sublette", "ASSOCIATION": "USA - Wyoming", "POINTS": "8", "BONUSPOINTS": "3"}}, {"type": "Feature", "geometry": {"type": "Point", "coordinates": [-109.348, 42.7812]}, "properties": {"NAME": "W7Y/SL-056", "TITLE": "East Twin Butte", "REGION": "Sublette", "ASSOCIATION": "USA - Wyoming", "POINTS": "8", "BONUSPOINTS": "3"}}, {"type": "Feature", "geometry": {"type": "Point", "coordinates": [-109.831, 43.151]}, "properties": {"NAME": "W7Y/SL-057", "TITLE": "Rim Peak", "REGION": "Sublette", "ASSOCIATION": "USA - Wyoming", "POINTS": "8", "BONUSPOINTS": "3"}}, {"type": "Feature", "geometry": {"type": "Point", "coordinates": [-109.7344, 43.1722]}, "properties": {"NAME": "W7Y/SL-058", "TITLE": "10945", "REGION": "Sublette", "ASSOCIATION": "USA - Wyoming", "POINTS": "8", "BONUSPOINTS": "3"}}, {"type": "Feature", "geometry": {"type": "Point", "coordinates": [-110.6012, 42.7337]}, "properties": {"NAME": "W7Y/SL-059", "TITLE": "10896", "REGION": "Sublette", "ASSOCIATION": "USA - Wyoming", "POINTS": "8", "BONUSPOINTS": "3"}}, {"type": "Feature", "geometry": {"type": "Point", "coordinates": [-109.8316, 43.1283]}, "properties": {"NAME": "W7Y/SL-060", "TITLE": "Doubletop Mountain", "REGION": "Sublette", "ASSOCIATION": "USA - Wyoming", "POINTS": "8", "BONUSPOINTS": "3"}}, {"type": "Feature", "geometry": {"type": "Point", "coordinates": [-110.5702, 43.0842]}, "properties": {"NAME": "W7Y/SL-061", "TITLE": "Hoback Peak", "REGION": "Sublette", "ASSOCIATION": "USA - Wyoming", "POINTS": "8", "BONUSPOINTS": "3"}}, {"type": "Feature", "geometry": {"type": "Point", "coordinates": [-110.584, 42.731]}, "properties": {"NAME": "W7Y/SL-062", "TITLE": "10860", "REGION": "Sublette", "ASSOCIATION": "USA - Wyoming", "POINTS": "8", "BONUSPOINTS": "3"}}, {"type": "Feature", "geometry": {"type": "Point", "coordinates": [-110.5558, 42.5886]}, "properties": {"NAME": "W7Y/SL-063", "TITLE": "Fish Creek Mountain", "REGION": "Sublette", "ASSOCIATION": "USA - Wyoming", "POINTS": "8", "BONUSPOINTS": "3"}}, {"type": "Feature", "geometry": {"type": "Point", "coordinates": [-110.5835, 42.6321]}, "properties": {"NAME": "W7Y/SL-064", "TITLE": "10746", "REGION": "Sublette", "ASSOCIATION": "USA - Wyoming", "POINTS": "8", "BONUSPOINTS": "3"}}, {"type": "Feature", "geometry": {"type": "Point", "coordinates": [-109.3895, 42.8131]}, "properties": {"NAME": "W7Y/SL-065", "TITLE": "Mitchells Nipple", "REGION": "Sublette", "ASSOCIATION": "USA - Wyoming", "POINTS": "8", "BONUSPOINTS": "3"}}, {"type": "Feature", "geometry": {"type": "Point", "coordinates": [-109.4226, 42.829]}, "properties": {"NAME": "W7Y/SL-066", "TITLE": "10654", "REGION": "Sublette", "ASSOCIATION": "USA - Wyoming", "POINTS": "8", "BONUSPOINTS": "3"}}, {"type": "Feature", "geometry": {"type": "Point", "coordinates": [-110.5669, 42.5224]}, "properties": {"NAME": "W7Y/SL-067", "TITLE": "Darby, Mount", "REGION": "Sublette", "ASSOCIATION": "USA - Wyoming", "POINTS": "8", "BONUSPOINTS": "3"}}, {"type": "Feature", "geometry": {"type": "Point", "coordinates": [-110.5461, 42.785]}, "properties": {"NAME": "W7Y/SL-068", "TITLE": "Lander Peak", "REGION": "Sublette", "ASSOCIATION": "USA - Wyoming", "POINTS": "8", "BONUSPOINTS": "3"}}, {"type": "Feature", "geometry": {"type": "Point", "coordinates": [-110.5716, 43.1333]}, "properties": {"NAME": "W7Y/SL-069", "TITLE": "10442", "REGION": "Sublette", "ASSOCIATION": "USA - Wyoming", "POINTS": "8", "BONUSPOINTS": "3"}}, {"type": "Feature", "geometry": {"type": "Point", "coordinates": [-110.2076, 43.3542]}, "properties": {"NAME": "W7Y/SL-070", "TITLE": "East Red Hill", "REGION": "Sublette", "ASSOCIATION": "USA - Wyoming", "POINTS": "8", "BONUSPOINTS": "3"}}, {"type": "Feature", "geometry": {"type": "Point", "coordinates": [-110.5692, 42.9787]}, "properties": {"NAME": "W7Y/SL-071", "TITLE": "10380", "REGION": "Sublette", "ASSOCIATION": "USA - Wyoming", "POINTS": "8", "BONUSPOINTS": "3"}}, {"type": "Feature", "geometry": {"type": "Point", "coordinates": [-109.768, 43.0862]}, "properties": {"NAME": "W7Y/SL-072", "TITLE": "10375", "REGION": "Sublette", "ASSOCIATION": "USA - Wyoming", "POINTS": "8", "BONUSPOINTS": "3"}}, {"type": "Feature", "geometry": {"type": "Point", "coordinates": [-110.57, 43.006]}, "properties": {"NAME": "W7Y/SL-073", "TITLE": "10362", "REGION": "Sublette", "ASSOCIATION": "USA - Wyoming", "POINTS": "8", "BONUSPOINTS": "3"}}, {"type": "Feature", "geometry": {"type": "Point", "coordinates": [-109.7984, 43.0756]}, "properties": {"NAME": "W7Y/SL-074", "TITLE": "Pine Mountain", "REGION": "Sublette", "ASSOCIATION": "USA - Wyoming", "POINTS": "8", "BONUSPOINTS": "3"}}, {"type": "Feature", "geometry": {"type": "Point", "coordinates": [-110.4843, 42.3997]}, "properties": {"NAME": "W7Y/SL-075", "TITLE": "Deadline Ridge", "REGION": "Sublette", "ASSOCIATION": "USA - Wyoming", "POINTS": "8", "BONUSPOINTS": "3"}}, {"type": "Feature", "geometry": {"type": "Point", "coordinates": [-110.5403, 42.6596]}, "properties": {"NAME": "W7Y/SL-076", "TITLE": "Schideler, Mount", "REGION": "Sublette", "ASSOCIATION": "USA - Wyoming", "POINTS": "8", "BONUSPOINTS": "3"}}, {"type": "Feature", "geometry": {"type": "Point", "coordinates": [-110.5254, 42.9654]}, "properties": {"NAME": "W7Y/SL-077", "TITLE": "Horse Mountain", "REGION": "Sublette", "ASSOCIATION": "USA - Wyoming", "POINTS": "8", "BONUSPOINTS": "3"}}, {"type": "Feature", "geometry": {"type": "Point", "coordinates": [-109.9309, 43.3198]}, "properties": {"NAME": "W7Y/SL-078", "TITLE": "Little Sheep Mountain", "REGION": "Sublette", "ASSOCIATION": "USA - Wyoming", "POINTS": "8", "BONUSPOINTS": "3"}}, {"type": "Feature", "geometry": {"type": "Point", "coordinates": [-110.1465, 43.2917]}, "properties": {"NAME": "W7Y/SL-079", "TITLE": "Elk Ridge", "REGION": "Sublette", "ASSOCIATION": "USA - Wyoming", "POINTS": "8", "BONUSPOINTS": "3"}}, {"type": "Feature", "geometry": {"type": "Point", "coordinates": [-110.1938, 43.218]}, "properties": {"NAME": "W7Y/SL-080", "TITLE": "Pass Peak", "REGION": "Sublette", "ASSOCIATION": "USA - Wyoming", "POINTS": "6", "BONUSPOINTS": "3"}}, {"type": "Feature", "geometry": {"type": "Point", "coordinates": [-109.7723, 43.2236]}, "properties": {"NAME": "W7Y/SL-081", "TITLE": "Granite Peak", "REGION": "Sublette", "ASSOCIATION": "USA - Wyoming", "POINTS": "6", "BONUSPOINTS": "3"}}, {"type": "Feature", "geometry": {"type": "Point", "coordinates": [-109.7263, 43.0324]}, "properties": {"NAME": "W7Y/SL-082", "TITLE": "9780", "REGION": "Sublette", "ASSOCIATION": "USA - Wyoming", "POINTS": "6", "BONUSPOINTS": "3"}}, {"type": "Feature", "geometry": {"type": "Point", "coordinates": [-110.4961, 42.5662]}, "properties": {"NAME": "W7Y/SL-083", "TITLE": "9699", "REGION": "Sublette", "ASSOCIATION": "USA - Wyoming", "POINTS": "6", "BONUSPOINTS": "3"}}, {"type": "Feature", "geometry": {"type": "Point", "coordinates": [-110.4985, 42.9044]}, "properties": {"NAME": "W7Y/SL-084", "TITLE": "Prospect Peak", "REGION": "Sublette", "ASSOCIATION": "USA - Wyoming", "POINTS": "6", "BONUSPOINTS": "3"}}, {"type": "Feature", "geometry": {"type": "Point", "coordinates": [-110.4974, 42.7294]}, "properties": {"NAME": "W7Y/SL-085", "TITLE": "9621", "REGION": "Sublette", "ASSOCIATION": "USA - Wyoming", "POINTS": "6", "BONUSPOINTS": "3"}}, {"type": "Feature", "geometry": {"type": "Point", "coordinates": [-110.5488, 42.871]}, "properties": {"NAME": "W7Y/SL-086", "TITLE": "9586", "REGION": "Sublette", "ASSOCIATION": "USA - Wyoming", "POINTS": "6", "BONUSPOINTS": "3"}}, {"type": "Feature", "geometry": {"type": "Point", "coordinates": [-110.5004, 42.5294]}, "properties": {"NAME": "W7Y/SL-087", "TITLE": "North Mountain", "REGION": "Sublette", "ASSOCIATION": "USA - Wyoming", "POINTS": "6", "BONUSPOINTS": "3"}}, {"type": "Feature", "geometry": {"type": "Point", "coordinates": [-110.4923, 42.6254]}, "properties": {"NAME": "W7Y/SL-088", "TITLE": "Star Hill", "REGION": "Sublette", "ASSOCIATION": "USA - Wyoming", "POINTS": "6", "BONUSPOINTS": "3"}}, {"type": "Feature", "geometry": {"type": "Point", "coordinates": [-110.5438, 42.9095]}, "properties": {"NAME": "W7Y/SL-089", "TITLE": "9482", "REGION": "Sublette", "ASSOCIATION": "USA - Wyoming", "POINTS": "6", "BONUSPOINTS": "3"}}, {"type": "Feature", "geometry": {"type": "Point", "coordinates": [-110.5076, 42.8472]}, "properties": {"NAME": "W7Y/SL-090", "TITLE": "9208", "REGION": "Sublette", "ASSOCIATION": "USA - Wyoming", "POINTS": "6", "BONUSPOINTS": "3"}}, {"type": "Feature", "geometry": {"type": "Point", "coordinates": [-110.3198, 42.3257]}, "properties": {"NAME": "W7Y/SL-091", "TITLE": "Hogsback, The", "REGION": "Sublette", "ASSOCIATION": "USA - Wyoming", "POINTS": "6", "BONUSPOINTS": "3"}}, {"type": "Feature", "geometry": {"type": "Point", "coordinates": [-109.2653, 42.5494]}, "properties": {"NAME": "W7Y/SL-092", "TITLE": "Little Prospect Mountain", "REGION": "Sublette", "ASSOCIATION": "USA - Wyoming", "POINTS": "6", "BONUSPOINTS": "3"}}, {"type": "Feature", "geometry": {"type": "Point", "coordinates": [-110.5118, 43.1042]}, "properties": {"NAME": "W7Y/SL-093", "TITLE": "8925", "REGION": "Sublette", "ASSOCIATION": "USA - Wyoming", "POINTS": "6", "BONUSPOINTS": "3"}}, {"type": "Feature", "geometry": {"type": "Point", "coordinates": [-110.5074, 43.1274]}, "properties": {"NAME": "W7Y/SL-094", "TITLE": "8821", "REGION": "Sublette", "ASSOCIATION": "USA - Wyoming", "POINTS": "6", "BONUSPOINTS": "3"}}, {"type": "Feature", "geometry": {"type": "Point", "coordinates": [-110.4673, 42.9215]}, "properties": {"NAME": "W7Y/SL-095", "TITLE": "8820", "REGION": "Sublette", "ASSOCIATION": "USA - Wyoming", "POINTS": "6", "BONUSPOINTS": "3"}}, {"type": "Feature", "geometry": {"type": "Point", "coordinates": [-109.1887, 42.4913]}, "properties": {"NAME": "W7Y/SL-096", "TITLE": "Prospect Mountains HP", "REGION": "Sublette", "ASSOCIATION": "USA - Wyoming", "POINTS": "6", "BONUSPOINTS": "3"}}, {"type": "Feature", "geometry": {"type": "Point", "coordinates": [-110.4864, 42.3002]}, "properties": {"NAME": "W7Y/SL-097", "TITLE": "8763", "REGION": "Sublette", "ASSOCIATION": "USA - Wyoming", "POINTS": "6", "BONUSPOINTS": "3"}}, {"type": "Feature", "geometry": {"type": "Point", "coordinates": [-109.7395, 42.9036]}, "properties": {"NAME": "W7Y/SL-098", "TITLE": "Half Moon Mountain", "REGION": "Sublette", "ASSOCIATION": "USA - Wyoming", "POINTS": "6", "BONUSPOINTS": "3"}}, {"type": "Feature", "geometry": {"type": "Point", "coordinates": [-109.1285, 42.4625]}, "properties": {"NAME": "W7Y/SL-099", "TITLE": "8681", "REGION": "Sublette", "ASSOCIATION": "USA - Wyoming", "POINTS": "6", "BONUSPOINTS": "3"}}, {"type": "Feature", "geometry": {"type": "Point", "coordinates": [-110.0316, 43.1321]}, "properties": {"NAME": "W7Y/SL-100", "TITLE": "Black Butte", "REGION": "Sublette", "ASSOCIATION": "USA - Wyoming", "POINTS": "6", "BONUSPOINTS": "3"}}, {"type": "Feature", "geometry": {"type": "Point", "coordinates": [-110.3306, 42.4242]}, "properties": {"NAME": "W7Y/SL-101", "TITLE": "Cretaceous Mountain", "REGION": "Sublette", "ASSOCIATION": "USA - Wyoming", "POINTS": "6", "BONUSPOINTS": "3"}}, {"type": "Feature", "geometry": {"type": "Point", "coordinates": [-110.4937, 43.1843]}, "properties": {"NAME": "W7Y/SL-102", "TITLE": "8530", "REGION": "Sublette", "ASSOCIATION": "USA - Wyoming", "POINTS": "6", "BONUSPOINTS": "3"}}, {"type": "Feature", "geometry": {"type": "Point", "coordinates": [-110.231, 43.1061]}, "properties": {"NAME": "W7Y/SL-103", "TITLE": "South Rim", "REGION": "Sublette", "ASSOCIATION": "USA - Wyoming", "POINTS": "6", "BONUSPOINTS": "3"}}, {"type": "Feature", "geometry": {"type": "Point", "coordinates": [-109.6304, 42.84]}, "properties": {"NAME": "W7Y/SL-104", "TITLE": "8381", "REGION": "Sublette", "ASSOCIATION": "USA - Wyoming", "POINTS": "6", "BONUSPOINTS": "3"}}, {"type": "Feature", "geometry": {"type": "Point", "coordinates": [-109.8173, 42.9647]}, "properties": {"NAME": "W7Y/SL-105", "TITLE": "Fremont Ridge", "REGION": "Sublette", "ASSOCIATION": "USA - Wyoming", "POINTS": "6", "BONUSPOINTS": "3"}}, {"type": "Feature", "geometry": {"type": "Point", "coordinates": [-110.4923, 43.2319]}, "properties": {"NAME": "W7Y/SL-106", "TITLE": "8112", "REGION": "Sublette", "ASSOCIATION": "USA - Wyoming", "POINTS": "6", "BONUSPOINTS": "3"}}, {"type": "Feature", "geometry": {"type": "Point", "coordinates": [-109.3189, 42.4148]}, "properties": {"NAME": "W7Y/SL-107", "TITLE": "Elk Mountain", "REGION": "Sublette", "ASSOCIATION": "USA - Wyoming", "POINTS": "6", "BONUSPOINTS": "3"}}, {"type": "Feature", "geometry": {"type": "Point", "coordinates": [-110.4905, 43.2624]}, "properties": {"NAME": "W7Y/SL-108", "TITLE": "Game Hill", "REGION": "Sublette", "ASSOCIATION": "USA - Wyoming", "POINTS": "4", "BONUSPOINTS": "3"}}, {"type": "Feature", "geometry": {"type": "Point", "coordinates": [-110.4957, 43.2828]}, "properties": {"NAME": "W7Y/SL-109", "TITLE": "7932", "REGION": "Sublette", "ASSOCIATION": "USA - Wyoming", "POINTS": "4", "BONUSPOINTS": "3"}}, {"type": "Feature", "geometry": {"type": "Point", "coordinates": [-109.6128, 42.7351]}, "properties": {"NAME": "W7Y/SL-110", "TITLE": "Fremont Butte", "REGION": "Sublette", "ASSOCIATION": "USA - Wyoming", "POINTS": "4", "BONUSPOINTS": "3"}}, {"type": "Feature", "geometry": {"type": "Point", "coordinates": [-109.9098, 42.821]}, "properties": {"NAME": "W7Y/SL-111", "TITLE": "Stewart Point", "REGION": "Sublette", "ASSOCIATION": "USA - Wyoming", "POINTS": "4", "BONUSPOINTS": "3"}}, {"type": "Feature", "geometry": {"type": "Point", "coordinates": [-109.1765, 42.3828]}, "properties": {"NAME": "W7Y/SL-112", "TITLE": "Lost Benchmark", "REGION": "Sublette", "ASSOCIATION": "USA - Wyoming", "POINTS": "4", "BONUSPOINTS": "3"}}, {"type": "Feature", "geometry": {"type": "Point", "coordinates": [-110.5252, 43.2792]}, "properties": {"NAME": "W7Y/SL-113", "TITLE": "Battle Mountain", "REGION": "Sublette", "ASSOCIATION": "USA - Wyoming", "POINTS": "4", "BONUSPOINTS": "3"}}, {"type": "Feature", "geometry": {"type": "Point", "coordinates": [-109.3383, 42.8889]}, "properties": {"NAME": "W7Y/SL-114", "TITLE": "Nylon Peak", "REGION": "Sublette", "ASSOCIATION": "USA - Wyoming", "POINTS": "10", "BONUSPOINTS": "3"}}, {"type": "Feature", "geometry": {"type": "Point", "coordinates": [-109.8212, 43.202]}, "properties": {"NAME": "W7Y/SL-115", "TITLE": "11830", "REGION": "Sublette", "ASSOCIATION": "USA - Wyoming", "POINTS": "8", "BONUSPOINTS": "3"}}, {"type": "Feature", "geometry": {"type": "Point", "coordinates": [-109.8621, 43.1599]}, "properties": {"NAME": "W7Y/SL-116", "TITLE": "Dome Peak", "REGION": "Sublette", "ASSOCIATION": "USA - Wyoming", "POINTS": "8", "BONUSPOINTS": "3"}}, {"type": "Feature", "geometry": {"type": "Point", "coordinates": [-110.5526, 42.6973]}, "properties": {"NAME": "W7Y/SL-117", "TITLE": "Coal Mine Mountain", "REGION": "Sublette", "ASSOCIATION": "USA - Wyoming", "POINTS": "8", "BONUSPOINTS": "3"}}]}