{"type": "FeatureCollection", "name": "W7Y/EW SUMMITS", "features": [{"type": "Feature", "geometry": {"type": "Point", "coordinates": [-106.3176, 41.3603]}, "properties": {"NAME": "W7Y/EW-001", "TITLE": "Medicine Bow Peak", "REGION": "East Wyoming", "ASSOCIATION": "USA - Wyoming", "POINTS": "10", "BONUSPOINTS": "3"}}, {"type": "Feature", "geometry": {"type": "Point", "coordinates": [-106.2837, 41.3737]}, "properties": {"NAME": "W7Y/EW-002", "TITLE": "Browns Peak", "REGION": "East Wyoming", "ASSOCIATION": "USA - Wyoming", "POINTS": "8", "BONUSPOINTS": "3"}}, {"type": "Feature", "geometry": {"type": "Point", "coordinates": [-105.4427, 42.2681]}, "properties": {"NAME": "W7Y/EW-003", "TITLE": "Laramie Peak", "REGION": "East Wyoming", "ASSOCIATION": "USA - Wyoming", "POINTS": "8", "BONUSPOINTS": "3"}}, {"type": "Feature", "geometry": {"type": "Point", "coordinates": [-106.1393, 41.1406]}, "properties": {"NAME": "W7Y/EW-004", "TITLE": "Lake Mountain", "REGION": "East Wyoming", "ASSOCIATION": "USA - Wyoming", "POINTS": "6", "BONUSPOINTS": "3"}}, {"type": "Feature", "geometry": {"type": "Point", "coordinates": [-106.1692, 41.1725]}, "properties": {"NAME": "W7Y/EW-005", "TITLE": "Muddy Mountain", "REGION": "East Wyoming", "ASSOCIATION": "USA - Wyoming", "POINTS": "6", "BONUSPOINTS": "3"}}, {"type": "Feature", "geometry": {"type": "Point", "coordinates": [-105.9764, 41.0972]}, "properties": {"NAME": "W7Y/EW-006", "TITLE": "Jelm Mountain", "REGION": "East Wyoming", "ASSOCIATION": "USA - Wyoming", "POINTS": "6", "BONUSPOINTS": "3"}}, {"type": "Feature", "geometry": {"type": "Point", "coordinates": [-106.0075, 41.2036]}, "properties": {"NAME": "W7Y/EW-007", "TITLE": "Sheep Mountain", "REGION": "East Wyoming", "ASSOCIATION": "USA - Wyoming", "POINTS": "6", "BONUSPOINTS": "3"}}, {"type": "Feature", "geometry": {"type": "Point", "coordinates": [-105.7939, 42.4348]}, "properties": {"NAME": "W7Y/EW-008", "TITLE": "Warbonnett Peak", "REGION": "East Wyoming", "ASSOCIATION": "USA - Wyoming", "POINTS": "6", "BONUSPOINTS": "3"}}, {"type": "Feature", "geometry": {"type": "Point", "coordinates": [-105.8536, 42.5094]}, "properties": {"NAME": "W7Y/EW-009", "TITLE": "Buffalo Peak", "REGION": "East Wyoming", "ASSOCIATION": "USA - Wyoming", "POINTS": "6", "BONUSPOINTS": "3"}}, {"type": "Feature", "geometry": {"type": "Point", "coordinates": [-105.9069, 42.5068]}, "properties": {"NAME": "W7Y/EW-010", "TITLE": "Cherry Mountain", "REGION": "East Wyoming", "ASSOCIATION": "USA - Wyoming", "POINTS": "6", "BONUSPOINTS": "3"}}, {"type": "Feature", "geometry": {"type": "Point", "coordinates": [-105.8442, 42.4935]}, "properties": {"NAME": "W7Y/EW-011", "TITLE": "Squaw Mountain", "REGION": "East Wyoming", "ASSOCIATION": "USA - Wyoming", "POINTS": "6", "BONUSPOINTS": "3"}}, {"type": "Feature", "geometry": {"type": "Point", "coordinates": [-105.8657, 42.4761]}, "properties": {"NAME": "W7Y/EW-012", "TITLE": "Twin Peaks", "REGION": "East Wyoming", "ASSOCIATION": "USA - Wyoming", "POINTS": "6", "BONUSPOINTS": "3"}}, {"type": "Feature", "geometry": {"type": "Point", "coordinates": [-105.5185, 42.2664]}, "properties": {"NAME": "W7Y/EW-013", "TITLE": "Eagle Peak", "REGION": "East Wyoming", "ASSOCIATION": "USA - Wyoming", "POINTS": "6", "BONUSPOINTS": "3"}}, {"type": "Feature", "geometry": {"type": "Point", "coordinates": [-105.5733, 42.2971]}, "properties": {"NAME": "W7Y/EW-014", "TITLE": "Windy Peak", "REGION": "East Wyoming", "ASSOCIATION": "USA - Wyoming", "POINTS": "6", "BONUSPOINTS": "3"}}, {"type": "Feature", "geometry": {"type": "Point", "coordinates": [-105.9, 42.541]}, "properties": {"NAME": "W7Y/EW-015", "TITLE": "Buck Peak", "REGION": "East Wyoming", "ASSOCIATION": "USA - Wyoming", "POINTS": "6", "BONUSPOINTS": "3"}}, {"type": "Feature", "geometry": {"type": "Point", "coordinates": [-105.9775, 42.5563]}, "properties": {"NAME": "W7Y/EW-016", "TITLE": "Gunnysack Benchmark", "REGION": "East Wyoming", "ASSOCIATION": "USA - Wyoming", "POINTS": "6", "BONUSPOINTS": "3"}}, {"type": "Feature", "geometry": {"type": "Point", "coordinates": [-105.3955, 41.2331]}, "properties": {"NAME": "W7Y/EW-017", "TITLE": "Leg Benchmark", "REGION": "East Wyoming", "ASSOCIATION": "USA - Wyoming", "POINTS": "6", "BONUSPOINTS": "3"}}, {"type": "Feature", "geometry": {"type": "Point", "coordinates": [-105.5337, 42.2399]}, "properties": {"NAME": "W7Y/EW-018", "TITLE": "Jack Squirrel Peak", "REGION": "East Wyoming", "ASSOCIATION": "USA - Wyoming", "POINTS": "6", "BONUSPOINTS": "3"}}, {"type": "Feature", "geometry": {"type": "Point", "coordinates": [-105.4775, 42.2422]}, "properties": {"NAME": "W7Y/EW-019", "TITLE": "South Mountain", "REGION": "East Wyoming", "ASSOCIATION": "USA - Wyoming", "POINTS": "6", "BONUSPOINTS": "3"}}, {"type": "Feature", "geometry": {"type": "Point", "coordinates": [-105.9708, 41.0539]}, "properties": {"NAME": "W7Y/EW-020", "TITLE": "Ring Mountain", "REGION": "East Wyoming", "ASSOCIATION": "USA - Wyoming", "POINTS": "6", "BONUSPOINTS": "3"}}, {"type": "Feature", "geometry": {"type": "Point", "coordinates": [-105.7359, 42.3281]}, "properties": {"NAME": "W7Y/EW-021", "TITLE": "Fortymile Peak", "REGION": "East Wyoming", "ASSOCIATION": "USA - Wyoming", "POINTS": "6", "BONUSPOINTS": "3"}}, {"type": "Feature", "geometry": {"type": "Point", "coordinates": [-105.5658, 42.2157]}, "properties": {"NAME": "W7Y/EW-022", "TITLE": "Cow Creek Mountain", "REGION": "East Wyoming", "ASSOCIATION": "USA - Wyoming", "POINTS": "6", "BONUSPOINTS": "3"}}, {"type": "Feature", "geometry": {"type": "Point", "coordinates": [-106.0622, 42.5786]}, "properties": {"NAME": "W7Y/EW-023", "TITLE": "Reno Hill", "REGION": "East Wyoming", "ASSOCIATION": "USA - Wyoming", "POINTS": "6", "BONUSPOINTS": "3"}}, {"type": "Feature", "geometry": {"type": "Point", "coordinates": [-105.6234, 42.2862]}, "properties": {"NAME": "W7Y/EW-024", "TITLE": "Bar M Mountain", "REGION": "East Wyoming", "ASSOCIATION": "USA - Wyoming", "POINTS": "6", "BONUSPOINTS": "3"}}, {"type": "Feature", "geometry": {"type": "Point", "coordinates": [-105.5874, 42.3822]}, "properties": {"NAME": "W7Y/EW-025", "TITLE": "South Sawtooth Mountain", "REGION": "East Wyoming", "ASSOCIATION": "USA - Wyoming", "POINTS": "6", "BONUSPOINTS": "3"}}, {"type": "Feature", "geometry": {"type": "Point", "coordinates": [-105.6628, 42.3323]}, "properties": {"NAME": "W7Y/EW-026", "TITLE": "Flattop Mountain", "REGION": "East Wyoming", "ASSOCIATION": "USA - Wyoming", "POINTS": "6", "BONUSPOINTS": "3"}}, {"type": "Feature", "geometry": {"type": "Point", "coordinates": [-105.5611, 42.2858]}, "properties": {"NAME": "W7Y/EW-027", "TITLE": "Beaver Mountain", "REGION": "East Wyoming", "ASSOCIATION": "USA - Wyoming", "POINTS": "6", "BONUSPOINTS": "3"}}, {"type": "Feature", "geometry": {"type": "Point", "coordinates": [-105.4602, 41.4255]}, "properties": {"NAME": "W7Y/EW-028", "TITLE": "Quartzite 2 Benchmark", "REGION": "East Wyoming", "ASSOCIATION": "USA - Wyoming", "POINTS": "6", "BONUSPOINTS": "3"}}, {"type": "Feature", "geometry": {"type": "Point", "coordinates": [-105.6421, 42.3749]}, "properties": {"NAME": "W7Y/EW-029", "TITLE": "Blacktail Peak", "REGION": "East Wyoming", "ASSOCIATION": "USA - Wyoming", "POINTS": "6", "BONUSPOINTS": "3"}}, {"type": "Feature", "geometry": {"type": "Point", "coordinates": [-105.9904, 42.5844]}, "properties": {"NAME": "W7Y/EW-030", "TITLE": "8642", "REGION": "East Wyoming", "ASSOCIATION": "USA - Wyoming", "POINTS": "6", "BONUSPOINTS": "3"}}, {"type": "Feature", "geometry": {"type": "Point", "coordinates": [-105.5892, 42.2814]}, "properties": {"NAME": "W7Y/EW-031", "TITLE": "8595", "REGION": "East Wyoming", "ASSOCIATION": "USA - Wyoming", "POINTS": "6", "BONUSPOINTS": "3"}}, {"type": "Feature", "geometry": {"type": "Point", "coordinates": [-105.9557, 42.6104]}, "properties": {"NAME": "W7Y/EW-032", "TITLE": "8525", "REGION": "East Wyoming", "ASSOCIATION": "USA - Wyoming", "POINTS": "6", "BONUSPOINTS": "3"}}, {"type": "Feature", "geometry": {"type": "Point", "coordinates": [-105.644, 42.45]}, "properties": {"NAME": "W7Y/EW-033", "TITLE": "8423", "REGION": "East Wyoming", "ASSOCIATION": "USA - Wyoming", "POINTS": "6", "BONUSPOINTS": "3"}}, {"type": "Feature", "geometry": {"type": "Point", "coordinates": [-105.6682, 42.4241]}, "properties": {"NAME": "W7Y/EW-034", "TITLE": "8370", "REGION": "East Wyoming", "ASSOCIATION": "USA - Wyoming", "POINTS": "6", "BONUSPOINTS": "3"}}, {"type": "Feature", "geometry": {"type": "Point", "coordinates": [-105.4437, 42.2193]}, "properties": {"NAME": "W7Y/EW-035", "TITLE": "Bear Head Mountain", "REGION": "East Wyoming", "ASSOCIATION": "USA - Wyoming", "POINTS": "6", "BONUSPOINTS": "3"}}, {"type": "Feature", "geometry": {"type": "Point", "coordinates": [-105.6459, 42.4791]}, "properties": {"NAME": "W7Y/EW-036", "TITLE": "8358", "REGION": "East Wyoming", "ASSOCIATION": "USA - Wyoming", "POINTS": "6", "BONUSPOINTS": "3"}}, {"type": "Feature", "geometry": {"type": "Point", "coordinates": [-105.8529, 42.5643]}, "properties": {"NAME": "W7Y/EW-037", "TITLE": "Peterson Mountain", "REGION": "East Wyoming", "ASSOCIATION": "USA - Wyoming", "POINTS": "6", "BONUSPOINTS": "3"}}, {"type": "Feature", "geometry": {"type": "Point", "coordinates": [-105.3959, 42.0164]}, "properties": {"NAME": "W7Y/EW-038", "TITLE": "Split Rock", "REGION": "East Wyoming", "ASSOCIATION": "USA - Wyoming", "POINTS": "6", "BONUSPOINTS": "3"}}, {"type": "Feature", "geometry": {"type": "Point", "coordinates": [-105.5775, 42.3984]}, "properties": {"NAME": "W7Y/EW-039", "TITLE": "North Sawtooth Mountain", "REGION": "East Wyoming", "ASSOCIATION": "USA - Wyoming", "POINTS": "6", "BONUSPOINTS": "3"}}, {"type": "Feature", "geometry": {"type": "Point", "coordinates": [-105.6179, 42.4309]}, "properties": {"NAME": "W7Y/EW-040", "TITLE": "8260", "REGION": "East Wyoming", "ASSOCIATION": "USA - Wyoming", "POINTS": "6", "BONUSPOINTS": "3"}}, {"type": "Feature", "geometry": {"type": "Point", "coordinates": [-105.3762, 42.1018]}, "properties": {"NAME": "W7Y/EW-041", "TITLE": "Britania Mountain", "REGION": "East Wyoming", "ASSOCIATION": "USA - Wyoming", "POINTS": "6", "BONUSPOINTS": "3"}}, {"type": "Feature", "geometry": {"type": "Point", "coordinates": [-105.3684, 42.0162]}, "properties": {"NAME": "W7Y/EW-042", "TITLE": "Reese Mountain", "REGION": "East Wyoming", "ASSOCIATION": "USA - Wyoming", "POINTS": "6", "BONUSPOINTS": "3"}}, {"type": "Feature", "geometry": {"type": "Point", "coordinates": [-105.7378, 42.2386]}, "properties": {"NAME": "W7Y/EW-043", "TITLE": "8150", "REGION": "East Wyoming", "ASSOCIATION": "USA - Wyoming", "POINTS": "6", "BONUSPOINTS": "3"}}, {"type": "Feature", "geometry": {"type": "Point", "coordinates": [-105.9316, 42.5891]}, "properties": {"NAME": "W7Y/EW-044", "TITLE": "8150", "REGION": "East Wyoming", "ASSOCIATION": "USA - Wyoming", "POINTS": "6", "BONUSPOINTS": "3"}}, {"type": "Feature", "geometry": {"type": "Point", "coordinates": [-105.4078, 42.0969]}, "properties": {"NAME": "W7Y/EW-045", "TITLE": "8020", "REGION": "East Wyoming", "ASSOCIATION": "USA - Wyoming", "POINTS": "6", "BONUSPOINTS": "3"}}, {"type": "Feature", "geometry": {"type": "Point", "coordinates": [-105.9804, 42.6231]}, "properties": {"NAME": "W7Y/EW-046", "TITLE": "Lookout Peak", "REGION": "East Wyoming", "ASSOCIATION": "USA - Wyoming", "POINTS": "6", "BONUSPOINTS": "3"}}, {"type": "Feature", "geometry": {"type": "Point", "coordinates": [-105.6045, 42.0471]}, "properties": {"NAME": "W7Y/EW-047", "TITLE": "Pinto Rocks", "REGION": "East Wyoming", "ASSOCIATION": "USA - Wyoming", "POINTS": "6", "BONUSPOINTS": "3"}}, {"type": "Feature", "geometry": {"type": "Point", "coordinates": [-105.3763, 42.3119]}, "properties": {"NAME": "W7Y/EW-048", "TITLE": "Black Mountain", "REGION": "East Wyoming", "ASSOCIATION": "USA - Wyoming", "POINTS": "4", "BONUSPOINTS": "3"}}, {"type": "Feature", "geometry": {"type": "Point", "coordinates": [-105.4905, 41.9918]}, "properties": {"NAME": "W7Y/EW-049", "TITLE": "Douhitt Mountain", "REGION": "East Wyoming", "ASSOCIATION": "USA - Wyoming", "POINTS": "4", "BONUSPOINTS": "3"}}, {"type": "Feature", "geometry": {"type": "Point", "coordinates": [-105.3301, 42.0392]}, "properties": {"NAME": "W7Y/EW-050", "TITLE": "Collins Peak", "REGION": "East Wyoming", "ASSOCIATION": "USA - Wyoming", "POINTS": "4", "BONUSPOINTS": "3"}}, {"type": "Feature", "geometry": {"type": "Point", "coordinates": [-105.3947, 41.9674]}, "properties": {"NAME": "W7Y/EW-051", "TITLE": "Sugar Loaf", "REGION": "East Wyoming", "ASSOCIATION": "USA - Wyoming", "POINTS": "4", "BONUSPOINTS": "3"}}, {"type": "Feature", "geometry": {"type": "Point", "coordinates": [-105.8962, 42.5772]}, "properties": {"NAME": "W7Y/EW-052", "TITLE": "Pole Mountain", "REGION": "East Wyoming", "ASSOCIATION": "USA - Wyoming", "POINTS": "4", "BONUSPOINTS": "3"}}, {"type": "Feature", "geometry": {"type": "Point", "coordinates": [-105.5709, 42.1064]}, "properties": {"NAME": "W7Y/EW-053", "TITLE": "Sellers Mountain", "REGION": "East Wyoming", "ASSOCIATION": "USA - Wyoming", "POINTS": "4", "BONUSPOINTS": "3"}}, {"type": "Feature", "geometry": {"type": "Point", "coordinates": [-105.6643, 42.5571]}, "properties": {"NAME": "W7Y/EW-054", "TITLE": "7690", "REGION": "East Wyoming", "ASSOCIATION": "USA - Wyoming", "POINTS": "4", "BONUSPOINTS": "3"}}, {"type": "Feature", "geometry": {"type": "Point", "coordinates": [-105.3272, 42.268]}, "properties": {"NAME": "W7Y/EW-055", "TITLE": "Albany Peak", "REGION": "East Wyoming", "ASSOCIATION": "USA - Wyoming", "POINTS": "4", "BONUSPOINTS": "3"}}, {"type": "Feature", "geometry": {"type": "Point", "coordinates": [-105.3929, 42.282]}, "properties": {"NAME": "W7Y/EW-056", "TITLE": "Haystack Peaks", "REGION": "East Wyoming", "ASSOCIATION": "USA - Wyoming", "POINTS": "4", "BONUSPOINTS": "3"}}, {"type": "Feature", "geometry": {"type": "Point", "coordinates": [-105.4993, 41.9152]}, "properties": {"NAME": "W7Y/EW-057", "TITLE": "Bull Camp Peak", "REGION": "East Wyoming", "ASSOCIATION": "USA - Wyoming", "POINTS": "4", "BONUSPOINTS": "3"}}, {"type": "Feature", "geometry": {"type": "Point", "coordinates": [-105.8408, 42.6361]}, "properties": {"NAME": "W7Y/EW-058", "TITLE": "Lacy Mountain", "REGION": "East Wyoming", "ASSOCIATION": "USA - Wyoming", "POINTS": "4", "BONUSPOINTS": "3"}}, {"type": "Feature", "geometry": {"type": "Point", "coordinates": [-105.9981, 42.6742]}, "properties": {"NAME": "W7Y/EW-059", "TITLE": "No 31 Benchmark", "REGION": "East Wyoming", "ASSOCIATION": "USA - Wyoming", "POINTS": "4", "BONUSPOINTS": "3"}}, {"type": "Feature", "geometry": {"type": "Point", "coordinates": [-105.4565, 42.3803]}, "properties": {"NAME": "W7Y/EW-060", "TITLE": "Spring Hill", "REGION": "East Wyoming", "ASSOCIATION": "USA - Wyoming", "POINTS": "4", "BONUSPOINTS": "3"}}, {"type": "Feature", "geometry": {"type": "Point", "coordinates": [-105.3097, 41.9463]}, "properties": {"NAME": "W7Y/EW-061", "TITLE": "Government Peak", "REGION": "East Wyoming", "ASSOCIATION": "USA - Wyoming", "POINTS": "4", "BONUSPOINTS": "3"}}, {"type": "Feature", "geometry": {"type": "Point", "coordinates": [-105.2397, 41.931]}, "properties": {"NAME": "W7Y/EW-062", "TITLE": "Squaw Mountain", "REGION": "East Wyoming", "ASSOCIATION": "USA - Wyoming", "POINTS": "4", "BONUSPOINTS": "3"}}, {"type": "Feature", "geometry": {"type": "Point", "coordinates": [-105.3362, 41.8166]}, "properties": {"NAME": "W7Y/EW-063", "TITLE": "Poe Mountain", "REGION": "East Wyoming", "ASSOCIATION": "USA - Wyoming", "POINTS": "4", "BONUSPOINTS": "3"}}, {"type": "Feature", "geometry": {"type": "Point", "coordinates": [-105.1103, 41.7891]}, "properties": {"NAME": "W7Y/EW-064", "TITLE": "6950", "REGION": "East Wyoming", "ASSOCIATION": "USA - Wyoming", "POINTS": "2", "BONUSPOINTS": "3"}}, {"type": "Feature", "geometry": {"type": "Point", "coordinates": [-105.186, 41.7814]}, "properties": {"NAME": "W7Y/EW-065", "TITLE": "6859", "REGION": "East Wyoming", "ASSOCIATION": "USA - Wyoming", "POINTS": "2", "BONUSPOINTS": "3"}}, {"type": "Feature", "geometry": {"type": "Point", "coordinates": [-105.1916, 41.8045]}, "properties": {"NAME": "W7Y/EW-066", "TITLE": "Sheep Mountain", "REGION": "East Wyoming", "ASSOCIATION": "USA - Wyoming", "POINTS": "2", "BONUSPOINTS": "3"}}, {"type": "Feature", "geometry": {"type": "Point", "coordinates": [-105.0671, 41.8244]}, "properties": {"NAME": "W7Y/EW-067", "TITLE": "Richeau Hills HP", "REGION": "East Wyoming", "ASSOCIATION": "USA - Wyoming", "POINTS": "2", "BONUSPOINTS": "3"}}, {"type": "Feature", "geometry": {"type": "Point", "coordinates": [-104.062, 44.3423]}, "properties": {"NAME": "W7Y/EW-068", "TITLE": "Cement Ridge HP", "REGION": "East Wyoming", "ASSOCIATION": "USA - Wyoming", "POINTS": "2", "BONUSPOINTS": "3"}}, {"type": "Feature", "geometry": {"type": "Point", "coordinates": [-104.4438, 44.4761]}, "properties": {"NAME": "W7Y/EW-069", "TITLE": "Bear Lodge Mountain", "REGION": "East Wyoming", "ASSOCIATION": "USA - Wyoming", "POINTS": "2", "BONUSPOINTS": "3"}}, {"type": "Feature", "geometry": {"type": "Point", "coordinates": [-105.1685, 41.7594]}, "properties": {"NAME": "W7Y/EW-070", "TITLE": "6610", "REGION": "East Wyoming", "ASSOCIATION": "USA - Wyoming", "POINTS": "2", "BONUSPOINTS": "3"}}, {"type": "Feature", "geometry": {"type": "Point", "coordinates": [-105.2455, 42.2059]}, "properties": {"NAME": "W7Y/EW-071", "TITLE": "Sheep Mountain", "REGION": "East Wyoming", "ASSOCIATION": "USA - Wyoming", "POINTS": "2", "BONUSPOINTS": "3"}}, {"type": "Feature", "geometry": {"type": "Point", "coordinates": [-104.1905, 44.0461]}, "properties": {"NAME": "W7Y/EW-072", "TITLE": "Sweetwater Mountain", "REGION": "East Wyoming", "ASSOCIATION": "USA - Wyoming", "POINTS": "2", "BONUSPOINTS": "3"}}, {"type": "Feature", "geometry": {"type": "Point", "coordinates": [-105.1606, 41.8215]}, "properties": {"NAME": "W7Y/EW-073", "TITLE": "6422", "REGION": "East Wyoming", "ASSOCIATION": "USA - Wyoming", "POINTS": "2", "BONUSPOINTS": "3"}}, {"type": "Feature", "geometry": {"type": "Point", "coordinates": [-105.4957, 42.6767]}, "properties": {"NAME": "W7Y/EW-074", "TITLE": "Sheep Mountain", "REGION": "East Wyoming", "ASSOCIATION": "USA - Wyoming", "POINTS": "2", "BONUSPOINTS": "3"}}, {"type": "Feature", "geometry": {"type": "Point", "coordinates": [-104.1436, 43.9948]}, "properties": {"NAME": "W7Y/EW-075", "TITLE": "Pisgah, Mount", "REGION": "East Wyoming", "ASSOCIATION": "USA - Wyoming", "POINTS": "2", "BONUSPOINTS": "3"}}, {"type": "Feature", "geometry": {"type": "Point", "coordinates": [-104.3503, 44.2131]}, "properties": {"NAME": "W7Y/EW-076", "TITLE": "Inyan Kara Mountain", "REGION": "East Wyoming", "ASSOCIATION": "USA - Wyoming", "POINTS": "2", "BONUSPOINTS": "3"}}, {"type": "Feature", "geometry": {"type": "Point", "coordinates": [-106.0223, 43.2401]}, "properties": {"NAME": "W7Y/EW-077", "TITLE": "Pine Ridge", "REGION": "East Wyoming", "ASSOCIATION": "USA - Wyoming", "POINTS": "2", "BONUSPOINTS": "3"}}, {"type": "Feature", "geometry": {"type": "Point", "coordinates": [-105.2148, 42.2271]}, "properties": {"NAME": "W7Y/EW-078", "TITLE": "Johnson Mountain", "REGION": "East Wyoming", "ASSOCIATION": "USA - Wyoming", "POINTS": "2", "BONUSPOINTS": "3"}}, {"type": "Feature", "geometry": {"type": "Point", "coordinates": [-104.5883, 42.5931]}, "properties": {"NAME": "W7Y/EW-079", "TITLE": "Goshen County HP", "REGION": "East Wyoming", "ASSOCIATION": "USA - Wyoming", "POINTS": "2", "BONUSPOINTS": "3"}}, {"type": "Feature", "geometry": {"type": "Point", "coordinates": [-104.596, 42.6423]}, "properties": {"NAME": "W7Y/EW-080", "TITLE": "Niobrara County HP", "REGION": "East Wyoming", "ASSOCIATION": "USA - Wyoming", "POINTS": "2", "BONUSPOINTS": "3"}}, {"type": "Feature", "geometry": {"type": "Point", "coordinates": [-105.4973, 42.525]}, "properties": {"NAME": "W7Y/EW-081", "TITLE": "Manning Ridge", "REGION": "East Wyoming", "ASSOCIATION": "USA - Wyoming", "POINTS": "2", "BONUSPOINTS": "3"}}, {"type": "Feature", "geometry": {"type": "Point", "coordinates": [-104.4926, 42.5866]}, "properties": {"NAME": "W7Y/EW-082", "TITLE": "Big Rawhide Butte", "REGION": "East Wyoming", "ASSOCIATION": "USA - Wyoming", "POINTS": "2", "BONUSPOINTS": "3"}}, {"type": "Feature", "geometry": {"type": "Point", "coordinates": [-105.9499, 43.7936]}, "properties": {"NAME": "W7Y/EW-083", "TITLE": "North Butte", "REGION": "East Wyoming", "ASSOCIATION": "USA - Wyoming", "POINTS": "2", "BONUSPOINTS": "3"}}, {"type": "Feature", "geometry": {"type": "Point", "coordinates": [-105.8982, 43.741]}, "properties": {"NAME": "W7Y/EW-084", "TITLE": "North Middle Butte", "REGION": "East Wyoming", "ASSOCIATION": "USA - Wyoming", "POINTS": "2", "BONUSPOINTS": "3"}}, {"type": "Feature", "geometry": {"type": "Point", "coordinates": [-105.8652, 43.6947]}, "properties": {"NAME": "W7Y/EW-085", "TITLE": "South Butte", "REGION": "East Wyoming", "ASSOCIATION": "USA - Wyoming", "POINTS": "1", "BONUSPOINTS": "0"}}, {"type": "Feature", "geometry": {"type": "Point", "coordinates": [-105.4766, 42.5807]}, "properties": {"NAME": "W7Y/EW-086", "TITLE": "5990", "REGION": "East Wyoming", "ASSOCIATION": "USA - Wyoming", "POINTS": "1", "BONUSPOINTS": "0"}}, {"type": "Feature", "geometry": {"type": "Point", "coordinates": [-105.4758, 42.6269]}, "properties": {"NAME": "W7Y/EW-087", "TITLE": "5931", "REGION": "East Wyoming", "ASSOCIATION": "USA - Wyoming", "POINTS": "1", "BONUSPOINTS": "0"}}, {"type": "Feature", "geometry": {"type": "Point", "coordinates": [-105.1525, 41.9545]}, "properties": {"NAME": "W7Y/EW-088", "TITLE": "South Cooney Hills HP", "REGION": "East Wyoming", "ASSOCIATION": "USA - Wyoming", "POINTS": "1", "BONUSPOINTS": "0"}}, {"type": "Feature", "geometry": {"type": "Point", "coordinates": [-105.1379, 41.9791]}, "properties": {"NAME": "W7Y/EW-089", "TITLE": "North Cooney Hills HP", "REGION": "East Wyoming", "ASSOCIATION": "USA - Wyoming", "POINTS": "1", "BONUSPOINTS": "0"}}, {"type": "Feature", "geometry": {"type": "Point", "coordinates": [-104.3764, 44.3884]}, "properties": {"NAME": "W7Y/EW-090", "TITLE": "Sundance Mountain", "REGION": "East Wyoming", "ASSOCIATION": "USA - Wyoming", "POINTS": "1", "BONUSPOINTS": "0"}}, {"type": "Feature", "geometry": {"type": "Point", "coordinates": [-104.6402, 42.3388]}, "properties": {"NAME": "W7Y/EW-091", "TITLE": "5656", "REGION": "East Wyoming", "ASSOCIATION": "USA - Wyoming", "POINTS": "1", "BONUSPOINTS": "0"}}, {"type": "Feature", "geometry": {"type": "Point", "coordinates": [-104.3756, 44.2722]}, "properties": {"NAME": "W7Y/EW-092", "TITLE": "O'Haver Peak", "REGION": "East Wyoming", "ASSOCIATION": "USA - Wyoming", "POINTS": "1", "BONUSPOINTS": "0"}}, {"type": "Feature", "geometry": {"type": "Point", "coordinates": [-105.3715, 42.6673]}, "properties": {"NAME": "W7Y/EW-093", "TITLE": "Chalk Benchmark", "REGION": "East Wyoming", "ASSOCIATION": "USA - Wyoming", "POINTS": "1", "BONUSPOINTS": "0"}}, {"type": "Feature", "geometry": {"type": "Point", "coordinates": [-104.7806, 44.6194]}, "properties": {"NAME": "W7Y/EW-094", "TITLE": "Missouri Buttes West", "REGION": "East Wyoming", "ASSOCIATION": "USA - Wyoming", "POINTS": "1", "BONUSPOINTS": "0"}}, {"type": "Feature", "geometry": {"type": "Point", "coordinates": [-104.3231, 44.4067]}, "properties": {"NAME": "W7Y/EW-095", "TITLE": "Green Mountain", "REGION": "East Wyoming", "ASSOCIATION": "USA - Wyoming", "POINTS": "1", "BONUSPOINTS": "0"}}, {"type": "Feature", "geometry": {"type": "Point", "coordinates": [-104.091, 41.7018]}, "properties": {"NAME": "W7Y/EW-096", "TITLE": "Sixtysix Mountain", "REGION": "East Wyoming", "ASSOCIATION": "USA - Wyoming", "POINTS": "1", "BONUSPOINTS": "0"}}, {"type": "Feature", "geometry": {"type": "Point", "coordinates": [-104.7153, 44.5905]}, "properties": {"NAME": "W7Y/EW-097", "TITLE": "Devils Tower", "REGION": "East Wyoming", "ASSOCIATION": "USA - Wyoming", "POINTS": "1", "BONUSPOINTS": "0"}}, {"type": "Feature", "geometry": {"type": "Point", "coordinates": [-105.4298, 44.9678]}, "properties": {"NAME": "W7Y/EW-098", "TITLE": "Red Hills North", "REGION": "East Wyoming", "ASSOCIATION": "USA - Wyoming", "POINTS": "1", "BONUSPOINTS": "0"}}, {"type": "Feature", "geometry": {"type": "Point", "coordinates": [-106.0133, 41.2094]}, "properties": {"NAME": "W7Y/EW-099", "TITLE": "Sheep Mountain", "REGION": "East Wyoming", "ASSOCIATION": "USA - Wyoming", "POINTS": "6", "BONUSPOINTS": "3"}}, {"type": "Feature", "geometry": {"type": "Point", "coordinates": [-105.8396, 42.5732]}, "properties": {"NAME": "W7Y/EW-100", "TITLE": "8260", "REGION": "East Wyoming", "ASSOCIATION": "USA - Wyoming", "POINTS": "6", "BONUSPOINTS": "3"}}, {"type": "Feature", "geometry": {"type": "Point", "coordinates": [-105.3661, 42.0179]}, "properties": {"NAME": "W7Y/EW-101", "TITLE": "Reese Mountain", "REGION": "East Wyoming", "ASSOCIATION": "USA - Wyoming", "POINTS": "6", "BONUSPOINTS": "3"}}]}