{"type": "FeatureCollection", "name": "W7Y/NW SUMMITS", "features": [{"type": "Feature", "geometry": {"type": "Point", "coordinates": [-107.1739, 44.3822]}, "properties": {"NAME": "W7Y/NW-001", "TITLE": "Cloud Peak", "REGION": "North Wyoming", "ASSOCIATION": "USA - Wyoming", "POINTS": "10", "BONUSPOINTS": "3"}}, {"type": "Feature", "geometry": {"type": "Point", "coordinates": [-107.1795, 44.4032]}, "properties": {"NAME": "W7Y/NW-002", "TITLE": "Black Tooth Mountain", "REGION": "North Wyoming", "ASSOCIATION": "USA - Wyoming", "POINTS": "10", "BONUSPOINTS": "3"}}, {"type": "Feature", "geometry": {"type": "Point", "coordinates": [-107.1552, 44.3703]}, "properties": {"NAME": "W7Y/NW-003", "TITLE": "Bomber Mountain", "REGION": "North Wyoming", "ASSOCIATION": "USA - Wyoming", "POINTS": "10", "BONUSPOINTS": "3"}}, {"type": "Feature", "geometry": {"type": "Point", "coordinates": [-107.1509, 44.4045]}, "properties": {"NAME": "W7Y/NW-004", "TITLE": "12644", "REGION": "North Wyoming", "ASSOCIATION": "USA - Wyoming", "POINTS": "10", "BONUSPOINTS": "3"}}, {"type": "Feature", "geometry": {"type": "Point", "coordinates": [-109.202, 43.7475]}, "properties": {"NAME": "W7Y/NW-005", "TITLE": "Washakie Needles", "REGION": "North Wyoming", "ASSOCIATION": "USA - Wyoming", "POINTS": "10", "BONUSPOINTS": "3"}}, {"type": "Feature", "geometry": {"type": "Point", "coordinates": [-107.2078, 44.3947]}, "properties": {"NAME": "W7Y/NW-006", "TITLE": "12473", "REGION": "North Wyoming", "ASSOCIATION": "USA - Wyoming", "POINTS": "10", "BONUSPOINTS": "3"}}, {"type": "Feature", "geometry": {"type": "Point", "coordinates": [-109.2092, 43.7578]}, "properties": {"NAME": "W7Y/NW-007", "TITLE": "Dome Mountain", "REGION": "North Wyoming", "ASSOCIATION": "USA - Wyoming", "POINTS": "10", "BONUSPOINTS": "3"}}, {"type": "Feature", "geometry": {"type": "Point", "coordinates": [-107.1464, 44.3242]}, "properties": {"NAME": "W7Y/NW-008", "TITLE": "Mather Peaks East", "REGION": "North Wyoming", "ASSOCIATION": "USA - Wyoming", "POINTS": "10", "BONUSPOINTS": "3"}}, {"type": "Feature", "geometry": {"type": "Point", "coordinates": [-107.107, 44.2544]}, "properties": {"NAME": "W7Y/NW-009", "TITLE": "Bighorn Peak", "REGION": "North Wyoming", "ASSOCIATION": "USA - Wyoming", "POINTS": "10", "BONUSPOINTS": "3"}}, {"type": "Feature", "geometry": {"type": "Point", "coordinates": [-107.1091, 44.2761]}, "properties": {"NAME": "W7Y/NW-010", "TITLE": "Darton Peak", "REGION": "North Wyoming", "ASSOCIATION": "USA - Wyoming", "POINTS": "10", "BONUSPOINTS": "3"}}, {"type": "Feature", "geometry": {"type": "Point", "coordinates": [-109.2311, 43.7742]}, "properties": {"NAME": "W7Y/NW-011", "TITLE": "12163", "REGION": "North Wyoming", "ASSOCIATION": "USA - Wyoming", "POINTS": "10", "BONUSPOINTS": "3"}}, {"type": "Feature", "geometry": {"type": "Point", "coordinates": [-107.1992, 44.4526]}, "properties": {"NAME": "W7Y/NW-012", "TITLE": "11760", "REGION": "North Wyoming", "ASSOCIATION": "USA - Wyoming", "POINTS": "8", "BONUSPOINTS": "3"}}, {"type": "Feature", "geometry": {"type": "Point", "coordinates": [-107.071, 44.213]}, "properties": {"NAME": "W7Y/NW-013", "TITLE": "Loaf Mountain", "REGION": "North Wyoming", "ASSOCIATION": "USA - Wyoming", "POINTS": "8", "BONUSPOINTS": "3"}}, {"type": "Feature", "geometry": {"type": "Point", "coordinates": [-107.2791, 44.4518]}, "properties": {"NAME": "W7Y/NW-014", "TITLE": "Spear Benchmark", "REGION": "North Wyoming", "ASSOCIATION": "USA - Wyoming", "POINTS": "8", "BONUSPOINTS": "3"}}, {"type": "Feature", "geometry": {"type": "Point", "coordinates": [-107.2598, 44.3362]}, "properties": {"NAME": "W7Y/NW-015", "TITLE": "Elk Mountain", "REGION": "North Wyoming", "ASSOCIATION": "USA - Wyoming", "POINTS": "8", "BONUSPOINTS": "3"}}, {"type": "Feature", "geometry": {"type": "Point", "coordinates": [-107.2272, 44.3349]}, "properties": {"NAME": "W7Y/NW-016", "TITLE": "11112", "REGION": "North Wyoming", "ASSOCIATION": "USA - Wyoming", "POINTS": "8", "BONUSPOINTS": "3"}}, {"type": "Feature", "geometry": {"type": "Point", "coordinates": [-107.3321, 44.5462]}, "properties": {"NAME": "W7Y/NW-017", "TITLE": "Elk Peak", "REGION": "North Wyoming", "ASSOCIATION": "USA - Wyoming", "POINTS": "8", "BONUSPOINTS": "3"}}, {"type": "Feature", "geometry": {"type": "Point", "coordinates": [-107.3052, 44.4834]}, "properties": {"NAME": "W7Y/NW-018", "TITLE": "11044", "REGION": "North Wyoming", "ASSOCIATION": "USA - Wyoming", "POINTS": "8", "BONUSPOINTS": "3"}}, {"type": "Feature", "geometry": {"type": "Point", "coordinates": [-107.3732, 44.5682]}, "properties": {"NAME": "W7Y/NW-019", "TITLE": "Sheridan County HP", "REGION": "North Wyoming", "ASSOCIATION": "USA - Wyoming", "POINTS": "8", "BONUSPOINTS": "3"}}, {"type": "Feature", "geometry": {"type": "Point", "coordinates": [-107.1314, 44.4764]}, "properties": {"NAME": "W7Y/NW-020", "TITLE": "10854", "REGION": "North Wyoming", "ASSOCIATION": "USA - Wyoming", "POINTS": "8", "BONUSPOINTS": "3"}}, {"type": "Feature", "geometry": {"type": "Point", "coordinates": [-107.383, 44.5954]}, "properties": {"NAME": "W7Y/NW-021", "TITLE": "Dome Peak", "REGION": "North Wyoming", "ASSOCIATION": "USA - Wyoming", "POINTS": "8", "BONUSPOINTS": "3"}}, {"type": "Feature", "geometry": {"type": "Point", "coordinates": [-107.3796, 44.4674]}, "properties": {"NAME": "W7Y/NW-022", "TITLE": "10802", "REGION": "North Wyoming", "ASSOCIATION": "USA - Wyoming", "POINTS": "8", "BONUSPOINTS": "3"}}, {"type": "Feature", "geometry": {"type": "Point", "coordinates": [-107.0457, 44.0992]}, "properties": {"NAME": "W7Y/NW-023", "TITLE": "Hazelton Pyramid", "REGION": "North Wyoming", "ASSOCIATION": "USA - Wyoming", "POINTS": "8", "BONUSPOINTS": "3"}}, {"type": "Feature", "geometry": {"type": "Point", "coordinates": [-107.0428, 44.1299]}, "properties": {"NAME": "W7Y/NW-024", "TITLE": "Hesse Mountain", "REGION": "North Wyoming", "ASSOCIATION": "USA - Wyoming", "POINTS": "8", "BONUSPOINTS": "3"}}, {"type": "Feature", "geometry": {"type": "Point", "coordinates": [-107.0524, 44.1194]}, "properties": {"NAME": "W7Y/NW-025", "TITLE": "10372", "REGION": "North Wyoming", "ASSOCIATION": "USA - Wyoming", "POINTS": "8", "BONUSPOINTS": "3"}}, {"type": "Feature", "geometry": {"type": "Point", "coordinates": [-107.4396, 44.6134]}, "properties": {"NAME": "W7Y/NW-026", "TITLE": "Bruce Mountain", "REGION": "North Wyoming", "ASSOCIATION": "USA - Wyoming", "POINTS": "8", "BONUSPOINTS": "3"}}, {"type": "Feature", "geometry": {"type": "Point", "coordinates": [-107.0216, 44.0906]}, "properties": {"NAME": "W7Y/NW-027", "TITLE": "Hazelton Peak", "REGION": "North Wyoming", "ASSOCIATION": "USA - Wyoming", "POINTS": "8", "BONUSPOINTS": "3"}}, {"type": "Feature", "geometry": {"type": "Point", "coordinates": [-107.7571, 44.7276]}, "properties": {"NAME": "W7Y/NW-028", "TITLE": "Hunt Mountain", "REGION": "North Wyoming", "ASSOCIATION": "USA - Wyoming", "POINTS": "8", "BONUSPOINTS": "3"}}, {"type": "Feature", "geometry": {"type": "Point", "coordinates": [-107.3798, 44.6601]}, "properties": {"NAME": "W7Y/NW-029", "TITLE": "Lookout Mountain", "REGION": "North Wyoming", "ASSOCIATION": "USA - Wyoming", "POINTS": "8", "BONUSPOINTS": "3"}}, {"type": "Feature", "geometry": {"type": "Point", "coordinates": [-107.8326, 44.79]}, "properties": {"NAME": "W7Y/NW-030", "TITLE": "Bald Mountain", "REGION": "North Wyoming", "ASSOCIATION": "USA - Wyoming", "POINTS": "8", "BONUSPOINTS": "3"}}, {"type": "Feature", "geometry": {"type": "Point", "coordinates": [-107.9023, 44.8169]}, "properties": {"NAME": "W7Y/NW-031", "TITLE": "Medicine Mountain", "REGION": "North Wyoming", "ASSOCIATION": "USA - Wyoming", "POINTS": "6", "BONUSPOINTS": "3"}}, {"type": "Feature", "geometry": {"type": "Point", "coordinates": [-107.7381, 44.7727]}, "properties": {"NAME": "W7Y/NW-032", "TITLE": "9953", "REGION": "North Wyoming", "ASSOCIATION": "USA - Wyoming", "POINTS": "6", "BONUSPOINTS": "3"}}, {"type": "Feature", "geometry": {"type": "Point", "coordinates": [-107.4943, 44.5848]}, "properties": {"NAME": "W7Y/NW-033", "TITLE": "Antelope Butte", "REGION": "North Wyoming", "ASSOCIATION": "USA - Wyoming", "POINTS": "6", "BONUSPOINTS": "3"}}, {"type": "Feature", "geometry": {"type": "Point", "coordinates": [-108.796, 43.6002]}, "properties": {"NAME": "W7Y/NW-034", "TITLE": "Owl Creek Mountains HP", "REGION": "North Wyoming", "ASSOCIATION": "USA - Wyoming", "POINTS": "6", "BONUSPOINTS": "3"}}, {"type": "Feature", "geometry": {"type": "Point", "coordinates": [-107.8622, 44.869]}, "properties": {"NAME": "W7Y/NW-035", "TITLE": "Duncum Mountain", "REGION": "North Wyoming", "ASSOCIATION": "USA - Wyoming", "POINTS": "6", "BONUSPOINTS": "3"}}, {"type": "Feature", "geometry": {"type": "Point", "coordinates": [-107.5732, 44.6313]}, "properties": {"NAME": "W7Y/NW-036", "TITLE": "Cedar Mountain", "REGION": "North Wyoming", "ASSOCIATION": "USA - Wyoming", "POINTS": "6", "BONUSPOINTS": "3"}}, {"type": "Feature", "geometry": {"type": "Point", "coordinates": [-107.882, 44.9429]}, "properties": {"NAME": "W7Y/NW-037", "TITLE": "Sheep Mountain", "REGION": "North Wyoming", "ASSOCIATION": "USA - Wyoming", "POINTS": "6", "BONUSPOINTS": "3"}}, {"type": "Feature", "geometry": {"type": "Point", "coordinates": [-109.0657, 43.621]}, "properties": {"NAME": "W7Y/NW-038", "TITLE": "Spring Mountain", "REGION": "North Wyoming", "ASSOCIATION": "USA - Wyoming", "POINTS": "6", "BONUSPOINTS": "3"}}, {"type": "Feature", "geometry": {"type": "Point", "coordinates": [-108.7049, 43.5943]}, "properties": {"NAME": "W7Y/NW-039", "TITLE": "Owl Benchmark", "REGION": "North Wyoming", "ASSOCIATION": "USA - Wyoming", "POINTS": "6", "BONUSPOINTS": "3"}}, {"type": "Feature", "geometry": {"type": "Point", "coordinates": [-107.2955, 44.2585]}, "properties": {"NAME": "W7Y/NW-040", "TITLE": "Buck Mountain", "REGION": "North Wyoming", "ASSOCIATION": "USA - Wyoming", "POINTS": "6", "BONUSPOINTS": "3"}}, {"type": "Feature", "geometry": {"type": "Point", "coordinates": [-107.7892, 44.8325]}, "properties": {"NAME": "W7Y/NW-041", "TITLE": "Burnt Mountain", "REGION": "North Wyoming", "ASSOCIATION": "USA - Wyoming", "POINTS": "6", "BONUSPOINTS": "3"}}, {"type": "Feature", "geometry": {"type": "Point", "coordinates": [-107.3818, 44.743]}, "properties": {"NAME": "W7Y/NW-042", "TITLE": "Black Mountain", "REGION": "North Wyoming", "ASSOCIATION": "USA - Wyoming", "POINTS": "6", "BONUSPOINTS": "3"}}, {"type": "Feature", "geometry": {"type": "Point", "coordinates": [-107.3201, 44.2793]}, "properties": {"NAME": "W7Y/NW-043", "TITLE": "Middle Fork Ridge", "REGION": "North Wyoming", "ASSOCIATION": "USA - Wyoming", "POINTS": "6", "BONUSPOINTS": "3"}}, {"type": "Feature", "geometry": {"type": "Point", "coordinates": [-109.0501, 43.6567]}, "properties": {"NAME": "W7Y/NW-044", "TITLE": "9390", "REGION": "North Wyoming", "ASSOCIATION": "USA - Wyoming", "POINTS": "6", "BONUSPOINTS": "3"}}, {"type": "Feature", "geometry": {"type": "Point", "coordinates": [-107.0936, 44.5568]}, "properties": {"NAME": "W7Y/NW-045", "TITLE": "Little Goose Peak", "REGION": "North Wyoming", "ASSOCIATION": "USA - Wyoming", "POINTS": "6", "BONUSPOINTS": "3"}}, {"type": "Feature", "geometry": {"type": "Point", "coordinates": [-107.3456, 44.3093]}, "properties": {"NAME": "W7Y/NW-046", "TITLE": "9326", "REGION": "North Wyoming", "ASSOCIATION": "USA - Wyoming", "POINTS": "6", "BONUSPOINTS": "3"}}, {"type": "Feature", "geometry": {"type": "Point", "coordinates": [-107.4568, 44.3896]}, "properties": {"NAME": "W7Y/NW-047", "TITLE": "Black Butte", "REGION": "North Wyoming", "ASSOCIATION": "USA - Wyoming", "POINTS": "6", "BONUSPOINTS": "3"}}, {"type": "Feature", "geometry": {"type": "Point", "coordinates": [-107.5157, 44.5371]}, "properties": {"NAME": "W7Y/NW-048", "TITLE": "Snowshoe Mountain", "REGION": "North Wyoming", "ASSOCIATION": "USA - Wyoming", "POINTS": "6", "BONUSPOINTS": "3"}}, {"type": "Feature", "geometry": {"type": "Point", "coordinates": [-107.8548, 44.761]}, "properties": {"NAME": "W7Y/NW-049", "TITLE": "9150", "REGION": "North Wyoming", "ASSOCIATION": "USA - Wyoming", "POINTS": "6", "BONUSPOINTS": "3"}}, {"type": "Feature", "geometry": {"type": "Point", "coordinates": [-107.2558, 43.4435]}, "properties": {"NAME": "W7Y/NW-050", "TITLE": "Mine Benchmark", "REGION": "North Wyoming", "ASSOCIATION": "USA - Wyoming", "POINTS": "6", "BONUSPOINTS": "3"}}, {"type": "Feature", "geometry": {"type": "Point", "coordinates": [-107.3684, 43.4331]}, "properties": {"NAME": "W7Y/NW-051", "TITLE": "8910", "REGION": "North Wyoming", "ASSOCIATION": "USA - Wyoming", "POINTS": "6", "BONUSPOINTS": "3"}}, {"type": "Feature", "geometry": {"type": "Point", "coordinates": [-108.8643, 43.6288]}, "properties": {"NAME": "W7Y/NW-052", "TITLE": "Anchor Benchmark", "REGION": "North Wyoming", "ASSOCIATION": "USA - Wyoming", "POINTS": "6", "BONUSPOINTS": "3"}}, {"type": "Feature", "geometry": {"type": "Point", "coordinates": [-107.0906, 43.9096]}, "properties": {"NAME": "W7Y/NW-053", "TITLE": "8660", "REGION": "North Wyoming", "ASSOCIATION": "USA - Wyoming", "POINTS": "6", "BONUSPOINTS": "3"}}, {"type": "Feature", "geometry": {"type": "Point", "coordinates": [-107.2761, 44.705]}, "properties": {"NAME": "W7Y/NW-054", "TITLE": "Walker Mountain", "REGION": "North Wyoming", "ASSOCIATION": "USA - Wyoming", "POINTS": "6", "BONUSPOINTS": "3"}}, {"type": "Feature", "geometry": {"type": "Point", "coordinates": [-107.1403, 43.5387]}, "properties": {"NAME": "W7Y/NW-055", "TITLE": "8572", "REGION": "North Wyoming", "ASSOCIATION": "USA - Wyoming", "POINTS": "6", "BONUSPOINTS": "3"}}, {"type": "Feature", "geometry": {"type": "Point", "coordinates": [-107.5081, 44.8678]}, "properties": {"NAME": "W7Y/NW-056", "TITLE": "Dry Fork Ridge East", "REGION": "North Wyoming", "ASSOCIATION": "USA - Wyoming", "POINTS": "6", "BONUSPOINTS": "3"}}, {"type": "Feature", "geometry": {"type": "Point", "coordinates": [-107.6032, 44.9095]}, "properties": {"NAME": "W7Y/NW-057", "TITLE": "Dry Fork Ridge West", "REGION": "North Wyoming", "ASSOCIATION": "USA - Wyoming", "POINTS": "6", "BONUSPOINTS": "3"}}, {"type": "Feature", "geometry": {"type": "Point", "coordinates": [-108.9125, 43.8311]}, "properties": {"NAME": "W7Y/NW-058", "TITLE": "8460", "REGION": "North Wyoming", "ASSOCIATION": "USA - Wyoming", "POINTS": "6", "BONUSPOINTS": "3"}}, {"type": "Feature", "geometry": {"type": "Point", "coordinates": [-107.4617, 44.8397]}, "properties": {"NAME": "W7Y/NW-059", "TITLE": "8444", "REGION": "North Wyoming", "ASSOCIATION": "USA - Wyoming", "POINTS": "6", "BONUSPOINTS": "3"}}, {"type": "Feature", "geometry": {"type": "Point", "coordinates": [-107.2536, 44.6887]}, "properties": {"NAME": "W7Y/NW-060", "TITLE": "She-Bear Mountain", "REGION": "North Wyoming", "ASSOCIATION": "USA - Wyoming", "POINTS": "6", "BONUSPOINTS": "3"}}, {"type": "Feature", "geometry": {"type": "Point", "coordinates": [-107.1258, 43.5959]}, "properties": {"NAME": "W7Y/NW-061", "TITLE": "8375", "REGION": "North Wyoming", "ASSOCIATION": "USA - Wyoming", "POINTS": "6", "BONUSPOINTS": "3"}}, {"type": "Feature", "geometry": {"type": "Point", "coordinates": [-108.9796, 43.7174]}, "properties": {"NAME": "W7Y/NW-062", "TITLE": "8340", "REGION": "North Wyoming", "ASSOCIATION": "USA - Wyoming", "POINTS": "6", "BONUSPOINTS": "3"}}, {"type": "Feature", "geometry": {"type": "Point", "coordinates": [-106.2577, 42.6815]}, "properties": {"NAME": "W7Y/NW-063", "TITLE": "Muddy Mountain", "REGION": "North Wyoming", "ASSOCIATION": "USA - Wyoming", "POINTS": "6", "BONUSPOINTS": "3"}}, {"type": "Feature", "geometry": {"type": "Point", "coordinates": [-107.2556, 44.728]}, "properties": {"NAME": "W7Y/NW-064", "TITLE": "8300", "REGION": "North Wyoming", "ASSOCIATION": "USA - Wyoming", "POINTS": "6", "BONUSPOINTS": "3"}}, {"type": "Feature", "geometry": {"type": "Point", "coordinates": [-108.9235, 43.6264]}, "properties": {"NAME": "W7Y/NW-065", "TITLE": "8250", "REGION": "North Wyoming", "ASSOCIATION": "USA - Wyoming", "POINTS": "6", "BONUSPOINTS": "3"}}, {"type": "Feature", "geometry": {"type": "Point", "coordinates": [-107.2995, 44.7292]}, "properties": {"NAME": "W7Y/NW-066", "TITLE": "Big Mountain", "REGION": "North Wyoming", "ASSOCIATION": "USA - Wyoming", "POINTS": "6", "BONUSPOINTS": "3"}}, {"type": "Feature", "geometry": {"type": "Point", "coordinates": [-107.2647, 42.7824]}, "properties": {"NAME": "W7Y/NW-067", "TITLE": "Garfield Peak", "REGION": "North Wyoming", "ASSOCIATION": "USA - Wyoming", "POINTS": "6", "BONUSPOINTS": "3"}}, {"type": "Feature", "geometry": {"type": "Point", "coordinates": [-108.6236, 43.5351]}, "properties": {"NAME": "W7Y/NW-068", "TITLE": "8232", "REGION": "North Wyoming", "ASSOCIATION": "USA - Wyoming", "POINTS": "6", "BONUSPOINTS": "3"}}, {"type": "Feature", "geometry": {"type": "Point", "coordinates": [-106.3365, 42.7275]}, "properties": {"NAME": "W7Y/NW-069", "TITLE": "Casper Mountain", "REGION": "North Wyoming", "ASSOCIATION": "USA - Wyoming", "POINTS": "6", "BONUSPOINTS": "3"}}, {"type": "Feature", "geometry": {"type": "Point", "coordinates": [-107.4577, 43.4076]}, "properties": {"NAME": "W7Y/NW-070", "TITLE": "8187", "REGION": "North Wyoming", "ASSOCIATION": "USA - Wyoming", "POINTS": "6", "BONUSPOINTS": "3"}}, {"type": "Feature", "geometry": {"type": "Point", "coordinates": [-107.3113, 43.515]}, "properties": {"NAME": "W7Y/NW-071", "TITLE": "8122", "REGION": "North Wyoming", "ASSOCIATION": "USA - Wyoming", "POINTS": "6", "BONUSPOINTS": "3"}}, {"type": "Feature", "geometry": {"type": "Point", "coordinates": [-106.2442, 42.6349]}, "properties": {"NAME": "W7Y/NW-072", "TITLE": "8091", "REGION": "North Wyoming", "ASSOCIATION": "USA - Wyoming", "POINTS": "6", "BONUSPOINTS": "3"}}, {"type": "Feature", "geometry": {"type": "Point", "coordinates": [-107.3366, 42.7904]}, "properties": {"NAME": "W7Y/NW-073", "TITLE": "8090", "REGION": "North Wyoming", "ASSOCIATION": "USA - Wyoming", "POINTS": "6", "BONUSPOINTS": "3"}}, {"type": "Feature", "geometry": {"type": "Point", "coordinates": [-107.2315, 42.7471]}, "properties": {"NAME": "W7Y/NW-074", "TITLE": "8090", "REGION": "North Wyoming", "ASSOCIATION": "USA - Wyoming", "POINTS": "6", "BONUSPOINTS": "3"}}, {"type": "Feature", "geometry": {"type": "Point", "coordinates": [-107.5217, 42.5194]}, "properties": {"NAME": "W7Y/NW-075", "TITLE": "McIntosh Peak", "REGION": "North Wyoming", "ASSOCIATION": "USA - Wyoming", "POINTS": "6", "BONUSPOINTS": "3"}}, {"type": "Feature", "geometry": {"type": "Point", "coordinates": [-107.9049, 43.4909]}, "properties": {"NAME": "W7Y/NW-076", "TITLE": "Guffy Peak", "REGION": "North Wyoming", "ASSOCIATION": "USA - Wyoming", "POINTS": "6", "BONUSPOINTS": "3"}}, {"type": "Feature", "geometry": {"type": "Point", "coordinates": [-107.4386, 42.7695]}, "properties": {"NAME": "W7Y/NW-077", "TITLE": "Black Mountain", "REGION": "North Wyoming", "ASSOCIATION": "USA - Wyoming", "POINTS": "6", "BONUSPOINTS": "3"}}, {"type": "Feature", "geometry": {"type": "Point", "coordinates": [-107.0959, 43.6966]}, "properties": {"NAME": "W7Y/NW-078", "TITLE": "8035", "REGION": "North Wyoming", "ASSOCIATION": "USA - Wyoming", "POINTS": "6", "BONUSPOINTS": "3"}}, {"type": "Feature", "geometry": {"type": "Point", "coordinates": [-107.31, 44.7686]}, "properties": {"NAME": "W7Y/NW-079", "TITLE": "Elephant Foot", "REGION": "North Wyoming", "ASSOCIATION": "USA - Wyoming", "POINTS": "6", "BONUSPOINTS": "3"}}, {"type": "Feature", "geometry": {"type": "Point", "coordinates": [-107.1485, 43.7177]}, "properties": {"NAME": "W7Y/NW-080", "TITLE": "7922", "REGION": "North Wyoming", "ASSOCIATION": "USA - Wyoming", "POINTS": "4", "BONUSPOINTS": "3"}}, {"type": "Feature", "geometry": {"type": "Point", "coordinates": [-107.3604, 44.8076]}, "properties": {"NAME": "W7Y/NW-081", "TITLE": "Steamboat Point", "REGION": "North Wyoming", "ASSOCIATION": "USA - Wyoming", "POINTS": "4", "BONUSPOINTS": "3"}}, {"type": "Feature", "geometry": {"type": "Point", "coordinates": [-106.9702, 43.8001]}, "properties": {"NAME": "W7Y/NW-082", "TITLE": "7860", "REGION": "North Wyoming", "ASSOCIATION": "USA - Wyoming", "POINTS": "4", "BONUSPOINTS": "3"}}, {"type": "Feature", "geometry": {"type": "Point", "coordinates": [-107.2796, 42.4892]}, "properties": {"NAME": "W7Y/NW-083", "TITLE": "Savage Peak", "REGION": "North Wyoming", "ASSOCIATION": "USA - Wyoming", "POINTS": "4", "BONUSPOINTS": "3"}}, {"type": "Feature", "geometry": {"type": "Point", "coordinates": [-107.4845, 42.5747]}, "properties": {"NAME": "W7Y/NW-084", "TITLE": "Lone Mountain", "REGION": "North Wyoming", "ASSOCIATION": "USA - Wyoming", "POINTS": "4", "BONUSPOINTS": "3"}}, {"type": "Feature", "geometry": {"type": "Point", "coordinates": [-107.4876, 43.4571]}, "properties": {"NAME": "W7Y/NW-085", "TITLE": "7817", "REGION": "North Wyoming", "ASSOCIATION": "USA - Wyoming", "POINTS": "4", "BONUSPOINTS": "3"}}, {"type": "Feature", "geometry": {"type": "Point", "coordinates": [-107.4976, 42.527]}, "properties": {"NAME": "W7Y/NW-086", "TITLE": "7719", "REGION": "North Wyoming", "ASSOCIATION": "USA - Wyoming", "POINTS": "4", "BONUSPOINTS": "3"}}, {"type": "Feature", "geometry": {"type": "Point", "coordinates": [-107.8176, 44.7249]}, "properties": {"NAME": "W7Y/NW-087", "TITLE": "7692", "REGION": "North Wyoming", "ASSOCIATION": "USA - Wyoming", "POINTS": "4", "BONUSPOINTS": "3"}}, {"type": "Feature", "geometry": {"type": "Point", "coordinates": [-107.4713, 42.5291]}, "properties": {"NAME": "W7Y/NW-088", "TITLE": "7666", "REGION": "North Wyoming", "ASSOCIATION": "USA - Wyoming", "POINTS": "4", "BONUSPOINTS": "3"}}, {"type": "Feature", "geometry": {"type": "Point", "coordinates": [-107.9376, 43.5038]}, "properties": {"NAME": "W7Y/NW-089", "TITLE": "7628", "REGION": "North Wyoming", "ASSOCIATION": "USA - Wyoming", "POINTS": "4", "BONUSPOINTS": "3"}}, {"type": "Feature", "geometry": {"type": "Point", "coordinates": [-107.4554, 42.5503]}, "properties": {"NAME": "W7Y/NW-090", "TITLE": "7605", "REGION": "North Wyoming", "ASSOCIATION": "USA - Wyoming", "POINTS": "4", "BONUSPOINTS": "3"}}, {"type": "Feature", "geometry": {"type": "Point", "coordinates": [-108.2998, 43.4633]}, "properties": {"NAME": "W7Y/NW-091", "TITLE": "7554", "REGION": "North Wyoming", "ASSOCIATION": "USA - Wyoming", "POINTS": "4", "BONUSPOINTS": "3"}}, {"type": "Feature", "geometry": {"type": "Point", "coordinates": [-106.9123, 44.4142]}, "properties": {"NAME": "W7Y/NW-092", "TITLE": "7551", "REGION": "North Wyoming", "ASSOCIATION": "USA - Wyoming", "POINTS": "4", "BONUSPOINTS": "3"}}, {"type": "Feature", "geometry": {"type": "Point", "coordinates": [-108.0517, 43.4824]}, "properties": {"NAME": "W7Y/NW-093", "TITLE": "7533", "REGION": "North Wyoming", "ASSOCIATION": "USA - Wyoming", "POINTS": "4", "BONUSPOINTS": "3"}}, {"type": "Feature", "geometry": {"type": "Point", "coordinates": [-107.3776, 42.5744]}, "properties": {"NAME": "W7Y/NW-094", "TITLE": "7524", "REGION": "North Wyoming", "ASSOCIATION": "USA - Wyoming", "POINTS": "4", "BONUSPOINTS": "3"}}, {"type": "Feature", "geometry": {"type": "Point", "coordinates": [-107.3565, 42.6156]}, "properties": {"NAME": "W7Y/NW-095", "TITLE": "7522", "REGION": "North Wyoming", "ASSOCIATION": "USA - Wyoming", "POINTS": "4", "BONUSPOINTS": "3"}}, {"type": "Feature", "geometry": {"type": "Point", "coordinates": [-107.3529, 42.6369]}, "properties": {"NAME": "W7Y/NW-096", "TITLE": "7510", "REGION": "North Wyoming", "ASSOCIATION": "USA - Wyoming", "POINTS": "4", "BONUSPOINTS": "3"}}, {"type": "Feature", "geometry": {"type": "Point", "coordinates": [-107.5229, 42.6286]}, "properties": {"NAME": "W7Y/NW-097", "TITLE": "West Sage Hen Rocks", "REGION": "North Wyoming", "ASSOCIATION": "USA - Wyoming", "POINTS": "4", "BONUSPOINTS": "3"}}, {"type": "Feature", "geometry": {"type": "Point", "coordinates": [-107.0126, 42.7149]}, "properties": {"NAME": "W7Y/NW-098", "TITLE": "Horse Heaven", "REGION": "North Wyoming", "ASSOCIATION": "USA - Wyoming", "POINTS": "4", "BONUSPOINTS": "3"}}, {"type": "Feature", "geometry": {"type": "Point", "coordinates": [-107.3779, 42.5237]}, "properties": {"NAME": "W7Y/NW-099", "TITLE": "Nemo Benchmark", "REGION": "North Wyoming", "ASSOCIATION": "USA - Wyoming", "POINTS": "4", "BONUSPOINTS": "3"}}, {"type": "Feature", "geometry": {"type": "Point", "coordinates": [-107.6869, 44.9722]}, "properties": {"NAME": "W7Y/NW-100", "TITLE": "Fisher Mountain", "REGION": "North Wyoming", "ASSOCIATION": "USA - Wyoming", "POINTS": "4", "BONUSPOINTS": "3"}}, {"type": "Feature", "geometry": {"type": "Point", "coordinates": [-107.2845, 42.5377]}, "properties": {"NAME": "W7Y/NW-101", "TITLE": "7350", "REGION": "North Wyoming", "ASSOCIATION": "USA - Wyoming", "POINTS": "4", "BONUSPOINTS": "3"}}, {"type": "Feature", "geometry": {"type": "Point", "coordinates": [-107.1875, 43.282]}, "properties": {"NAME": "W7Y/NW-102", "TITLE": "Jackpot Benchmark", "REGION": "North Wyoming", "ASSOCIATION": "USA - Wyoming", "POINTS": "4", "BONUSPOINTS": "3"}}, {"type": "Feature", "geometry": {"type": "Point", "coordinates": [-107.5294, 42.4811]}, "properties": {"NAME": "W7Y/NW-103", "TITLE": "Split Rock", "REGION": "North Wyoming", "ASSOCIATION": "USA - Wyoming", "POINTS": "4", "BONUSPOINTS": "3"}}, {"type": "Feature", "geometry": {"type": "Point", "coordinates": [-107.1197, 42.453]}, "properties": {"NAME": "W7Y/NW-104", "TITLE": "Fort Ridge", "REGION": "North Wyoming", "ASSOCIATION": "USA - Wyoming", "POINTS": "4", "BONUSPOINTS": "3"}}, {"type": "Feature", "geometry": {"type": "Point", "coordinates": [-107.7358, 43.5676]}, "properties": {"NAME": "W7Y/NW-105", "TITLE": "Klondike Peak", "REGION": "North Wyoming", "ASSOCIATION": "USA - Wyoming", "POINTS": "4", "BONUSPOINTS": "3"}}, {"type": "Feature", "geometry": {"type": "Point", "coordinates": [-107.1963, 42.6118]}, "properties": {"NAME": "W7Y/NW-106", "TITLE": "7170", "REGION": "North Wyoming", "ASSOCIATION": "USA - Wyoming", "POINTS": "4", "BONUSPOINTS": "3"}}, {"type": "Feature", "geometry": {"type": "Point", "coordinates": [-107.2591, 42.4673]}, "properties": {"NAME": "W7Y/NW-107", "TITLE": "7170", "REGION": "North Wyoming", "ASSOCIATION": "USA - Wyoming", "POINTS": "4", "BONUSPOINTS": "3"}}, {"type": "Feature", "geometry": {"type": "Point", "coordinates": [-107.2317, 42.6008]}, "properties": {"NAME": "W7Y/NW-108", "TITLE": "7145", "REGION": "North Wyoming", "ASSOCIATION": "USA - Wyoming", "POINTS": "4", "BONUSPOINTS": "3"}}, {"type": "Feature", "geometry": {"type": "Point", "coordinates": [-107.4514, 44.905]}, "properties": {"NAME": "W7Y/NW-109", "TITLE": "7140", "REGION": "North Wyoming", "ASSOCIATION": "USA - Wyoming", "POINTS": "4", "BONUSPOINTS": "3"}}, {"type": "Feature", "geometry": {"type": "Point", "coordinates": [-107.2359, 42.4629]}, "properties": {"NAME": "W7Y/NW-110", "TITLE": "7052", "REGION": "North Wyoming", "ASSOCIATION": "USA - Wyoming", "POINTS": "4", "BONUSPOINTS": "3"}}, {"type": "Feature", "geometry": {"type": "Point", "coordinates": [-106.4635, 42.728]}, "properties": {"NAME": "W7Y/NW-111", "TITLE": "Coal Mountain", "REGION": "North Wyoming", "ASSOCIATION": "USA - Wyoming", "POINTS": "4", "BONUSPOINTS": "3"}}, {"type": "Feature", "geometry": {"type": "Point", "coordinates": [-106.8076, 44.3146]}, "properties": {"NAME": "W7Y/NW-112", "TITLE": "Bald Ridge", "REGION": "North Wyoming", "ASSOCIATION": "USA - Wyoming", "POINTS": "2", "BONUSPOINTS": "3"}}, {"type": "Feature", "geometry": {"type": "Point", "coordinates": [-106.9703, 44.5944]}, "properties": {"NAME": "W7Y/NW-113", "TITLE": "6860", "REGION": "North Wyoming", "ASSOCIATION": "USA - Wyoming", "POINTS": "2", "BONUSPOINTS": "3"}}, {"type": "Feature", "geometry": {"type": "Point", "coordinates": [-106.863, 43.7574]}, "properties": {"NAME": "W7Y/NW-114", "TITLE": "Gardner Mountain South", "REGION": "North Wyoming", "ASSOCIATION": "USA - Wyoming", "POINTS": "2", "BONUSPOINTS": "3"}}, {"type": "Feature", "geometry": {"type": "Point", "coordinates": [-108.2855, 43.5382]}, "properties": {"NAME": "W7Y/NW-115", "TITLE": "Nostrom Mountain", "REGION": "North Wyoming", "ASSOCIATION": "USA - Wyoming", "POINTS": "2", "BONUSPOINTS": "3"}}, {"type": "Feature", "geometry": {"type": "Point", "coordinates": [-107.7469, 44.6194]}, "properties": {"NAME": "W7Y/NW-116", "TITLE": "6856", "REGION": "North Wyoming", "ASSOCIATION": "USA - Wyoming", "POINTS": "2", "BONUSPOINTS": "3"}}, {"type": "Feature", "geometry": {"type": "Point", "coordinates": [-106.8817, 42.9645]}, "properties": {"NAME": "W7Y/NW-117", "TITLE": "Pine Mountain", "REGION": "North Wyoming", "ASSOCIATION": "USA - Wyoming", "POINTS": "2", "BONUSPOINTS": "3"}}, {"type": "Feature", "geometry": {"type": "Point", "coordinates": [-108.7472, 43.9651]}, "properties": {"NAME": "W7Y/NW-118", "TITLE": "6709", "REGION": "North Wyoming", "ASSOCIATION": "USA - Wyoming", "POINTS": "2", "BONUSPOINTS": "3"}}, {"type": "Feature", "geometry": {"type": "Point", "coordinates": [-106.9726, 42.4463]}, "properties": {"NAME": "W7Y/NW-119", "TITLE": "Granite Ridge", "REGION": "North Wyoming", "ASSOCIATION": "USA - Wyoming", "POINTS": "2", "BONUSPOINTS": "3"}}, {"type": "Feature", "geometry": {"type": "Point", "coordinates": [-106.8299, 43.7743]}, "properties": {"NAME": "W7Y/NW-120", "TITLE": "Ek Mountain", "REGION": "North Wyoming", "ASSOCIATION": "USA - Wyoming", "POINTS": "2", "BONUSPOINTS": "3"}}, {"type": "Feature", "geometry": {"type": "Point", "coordinates": [-108.5022, 43.5938]}, "properties": {"NAME": "W7Y/NW-121", "TITLE": "6533", "REGION": "North Wyoming", "ASSOCIATION": "USA - Wyoming", "POINTS": "2", "BONUSPOINTS": "3"}}, {"type": "Feature", "geometry": {"type": "Point", "coordinates": [-106.5537, 42.738]}, "properties": {"NAME": "W7Y/NW-122", "TITLE": "Bessemer Mountain", "REGION": "North Wyoming", "ASSOCIATION": "USA - Wyoming", "POINTS": "2", "BONUSPOINTS": "3"}}, {"type": "Feature", "geometry": {"type": "Point", "coordinates": [-108.578, 43.883]}, "properties": {"NAME": "W7Y/NW-123", "TITLE": "Ilo Ridge", "REGION": "North Wyoming", "ASSOCIATION": "USA - Wyoming", "POINTS": "2", "BONUSPOINTS": "3"}}, {"type": "Feature", "geometry": {"type": "Point", "coordinates": [-108.6258, 43.9573]}, "properties": {"NAME": "W7Y/NW-124", "TITLE": "6230", "REGION": "North Wyoming", "ASSOCIATION": "USA - Wyoming", "POINTS": "2", "BONUSPOINTS": "3"}}, {"type": "Feature", "geometry": {"type": "Point", "coordinates": [-107.7046, 43.6443]}, "properties": {"NAME": "W7Y/NW-125", "TITLE": "Black Mountain", "REGION": "North Wyoming", "ASSOCIATION": "USA - Wyoming", "POINTS": "2", "BONUSPOINTS": "3"}}, {"type": "Feature", "geometry": {"type": "Point", "coordinates": [-106.757, 44.2535]}, "properties": {"NAME": "W7Y/NW-126", "TITLE": "Kingsbury Ridge", "REGION": "North Wyoming", "ASSOCIATION": "USA - Wyoming", "POINTS": "2", "BONUSPOINTS": "3"}}, {"type": "Feature", "geometry": {"type": "Point", "coordinates": [-108.5078, 43.7485]}, "properties": {"NAME": "W7Y/NW-127", "TITLE": "Padlock Rim", "REGION": "North Wyoming", "ASSOCIATION": "USA - Wyoming", "POINTS": "2", "BONUSPOINTS": "3"}}, {"type": "Feature", "geometry": {"type": "Point", "coordinates": [-108.4542, 43.9465]}, "properties": {"NAME": "W7Y/NW-128", "TITLE": "Blue Ridge", "REGION": "North Wyoming", "ASSOCIATION": "USA - Wyoming", "POINTS": "1", "BONUSPOINTS": "0"}}, {"type": "Feature", "geometry": {"type": "Point", "coordinates": [-106.5192, 43.435]}, "properties": {"NAME": "W7Y/NW-129", "TITLE": "Dugout Benchmark", "REGION": "North Wyoming", "ASSOCIATION": "USA - Wyoming", "POINTS": "1", "BONUSPOINTS": "0"}}, {"type": "Feature", "geometry": {"type": "Point", "coordinates": [-107.2631, 43.7327]}, "properties": {"NAME": "W7Y/NW-130", "TITLE": "5772", "REGION": "North Wyoming", "ASSOCIATION": "USA - Wyoming", "POINTS": "1", "BONUSPOINTS": "0"}}, {"type": "Feature", "geometry": {"type": "Point", "coordinates": [-108.281, 43.6009]}, "properties": {"NAME": "W7Y/NW-131", "TITLE": "5746", "REGION": "North Wyoming", "ASSOCIATION": "USA - Wyoming", "POINTS": "1", "BONUSPOINTS": "0"}}, {"type": "Feature", "geometry": {"type": "Point", "coordinates": [-107.5122, 44.1962]}, "properties": {"NAME": "W7Y/NW-132", "TITLE": "Cedar Mountain", "REGION": "North Wyoming", "ASSOCIATION": "USA - Wyoming", "POINTS": "1", "BONUSPOINTS": "0"}}, {"type": "Feature", "geometry": {"type": "Point", "coordinates": [-107.5781, 44.3248]}, "properties": {"NAME": "W7Y/NW-133", "TITLE": "5694", "REGION": "North Wyoming", "ASSOCIATION": "USA - Wyoming", "POINTS": "1", "BONUSPOINTS": "0"}}, {"type": "Feature", "geometry": {"type": "Point", "coordinates": [-107.8988, 44.646]}, "properties": {"NAME": "W7Y/NW-134", "TITLE": "5647", "REGION": "North Wyoming", "ASSOCIATION": "USA - Wyoming", "POINTS": "1", "BONUSPOINTS": "0"}}, {"type": "Feature", "geometry": {"type": "Point", "coordinates": [-107.3428, 44.0331]}, "properties": {"NAME": "W7Y/NW-135", "TITLE": "5580", "REGION": "North Wyoming", "ASSOCIATION": "USA - Wyoming", "POINTS": "1", "BONUSPOINTS": "0"}}, {"type": "Feature", "geometry": {"type": "Point", "coordinates": [-108.1114, 43.7945]}, "properties": {"NAME": "W7Y/NW-136", "TITLE": "Cedar Mountain", "REGION": "North Wyoming", "ASSOCIATION": "USA - Wyoming", "POINTS": "1", "BONUSPOINTS": "0"}}, {"type": "Feature", "geometry": {"type": "Point", "coordinates": [-107.4933, 44.1604]}, "properties": {"NAME": "W7Y/NW-137", "TITLE": "5445", "REGION": "North Wyoming", "ASSOCIATION": "USA - Wyoming", "POINTS": "1", "BONUSPOINTS": "0"}}, {"type": "Feature", "geometry": {"type": "Point", "coordinates": [-108.2491, 43.8591]}, "properties": {"NAME": "W7Y/NW-138", "TITLE": "Juniper Benchmark", "REGION": "North Wyoming", "ASSOCIATION": "USA - Wyoming", "POINTS": "1", "BONUSPOINTS": "0"}}, {"type": "Feature", "geometry": {"type": "Point", "coordinates": [-108.2596, 44.794]}, "properties": {"NAME": "W7Y/NW-139", "TITLE": "Little Sheep Mountain", "REGION": "North Wyoming", "ASSOCIATION": "USA - Wyoming", "POINTS": "1", "BONUSPOINTS": "0"}}, {"type": "Feature", "geometry": {"type": "Point", "coordinates": [-108.2426, 44.2161]}, "properties": {"NAME": "W7Y/NW-140", "TITLE": "Red Butte", "REGION": "North Wyoming", "ASSOCIATION": "USA - Wyoming", "POINTS": "1", "BONUSPOINTS": "0"}}, {"type": "Feature", "geometry": {"type": "Point", "coordinates": [-108.1636, 44.6286]}, "properties": {"NAME": "W7Y/NW-141", "TITLE": "Sheep Mountain North", "REGION": "North Wyoming", "ASSOCIATION": "USA - Wyoming", "POINTS": "1", "BONUSPOINTS": "0"}}, {"type": "Feature", "geometry": {"type": "Point", "coordinates": [-108.0857, 44.5829]}, "properties": {"NAME": "W7Y/NW-142", "TITLE": "Sheep Mountain South", "REGION": "North Wyoming", "ASSOCIATION": "USA - Wyoming", "POINTS": "1", "BONUSPOINTS": "0"}}, {"type": "Feature", "geometry": {"type": "Point", "coordinates": [-108.2815, 44.9384]}, "properties": {"NAME": "W7Y/NW-143", "TITLE": "Sykes Mountain", "REGION": "North Wyoming", "ASSOCIATION": "USA - Wyoming", "POINTS": "1", "BONUSPOINTS": "0"}}, {"type": "Feature", "geometry": {"type": "Point", "coordinates": [-107.2025, 44.1495]}, "properties": {"NAME": "W7Y/NW-144", "TITLE": "High Park Lookout", "REGION": "North Wyoming", "ASSOCIATION": "USA - Wyoming", "POINTS": "6", "BONUSPOINTS": "3"}}, {"type": "Feature", "geometry": {"type": "Point", "coordinates": [-107.5141, 44.8694]}, "properties": {"NAME": "W7Y/NW-145", "TITLE": "Dry Fork Ridge East", "REGION": "North Wyoming", "ASSOCIATION": "USA - Wyoming", "POINTS": "6", "BONUSPOINTS": "3"}}, {"type": "Feature", "geometry": {"type": "Point", "coordinates": [-107.1305, 43.5119]}, "properties": {"NAME": "W7Y/NW-146", "TITLE": "8580", "REGION": "North Wyoming", "ASSOCIATION": "USA - Wyoming", "POINTS": "6", "BONUSPOINTS": "3"}}, {"type": "Feature", "geometry": {"type": "Point", "coordinates": [-107.9914, 43.4972]}, "properties": {"NAME": "W7Y/NW-147", "TITLE": "7591", "REGION": "North Wyoming", "ASSOCIATION": "USA - Wyoming", "POINTS": "4", "BONUSPOINTS": "3"}}, {"type": "Feature", "geometry": {"type": "Point", "coordinates": [-106.9211, 44.4294]}, "properties": {"NAME": "W7Y/NW-148", "TITLE": "Stone Mountain, South", "REGION": "North Wyoming", "ASSOCIATION": "USA - Wyoming", "POINTS": "4", "BONUSPOINTS": "3"}}, {"type": "Feature", "geometry": {"type": "Point", "coordinates": [-107.8532, 44.7019]}, "properties": {"NAME": "W7Y/NW-149", "TITLE": "6198", "REGION": "North Wyoming", "ASSOCIATION": "USA - Wyoming", "POINTS": "2", "BONUSPOINTS": "3"}}, {"type": "Feature", "geometry": {"type": "Point", "coordinates": [-108.0455, 43.6203]}, "properties": {"NAME": "W7Y/NW-150", "TITLE": "Twin Buttes, West", "REGION": "North Wyoming", "ASSOCIATION": "USA - Wyoming", "POINTS": "2", "BONUSPOINTS": "3"}}, {"type": "Feature", "geometry": {"type": "Point", "coordinates": [-107.5744, 43.9256]}, "properties": {"NAME": "W7Y/NW-151", "TITLE": "North Butte", "REGION": "North Wyoming", "ASSOCIATION": "USA - Wyoming", "POINTS": "1", "BONUSPOINTS": "0"}}, {"type": "Feature", "geometry": {"type": "Point", "coordinates": [-106.7282, 44.4993]}, "properties": {"NAME": "W7Y/NW-152", "TITLE": "5064", "REGION": "North Wyoming", "ASSOCIATION": "USA - Wyoming", "POINTS": "1", "BONUSPOINTS": "0"}}, {"type": "Feature", "geometry": {"type": "Point", "coordinates": [-107.9699, 44.4477]}, "properties": {"NAME": "W7Y/NW-153", "TITLE": "4783", "REGION": "North Wyoming", "ASSOCIATION": "USA - Wyoming", "POINTS": "1", "BONUSPOINTS": "0"}}]}