{"type": "FeatureCollection", "name": "W7Y/FT SUMMITS", "features": [{"type": "Feature", "geometry": {"type": "Point", "coordinates": [-109.6542, 43.1843]}, "properties": {"NAME": "W7Y/FT-001", "TITLE": "Gannett Peak", "REGION": "Fremont", "ASSOCIATION": "USA - Wyoming", "POINTS": "10", "BONUSPOINTS": "3"}}, {"type": "Feature", "geometry": {"type": "Point", "coordinates": [-109.6183, 43.1247]}, "properties": {"NAME": "W7Y/FT-002", "TITLE": "Fremont Peak", "REGION": "Fremont", "ASSOCIATION": "USA - Wyoming", "POINTS": "10", "BONUSPOINTS": "3"}}, {"type": "Feature", "geometry": {"type": "Point", "coordinates": [-109.6259, 43.1636]}, "properties": {"NAME": "W7Y/FT-003", "TITLE": "Warren, Mount", "REGION": "Fremont", "ASSOCIATION": "USA - Wyoming", "POINTS": "10", "BONUSPOINTS": "3"}}, {"type": "Feature", "geometry": {"type": "Point", "coordinates": [-109.6188, 43.1645]}, "properties": {"NAME": "W7Y/FT-004", "TITLE": "Turret Peak", "REGION": "Fremont", "ASSOCIATION": "USA - Wyoming", "POINTS": "10", "BONUSPOINTS": "3"}}, {"type": "Feature", "geometry": {"type": "Point", "coordinates": [-109.6035, 43.1194]}, "properties": {"NAME": "W7Y/FT-005", "TITLE": "Jackson Peak", "REGION": "Fremont", "ASSOCIATION": "USA - Wyoming", "POINTS": "10", "BONUSPOINTS": "3"}}, {"type": "Feature", "geometry": {"type": "Point", "coordinates": [-109.6518, 43.1668]}, "properties": {"NAME": "W7Y/FT-006", "TITLE": "Woodrow Wilson, Mount", "REGION": "Fremont", "ASSOCIATION": "USA - Wyoming", "POINTS": "10", "BONUSPOINTS": "3"}}, {"type": "Feature", "geometry": {"type": "Point", "coordinates": [-109.6649, 43.2064]}, "properties": {"NAME": "W7Y/FT-007", "TITLE": "Bastion Peak", "REGION": "Fremont", "ASSOCIATION": "USA - Wyoming", "POINTS": "10", "BONUSPOINTS": "3"}}, {"type": "Feature", "geometry": {"type": "Point", "coordinates": [-109.602, 43.1756]}, "properties": {"NAME": "W7Y/FT-008", "TITLE": "Febbas, Mount", "REGION": "Fremont", "ASSOCIATION": "USA - Wyoming", "POINTS": "10", "BONUSPOINTS": "3"}}, {"type": "Feature", "geometry": {"type": "Point", "coordinates": [-109.6178, 43.1705]}, "properties": {"NAME": "W7Y/FT-009", "TITLE": "Sunbeam Peak", "REGION": "Fremont", "ASSOCIATION": "USA - Wyoming", "POINTS": "10", "BONUSPOINTS": "3"}}, {"type": "Feature", "geometry": {"type": "Point", "coordinates": [-109.6763, 43.215]}, "properties": {"NAME": "W7Y/FT-010", "TITLE": "Flagstone Peak", "REGION": "Fremont", "ASSOCIATION": "USA - Wyoming", "POINTS": "10", "BONUSPOINTS": "3"}}, {"type": "Feature", "geometry": {"type": "Point", "coordinates": [-109.6725, 43.3099]}, "properties": {"NAME": "W7Y/FT-011", "TITLE": "Downs Mountain", "REGION": "Fremont", "ASSOCIATION": "USA - Wyoming", "POINTS": "10", "BONUSPOINTS": "3"}}, {"type": "Feature", "geometry": {"type": "Point", "coordinates": [-109.5547, 43.1099]}, "properties": {"NAME": "W7Y/FT-012", "TITLE": "13198", "REGION": "Fremont", "ASSOCIATION": "USA - Wyoming", "POINTS": "10", "BONUSPOINTS": "3"}}, {"type": "Feature", "geometry": {"type": "Point", "coordinates": [-109.1286, 42.7084]}, "properties": {"NAME": "W7Y/FT-013", "TITLE": "Wind River Peak", "REGION": "Fremont", "ASSOCIATION": "USA - Wyoming", "POINTS": "10", "BONUSPOINTS": "3"}}, {"type": "Feature", "geometry": {"type": "Point", "coordinates": [-109.5814, 43.1014]}, "properties": {"NAME": "W7Y/FT-014", "TITLE": "Knife Point Mountain", "REGION": "Fremont", "ASSOCIATION": "USA - Wyoming", "POINTS": "10", "BONUSPOINTS": "3"}}, {"type": "Feature", "geometry": {"type": "Point", "coordinates": [-109.6101, 43.153]}, "properties": {"NAME": "W7Y/FT-015", "TITLE": "Three Brothers", "REGION": "Fremont", "ASSOCIATION": "USA - Wyoming", "POINTS": "10", "BONUSPOINTS": "3"}}, {"type": "Feature", "geometry": {"type": "Point", "coordinates": [-109.1978, 42.79]}, "properties": {"NAME": "W7Y/FT-016", "TITLE": "Lizard Head Peak", "REGION": "Fremont", "ASSOCIATION": "USA - Wyoming", "POINTS": "10", "BONUSPOINTS": "3"}}, {"type": "Feature", "geometry": {"type": "Point", "coordinates": [-109.6921, 43.2658]}, "properties": {"NAME": "W7Y/FT-017", "TITLE": "Yukon Peak", "REGION": "Fremont", "ASSOCIATION": "USA - Wyoming", "POINTS": "10", "BONUSPOINTS": "3"}}, {"type": "Feature", "geometry": {"type": "Point", "coordinates": [-109.296, 42.9151]}, "properties": {"NAME": "W7Y/FT-018", "TITLE": "Roberts Mountain", "REGION": "Fremont", "ASSOCIATION": "USA - Wyoming", "POINTS": "10", "BONUSPOINTS": "3"}}, {"type": "Feature", "geometry": {"type": "Point", "coordinates": [-109.5032, 43.1668]}, "properties": {"NAME": "W7Y/FT-019", "TITLE": "Dry Creek Ridge", "REGION": "Fremont", "ASSOCIATION": "USA - Wyoming", "POINTS": "10", "BONUSPOINTS": "3"}}, {"type": "Feature", "geometry": {"type": "Point", "coordinates": [-109.5279, 43.1049]}, "properties": {"NAME": "W7Y/FT-020", "TITLE": "12730", "REGION": "Fremont", "ASSOCIATION": "USA - Wyoming", "POINTS": "10", "BONUSPOINTS": "3"}}, {"type": "Feature", "geometry": {"type": "Point", "coordinates": [-109.3577, 42.9818]}, "properties": {"NAME": "W7Y/FT-021", "TITLE": "Wolverine Peak", "REGION": "Fremont", "ASSOCIATION": "USA - Wyoming", "POINTS": "10", "BONUSPOINTS": "3"}}, {"type": "Feature", "geometry": {"type": "Point", "coordinates": [-109.3221, 42.8838]}, "properties": {"NAME": "W7Y/FT-022", "TITLE": "Lander, Mount", "REGION": "Fremont", "ASSOCIATION": "USA - Wyoming", "POINTS": "10", "BONUSPOINTS": "3"}}, {"type": "Feature", "geometry": {"type": "Point", "coordinates": [-109.2994, 42.8769]}, "properties": {"NAME": "W7Y/FT-023", "TITLE": "Musembeah Peak", "REGION": "Fremont", "ASSOCIATION": "USA - Wyoming", "POINTS": "10", "BONUSPOINTS": "3"}}, {"type": "Feature", "geometry": {"type": "Point", "coordinates": [-109.6354, 43.1896]}, "properties": {"NAME": "W7Y/FT-024", "TITLE": "West Sentinel", "REGION": "Fremont", "ASSOCIATION": "USA - Wyoming", "POINTS": "10", "BONUSPOINTS": "3"}}, {"type": "Feature", "geometry": {"type": "Point", "coordinates": [-109.3697, 42.9494]}, "properties": {"NAME": "W7Y/FT-025", "TITLE": "North Cleft Peak", "REGION": "Fremont", "ASSOCIATION": "USA - Wyoming", "POINTS": "10", "BONUSPOINTS": "3"}}, {"type": "Feature", "geometry": {"type": "Point", "coordinates": [-109.1705, 42.7968]}, "properties": {"NAME": "W7Y/FT-026", "TITLE": "Windy Mountain", "REGION": "Fremont", "ASSOCIATION": "USA - Wyoming", "POINTS": "10", "BONUSPOINTS": "3"}}, {"type": "Feature", "geometry": {"type": "Point", "coordinates": [-109.5131, 43.9397]}, "properties": {"NAME": "W7Y/FT-027", "TITLE": "Peak Benchmark", "REGION": "Fremont", "ASSOCIATION": "USA - Wyoming", "POINTS": "10", "BONUSPOINTS": "3"}}, {"type": "Feature", "geometry": {"type": "Point", "coordinates": [-109.2565, 42.8137]}, "properties": {"NAME": "W7Y/FT-028", "TITLE": "Washakie, Mount", "REGION": "Fremont", "ASSOCIATION": "USA - Wyoming", "POINTS": "10", "BONUSPOINTS": "3"}}, {"type": "Feature", "geometry": {"type": "Point", "coordinates": [-109.651, 43.2461]}, "properties": {"NAME": "W7Y/FT-029", "TITLE": "12512", "REGION": "Fremont", "ASSOCIATION": "USA - Wyoming", "POINTS": "10", "BONUSPOINTS": "3"}}, {"type": "Feature", "geometry": {"type": "Point", "coordinates": [-109.3052, 42.8526]}, "properties": {"NAME": "W7Y/FT-030", "TITLE": "Hooker, Mount", "REGION": "Fremont", "ASSOCIATION": "USA - Wyoming", "POINTS": "10", "BONUSPOINTS": "3"}}, {"type": "Feature", "geometry": {"type": "Point", "coordinates": [-109.5933, 43.1531]}, "properties": {"NAME": "W7Y/FT-031", "TITLE": "Mount Zebadia", "REGION": "Fremont", "ASSOCIATION": "USA - Wyoming", "POINTS": "10", "BONUSPOINTS": "3"}}, {"type": "Feature", "geometry": {"type": "Point", "coordinates": [-109.1749, 42.8165]}, "properties": {"NAME": "W7Y/FT-032", "TITLE": "12490", "REGION": "Fremont", "ASSOCIATION": "USA - Wyoming", "POINTS": "10", "BONUSPOINTS": "3"}}, {"type": "Feature", "geometry": {"type": "Point", "coordinates": [-109.0013, 42.6164]}, "properties": {"NAME": "W7Y/FT-033", "TITLE": "Atlantic Peak", "REGION": "Fremont", "ASSOCIATION": "USA - Wyoming", "POINTS": "10", "BONUSPOINTS": "3"}}, {"type": "Feature", "geometry": {"type": "Point", "coordinates": [-109.5424, 43.9614]}, "properties": {"NAME": "W7Y/FT-034", "TITLE": "12488", "REGION": "Fremont", "ASSOCIATION": "USA - Wyoming", "POINTS": "10", "BONUSPOINTS": "3"}}, {"type": "Feature", "geometry": {"type": "Point", "coordinates": [-109.1871, 42.7624]}, "properties": {"NAME": "W7Y/FT-035", "TITLE": "Dog Tooth Peak", "REGION": "Fremont", "ASSOCIATION": "USA - Wyoming", "POINTS": "10", "BONUSPOINTS": "3"}}, {"type": "Feature", "geometry": {"type": "Point", "coordinates": [-109.1988, 42.7684]}, "properties": {"NAME": "W7Y/FT-036", "TITLE": "Mitchell Peak", "REGION": "Fremont", "ASSOCIATION": "USA - Wyoming", "POINTS": "10", "BONUSPOINTS": "3"}}, {"type": "Feature", "geometry": {"type": "Point", "coordinates": [-109.4113, 42.9552]}, "properties": {"NAME": "W7Y/FT-037", "TITLE": "Halls Mountain", "REGION": "Fremont", "ASSOCIATION": "USA - Wyoming", "POINTS": "10", "BONUSPOINTS": "3"}}, {"type": "Feature", "geometry": {"type": "Point", "coordinates": [-109.3072, 42.8931]}, "properties": {"NAME": "W7Y/FT-038", "TITLE": "Renegade Peak", "REGION": "Fremont", "ASSOCIATION": "USA - Wyoming", "POINTS": "10", "BONUSPOINTS": "3"}}, {"type": "Feature", "geometry": {"type": "Point", "coordinates": [-109.2744, 42.8352]}, "properties": {"NAME": "W7Y/FT-039", "TITLE": "Dike Mountain", "REGION": "Fremont", "ASSOCIATION": "USA - Wyoming", "POINTS": "10", "BONUSPOINTS": "3"}}, {"type": "Feature", "geometry": {"type": "Point", "coordinates": [-109.5064, 43.1164]}, "properties": {"NAME": "W7Y/FT-040", "TITLE": "12431", "REGION": "Fremont", "ASSOCIATION": "USA - Wyoming", "POINTS": "10", "BONUSPOINTS": "3"}}, {"type": "Feature", "geometry": {"type": "Point", "coordinates": [-109.1797, 42.7511]}, "properties": {"NAME": "W7Y/FT-041", "TITLE": "Big Sandy Mountain", "REGION": "Fremont", "ASSOCIATION": "USA - Wyoming", "POINTS": "10", "BONUSPOINTS": "3"}}, {"type": "Feature", "geometry": {"type": "Point", "coordinates": [-109.2252, 42.7629]}, "properties": {"NAME": "W7Y/FT-042", "TITLE": "Warrior Peaks West", "REGION": "Fremont", "ASSOCIATION": "USA - Wyoming", "POINTS": "10", "BONUSPOINTS": "3"}}, {"type": "Feature", "geometry": {"type": "Point", "coordinates": [-109.5552, 43.0213]}, "properties": {"NAME": "W7Y/FT-043", "TITLE": "Angel Peak", "REGION": "Fremont", "ASSOCIATION": "USA - Wyoming", "POINTS": "10", "BONUSPOINTS": "3"}}, {"type": "Feature", "geometry": {"type": "Point", "coordinates": [-109.3208, 42.8623]}, "properties": {"NAME": "W7Y/FT-044", "TITLE": "Glissade Peak", "REGION": "Fremont", "ASSOCIATION": "USA - Wyoming", "POINTS": "10", "BONUSPOINTS": "3"}}, {"type": "Feature", "geometry": {"type": "Point", "coordinates": [-109.2358, 42.7684]}, "properties": {"NAME": "W7Y/FT-045", "TITLE": "Pylon Peak", "REGION": "Fremont", "ASSOCIATION": "USA - Wyoming", "POINTS": "10", "BONUSPOINTS": "3"}}, {"type": "Feature", "geometry": {"type": "Point", "coordinates": [-109.5528, 43.0125]}, "properties": {"NAME": "W7Y/FT-046", "TITLE": "12367", "REGION": "Fremont", "ASSOCIATION": "USA - Wyoming", "POINTS": "10", "BONUSPOINTS": "3"}}, {"type": "Feature", "geometry": {"type": "Point", "coordinates": [-109.3752, 43.8654]}, "properties": {"NAME": "W7Y/FT-047", "TITLE": "Dollar Mountain", "REGION": "Fremont", "ASSOCIATION": "USA - Wyoming", "POINTS": "10", "BONUSPOINTS": "3"}}, {"type": "Feature", "geometry": {"type": "Point", "coordinates": [-109.2439, 42.8053]}, "properties": {"NAME": "W7Y/FT-048", "TITLE": "Bair Peak", "REGION": "Fremont", "ASSOCIATION": "USA - Wyoming", "POINTS": "10", "BONUSPOINTS": "3"}}, {"type": "Feature", "geometry": {"type": "Point", "coordinates": [-109.1789, 42.8252]}, "properties": {"NAME": "W7Y/FT-049", "TITLE": "Cathedral Peak", "REGION": "Fremont", "ASSOCIATION": "USA - Wyoming", "POINTS": "10", "BONUSPOINTS": "3"}}, {"type": "Feature", "geometry": {"type": "Point", "coordinates": [-109.4404, 43.9273]}, "properties": {"NAME": "W7Y/FT-050", "TITLE": "Burwell, Mount", "REGION": "Fremont", "ASSOCIATION": "USA - Wyoming", "POINTS": "10", "BONUSPOINTS": "3"}}, {"type": "Feature", "geometry": {"type": "Point", "coordinates": [-109.6395, 43.2669]}, "properties": {"NAME": "W7Y/FT-051", "TITLE": "Bears Tooth", "REGION": "Fremont", "ASSOCIATION": "USA - Wyoming", "POINTS": "10", "BONUSPOINTS": "3"}}, {"type": "Feature", "geometry": {"type": "Point", "coordinates": [-109.2711, 42.9005]}, "properties": {"NAME": "W7Y/FT-052", "TITLE": "12285", "REGION": "Fremont", "ASSOCIATION": "USA - Wyoming", "POINTS": "10", "BONUSPOINTS": "3"}}, {"type": "Feature", "geometry": {"type": "Point", "coordinates": [-109.2504, 42.8424]}, "properties": {"NAME": "W7Y/FT-053", "TITLE": "Chess Ridge", "REGION": "Fremont", "ASSOCIATION": "USA - Wyoming", "POINTS": "10", "BONUSPOINTS": "3"}}, {"type": "Feature", "geometry": {"type": "Point", "coordinates": [-109.4539, 42.9702]}, "properties": {"NAME": "W7Y/FT-054", "TITLE": "Europe Peak", "REGION": "Fremont", "ASSOCIATION": "USA - Wyoming", "POINTS": "10", "BONUSPOINTS": "3"}}, {"type": "Feature", "geometry": {"type": "Point", "coordinates": [-109.1587, 42.8407]}, "properties": {"NAME": "W7Y/FT-055", "TITLE": "Chauvenet, Mount", "REGION": "Fremont", "ASSOCIATION": "USA - Wyoming", "POINTS": "10", "BONUSPOINTS": "3"}}, {"type": "Feature", "geometry": {"type": "Point", "coordinates": [-108.9865, 42.6306]}, "properties": {"NAME": "W7Y/FT-056", "TITLE": "12248", "REGION": "Fremont", "ASSOCIATION": "USA - Wyoming", "POINTS": "10", "BONUSPOINTS": "3"}}, {"type": "Feature", "geometry": {"type": "Point", "coordinates": [-109.5435, 43.0104]}, "properties": {"NAME": "W7Y/FT-057", "TITLE": "12236", "REGION": "Fremont", "ASSOCIATION": "USA - Wyoming", "POINTS": "10", "BONUSPOINTS": "3"}}, {"type": "Feature", "geometry": {"type": "Point", "coordinates": [-109.2629, 43.7394]}, "properties": {"NAME": "W7Y/FT-058", "TITLE": "Crow Benchmark", "REGION": "Fremont", "ASSOCIATION": "USA - Wyoming", "POINTS": "10", "BONUSPOINTS": "3"}}, {"type": "Feature", "geometry": {"type": "Point", "coordinates": [-109.653, 43.3244]}, "properties": {"NAME": "W7Y/FT-059", "TITLE": "Spider Peak", "REGION": "Fremont", "ASSOCIATION": "USA - Wyoming", "POINTS": "10", "BONUSPOINTS": "3"}}, {"type": "Feature", "geometry": {"type": "Point", "coordinates": [-109.2329, 42.7828]}, "properties": {"NAME": "W7Y/FT-060", "TITLE": "Bollinger Peak", "REGION": "Fremont", "ASSOCIATION": "USA - Wyoming", "POINTS": "10", "BONUSPOINTS": "3"}}, {"type": "Feature", "geometry": {"type": "Point", "coordinates": [-109.4269, 42.96]}, "properties": {"NAME": "W7Y/FT-061", "TITLE": "12230", "REGION": "Fremont", "ASSOCIATION": "USA - Wyoming", "POINTS": "10", "BONUSPOINTS": "3"}}, {"type": "Feature", "geometry": {"type": "Point", "coordinates": [-109.4297, 42.9744]}, "properties": {"NAME": "W7Y/FT-062", "TITLE": "Milky Ridge South", "REGION": "Fremont", "ASSOCIATION": "USA - Wyoming", "POINTS": "10", "BONUSPOINTS": "3"}}, {"type": "Feature", "geometry": {"type": "Point", "coordinates": [-109.3992, 42.946]}, "properties": {"NAME": "W7Y/FT-063", "TITLE": "Pipe Organ", "REGION": "Fremont", "ASSOCIATION": "USA - Wyoming", "POINTS": "10", "BONUSPOINTS": "3"}}, {"type": "Feature", "geometry": {"type": "Point", "coordinates": [-109.5231, 43.0647]}, "properties": {"NAME": "W7Y/FT-064", "TITLE": "Douglas Peak", "REGION": "Fremont", "ASSOCIATION": "USA - Wyoming", "POINTS": "10", "BONUSPOINTS": "3"}}, {"type": "Feature", "geometry": {"type": "Point", "coordinates": [-109.6262, 43.3527]}, "properties": {"NAME": "W7Y/FT-065", "TITLE": "Torrey Peak", "REGION": "Fremont", "ASSOCIATION": "USA - Wyoming", "POINTS": "10", "BONUSPOINTS": "3"}}, {"type": "Feature", "geometry": {"type": "Point", "coordinates": [-109.419, 43.8205]}, "properties": {"NAME": "W7Y/FT-066", "TITLE": "Wiggins Peak", "REGION": "Fremont", "ASSOCIATION": "USA - Wyoming", "POINTS": "10", "BONUSPOINTS": "3"}}, {"type": "Feature", "geometry": {"type": "Point", "coordinates": [-109.2317, 42.9051]}, "properties": {"NAME": "W7Y/FT-067", "TITLE": "12175", "REGION": "Fremont", "ASSOCIATION": "USA - Wyoming", "POINTS": "10", "BONUSPOINTS": "3"}}, {"type": "Feature", "geometry": {"type": "Point", "coordinates": [-109.3396, 42.8984]}, "properties": {"NAME": "W7Y/FT-068", "TITLE": "Bailey Peak", "REGION": "Fremont", "ASSOCIATION": "USA - Wyoming", "POINTS": "10", "BONUSPOINTS": "3"}}, {"type": "Feature", "geometry": {"type": "Point", "coordinates": [-109.2526, 43.7487]}, "properties": {"NAME": "W7Y/FT-069", "TITLE": "12165", "REGION": "Fremont", "ASSOCIATION": "USA - Wyoming", "POINTS": "10", "BONUSPOINTS": "3"}}, {"type": "Feature", "geometry": {"type": "Point", "coordinates": [-109.4252, 43.8742]}, "properties": {"NAME": "W7Y/FT-070", "TITLE": "12155", "REGION": "Fremont", "ASSOCIATION": "USA - Wyoming", "POINTS": "10", "BONUSPOINTS": "3"}}, {"type": "Feature", "geometry": {"type": "Point", "coordinates": [-109.2155, 42.8094]}, "properties": {"NAME": "W7Y/FT-071", "TITLE": "12140", "REGION": "Fremont", "ASSOCIATION": "USA - Wyoming", "POINTS": "10", "BONUSPOINTS": "3"}}, {"type": "Feature", "geometry": {"type": "Point", "coordinates": [-109.3457, 42.9192]}, "properties": {"NAME": "W7Y/FT-072", "TITLE": "Kagevah Peak", "REGION": "Fremont", "ASSOCIATION": "USA - Wyoming", "POINTS": "10", "BONUSPOINTS": "3"}}, {"type": "Feature", "geometry": {"type": "Point", "coordinates": [-109.6147, 43.2427]}, "properties": {"NAME": "W7Y/FT-073", "TITLE": "12065", "REGION": "Fremont", "ASSOCIATION": "USA - Wyoming", "POINTS": "10", "BONUSPOINTS": "3"}}, {"type": "Feature", "geometry": {"type": "Point", "coordinates": [-109.3618, 42.9362]}, "properties": {"NAME": "W7Y/FT-074", "TITLE": "Odyssey Peak", "REGION": "Fremont", "ASSOCIATION": "USA - Wyoming", "POINTS": "10", "BONUSPOINTS": "3"}}, {"type": "Feature", "geometry": {"type": "Point", "coordinates": [-109.2874, 42.9434]}, "properties": {"NAME": "W7Y/FT-075", "TITLE": "Wykee Peak", "REGION": "Fremont", "ASSOCIATION": "USA - Wyoming", "POINTS": "10", "BONUSPOINTS": "3"}}, {"type": "Feature", "geometry": {"type": "Point", "coordinates": [-109.1361, 42.7485]}, "properties": {"NAME": "W7Y/FT-076", "TITLE": "12036", "REGION": "Fremont", "ASSOCIATION": "USA - Wyoming", "POINTS": "10", "BONUSPOINTS": "3"}}, {"type": "Feature", "geometry": {"type": "Point", "coordinates": [-109.5876, 43.9385]}, "properties": {"NAME": "W7Y/FT-077", "TITLE": "12025", "REGION": "Fremont", "ASSOCIATION": "USA - Wyoming", "POINTS": "10", "BONUSPOINTS": "3"}}, {"type": "Feature", "geometry": {"type": "Point", "coordinates": [-109.5379, 43.0826]}, "properties": {"NAME": "W7Y/FT-078", "TITLE": "Fortress, The", "REGION": "Fremont", "ASSOCIATION": "USA - Wyoming", "POINTS": "8", "BONUSPOINTS": "3"}}, {"type": "Feature", "geometry": {"type": "Point", "coordinates": [-109.5147, 43.0512]}, "properties": {"NAME": "W7Y/FT-079", "TITLE": "Quintet, Mount", "REGION": "Fremont", "ASSOCIATION": "USA - Wyoming", "POINTS": "8", "BONUSPOINTS": "3"}}, {"type": "Feature", "geometry": {"type": "Point", "coordinates": [-109.631, 43.3763]}, "properties": {"NAME": "W7Y/FT-080", "TITLE": "Middle Mountain", "REGION": "Fremont", "ASSOCIATION": "USA - Wyoming", "POINTS": "8", "BONUSPOINTS": "3"}}, {"type": "Feature", "geometry": {"type": "Point", "coordinates": [-109.7444, 43.7674]}, "properties": {"NAME": "W7Y/FT-081", "TITLE": "Ramshorn, The", "REGION": "Fremont", "ASSOCIATION": "USA - Wyoming", "POINTS": "8", "BONUSPOINTS": "3"}}, {"type": "Feature", "geometry": {"type": "Point", "coordinates": [-109.5514, 43.944]}, "properties": {"NAME": "W7Y/FT-082", "TITLE": "11869", "REGION": "Fremont", "ASSOCIATION": "USA - Wyoming", "POINTS": "8", "BONUSPOINTS": "3"}}, {"type": "Feature", "geometry": {"type": "Point", "coordinates": [-109.7063, 43.8368]}, "properties": {"NAME": "W7Y/FT-083", "TITLE": "Raggedtop Mountain", "REGION": "Fremont", "ASSOCIATION": "USA - Wyoming", "POINTS": "8", "BONUSPOINTS": "3"}}, {"type": "Feature", "geometry": {"type": "Point", "coordinates": [-109.631, 43.8329]}, "properties": {"NAME": "W7Y/FT-084", "TITLE": "Cougar Benchmark", "REGION": "Fremont", "ASSOCIATION": "USA - Wyoming", "POINTS": "8", "BONUSPOINTS": "3"}}, {"type": "Feature", "geometry": {"type": "Point", "coordinates": [-109.5143, 43.2701]}, "properties": {"NAME": "W7Y/FT-085", "TITLE": "11801", "REGION": "Fremont", "ASSOCIATION": "USA - Wyoming", "POINTS": "8", "BONUSPOINTS": "3"}}, {"type": "Feature", "geometry": {"type": "Point", "coordinates": [-109.5928, 43.3129]}, "properties": {"NAME": "W7Y/FT-086", "TITLE": "11780", "REGION": "Fremont", "ASSOCIATION": "USA - Wyoming", "POINTS": "8", "BONUSPOINTS": "3"}}, {"type": "Feature", "geometry": {"type": "Point", "coordinates": [-109.3585, 42.9561]}, "properties": {"NAME": "W7Y/FT-087", "TITLE": "Mount Heebeecheeche", "REGION": "Fremont", "ASSOCIATION": "USA - Wyoming", "POINTS": "8", "BONUSPOINTS": "3"}}, {"type": "Feature", "geometry": {"type": "Point", "coordinates": [-109.3084, 43.805]}, "properties": {"NAME": "W7Y/FT-088", "TITLE": "11734", "REGION": "Fremont", "ASSOCIATION": "USA - Wyoming", "POINTS": "8", "BONUSPOINTS": "3"}}, {"type": "Feature", "geometry": {"type": "Point", "coordinates": [-109.5618, 43.3522]}, "properties": {"NAME": "W7Y/FT-089", "TITLE": "11696", "REGION": "Fremont", "ASSOCIATION": "USA - Wyoming", "POINTS": "8", "BONUSPOINTS": "3"}}, {"type": "Feature", "geometry": {"type": "Point", "coordinates": [-109.5907, 43.3541]}, "properties": {"NAME": "W7Y/FT-090", "TITLE": "Talus Mountain", "REGION": "Fremont", "ASSOCIATION": "USA - Wyoming", "POINTS": "8", "BONUSPOINTS": "3"}}, {"type": "Feature", "geometry": {"type": "Point", "coordinates": [-109.3855, 43.8432]}, "properties": {"NAME": "W7Y/FT-091", "TITLE": "11689", "REGION": "Fremont", "ASSOCIATION": "USA - Wyoming", "POINTS": "8", "BONUSPOINTS": "3"}}, {"type": "Feature", "geometry": {"type": "Point", "coordinates": [-109.654, 43.9031]}, "properties": {"NAME": "W7Y/FT-092", "TITLE": "11687", "REGION": "Fremont", "ASSOCIATION": "USA - Wyoming", "POINTS": "8", "BONUSPOINTS": "3"}}, {"type": "Feature", "geometry": {"type": "Point", "coordinates": [-109.4932, 43.0529]}, "properties": {"NAME": "W7Y/FT-093", "TITLE": "11660", "REGION": "Fremont", "ASSOCIATION": "USA - Wyoming", "POINTS": "8", "BONUSPOINTS": "3"}}, {"type": "Feature", "geometry": {"type": "Point", "coordinates": [-109.5396, 43.8702]}, "properties": {"NAME": "W7Y/FT-094", "TITLE": "Crescent Top South", "REGION": "Fremont", "ASSOCIATION": "USA - Wyoming", "POINTS": "8", "BONUSPOINTS": "3"}}, {"type": "Feature", "geometry": {"type": "Point", "coordinates": [-109.7272, 43.7222]}, "properties": {"NAME": "W7Y/FT-095", "TITLE": "Ramshorn Peak", "REGION": "Fremont", "ASSOCIATION": "USA - Wyoming", "POINTS": "8", "BONUSPOINTS": "3"}}, {"type": "Feature", "geometry": {"type": "Point", "coordinates": [-109.54, 43.1383]}, "properties": {"NAME": "W7Y/FT-096", "TITLE": "11540", "REGION": "Fremont", "ASSOCIATION": "USA - Wyoming", "POINTS": "8", "BONUSPOINTS": "3"}}, {"type": "Feature", "geometry": {"type": "Point", "coordinates": [-109.9574, 43.7484]}, "properties": {"NAME": "W7Y/FT-097", "TITLE": "Pinnacle Buttes HP", "REGION": "Fremont", "ASSOCIATION": "USA - Wyoming", "POINTS": "8", "BONUSPOINTS": "3"}}, {"type": "Feature", "geometry": {"type": "Point", "coordinates": [-109.0542, 42.7533]}, "properties": {"NAME": "W7Y/FT-098", "TITLE": "Chevo, Mount", "REGION": "Fremont", "ASSOCIATION": "USA - Wyoming", "POINTS": "8", "BONUSPOINTS": "3"}}, {"type": "Feature", "geometry": {"type": "Point", "coordinates": [-109.6412, 43.8633]}, "properties": {"NAME": "W7Y/FT-099", "TITLE": "11383", "REGION": "Fremont", "ASSOCIATION": "USA - Wyoming", "POINTS": "8", "BONUSPOINTS": "3"}}, {"type": "Feature", "geometry": {"type": "Point", "coordinates": [-109.8502, 43.8371]}, "properties": {"NAME": "W7Y/FT-100", "TITLE": "Crescent Mountain", "REGION": "Fremont", "ASSOCIATION": "USA - Wyoming", "POINTS": "8", "BONUSPOINTS": "3"}}, {"type": "Feature", "geometry": {"type": "Point", "coordinates": [-109.1974, 42.8571]}, "properties": {"NAME": "W7Y/FT-101", "TITLE": "Valentine Peak", "REGION": "Fremont", "ASSOCIATION": "USA - Wyoming", "POINTS": "8", "BONUSPOINTS": "3"}}, {"type": "Feature", "geometry": {"type": "Point", "coordinates": [-109.8521, 43.9266]}, "properties": {"NAME": "W7Y/FT-102", "TITLE": "11317", "REGION": "Fremont", "ASSOCIATION": "USA - Wyoming", "POINTS": "8", "BONUSPOINTS": "3"}}, {"type": "Feature", "geometry": {"type": "Point", "coordinates": [-109.8718, 43.7942]}, "properties": {"NAME": "W7Y/FT-103", "TITLE": "Coffin Butte", "REGION": "Fremont", "ASSOCIATION": "USA - Wyoming", "POINTS": "8", "BONUSPOINTS": "3"}}, {"type": "Feature", "geometry": {"type": "Point", "coordinates": [-109.3724, 43.7584]}, "properties": {"NAME": "W7Y/FT-104", "TITLE": "Steamboat Rock", "REGION": "Fremont", "ASSOCIATION": "USA - Wyoming", "POINTS": "8", "BONUSPOINTS": "3"}}, {"type": "Feature", "geometry": {"type": "Point", "coordinates": [-109.667, 43.8]}, "properties": {"NAME": "W7Y/FT-105", "TITLE": "Cathedral Peak", "REGION": "Fremont", "ASSOCIATION": "USA - Wyoming", "POINTS": "8", "BONUSPOINTS": "3"}}, {"type": "Feature", "geometry": {"type": "Point", "coordinates": [-109.6226, 43.4301]}, "properties": {"NAME": "W7Y/FT-106", "TITLE": "Whiskey Mountain", "REGION": "Fremont", "ASSOCIATION": "USA - Wyoming", "POINTS": "8", "BONUSPOINTS": "3"}}, {"type": "Feature", "geometry": {"type": "Point", "coordinates": [-109.3924, 43.7349]}, "properties": {"NAME": "W7Y/FT-107", "TITLE": "11140", "REGION": "Fremont", "ASSOCIATION": "USA - Wyoming", "POINTS": "8", "BONUSPOINTS": "3"}}, {"type": "Feature", "geometry": {"type": "Point", "coordinates": [-109.0879, 42.7391]}, "properties": {"NAME": "W7Y/FT-108", "TITLE": "11117", "REGION": "Fremont", "ASSOCIATION": "USA - Wyoming", "POINTS": "8", "BONUSPOINTS": "3"}}, {"type": "Feature", "geometry": {"type": "Point", "coordinates": [-108.9287, 42.6459]}, "properties": {"NAME": "W7Y/FT-109", "TITLE": "Cony Mountain", "REGION": "Fremont", "ASSOCIATION": "USA - Wyoming", "POINTS": "8", "BONUSPOINTS": "3"}}, {"type": "Feature", "geometry": {"type": "Point", "coordinates": [-109.9793, 43.7922]}, "properties": {"NAME": "W7Y/FT-110", "TITLE": "11100", "REGION": "Fremont", "ASSOCIATION": "USA - Wyoming", "POINTS": "8", "BONUSPOINTS": "3"}}, {"type": "Feature", "geometry": {"type": "Point", "coordinates": [-108.9859, 42.7671]}, "properties": {"NAME": "W7Y/FT-111", "TITLE": "Arter, Mount", "REGION": "Fremont", "ASSOCIATION": "USA - Wyoming", "POINTS": "8", "BONUSPOINTS": "3"}}, {"type": "Feature", "geometry": {"type": "Point", "coordinates": [-110.0439, 43.755]}, "properties": {"NAME": "W7Y/FT-112", "TITLE": "11060", "REGION": "Fremont", "ASSOCIATION": "USA - Wyoming", "POINTS": "8", "BONUSPOINTS": "3"}}, {"type": "Feature", "geometry": {"type": "Point", "coordinates": [-109.5247, 43.3505]}, "properties": {"NAME": "W7Y/FT-113", "TITLE": "11016", "REGION": "Fremont", "ASSOCIATION": "USA - Wyoming", "POINTS": "8", "BONUSPOINTS": "3"}}, {"type": "Feature", "geometry": {"type": "Point", "coordinates": [-109.4828, 43.7498]}, "properties": {"NAME": "W7Y/FT-114", "TITLE": "Kent, Mount", "REGION": "Fremont", "ASSOCIATION": "USA - Wyoming", "POINTS": "8", "BONUSPOINTS": "3"}}, {"type": "Feature", "geometry": {"type": "Point", "coordinates": [-109.9549, 43.9633]}, "properties": {"NAME": "W7Y/FT-115", "TITLE": "11009", "REGION": "Fremont", "ASSOCIATION": "USA - Wyoming", "POINTS": "8", "BONUSPOINTS": "3"}}, {"type": "Feature", "geometry": {"type": "Point", "coordinates": [-109.5965, 43.8662]}, "properties": {"NAME": "W7Y/FT-116", "TITLE": "Coffman Butte", "REGION": "Fremont", "ASSOCIATION": "USA - Wyoming", "POINTS": "8", "BONUSPOINTS": "3"}}, {"type": "Feature", "geometry": {"type": "Point", "coordinates": [-109.8598, 43.9414]}, "properties": {"NAME": "W7Y/FT-117", "TITLE": "10962", "REGION": "Fremont", "ASSOCIATION": "USA - Wyoming", "POINTS": "8", "BONUSPOINTS": "3"}}, {"type": "Feature", "geometry": {"type": "Point", "coordinates": [-109.8978, 43.842]}, "properties": {"NAME": "W7Y/FT-118", "TITLE": "10961", "REGION": "Fremont", "ASSOCIATION": "USA - Wyoming", "POINTS": "8", "BONUSPOINTS": "3"}}, {"type": "Feature", "geometry": {"type": "Point", "coordinates": [-109.0999, 42.8785]}, "properties": {"NAME": "W7Y/FT-119", "TITLE": "Cross, Mount", "REGION": "Fremont", "ASSOCIATION": "USA - Wyoming", "POINTS": "8", "BONUSPOINTS": "3"}}, {"type": "Feature", "geometry": {"type": "Point", "coordinates": [-109.5069, 43.8461]}, "properties": {"NAME": "W7Y/FT-120", "TITLE": "10938", "REGION": "Fremont", "ASSOCIATION": "USA - Wyoming", "POINTS": "8", "BONUSPOINTS": "3"}}, {"type": "Feature", "geometry": {"type": "Point", "coordinates": [-110.0189, 43.9723]}, "properties": {"NAME": "W7Y/FT-121", "TITLE": "Jay Benchmark", "REGION": "Fremont", "ASSOCIATION": "USA - Wyoming", "POINTS": "8", "BONUSPOINTS": "3"}}, {"type": "Feature", "geometry": {"type": "Point", "coordinates": [-109.9447, 43.7368]}, "properties": {"NAME": "W7Y/FT-122", "TITLE": "Pinnacle Butte South", "REGION": "Fremont", "ASSOCIATION": "USA - Wyoming", "POINTS": "8", "BONUSPOINTS": "3"}}, {"type": "Feature", "geometry": {"type": "Point", "coordinates": [-109.9298, 43.9509]}, "properties": {"NAME": "W7Y/FT-123", "TITLE": "10808", "REGION": "Fremont", "ASSOCIATION": "USA - Wyoming", "POINTS": "8", "BONUSPOINTS": "3"}}, {"type": "Feature", "geometry": {"type": "Point", "coordinates": [-109.5317, 43.3083]}, "properties": {"NAME": "W7Y/FT-124", "TITLE": "10793", "REGION": "Fremont", "ASSOCIATION": "USA - Wyoming", "POINTS": "8", "BONUSPOINTS": "3"}}, {"type": "Feature", "geometry": {"type": "Point", "coordinates": [-109.7605, 43.4814]}, "properties": {"NAME": "W7Y/FT-125", "TITLE": "10785", "REGION": "Fremont", "ASSOCIATION": "USA - Wyoming", "POINTS": "8", "BONUSPOINTS": "3"}}, {"type": "Feature", "geometry": {"type": "Point", "coordinates": [-109.265, 43.1195]}, "properties": {"NAME": "W7Y/FT-126", "TITLE": "Bull Ridge", "REGION": "Fremont", "ASSOCIATION": "USA - Wyoming", "POINTS": "8", "BONUSPOINTS": "3"}}, {"type": "Feature", "geometry": {"type": "Point", "coordinates": [-110.0382, 43.7496]}, "properties": {"NAME": "W7Y/FT-127", "TITLE": "Sublette Peak", "REGION": "Fremont", "ASSOCIATION": "USA - Wyoming", "POINTS": "8", "BONUSPOINTS": "3"}}, {"type": "Feature", "geometry": {"type": "Point", "coordinates": [-109.0383, 42.8371]}, "properties": {"NAME": "W7Y/FT-128", "TITLE": "Black Mountain", "REGION": "Fremont", "ASSOCIATION": "USA - Wyoming", "POINTS": "8", "BONUSPOINTS": "3"}}, {"type": "Feature", "geometry": {"type": "Point", "coordinates": [-110.0245, 43.6777]}, "properties": {"NAME": "W7Y/FT-129", "TITLE": "Lava Mountain", "REGION": "Fremont", "ASSOCIATION": "USA - Wyoming", "POINTS": "8", "BONUSPOINTS": "3"}}, {"type": "Feature", "geometry": {"type": "Point", "coordinates": [-109.7241, 43.4849]}, "properties": {"NAME": "W7Y/FT-130", "TITLE": "Windy Mountain", "REGION": "Fremont", "ASSOCIATION": "USA - Wyoming", "POINTS": "8", "BONUSPOINTS": "3"}}, {"type": "Feature", "geometry": {"type": "Point", "coordinates": [-108.8807, 42.5498]}, "properties": {"NAME": "W7Y/FT-131", "TITLE": "Granite Peak", "REGION": "Fremont", "ASSOCIATION": "USA - Wyoming", "POINTS": "8", "BONUSPOINTS": "3"}}, {"type": "Feature", "geometry": {"type": "Point", "coordinates": [-109.4126, 43.257]}, "properties": {"NAME": "W7Y/FT-132", "TITLE": "10394", "REGION": "Fremont", "ASSOCIATION": "USA - Wyoming", "POINTS": "8", "BONUSPOINTS": "3"}}, {"type": "Feature", "geometry": {"type": "Point", "coordinates": [-109.3088, 43.1653]}, "properties": {"NAME": "W7Y/FT-133", "TITLE": "Crow Mountain", "REGION": "Fremont", "ASSOCIATION": "USA - Wyoming", "POINTS": "8", "BONUSPOINTS": "3"}}, {"type": "Feature", "geometry": {"type": "Point", "coordinates": [-109.2163, 43.5393]}, "properties": {"NAME": "W7Y/FT-134", "TITLE": "Black Mountain", "REGION": "Fremont", "ASSOCIATION": "USA - Wyoming", "POINTS": "8", "BONUSPOINTS": "3"}}, {"type": "Feature", "geometry": {"type": "Point", "coordinates": [-109.9644, 43.5491]}, "properties": {"NAME": "W7Y/FT-135", "TITLE": "Fish Lake Mountain", "REGION": "Fremont", "ASSOCIATION": "USA - Wyoming", "POINTS": "8", "BONUSPOINTS": "3"}}, {"type": "Feature", "geometry": {"type": "Point", "coordinates": [-109.5267, 43.7041]}, "properties": {"NAME": "W7Y/FT-136", "TITLE": "Indian Ridge", "REGION": "Fremont", "ASSOCIATION": "USA - Wyoming", "POINTS": "8", "BONUSPOINTS": "3"}}, {"type": "Feature", "geometry": {"type": "Point", "coordinates": [-109.0608, 42.8792]}, "properties": {"NAME": "W7Y/FT-137", "TITLE": "10005", "REGION": "Fremont", "ASSOCIATION": "USA - Wyoming", "POINTS": "8", "BONUSPOINTS": "3"}}, {"type": "Feature", "geometry": {"type": "Point", "coordinates": [-109.1383, 42.9775]}, "properties": {"NAME": "W7Y/FT-138", "TITLE": "9849", "REGION": "Fremont", "ASSOCIATION": "USA - Wyoming", "POINTS": "6", "BONUSPOINTS": "3"}}, {"type": "Feature", "geometry": {"type": "Point", "coordinates": [-109.0844, 42.9462]}, "properties": {"NAME": "W7Y/FT-139", "TITLE": "9525", "REGION": "Fremont", "ASSOCIATION": "USA - Wyoming", "POINTS": "6", "BONUSPOINTS": "3"}}, {"type": "Feature", "geometry": {"type": "Point", "coordinates": [-109.0577, 42.9146]}, "properties": {"NAME": "W7Y/FT-140", "TITLE": "9522", "REGION": "Fremont", "ASSOCIATION": "USA - Wyoming", "POINTS": "6", "BONUSPOINTS": "3"}}, {"type": "Feature", "geometry": {"type": "Point", "coordinates": [-109.7912, 43.5571]}, "properties": {"NAME": "W7Y/FT-141", "TITLE": "Warm Spring Mountain", "REGION": "Fremont", "ASSOCIATION": "USA - Wyoming", "POINTS": "6", "BONUSPOINTS": "3"}}, {"type": "Feature", "geometry": {"type": "Point", "coordinates": [-109.2733, 43.5672]}, "properties": {"NAME": "W7Y/FT-142", "TITLE": "Crow Mountain", "REGION": "Fremont", "ASSOCIATION": "USA - Wyoming", "POINTS": "6", "BONUSPOINTS": "3"}}, {"type": "Feature", "geometry": {"type": "Point", "coordinates": [-108.8135, 42.6485]}, "properties": {"NAME": "W7Y/FT-143", "TITLE": "Freak Mountains HP", "REGION": "Fremont", "ASSOCIATION": "USA - Wyoming", "POINTS": "6", "BONUSPOINTS": "3"}}, {"type": "Feature", "geometry": {"type": "Point", "coordinates": [-107.574, 42.3104]}, "properties": {"NAME": "W7Y/FT-144", "TITLE": "Whiskey Peak", "REGION": "Fremont", "ASSOCIATION": "USA - Wyoming", "POINTS": "6", "BONUSPOINTS": "3"}}, {"type": "Feature", "geometry": {"type": "Point", "coordinates": [-107.7325, 42.3445]}, "properties": {"NAME": "W7Y/FT-145", "TITLE": "Green Mountain", "REGION": "Fremont", "ASSOCIATION": "USA - Wyoming", "POINTS": "6", "BONUSPOINTS": "3"}}, {"type": "Feature", "geometry": {"type": "Point", "coordinates": [-108.8481, 42.7144]}, "properties": {"NAME": "W7Y/FT-146", "TITLE": "Fossil Hill", "REGION": "Fremont", "ASSOCIATION": "USA - Wyoming", "POINTS": "6", "BONUSPOINTS": "3"}}, {"type": "Feature", "geometry": {"type": "Point", "coordinates": [-109.5831, 43.653]}, "properties": {"NAME": "W7Y/FT-147", "TITLE": "Spring Mountain", "REGION": "Fremont", "ASSOCIATION": "USA - Wyoming", "POINTS": "6", "BONUSPOINTS": "3"}}, {"type": "Feature", "geometry": {"type": "Point", "coordinates": [-108.7492, 42.635]}, "properties": {"NAME": "W7Y/FT-148", "TITLE": "Young Mountain", "REGION": "Fremont", "ASSOCIATION": "USA - Wyoming", "POINTS": "6", "BONUSPOINTS": "3"}}, {"type": "Feature", "geometry": {"type": "Point", "coordinates": [-109.5399, 43.7577]}, "properties": {"NAME": "W7Y/FT-149", "TITLE": "8761", "REGION": "Fremont", "ASSOCIATION": "USA - Wyoming", "POINTS": "6", "BONUSPOINTS": "3"}}, {"type": "Feature", "geometry": {"type": "Point", "coordinates": [-109.0354, 43.5851]}, "properties": {"NAME": "W7Y/FT-150", "TITLE": "8679", "REGION": "Fremont", "ASSOCIATION": "USA - Wyoming", "POINTS": "6", "BONUSPOINTS": "3"}}, {"type": "Feature", "geometry": {"type": "Point", "coordinates": [-108.671, 42.5478]}, "properties": {"NAME": "W7Y/FT-151", "TITLE": "8639", "REGION": "Fremont", "ASSOCIATION": "USA - Wyoming", "POINTS": "6", "BONUSPOINTS": "3"}}, {"type": "Feature", "geometry": {"type": "Point", "coordinates": [-109.6425, 43.6486]}, "properties": {"NAME": "W7Y/FT-152", "TITLE": "8576", "REGION": "Fremont", "ASSOCIATION": "USA - Wyoming", "POINTS": "6", "BONUSPOINTS": "3"}}, {"type": "Feature", "geometry": {"type": "Point", "coordinates": [-109.8938, 43.6394]}, "properties": {"NAME": "W7Y/FT-153", "TITLE": "Elk Ridge", "REGION": "Fremont", "ASSOCIATION": "USA - Wyoming", "POINTS": "6", "BONUSPOINTS": "3"}}, {"type": "Feature", "geometry": {"type": "Point", "coordinates": [-108.7187, 42.268]}, "properties": {"NAME": "W7Y/FT-154", "TITLE": "Continental Peak", "REGION": "Fremont", "ASSOCIATION": "USA - Wyoming", "POINTS": "6", "BONUSPOINTS": "3"}}, {"type": "Feature", "geometry": {"type": "Point", "coordinates": [-109.5173, 43.6403]}, "properties": {"NAME": "W7Y/FT-155", "TITLE": "Black Mountain", "REGION": "Fremont", "ASSOCIATION": "USA - Wyoming", "POINTS": "6", "BONUSPOINTS": "3"}}, {"type": "Feature", "geometry": {"type": "Point", "coordinates": [-107.9447, 43.4595]}, "properties": {"NAME": "W7Y/FT-156", "TITLE": "Copper Mountain North", "REGION": "Fremont", "ASSOCIATION": "USA - Wyoming", "POINTS": "6", "BONUSPOINTS": "3"}}, {"type": "Feature", "geometry": {"type": "Point", "coordinates": [-107.9195, 42.3946]}, "properties": {"NAME": "W7Y/FT-157", "TITLE": "Crooks Mountain East", "REGION": "Fremont", "ASSOCIATION": "USA - Wyoming", "POINTS": "6", "BONUSPOINTS": "3"}}, {"type": "Feature", "geometry": {"type": "Point", "coordinates": [-108.7394, 42.6701]}, "properties": {"NAME": "W7Y/FT-158", "TITLE": "Quaker Benchmark", "REGION": "Fremont", "ASSOCIATION": "USA - Wyoming", "POINTS": "6", "BONUSPOINTS": "3"}}, {"type": "Feature", "geometry": {"type": "Point", "coordinates": [-108.9495, 43.6024]}, "properties": {"NAME": "W7Y/FT-159", "TITLE": "8263", "REGION": "Fremont", "ASSOCIATION": "USA - Wyoming", "POINTS": "6", "BONUSPOINTS": "3"}}, {"type": "Feature", "geometry": {"type": "Point", "coordinates": [-108.7201, 43.544]}, "properties": {"NAME": "W7Y/FT-160", "TITLE": "8250", "REGION": "Fremont", "ASSOCIATION": "USA - Wyoming", "POINTS": "6", "BONUSPOINTS": "3"}}, {"type": "Feature", "geometry": {"type": "Point", "coordinates": [-109.4962, 43.6122]}, "properties": {"NAME": "W7Y/FT-161", "TITLE": "Dennison Benchmark", "REGION": "Fremont", "ASSOCIATION": "USA - Wyoming", "POINTS": "6", "BONUSPOINTS": "3"}}, {"type": "Feature", "geometry": {"type": "Point", "coordinates": [-109.5436, 43.5504]}, "properties": {"NAME": "W7Y/FT-162", "TITLE": "Table Mountain", "REGION": "Fremont", "ASSOCIATION": "USA - Wyoming", "POINTS": "6", "BONUSPOINTS": "3"}}, {"type": "Feature", "geometry": {"type": "Point", "coordinates": [-109.3811, 43.5797]}, "properties": {"NAME": "W7Y/FT-163", "TITLE": "Upper Table", "REGION": "Fremont", "ASSOCIATION": "USA - Wyoming", "POINTS": "6", "BONUSPOINTS": "3"}}, {"type": "Feature", "geometry": {"type": "Point", "coordinates": [-107.5611, 42.5314]}, "properties": {"NAME": "W7Y/FT-164", "TITLE": "Lankin Dome", "REGION": "Fremont", "ASSOCIATION": "USA - Wyoming", "POINTS": "4", "BONUSPOINTS": "3"}}, {"type": "Feature", "geometry": {"type": "Point", "coordinates": [-107.8671, 42.3712]}, "properties": {"NAME": "W7Y/FT-165", "TITLE": "Crooks Peak", "REGION": "Fremont", "ASSOCIATION": "USA - Wyoming", "POINTS": "4", "BONUSPOINTS": "3"}}, {"type": "Feature", "geometry": {"type": "Point", "coordinates": [-107.8292, 43.4196]}, "properties": {"NAME": "W7Y/FT-166", "TITLE": "Greer Peak", "REGION": "Fremont", "ASSOCIATION": "USA - Wyoming", "POINTS": "4", "BONUSPOINTS": "3"}}, {"type": "Feature", "geometry": {"type": "Point", "coordinates": [-108.51, 43.4961]}, "properties": {"NAME": "W7Y/FT-167", "TITLE": "Sears Benchmark", "REGION": "Fremont", "ASSOCIATION": "USA - Wyoming", "POINTS": "4", "BONUSPOINTS": "3"}}, {"type": "Feature", "geometry": {"type": "Point", "coordinates": [-107.5623, 43.455]}, "properties": {"NAME": "W7Y/FT-168", "TITLE": "Cottonwood Pass Benchmark", "REGION": "Fremont", "ASSOCIATION": "USA - Wyoming", "POINTS": "4", "BONUSPOINTS": "3"}}, {"type": "Feature", "geometry": {"type": "Point", "coordinates": [-108.0815, 43.4622]}, "properties": {"NAME": "W7Y/FT-169", "TITLE": "7588", "REGION": "Fremont", "ASSOCIATION": "USA - Wyoming", "POINTS": "4", "BONUSPOINTS": "3"}}, {"type": "Feature", "geometry": {"type": "Point", "coordinates": [-108.1943, 43.4585]}, "properties": {"NAME": "W7Y/FT-170", "TITLE": "Boysen Peak", "REGION": "Fremont", "ASSOCIATION": "USA - Wyoming", "POINTS": "4", "BONUSPOINTS": "3"}}, {"type": "Feature", "geometry": {"type": "Point", "coordinates": [-107.9994, 42.6693]}, "properties": {"NAME": "W7Y/FT-171", "TITLE": "Long Creek Mountain", "REGION": "Fremont", "ASSOCIATION": "USA - Wyoming", "POINTS": "4", "BONUSPOINTS": "3"}}, {"type": "Feature", "geometry": {"type": "Point", "coordinates": [-107.8986, 42.6539]}, "properties": {"NAME": "W7Y/FT-172", "TITLE": "Tin Cup Mountain", "REGION": "Fremont", "ASSOCIATION": "USA - Wyoming", "POINTS": "4", "BONUSPOINTS": "3"}}, {"type": "Feature", "geometry": {"type": "Point", "coordinates": [-108.4621, 42.6033]}, "properties": {"NAME": "W7Y/FT-173", "TITLE": "Sheep Mountain", "REGION": "Fremont", "ASSOCIATION": "USA - Wyoming", "POINTS": "4", "BONUSPOINTS": "3"}}, {"type": "Feature", "geometry": {"type": "Point", "coordinates": [-108.7695, 42.7452]}, "properties": {"NAME": "W7Y/FT-174", "TITLE": "Table Mountain", "REGION": "Fremont", "ASSOCIATION": "USA - Wyoming", "POINTS": "4", "BONUSPOINTS": "3"}}, {"type": "Feature", "geometry": {"type": "Point", "coordinates": [-108.5209, 43.4744]}, "properties": {"NAME": "W7Y/FT-175", "TITLE": "Jenkins Mountain", "REGION": "Fremont", "ASSOCIATION": "USA - Wyoming", "POINTS": "4", "BONUSPOINTS": "3"}}, {"type": "Feature", "geometry": {"type": "Point", "coordinates": [-108.1176, 42.7283]}, "properties": {"NAME": "W7Y/FT-176", "TITLE": "Beaverton Benchmark", "REGION": "Fremont", "ASSOCIATION": "USA - Wyoming", "POINTS": "4", "BONUSPOINTS": "3"}}, {"type": "Feature", "geometry": {"type": "Point", "coordinates": [-107.6088, 43.4462]}, "properties": {"NAME": "W7Y/FT-177", "TITLE": "Lysite Mountain", "REGION": "Fremont", "ASSOCIATION": "USA - Wyoming", "POINTS": "4", "BONUSPOINTS": "3"}}, {"type": "Feature", "geometry": {"type": "Point", "coordinates": [-107.866, 42.5457]}, "properties": {"NAME": "W7Y/FT-178", "TITLE": "McIntosh Benchmark", "REGION": "Fremont", "ASSOCIATION": "USA - Wyoming", "POINTS": "4", "BONUSPOINTS": "3"}}, {"type": "Feature", "geometry": {"type": "Point", "coordinates": [-108.856, 42.8439]}, "properties": {"NAME": "W7Y/FT-179", "TITLE": "Red Butte", "REGION": "Fremont", "ASSOCIATION": "USA - Wyoming", "POINTS": "4", "BONUSPOINTS": "3"}}, {"type": "Feature", "geometry": {"type": "Point", "coordinates": [-107.8021, 43.4041]}, "properties": {"NAME": "W7Y/FT-180", "TITLE": "7078", "REGION": "Fremont", "ASSOCIATION": "USA - Wyoming", "POINTS": "4", "BONUSPOINTS": "3"}}, {"type": "Feature", "geometry": {"type": "Point", "coordinates": [-107.6173, 42.5782]}, "properties": {"NAME": "W7Y/FT-181", "TITLE": "Murphee Benchmark", "REGION": "Fremont", "ASSOCIATION": "USA - Wyoming", "POINTS": "4", "BONUSPOINTS": "3"}}, {"type": "Feature", "geometry": {"type": "Point", "coordinates": [-108.8184, 43.525]}, "properties": {"NAME": "W7Y/FT-182", "TITLE": "7028", "REGION": "Fremont", "ASSOCIATION": "USA - Wyoming", "POINTS": "4", "BONUSPOINTS": "3"}}, {"type": "Feature", "geometry": {"type": "Point", "coordinates": [-107.823, 42.5394]}, "properties": {"NAME": "W7Y/FT-183", "TITLE": "7019", "REGION": "Fremont", "ASSOCIATION": "USA - Wyoming", "POINTS": "4", "BONUSPOINTS": "3"}}, {"type": "Feature", "geometry": {"type": "Point", "coordinates": [-108.8601, 43.4851]}, "properties": {"NAME": "W7Y/FT-184", "TITLE": "Eagle Point", "REGION": "Fremont", "ASSOCIATION": "USA - Wyoming", "POINTS": "2", "BONUSPOINTS": "3"}}, {"type": "Feature", "geometry": {"type": "Point", "coordinates": [-107.6027, 42.5643]}, "properties": {"NAME": "W7Y/FT-185", "TITLE": "6959", "REGION": "Fremont", "ASSOCIATION": "USA - Wyoming", "POINTS": "2", "BONUSPOINTS": "3"}}, {"type": "Feature", "geometry": {"type": "Point", "coordinates": [-109.0959, 43.3101]}, "properties": {"NAME": "W7Y/FT-186", "TITLE": "Crowheart Butte", "REGION": "Fremont", "ASSOCIATION": "USA - Wyoming", "POINTS": "2", "BONUSPOINTS": "3"}}, {"type": "Feature", "geometry": {"type": "Point", "coordinates": [-108.4853, 42.7306]}, "properties": {"NAME": "W7Y/FT-187", "TITLE": "6370", "REGION": "Fremont", "ASSOCIATION": "USA - Wyoming", "POINTS": "2", "BONUSPOINTS": "3"}}, {"type": "Feature", "geometry": {"type": "Point", "coordinates": [-107.9153, 43.3831]}, "properties": {"NAME": "W7Y/FT-188", "TITLE": "Steffen Hill", "REGION": "Fremont", "ASSOCIATION": "USA - Wyoming", "POINTS": "2", "BONUSPOINTS": "3"}}, {"type": "Feature", "geometry": {"type": "Point", "coordinates": [-109.3248, 42.9095]}, "properties": {"NAME": "W7Y/FT-189", "TITLE": "Petroleum Peak", "REGION": "Fremont", "ASSOCIATION": "USA - Wyoming", "POINTS": "8", "BONUSPOINTS": "3"}}, {"type": "Feature", "geometry": {"type": "Point", "coordinates": [-109.5431, 43.8759]}, "properties": {"NAME": "W7Y/FT-190", "TITLE": "Crescent Top, East", "REGION": "Fremont", "ASSOCIATION": "USA - Wyoming", "POINTS": "8", "BONUSPOINTS": "3"}}, {"type": "Feature", "geometry": {"type": "Point", "coordinates": [-109.4127, 43.1954]}, "properties": {"NAME": "W7Y/FT-191", "TITLE": "Indian Ridge", "REGION": "Fremont", "ASSOCIATION": "USA - Wyoming", "POINTS": "8", "BONUSPOINTS": "3"}}, {"type": "Feature", "geometry": {"type": "Point", "coordinates": [-109.2201, 43.0715]}, "properties": {"NAME": "W7Y/FT-192", "TITLE": "Bear Peak", "REGION": "Fremont", "ASSOCIATION": "USA - Wyoming", "POINTS": "8", "BONUSPOINTS": "3"}}, {"type": "Feature", "geometry": {"type": "Point", "coordinates": [-109.3916, 43.5116]}, "properties": {"NAME": "W7Y/FT-193", "TITLE": "Lower Table", "REGION": "Fremont", "ASSOCIATION": "USA - Wyoming", "POINTS": "4", "BONUSPOINTS": "3"}}, {"type": "Feature", "geometry": {"type": "Point", "coordinates": [-107.8798, 42.5515]}, "properties": {"NAME": "W7Y/FT-194", "TITLE": "7221", "REGION": "Fremont", "ASSOCIATION": "USA - Wyoming", "POINTS": "4", "BONUSPOINTS": "3"}}, {"type": "Feature", "geometry": {"type": "Point", "coordinates": [-107.6024, 42.5431]}, "properties": {"NAME": "W7Y/FT-195", "TITLE": "7146", "REGION": "Fremont", "ASSOCIATION": "USA - Wyoming", "POINTS": "4", "BONUSPOINTS": "3"}}, {"type": "Feature", "geometry": {"type": "Point", "coordinates": [-107.6406, 43.4407]}, "properties": {"NAME": "W7Y/FT-196", "TITLE": "7125", "REGION": "Fremont", "ASSOCIATION": "USA - Wyoming", "POINTS": "4", "BONUSPOINTS": "3"}}]}