{"type": "FeatureCollection", "name": "W7Y/TT SUMMITS", "features": [{"type": "Feature", "geometry": {"type": "Point", "coordinates": [-110.8024, 43.7412]}, "properties": {"NAME": "W7Y/TT-001", "TITLE": "Grand Teton", "REGION": "Teton", "ASSOCIATION": "USA - Wyoming", "POINTS": "10", "BONUSPOINTS": "3"}}, {"type": "Feature", "geometry": {"type": "Point", "coordinates": [-110.7973, 43.7469]}, "properties": {"NAME": "W7Y/TT-002", "TITLE": "Owen, Mount", "REGION": "Teton", "ASSOCIATION": "USA - Wyoming", "POINTS": "10", "BONUSPOINTS": "3"}}, {"type": "Feature", "geometry": {"type": "Point", "coordinates": [-110.8113, 43.7298]}, "properties": {"NAME": "W7Y/TT-003", "TITLE": "Middle Teton", "REGION": "Teton", "ASSOCIATION": "USA - Wyoming", "POINTS": "10", "BONUSPOINTS": "3"}}, {"type": "Feature", "geometry": {"type": "Point", "coordinates": [-110.7765, 43.835]}, "properties": {"NAME": "W7Y/TT-004", "TITLE": "Moran, Mount", "REGION": "Teton", "ASSOCIATION": "USA - Wyoming", "POINTS": "10", "BONUSPOINTS": "3"}}, {"type": "Feature", "geometry": {"type": "Point", "coordinates": [-110.8185, 43.7187]}, "properties": {"NAME": "W7Y/TT-005", "TITLE": "South Teton", "REGION": "Teton", "ASSOCIATION": "USA - Wyoming", "POINTS": "10", "BONUSPOINTS": "3"}}, {"type": "Feature", "geometry": {"type": "Point", "coordinates": [-110.7799, 43.7472]}, "properties": {"NAME": "W7Y/TT-006", "TITLE": "Teewinot Mountain", "REGION": "Teton", "ASSOCIATION": "USA - Wyoming", "POINTS": "10", "BONUSPOINTS": "3"}}, {"type": "Feature", "geometry": {"type": "Point", "coordinates": [-110.8203, 43.6892]}, "properties": {"NAME": "W7Y/TT-007", "TITLE": "Buck Mountain", "REGION": "Teton", "ASSOCIATION": "USA - Wyoming", "POINTS": "8", "BONUSPOINTS": "3"}}, {"type": "Feature", "geometry": {"type": "Point", "coordinates": [-110.7975, 43.7193]}, "properties": {"NAME": "W7Y/TT-008", "TITLE": "Nez Perce", "REGION": "Teton", "ASSOCIATION": "USA - Wyoming", "POINTS": "8", "BONUSPOINTS": "3"}}, {"type": "Feature", "geometry": {"type": "Point", "coordinates": [-110.361, 43.4137]}, "properties": {"NAME": "W7Y/TT-009", "TITLE": "Black Peak", "REGION": "Teton", "ASSOCIATION": "USA - Wyoming", "POINTS": "8", "BONUSPOINTS": "3"}}, {"type": "Feature", "geometry": {"type": "Point", "coordinates": [-110.3088, 43.3888]}, "properties": {"NAME": "W7Y/TT-010", "TITLE": "Darwin Peak", "REGION": "Teton", "ASSOCIATION": "USA - Wyoming", "POINTS": "8", "BONUSPOINTS": "3"}}, {"type": "Feature", "geometry": {"type": "Point", "coordinates": [-110.7942, 43.8028]}, "properties": {"NAME": "W7Y/TT-011", "TITLE": "Woodring, Mount", "REGION": "Teton", "ASSOCIATION": "USA - Wyoming", "POINTS": "8", "BONUSPOINTS": "3"}}, {"type": "Feature", "geometry": {"type": "Point", "coordinates": [-110.8167, 43.7017]}, "properties": {"NAME": "W7Y/TT-012", "TITLE": "Wister, Mount", "REGION": "Teton", "ASSOCIATION": "USA - Wyoming", "POINTS": "8", "BONUSPOINTS": "3"}}, {"type": "Feature", "geometry": {"type": "Point", "coordinates": [-110.773, 43.7819]}, "properties": {"NAME": "W7Y/TT-013", "TITLE": "Saint John, Mount", "REGION": "Teton", "ASSOCIATION": "USA - Wyoming", "POINTS": "8", "BONUSPOINTS": "3"}}, {"type": "Feature", "geometry": {"type": "Point", "coordinates": [-110.4094, 43.3944]}, "properties": {"NAME": "W7Y/TT-014", "TITLE": "Antoinette Peak", "REGION": "Teton", "ASSOCIATION": "USA - Wyoming", "POINTS": "8", "BONUSPOINTS": "3"}}, {"type": "Feature", "geometry": {"type": "Point", "coordinates": [-110.779, 43.9113]}, "properties": {"NAME": "W7Y/TT-015", "TITLE": "Doane Peak", "REGION": "Teton", "ASSOCIATION": "USA - Wyoming", "POINTS": "8", "BONUSPOINTS": "3"}}, {"type": "Feature", "geometry": {"type": "Point", "coordinates": [-110.7635, 43.9286]}, "properties": {"NAME": "W7Y/TT-016", "TITLE": "Ranger Peak", "REGION": "Teton", "ASSOCIATION": "USA - Wyoming", "POINTS": "8", "BONUSPOINTS": "3"}}, {"type": "Feature", "geometry": {"type": "Point", "coordinates": [-110.815, 43.7875]}, "properties": {"NAME": "W7Y/TT-017", "TITLE": "11270", "REGION": "Teton", "ASSOCIATION": "USA - Wyoming", "POINTS": "8", "BONUSPOINTS": "3"}}, {"type": "Feature", "geometry": {"type": "Point", "coordinates": [-110.079, 43.7964]}, "properties": {"NAME": "W7Y/TT-018", "TITLE": "North Breccia Cliffs", "REGION": "Teton", "ASSOCIATION": "USA - Wyoming", "POINTS": "8", "BONUSPOINTS": "3"}}, {"type": "Feature", "geometry": {"type": "Point", "coordinates": [-110.8494, 43.6492]}, "properties": {"NAME": "W7Y/TT-019", "TITLE": "Prospectors Mountain", "REGION": "Teton", "ASSOCIATION": "USA - Wyoming", "POINTS": "8", "BONUSPOINTS": "3"}}, {"type": "Feature", "geometry": {"type": "Point", "coordinates": [-110.5241, 43.5437]}, "properties": {"NAME": "W7Y/TT-020", "TITLE": "Sheep Mountain", "REGION": "Teton", "ASSOCIATION": "USA - Wyoming", "POINTS": "8", "BONUSPOINTS": "3"}}, {"type": "Feature", "geometry": {"type": "Point", "coordinates": [-110.4186, 43.4075]}, "properties": {"NAME": "W7Y/TT-021", "TITLE": "11205", "REGION": "Teton", "ASSOCIATION": "USA - Wyoming", "POINTS": "8", "BONUSPOINTS": "3"}}, {"type": "Feature", "geometry": {"type": "Point", "coordinates": [-110.3775, 43.3765]}, "properties": {"NAME": "W7Y/TT-022", "TITLE": "Corner Peak", "REGION": "Teton", "ASSOCIATION": "USA - Wyoming", "POINTS": "8", "BONUSPOINTS": "3"}}, {"type": "Feature", "geometry": {"type": "Point", "coordinates": [-110.5701, 43.4031]}, "properties": {"NAME": "W7Y/TT-023", "TITLE": "Gros Benchmark", "REGION": "Teton", "ASSOCIATION": "USA - Wyoming", "POINTS": "8", "BONUSPOINTS": "3"}}, {"type": "Feature", "geometry": {"type": "Point", "coordinates": [-110.8512, 43.8249]}, "properties": {"NAME": "W7Y/TT-024", "TITLE": "Maidenform Peak", "REGION": "Teton", "ASSOCIATION": "USA - Wyoming", "POINTS": "8", "BONUSPOINTS": "3"}}, {"type": "Feature", "geometry": {"type": "Point", "coordinates": [-110.4111, 43.3837]}, "properties": {"NAME": "W7Y/TT-025", "TITLE": "11113", "REGION": "Teton", "ASSOCIATION": "USA - Wyoming", "POINTS": "8", "BONUSPOINTS": "3"}}, {"type": "Feature", "geometry": {"type": "Point", "coordinates": [-110.4671, 43.4555]}, "properties": {"NAME": "W7Y/TT-026", "TITLE": "Pyramid Peak", "REGION": "Teton", "ASSOCIATION": "USA - Wyoming", "POINTS": "8", "BONUSPOINTS": "3"}}, {"type": "Feature", "geometry": {"type": "Point", "coordinates": [-110.8517, 43.7467]}, "properties": {"NAME": "W7Y/TT-027", "TITLE": "Table Mountain", "REGION": "Teton", "ASSOCIATION": "USA - Wyoming", "POINTS": "8", "BONUSPOINTS": "3"}}, {"type": "Feature", "geometry": {"type": "Point", "coordinates": [-110.3731, 43.3509]}, "properties": {"NAME": "W7Y/TT-028", "TITLE": "11095", "REGION": "Teton", "ASSOCIATION": "USA - Wyoming", "POINTS": "8", "BONUSPOINTS": "3"}}, {"type": "Feature", "geometry": {"type": "Point", "coordinates": [-110.8365, 43.684]}, "properties": {"NAME": "W7Y/TT-029", "TITLE": "11094", "REGION": "Teton", "ASSOCIATION": "USA - Wyoming", "POINTS": "8", "BONUSPOINTS": "3"}}, {"type": "Feature", "geometry": {"type": "Point", "coordinates": [-110.7949, 43.8679]}, "properties": {"NAME": "W7Y/TT-030", "TITLE": "Traverse Peak", "REGION": "Teton", "ASSOCIATION": "USA - Wyoming", "POINTS": "8", "BONUSPOINTS": "3"}}, {"type": "Feature", "geometry": {"type": "Point", "coordinates": [-110.3879, 43.4768]}, "properties": {"NAME": "W7Y/TT-031", "TITLE": "Crystal Peak", "REGION": "Teton", "ASSOCIATION": "USA - Wyoming", "POINTS": "8", "BONUSPOINTS": "3"}}, {"type": "Feature", "geometry": {"type": "Point", "coordinates": [-110.9052, 43.6721]}, "properties": {"NAME": "W7Y/TT-032", "TITLE": "Bannon, Mount", "REGION": "Teton", "ASSOCIATION": "USA - Wyoming", "POINTS": "8", "BONUSPOINTS": "3"}}, {"type": "Feature", "geometry": {"type": "Point", "coordinates": [-110.8228, 43.8356]}, "properties": {"NAME": "W7Y/TT-033", "TITLE": "10952", "REGION": "Teton", "ASSOCIATION": "USA - Wyoming", "POINTS": "8", "BONUSPOINTS": "3"}}, {"type": "Feature", "geometry": {"type": "Point", "coordinates": [-110.8459, 43.9026]}, "properties": {"NAME": "W7Y/TT-034", "TITLE": "Glacier Benchmark", "REGION": "Teton", "ASSOCIATION": "USA - Wyoming", "POINTS": "8", "BONUSPOINTS": "3"}}, {"type": "Feature", "geometry": {"type": "Point", "coordinates": [-110.9048, 43.5672]}, "properties": {"NAME": "W7Y/TT-035", "TITLE": "Rendezvous Peak", "REGION": "Teton", "ASSOCIATION": "USA - Wyoming", "POINTS": "8", "BONUSPOINTS": "3"}}, {"type": "Feature", "geometry": {"type": "Point", "coordinates": [-110.4326, 43.498]}, "properties": {"NAME": "W7Y/TT-036", "TITLE": "10921", "REGION": "Teton", "ASSOCIATION": "USA - Wyoming", "POINTS": "8", "BONUSPOINTS": "3"}}, {"type": "Feature", "geometry": {"type": "Point", "coordinates": [-110.8254, 43.895]}, "properties": {"NAME": "W7Y/TT-037", "TITLE": "10920", "REGION": "Teton", "ASSOCIATION": "USA - Wyoming", "POINTS": "8", "BONUSPOINTS": "3"}}, {"type": "Feature", "geometry": {"type": "Point", "coordinates": [-110.9186, 43.6535]}, "properties": {"NAME": "W7Y/TT-038", "TITLE": "Fossil Mountain", "REGION": "Teton", "ASSOCIATION": "USA - Wyoming", "POINTS": "8", "BONUSPOINTS": "3"}}, {"type": "Feature", "geometry": {"type": "Point", "coordinates": [-110.8257, 43.8708]}, "properties": {"NAME": "W7Y/TT-039", "TITLE": "Raynolds Peak", "REGION": "Teton", "ASSOCIATION": "USA - Wyoming", "POINTS": "8", "BONUSPOINTS": "3"}}, {"type": "Feature", "geometry": {"type": "Point", "coordinates": [-110.1182, 43.944]}, "properties": {"NAME": "W7Y/TT-040", "TITLE": "Soda Mountain", "REGION": "Teton", "ASSOCIATION": "USA - Wyoming", "POINTS": "8", "BONUSPOINTS": "3"}}, {"type": "Feature", "geometry": {"type": "Point", "coordinates": [-110.8475, 43.7754]}, "properties": {"NAME": "W7Y/TT-041", "TITLE": "10855", "REGION": "Teton", "ASSOCIATION": "USA - Wyoming", "POINTS": "8", "BONUSPOINTS": "3"}}, {"type": "Feature", "geometry": {"type": "Point", "coordinates": [-110.5287, 43.4202]}, "properties": {"NAME": "W7Y/TT-042", "TITLE": "10840", "REGION": "Teton", "ASSOCIATION": "USA - Wyoming", "POINTS": "8", "BONUSPOINTS": "3"}}, {"type": "Feature", "geometry": {"type": "Point", "coordinates": [-110.8023, 43.9771]}, "properties": {"NAME": "W7Y/TT-043", "TITLE": "Elk Mountain", "REGION": "Teton", "ASSOCIATION": "USA - Wyoming", "POINTS": "8", "BONUSPOINTS": "3"}}, {"type": "Feature", "geometry": {"type": "Point", "coordinates": [-110.6265, 43.4623]}, "properties": {"NAME": "W7Y/TT-044", "TITLE": "Jackson Peak", "REGION": "Teton", "ASSOCIATION": "USA - Wyoming", "POINTS": "8", "BONUSPOINTS": "3"}}, {"type": "Feature", "geometry": {"type": "Point", "coordinates": [-110.8613, 43.6307]}, "properties": {"NAME": "W7Y/TT-045", "TITLE": "Hunt, Mount", "REGION": "Teton", "ASSOCIATION": "USA - Wyoming", "POINTS": "8", "BONUSPOINTS": "3"}}, {"type": "Feature", "geometry": {"type": "Point", "coordinates": [-110.0855, 43.7413]}, "properties": {"NAME": "W7Y/TT-046", "TITLE": "Two Ocean Mountain", "REGION": "Teton", "ASSOCIATION": "USA - Wyoming", "POINTS": "8", "BONUSPOINTS": "3"}}, {"type": "Feature", "geometry": {"type": "Point", "coordinates": [-110.8824, 43.6856]}, "properties": {"NAME": "W7Y/TT-047", "TITLE": "Meek, Mount", "REGION": "Teton", "ASSOCIATION": "USA - Wyoming", "POINTS": "8", "BONUSPOINTS": "3"}}, {"type": "Feature", "geometry": {"type": "Point", "coordinates": [-110.3228, 43.454]}, "properties": {"NAME": "W7Y/TT-048", "TITLE": "10663", "REGION": "Teton", "ASSOCIATION": "USA - Wyoming", "POINTS": "8", "BONUSPOINTS": "3"}}, {"type": "Feature", "geometry": {"type": "Point", "coordinates": [-110.0583, 43.9011]}, "properties": {"NAME": "W7Y/TT-049", "TITLE": "Smokehouse Mountain", "REGION": "Teton", "ASSOCIATION": "USA - Wyoming", "POINTS": "8", "BONUSPOINTS": "3"}}, {"type": "Feature", "geometry": {"type": "Point", "coordinates": [-110.4874, 43.377]}, "properties": {"NAME": "W7Y/TT-050", "TITLE": "10654", "REGION": "Teton", "ASSOCIATION": "USA - Wyoming", "POINTS": "8", "BONUSPOINTS": "3"}}, {"type": "Feature", "geometry": {"type": "Point", "coordinates": [-110.9162, 43.7086]}, "properties": {"NAME": "W7Y/TT-051", "TITLE": "10643", "REGION": "Teton", "ASSOCIATION": "USA - Wyoming", "POINTS": "8", "BONUSPOINTS": "3"}}, {"type": "Feature", "geometry": {"type": "Point", "coordinates": [-110.1488, 43.8225]}, "properties": {"NAME": "W7Y/TT-052", "TITLE": "Angle Mountain", "REGION": "Teton", "ASSOCIATION": "USA - Wyoming", "POINTS": "8", "BONUSPOINTS": "3"}}, {"type": "Feature", "geometry": {"type": "Point", "coordinates": [-110.0789, 43.8955]}, "properties": {"NAME": "W7Y/TT-053", "TITLE": "10564", "REGION": "Teton", "ASSOCIATION": "USA - Wyoming", "POINTS": "8", "BONUSPOINTS": "3"}}, {"type": "Feature", "geometry": {"type": "Point", "coordinates": [-110.947, 43.6243]}, "properties": {"NAME": "W7Y/TT-054", "TITLE": "Housetop Mountain", "REGION": "Teton", "ASSOCIATION": "USA - Wyoming", "POINTS": "8", "BONUSPOINTS": "3"}}, {"type": "Feature", "geometry": {"type": "Point", "coordinates": [-110.5849, 43.4775]}, "properties": {"NAME": "W7Y/TT-055", "TITLE": "10530", "REGION": "Teton", "ASSOCIATION": "USA - Wyoming", "POINTS": "8", "BONUSPOINTS": "3"}}, {"type": "Feature", "geometry": {"type": "Point", "coordinates": [-110.5577, 43.4535]}, "properties": {"NAME": "W7Y/TT-056", "TITLE": "10526", "REGION": "Teton", "ASSOCIATION": "USA - Wyoming", "POINTS": "8", "BONUSPOINTS": "3"}}, {"type": "Feature", "geometry": {"type": "Point", "coordinates": [-110.8534, 43.8565]}, "properties": {"NAME": "W7Y/TT-057", "TITLE": "Window Peak", "REGION": "Teton", "ASSOCIATION": "USA - Wyoming", "POINTS": "8", "BONUSPOINTS": "3"}}, {"type": "Feature", "geometry": {"type": "Point", "coordinates": [-110.1356, 44.0103]}, "properties": {"NAME": "W7Y/TT-058", "TITLE": "Atlantic Benchmark", "REGION": "Teton", "ASSOCIATION": "USA - Wyoming", "POINTS": "8", "BONUSPOINTS": "3"}}, {"type": "Feature", "geometry": {"type": "Point", "coordinates": [-110.1281, 43.9964]}, "properties": {"NAME": "W7Y/TT-059", "TITLE": "10495", "REGION": "Teton", "ASSOCIATION": "USA - Wyoming", "POINTS": "8", "BONUSPOINTS": "3"}}, {"type": "Feature", "geometry": {"type": "Point", "coordinates": [-110.8763, 43.8487]}, "properties": {"NAME": "W7Y/TT-060", "TITLE": "10484", "REGION": "Teton", "ASSOCIATION": "USA - Wyoming", "POINTS": "8", "BONUSPOINTS": "3"}}, {"type": "Feature", "geometry": {"type": "Point", "coordinates": [-110.8713, 43.5973]}, "properties": {"NAME": "W7Y/TT-061", "TITLE": "10450", "REGION": "Teton", "ASSOCIATION": "USA - Wyoming", "POINTS": "8", "BONUSPOINTS": "3"}}, {"type": "Feature", "geometry": {"type": "Point", "coordinates": [-110.8524, 43.956]}, "properties": {"NAME": "W7Y/TT-062", "TITLE": "10422", "REGION": "Teton", "ASSOCIATION": "USA - Wyoming", "POINTS": "8", "BONUSPOINTS": "3"}}, {"type": "Feature", "geometry": {"type": "Point", "coordinates": [-110.9808, 43.531]}, "properties": {"NAME": "W7Y/TT-063", "TITLE": "Taylor Mountain", "REGION": "Teton", "ASSOCIATION": "USA - Wyoming", "POINTS": "8", "BONUSPOINTS": "3"}}, {"type": "Feature", "geometry": {"type": "Point", "coordinates": [-110.2572, 43.7221]}, "properties": {"NAME": "W7Y/TT-064", "TITLE": "Grouse Mountain", "REGION": "Teton", "ASSOCIATION": "USA - Wyoming", "POINTS": "8", "BONUSPOINTS": "3"}}, {"type": "Feature", "geometry": {"type": "Point", "coordinates": [-110.8308, 43.9626]}, "properties": {"NAME": "W7Y/TT-065", "TITLE": "10333", "REGION": "Teton", "ASSOCIATION": "USA - Wyoming", "POINTS": "8", "BONUSPOINTS": "3"}}, {"type": "Feature", "geometry": {"type": "Point", "coordinates": [-110.4058, 43.7251]}, "properties": {"NAME": "W7Y/TT-066", "TITLE": "Leidy, Mount", "REGION": "Teton", "ASSOCIATION": "USA - Wyoming", "POINTS": "8", "BONUSPOINTS": "3"}}, {"type": "Feature", "geometry": {"type": "Point", "coordinates": [-110.5291, 44.2661]}, "properties": {"NAME": "W7Y/TT-067", "TITLE": "Sheridan, Mount", "REGION": "Teton", "ASSOCIATION": "USA - Wyoming", "POINTS": "8", "BONUSPOINTS": "3"}}, {"type": "Feature", "geometry": {"type": "Point", "coordinates": [-110.6091, 43.4363]}, "properties": {"NAME": "W7Y/TT-068", "TITLE": "10268", "REGION": "Teton", "ASSOCIATION": "USA - Wyoming", "POINTS": "8", "BONUSPOINTS": "3"}}, {"type": "Feature", "geometry": {"type": "Point", "coordinates": [-110.1447, 43.8748]}, "properties": {"NAME": "W7Y/TT-069", "TITLE": "Terrace Mountain", "REGION": "Teton", "ASSOCIATION": "USA - Wyoming", "POINTS": "8", "BONUSPOINTS": "3"}}, {"type": "Feature", "geometry": {"type": "Point", "coordinates": [-110.1573, 44.0942]}, "properties": {"NAME": "W7Y/TT-070", "TITLE": "Two Ocean Plateau South", "REGION": "Teton", "ASSOCIATION": "USA - Wyoming", "POINTS": "8", "BONUSPOINTS": "3"}}, {"type": "Feature", "geometry": {"type": "Point", "coordinates": [-110.4173, 44.1552]}, "properties": {"NAME": "W7Y/TT-071", "TITLE": "Hancock, Mount", "REGION": "Teton", "ASSOCIATION": "USA - Wyoming", "POINTS": "8", "BONUSPOINTS": "3"}}, {"type": "Feature", "geometry": {"type": "Point", "coordinates": [-110.233, 43.4407]}, "properties": {"NAME": "W7Y/TT-072", "TITLE": "Sportsman Ridge", "REGION": "Teton", "ASSOCIATION": "USA - Wyoming", "POINTS": "8", "BONUSPOINTS": "3"}}, {"type": "Feature", "geometry": {"type": "Point", "coordinates": [-110.3694, 43.7033]}, "properties": {"NAME": "W7Y/TT-073", "TITLE": "East Leidy", "REGION": "Teton", "ASSOCIATION": "USA - Wyoming", "POINTS": "8", "BONUSPOINTS": "3"}}, {"type": "Feature", "geometry": {"type": "Point", "coordinates": [-110.1858, 43.7474]}, "properties": {"NAME": "W7Y/TT-074", "TITLE": "10140", "REGION": "Teton", "ASSOCIATION": "USA - Wyoming", "POINTS": "8", "BONUSPOINTS": "3"}}, {"type": "Feature", "geometry": {"type": "Point", "coordinates": [-110.9016, 43.9029]}, "properties": {"NAME": "W7Y/TT-075", "TITLE": "Rammel Mountain", "REGION": "Teton", "ASSOCIATION": "USA - Wyoming", "POINTS": "8", "BONUSPOINTS": "3"}}, {"type": "Feature", "geometry": {"type": "Point", "coordinates": [-110.1584, 44.1444]}, "properties": {"NAME": "W7Y/TT-076", "TITLE": "10100", "REGION": "Teton", "ASSOCIATION": "USA - Wyoming", "POINTS": "8", "BONUSPOINTS": "3"}}, {"type": "Feature", "geometry": {"type": "Point", "coordinates": [-110.2997, 43.6462]}, "properties": {"NAME": "W7Y/TT-077", "TITLE": "10096", "REGION": "Teton", "ASSOCIATION": "USA - Wyoming", "POINTS": "8", "BONUSPOINTS": "3"}}, {"type": "Feature", "geometry": {"type": "Point", "coordinates": [-110.9498, 43.5071]}, "properties": {"NAME": "W7Y/TT-078", "TITLE": "Glory, Mount", "REGION": "Teton", "ASSOCIATION": "USA - Wyoming", "POINTS": "8", "BONUSPOINTS": "3"}}, {"type": "Feature", "geometry": {"type": "Point", "coordinates": [-110.3768, 44.1321]}, "properties": {"NAME": "W7Y/TT-079", "TITLE": "Big Game Ridge South", "REGION": "Teton", "ASSOCIATION": "USA - Wyoming", "POINTS": "8", "BONUSPOINTS": "3"}}, {"type": "Feature", "geometry": {"type": "Point", "coordinates": [-110.1798, 44.1812]}, "properties": {"NAME": "W7Y/TT-080", "TITLE": "Lynx Benchmark", "REGION": "Teton", "ASSOCIATION": "USA - Wyoming", "POINTS": "8", "BONUSPOINTS": "3"}}, {"type": "Feature", "geometry": {"type": "Point", "coordinates": [-110.1748, 43.9505]}, "properties": {"NAME": "W7Y/TT-081", "TITLE": "Joy Peak", "REGION": "Teton", "ASSOCIATION": "USA - Wyoming", "POINTS": "8", "BONUSPOINTS": "3"}}, {"type": "Feature", "geometry": {"type": "Point", "coordinates": [-110.1074, 43.4073]}, "properties": {"NAME": "W7Y/TT-082", "TITLE": "Bacon Ridge", "REGION": "Teton", "ASSOCIATION": "USA - Wyoming", "POINTS": "8", "BONUSPOINTS": "3"}}, {"type": "Feature", "geometry": {"type": "Point", "coordinates": [-110.2428, 43.6501]}, "properties": {"NAME": "W7Y/TT-083", "TITLE": "10020", "REGION": "Teton", "ASSOCIATION": "USA - Wyoming", "POINTS": "8", "BONUSPOINTS": "3"}}, {"type": "Feature", "geometry": {"type": "Point", "coordinates": [-110.571, 43.3448]}, "properties": {"NAME": "W7Y/TT-084", "TITLE": "10013", "REGION": "Teton", "ASSOCIATION": "USA - Wyoming", "POINTS": "8", "BONUSPOINTS": "3"}}, {"type": "Feature", "geometry": {"type": "Point", "coordinates": [-110.1456, 43.6954]}, "properties": {"NAME": "W7Y/TT-085", "TITLE": "Tripod Peak", "REGION": "Teton", "ASSOCIATION": "USA - Wyoming", "POINTS": "6", "BONUSPOINTS": "3"}}, {"type": "Feature", "geometry": {"type": "Point", "coordinates": [-110.9172, 43.7782]}, "properties": {"NAME": "W7Y/TT-086", "TITLE": "9943", "REGION": "Teton", "ASSOCIATION": "USA - Wyoming", "POINTS": "6", "BONUSPOINTS": "3"}}, {"type": "Feature", "geometry": {"type": "Point", "coordinates": [-110.1663, 43.7328]}, "properties": {"NAME": "W7Y/TT-087", "TITLE": "9900", "REGION": "Teton", "ASSOCIATION": "USA - Wyoming", "POINTS": "6", "BONUSPOINTS": "3"}}, {"type": "Feature", "geometry": {"type": "Point", "coordinates": [-110.1313, 43.5256]}, "properties": {"NAME": "W7Y/TT-088", "TITLE": "Burnt Mountain", "REGION": "Teton", "ASSOCIATION": "USA - Wyoming", "POINTS": "6", "BONUSPOINTS": "3"}}, {"type": "Feature", "geometry": {"type": "Point", "coordinates": [-110.3901, 44.2115]}, "properties": {"NAME": "W7Y/TT-089", "TITLE": "Chicken Benchmark", "REGION": "Teton", "ASSOCIATION": "USA - Wyoming", "POINTS": "6", "BONUSPOINTS": "3"}}, {"type": "Feature", "geometry": {"type": "Point", "coordinates": [-110.4712, 44.0254]}, "properties": {"NAME": "W7Y/TT-090", "TITLE": "Bobcat Ridge", "REGION": "Teton", "ASSOCIATION": "USA - Wyoming", "POINTS": "6", "BONUSPOINTS": "3"}}, {"type": "Feature", "geometry": {"type": "Point", "coordinates": [-111.0039, 43.3445]}, "properties": {"NAME": "W7Y/TT-091", "TITLE": "Powder Peak", "REGION": "Teton", "ASSOCIATION": "USA - Wyoming", "POINTS": "6", "BONUSPOINTS": "3"}}, {"type": "Feature", "geometry": {"type": "Point", "coordinates": [-110.3416, 44.076]}, "properties": {"NAME": "W7Y/TT-092", "TITLE": "9856", "REGION": "Teton", "ASSOCIATION": "USA - Wyoming", "POINTS": "6", "BONUSPOINTS": "3"}}, {"type": "Feature", "geometry": {"type": "Point", "coordinates": [-110.6126, 43.251]}, "properties": {"NAME": "W7Y/TT-093", "TITLE": "Beaver Mountain", "REGION": "Teton", "ASSOCIATION": "USA - Wyoming", "POINTS": "6", "BONUSPOINTS": "3"}}, {"type": "Feature", "geometry": {"type": "Point", "coordinates": [-110.9169, 43.6118]}, "properties": {"NAME": "W7Y/TT-094", "TITLE": "9814", "REGION": "Teton", "ASSOCIATION": "USA - Wyoming", "POINTS": "6", "BONUSPOINTS": "3"}}, {"type": "Feature", "geometry": {"type": "Point", "coordinates": [-110.8286, 44.0083]}, "properties": {"NAME": "W7Y/TT-095", "TITLE": "Forellen Peak", "REGION": "Teton", "ASSOCIATION": "USA - Wyoming", "POINTS": "6", "BONUSPOINTS": "3"}}, {"type": "Feature", "geometry": {"type": "Point", "coordinates": [-110.0822, 44.1062]}, "properties": {"NAME": "W7Y/TT-096", "TITLE": "Hawks Rest", "REGION": "Teton", "ASSOCIATION": "USA - Wyoming", "POINTS": "6", "BONUSPOINTS": "3"}}, {"type": "Feature", "geometry": {"type": "Point", "coordinates": [-110.6013, 43.3236]}, "properties": {"NAME": "W7Y/TT-097", "TITLE": "9740", "REGION": "Teton", "ASSOCIATION": "USA - Wyoming", "POINTS": "6", "BONUSPOINTS": "3"}}, {"type": "Feature", "geometry": {"type": "Point", "coordinates": [-110.3995, 44.0618]}, "properties": {"NAME": "W7Y/TT-098", "TITLE": "Pinyon Peak", "REGION": "Teton", "ASSOCIATION": "USA - Wyoming", "POINTS": "6", "BONUSPOINTS": "3"}}, {"type": "Feature", "geometry": {"type": "Point", "coordinates": [-110.3101, 43.6866]}, "properties": {"NAME": "W7Y/TT-099", "TITLE": "9691", "REGION": "Teton", "ASSOCIATION": "USA - Wyoming", "POINTS": "6", "BONUSPOINTS": "3"}}, {"type": "Feature", "geometry": {"type": "Point", "coordinates": [-110.3155, 43.6744]}, "properties": {"NAME": "W7Y/TT-100", "TITLE": "Green Mountain", "REGION": "Teton", "ASSOCIATION": "USA - Wyoming", "POINTS": "6", "BONUSPOINTS": "3"}}, {"type": "Feature", "geometry": {"type": "Point", "coordinates": [-110.3321, 44.03]}, "properties": {"NAME": "W7Y/TT-101", "TITLE": "Gravel Peak", "REGION": "Teton", "ASSOCIATION": "USA - Wyoming", "POINTS": "6", "BONUSPOINTS": "3"}}, {"type": "Feature", "geometry": {"type": "Point", "coordinates": [-110.5674, 44.0457]}, "properties": {"NAME": "W7Y/TT-102", "TITLE": "Wildcat Peak", "REGION": "Teton", "ASSOCIATION": "USA - Wyoming", "POINTS": "6", "BONUSPOINTS": "3"}}, {"type": "Feature", "geometry": {"type": "Point", "coordinates": [-110.3864, 43.7029]}, "properties": {"NAME": "W7Y/TT-103", "TITLE": "9680", "REGION": "Teton", "ASSOCIATION": "USA - Wyoming", "POINTS": "6", "BONUSPOINTS": "3"}}, {"type": "Feature", "geometry": {"type": "Point", "coordinates": [-111.0273, 43.4331]}, "properties": {"NAME": "W7Y/TT-104", "TITLE": "Starvation Peak", "REGION": "Teton", "ASSOCIATION": "USA - Wyoming", "POINTS": "6", "BONUSPOINTS": "3"}}, {"type": "Feature", "geometry": {"type": "Point", "coordinates": [-110.1005, 43.4627]}, "properties": {"NAME": "W7Y/TT-105", "TITLE": "9649", "REGION": "Teton", "ASSOCIATION": "USA - Wyoming", "POINTS": "6", "BONUSPOINTS": "3"}}, {"type": "Feature", "geometry": {"type": "Point", "coordinates": [-110.364, 43.925]}, "properties": {"NAME": "W7Y/TT-106", "TITLE": "Gravel Mountain", "REGION": "Teton", "ASSOCIATION": "USA - Wyoming", "POINTS": "6", "BONUSPOINTS": "3"}}, {"type": "Feature", "geometry": {"type": "Point", "coordinates": [-110.3777, 44.1826]}, "properties": {"NAME": "W7Y/TT-107", "TITLE": "Barlow Peak", "REGION": "Teton", "ASSOCIATION": "USA - Wyoming", "POINTS": "6", "BONUSPOINTS": "3"}}, {"type": "Feature", "geometry": {"type": "Point", "coordinates": [-110.1909, 43.6152]}, "properties": {"NAME": "W7Y/TT-108", "TITLE": "Deer Creek Mountain", "REGION": "Teton", "ASSOCIATION": "USA - Wyoming", "POINTS": "6", "BONUSPOINTS": "3"}}, {"type": "Feature", "geometry": {"type": "Point", "coordinates": [-110.6004, 44.0879]}, "properties": {"NAME": "W7Y/TT-109", "TITLE": "Huckleberry Mountain", "REGION": "Teton", "ASSOCIATION": "USA - Wyoming", "POINTS": "6", "BONUSPOINTS": "3"}}, {"type": "Feature", "geometry": {"type": "Point", "coordinates": [-110.4368, 43.9874]}, "properties": {"NAME": "W7Y/TT-110", "TITLE": "Whetstone Mountain", "REGION": "Teton", "ASSOCIATION": "USA - Wyoming", "POINTS": "6", "BONUSPOINTS": "3"}}, {"type": "Feature", "geometry": {"type": "Point", "coordinates": [-110.4665, 43.6932]}, "properties": {"NAME": "W7Y/TT-111", "TITLE": "9553", "REGION": "Teton", "ASSOCIATION": "USA - Wyoming", "POINTS": "6", "BONUSPOINTS": "3"}}, {"type": "Feature", "geometry": {"type": "Point", "coordinates": [-110.5894, 44.0331]}, "properties": {"NAME": "W7Y/TT-112", "TITLE": "9525", "REGION": "Teton", "ASSOCIATION": "USA - Wyoming", "POINTS": "6", "BONUSPOINTS": "3"}}, {"type": "Feature", "geometry": {"type": "Point", "coordinates": [-110.2015, 43.9911]}, "properties": {"NAME": "W7Y/TT-113", "TITLE": "9522", "REGION": "Teton", "ASSOCIATION": "USA - Wyoming", "POINTS": "6", "BONUSPOINTS": "3"}}, {"type": "Feature", "geometry": {"type": "Point", "coordinates": [-110.2025, 44.2607]}, "properties": {"NAME": "W7Y/TT-114", "TITLE": "Two Ocean Plateau North", "REGION": "Teton", "ASSOCIATION": "USA - Wyoming", "POINTS": "6", "BONUSPOINTS": "3"}}, {"type": "Feature", "geometry": {"type": "Point", "coordinates": [-110.996, 43.4162]}, "properties": {"NAME": "W7Y/TT-115", "TITLE": "Smoky Hollow Peak", "REGION": "Teton", "ASSOCIATION": "USA - Wyoming", "POINTS": "6", "BONUSPOINTS": "3"}}, {"type": "Feature", "geometry": {"type": "Point", "coordinates": [-110.4896, 44.0501]}, "properties": {"NAME": "W7Y/TT-116", "TITLE": "9420", "REGION": "Teton", "ASSOCIATION": "USA - Wyoming", "POINTS": "6", "BONUSPOINTS": "3"}}, {"type": "Feature", "geometry": {"type": "Point", "coordinates": [-110.487, 43.995]}, "properties": {"NAME": "W7Y/TT-117", "TITLE": "9381", "REGION": "Teton", "ASSOCIATION": "USA - Wyoming", "POINTS": "6", "BONUSPOINTS": "3"}}, {"type": "Feature", "geometry": {"type": "Point", "coordinates": [-110.6857, 43.4787]}, "properties": {"NAME": "W7Y/TT-118", "TITLE": "9370", "REGION": "Teton", "ASSOCIATION": "USA - Wyoming", "POINTS": "6", "BONUSPOINTS": "3"}}, {"type": "Feature", "geometry": {"type": "Point", "coordinates": [-110.3818, 44.2502]}, "properties": {"NAME": "W7Y/TT-119", "TITLE": "Overlook Mountain", "REGION": "Teton", "ASSOCIATION": "USA - Wyoming", "POINTS": "6", "BONUSPOINTS": "3"}}, {"type": "Feature", "geometry": {"type": "Point", "coordinates": [-110.9499, 43.3408]}, "properties": {"NAME": "W7Y/TT-120", "TITLE": "9365", "REGION": "Teton", "ASSOCIATION": "USA - Wyoming", "POINTS": "6", "BONUSPOINTS": "3"}}, {"type": "Feature", "geometry": {"type": "Point", "coordinates": [-110.6585, 43.4228]}, "properties": {"NAME": "W7Y/TT-121", "TITLE": "9305", "REGION": "Teton", "ASSOCIATION": "USA - Wyoming", "POINTS": "6", "BONUSPOINTS": "3"}}, {"type": "Feature", "geometry": {"type": "Point", "coordinates": [-110.95, 43.4769]}, "properties": {"NAME": "W7Y/TT-122", "TITLE": "Pass Benchmark", "REGION": "Teton", "ASSOCIATION": "USA - Wyoming", "POINTS": "6", "BONUSPOINTS": "3"}}, {"type": "Feature", "geometry": {"type": "Point", "coordinates": [-110.8502, 44.0399]}, "properties": {"NAME": "W7Y/TT-123", "TITLE": "Survey Peak", "REGION": "Teton", "ASSOCIATION": "USA - Wyoming", "POINTS": "6", "BONUSPOINTS": "3"}}, {"type": "Feature", "geometry": {"type": "Point", "coordinates": [-110.3486, 43.9347]}, "properties": {"NAME": "W7Y/TT-124", "TITLE": "9237", "REGION": "Teton", "ASSOCIATION": "USA - Wyoming", "POINTS": "6", "BONUSPOINTS": "3"}}, {"type": "Feature", "geometry": {"type": "Point", "coordinates": [-110.3717, 43.9352]}, "properties": {"NAME": "W7Y/TT-125", "TITLE": "9236", "REGION": "Teton", "ASSOCIATION": "USA - Wyoming", "POINTS": "6", "BONUSPOINTS": "3"}}, {"type": "Feature", "geometry": {"type": "Point", "coordinates": [-110.5076, 43.6765]}, "properties": {"NAME": "W7Y/TT-126", "TITLE": "9190", "REGION": "Teton", "ASSOCIATION": "USA - Wyoming", "POINTS": "6", "BONUSPOINTS": "3"}}, {"type": "Feature", "geometry": {"type": "Point", "coordinates": [-110.3448, 43.8795]}, "properties": {"NAME": "W7Y/TT-127", "TITLE": "Randolph, Mount", "REGION": "Teton", "ASSOCIATION": "USA - Wyoming", "POINTS": "6", "BONUSPOINTS": "3"}}, {"type": "Feature", "geometry": {"type": "Point", "coordinates": [-110.4314, 44.3501]}, "properties": {"NAME": "W7Y/TT-128", "TITLE": "Flat Mountain", "REGION": "Teton", "ASSOCIATION": "USA - Wyoming", "POINTS": "6", "BONUSPOINTS": "3"}}, {"type": "Feature", "geometry": {"type": "Point", "coordinates": [-110.6464, 43.4027]}, "properties": {"NAME": "W7Y/TT-129", "TITLE": "9167", "REGION": "Teton", "ASSOCIATION": "USA - Wyoming", "POINTS": "6", "BONUSPOINTS": "3"}}, {"type": "Feature", "geometry": {"type": "Point", "coordinates": [-110.2272, 43.916]}, "properties": {"NAME": "W7Y/TT-130", "TITLE": "9142", "REGION": "Teton", "ASSOCIATION": "USA - Wyoming", "POINTS": "6", "BONUSPOINTS": "3"}}, {"type": "Feature", "geometry": {"type": "Point", "coordinates": [-110.3056, 43.9479]}, "properties": {"NAME": "W7Y/TT-131", "TITLE": "9067", "REGION": "Teton", "ASSOCIATION": "USA - Wyoming", "POINTS": "6", "BONUSPOINTS": "3"}}, {"type": "Feature", "geometry": {"type": "Point", "coordinates": [-110.7684, 44.0404]}, "properties": {"NAME": "W7Y/TT-132", "TITLE": "Dave Adams Hill", "REGION": "Teton", "ASSOCIATION": "USA - Wyoming", "POINTS": "6", "BONUSPOINTS": "3"}}, {"type": "Feature", "geometry": {"type": "Point", "coordinates": [-110.5438, 43.3506]}, "properties": {"NAME": "W7Y/TT-133", "TITLE": "8999", "REGION": "Teton", "ASSOCIATION": "USA - Wyoming", "POINTS": "6", "BONUSPOINTS": "3"}}, {"type": "Feature", "geometry": {"type": "Point", "coordinates": [-110.7987, 44.2735]}, "properties": {"NAME": "W7Y/TT-134", "TITLE": "Pitchstone Plateau", "REGION": "Teton", "ASSOCIATION": "USA - Wyoming", "POINTS": "6", "BONUSPOINTS": "3"}}, {"type": "Feature", "geometry": {"type": "Point", "coordinates": [-110.7963, 44.0592]}, "properties": {"NAME": "W7Y/TT-135", "TITLE": "Berry, Mount", "REGION": "Teton", "ASSOCIATION": "USA - Wyoming", "POINTS": "6", "BONUSPOINTS": "3"}}, {"type": "Feature", "geometry": {"type": "Point", "coordinates": [-110.4022, 43.9327]}, "properties": {"NAME": "W7Y/TT-136", "TITLE": "8968", "REGION": "Teton", "ASSOCIATION": "USA - Wyoming", "POINTS": "6", "BONUSPOINTS": "3"}}, {"type": "Feature", "geometry": {"type": "Point", "coordinates": [-110.2971, 43.929]}, "properties": {"NAME": "W7Y/TT-137", "TITLE": "Gravel Ridge", "REGION": "Teton", "ASSOCIATION": "USA - Wyoming", "POINTS": "6", "BONUSPOINTS": "3"}}, {"type": "Feature", "geometry": {"type": "Point", "coordinates": [-110.6525, 44.4931]}, "properties": {"NAME": "W7Y/TT-138", "TITLE": "8848", "REGION": "Teton", "ASSOCIATION": "USA - Wyoming", "POINTS": "6", "BONUSPOINTS": "3"}}, {"type": "Feature", "geometry": {"type": "Point", "coordinates": [-110.7263, 44.4208]}, "properties": {"NAME": "W7Y/TT-139", "TITLE": "8770", "REGION": "Teton", "ASSOCIATION": "USA - Wyoming", "POINTS": "6", "BONUSPOINTS": "3"}}, {"type": "Feature", "geometry": {"type": "Point", "coordinates": [-110.3753, 44.276]}, "properties": {"NAME": "W7Y/TT-140", "TITLE": "Channel Mountain", "REGION": "Teton", "ASSOCIATION": "USA - Wyoming", "POINTS": "6", "BONUSPOINTS": "3"}}, {"type": "Feature", "geometry": {"type": "Point", "coordinates": [-110.44, 44.5756]}, "properties": {"NAME": "W7Y/TT-141", "TITLE": "Elephant Back Mountain", "REGION": "Teton", "ASSOCIATION": "USA - Wyoming", "POINTS": "6", "BONUSPOINTS": "3"}}, {"type": "Feature", "geometry": {"type": "Point", "coordinates": [-110.2702, 43.9956]}, "properties": {"NAME": "W7Y/TT-142", "TITLE": "8700", "REGION": "Teton", "ASSOCIATION": "USA - Wyoming", "POINTS": "6", "BONUSPOINTS": "3"}}, {"type": "Feature", "geometry": {"type": "Point", "coordinates": [-110.2859, 44.3641]}, "properties": {"NAME": "W7Y/TT-143", "TITLE": "Promontory, The", "REGION": "Teton", "ASSOCIATION": "USA - Wyoming", "POINTS": "6", "BONUSPOINTS": "3"}}, {"type": "Feature", "geometry": {"type": "Point", "coordinates": [-110.4052, 43.9126]}, "properties": {"NAME": "W7Y/TT-144", "TITLE": "8515", "REGION": "Teton", "ASSOCIATION": "USA - Wyoming", "POINTS": "6", "BONUSPOINTS": "3"}}, {"type": "Feature", "geometry": {"type": "Point", "coordinates": [-110.8705, 44.6588]}, "properties": {"NAME": "W7Y/TT-145", "TITLE": "Purple Mountain", "REGION": "Teton", "ASSOCIATION": "USA - Wyoming", "POINTS": "6", "BONUSPOINTS": "3"}}, {"type": "Feature", "geometry": {"type": "Point", "coordinates": [-110.7518, 44.0136]}, "properties": {"NAME": "W7Y/TT-146", "TITLE": "Elk Ridge", "REGION": "Teton", "ASSOCIATION": "USA - Wyoming", "POINTS": "6", "BONUSPOINTS": "3"}}, {"type": "Feature", "geometry": {"type": "Point", "coordinates": [-110.7068, 43.4426]}, "properties": {"NAME": "W7Y/TT-147", "TITLE": "8420", "REGION": "Teton", "ASSOCIATION": "USA - Wyoming", "POINTS": "6", "BONUSPOINTS": "3"}}, {"type": "Feature", "geometry": {"type": "Point", "coordinates": [-110.5273, 44.1759]}, "properties": {"NAME": "W7Y/TT-148", "TITLE": "8413", "REGION": "Teton", "ASSOCIATION": "USA - Wyoming", "POINTS": "6", "BONUSPOINTS": "3"}}, {"type": "Feature", "geometry": {"type": "Point", "coordinates": [-110.7799, 43.3426]}, "properties": {"NAME": "W7Y/TT-149", "TITLE": "Munger Mountain", "REGION": "Teton", "ASSOCIATION": "USA - Wyoming", "POINTS": "6", "BONUSPOINTS": "3"}}, {"type": "Feature", "geometry": {"type": "Point", "coordinates": [-110.7318, 43.4242]}, "properties": {"NAME": "W7Y/TT-150", "TITLE": "8340", "REGION": "Teton", "ASSOCIATION": "USA - Wyoming", "POINTS": "6", "BONUSPOINTS": "3"}}, {"type": "Feature", "geometry": {"type": "Point", "coordinates": [-110.4166, 43.8986]}, "properties": {"NAME": "W7Y/TT-151", "TITLE": "8283", "REGION": "Teton", "ASSOCIATION": "USA - Wyoming", "POINTS": "6", "BONUSPOINTS": "3"}}, {"type": "Feature", "geometry": {"type": "Point", "coordinates": [-110.5781, 43.9403]}, "properties": {"NAME": "W7Y/TT-152", "TITLE": "Pilgrim Mountain", "REGION": "Teton", "ASSOCIATION": "USA - Wyoming", "POINTS": "6", "BONUSPOINTS": "3"}}, {"type": "Feature", "geometry": {"type": "Point", "coordinates": [-110.9472, 44.6321]}, "properties": {"NAME": "W7Y/TT-153", "TITLE": "Haynes, Mount", "REGION": "Teton", "ASSOCIATION": "USA - Wyoming", "POINTS": "6", "BONUSPOINTS": "3"}}, {"type": "Feature", "geometry": {"type": "Point", "coordinates": [-110.4423, 43.2998]}, "properties": {"NAME": "W7Y/TT-154", "TITLE": "8043", "REGION": "Teton", "ASSOCIATION": "USA - Wyoming", "POINTS": "6", "BONUSPOINTS": "3"}}, {"type": "Feature", "geometry": {"type": "Point", "coordinates": [-110.4462, 43.8614]}, "properties": {"NAME": "W7Y/TT-155", "TITLE": "Davis Hill", "REGION": "Teton", "ASSOCIATION": "USA - Wyoming", "POINTS": "6", "BONUSPOINTS": "3"}}, {"type": "Feature", "geometry": {"type": "Point", "coordinates": [-110.8881, 43.3919]}, "properties": {"NAME": "W7Y/TT-156", "TITLE": "Taylor Mountain", "REGION": "Teton", "ASSOCIATION": "USA - Wyoming", "POINTS": "6", "BONUSPOINTS": "3"}}, {"type": "Feature", "geometry": {"type": "Point", "coordinates": [-110.7032, 44.0477]}, "properties": {"NAME": "W7Y/TT-157", "TITLE": "Steamboat Mountain", "REGION": "Teton", "ASSOCIATION": "USA - Wyoming", "POINTS": "4", "BONUSPOINTS": "3"}}, {"type": "Feature", "geometry": {"type": "Point", "coordinates": [-110.8988, 43.3583]}, "properties": {"NAME": "W7Y/TT-158", "TITLE": "7948", "REGION": "Teton", "ASSOCIATION": "USA - Wyoming", "POINTS": "4", "BONUSPOINTS": "3"}}, {"type": "Feature", "geometry": {"type": "Point", "coordinates": [-110.4359, 43.6028]}, "properties": {"NAME": "W7Y/TT-159", "TITLE": "7870", "REGION": "Teton", "ASSOCIATION": "USA - Wyoming", "POINTS": "4", "BONUSPOINTS": "3"}}, {"type": "Feature", "geometry": {"type": "Point", "coordinates": [-110.8088, 43.2406]}, "properties": {"NAME": "W7Y/TT-160", "TITLE": "7783", "REGION": "Teton", "ASSOCIATION": "USA - Wyoming", "POINTS": "4", "BONUSPOINTS": "3"}}, {"type": "Feature", "geometry": {"type": "Point", "coordinates": [-110.5671, 43.8489]}, "properties": {"NAME": "W7Y/TT-161", "TITLE": "Signal Mountain", "REGION": "Teton", "ASSOCIATION": "USA - Wyoming", "POINTS": "4", "BONUSPOINTS": "3"}}, {"type": "Feature", "geometry": {"type": "Point", "coordinates": [-110.6926, 43.6353]}, "properties": {"NAME": "W7Y/TT-162", "TITLE": "Blacktail Butte", "REGION": "Teton", "ASSOCIATION": "USA - Wyoming", "POINTS": "4", "BONUSPOINTS": "3"}}, {"type": "Feature", "geometry": {"type": "Point", "coordinates": [-110.5245, 43.8669]}, "properties": {"NAME": "W7Y/TT-163", "TITLE": "Lozier Hill", "REGION": "Teton", "ASSOCIATION": "USA - Wyoming", "POINTS": "4", "BONUSPOINTS": "3"}}, {"type": "Feature", "geometry": {"type": "Point", "coordinates": [-110.5556, 43.9074]}, "properties": {"NAME": "W7Y/TT-164", "TITLE": "7586", "REGION": "Teton", "ASSOCIATION": "USA - Wyoming", "POINTS": "4", "BONUSPOINTS": "3"}}, {"type": "Feature", "geometry": {"type": "Point", "coordinates": [-110.7615, 43.3136]}, "properties": {"NAME": "W7Y/TT-165", "TITLE": "7576", "REGION": "Teton", "ASSOCIATION": "USA - Wyoming", "POINTS": "4", "BONUSPOINTS": "3"}}, {"type": "Feature", "geometry": {"type": "Point", "coordinates": [-110.903, 44.6262]}, "properties": {"NAME": "W7Y/TT-166", "TITLE": "7521", "REGION": "Teton", "ASSOCIATION": "USA - Wyoming", "POINTS": "4", "BONUSPOINTS": "3"}}, {"type": "Feature", "geometry": {"type": "Point", "coordinates": [-110.694, 43.3275]}, "properties": {"NAME": "W7Y/TT-167", "TITLE": "Arbor Benchmark", "REGION": "Teton", "ASSOCIATION": "USA - Wyoming", "POINTS": "4", "BONUSPOINTS": "3"}}, {"type": "Feature", "geometry": {"type": "Point", "coordinates": [-110.8291, 43.3161]}, "properties": {"NAME": "W7Y/TT-168", "TITLE": "7481", "REGION": "Teton", "ASSOCIATION": "USA - Wyoming", "POINTS": "4", "BONUSPOINTS": "3"}}, {"type": "Feature", "geometry": {"type": "Point", "coordinates": [-110.8001, 43.2672]}, "properties": {"NAME": "W7Y/TT-169", "TITLE": "7467", "REGION": "Teton", "ASSOCIATION": "USA - Wyoming", "POINTS": "4", "BONUSPOINTS": "3"}}, {"type": "Feature", "geometry": {"type": "Point", "coordinates": [-110.7796, 43.4846]}, "properties": {"NAME": "W7Y/TT-170", "TITLE": "East Gros Ventre Butte", "REGION": "Teton", "ASSOCIATION": "USA - Wyoming", "POINTS": "4", "BONUSPOINTS": "3"}}, {"type": "Feature", "geometry": {"type": "Point", "coordinates": [-110.7998, 43.5365]}, "properties": {"NAME": "W7Y/TT-171", "TITLE": "West Gros Ventre Butte", "REGION": "Teton", "ASSOCIATION": "USA - Wyoming", "POINTS": "4", "BONUSPOINTS": "3"}}, {"type": "Feature", "geometry": {"type": "Point", "coordinates": [-110.8511, 43.3614]}, "properties": {"NAME": "W7Y/TT-172", "TITLE": "7260", "REGION": "Teton", "ASSOCIATION": "USA - Wyoming", "POINTS": "4", "BONUSPOINTS": "3"}}, {"type": "Feature", "geometry": {"type": "Point", "coordinates": [-111.0329, 43.99]}, "properties": {"NAME": "W7Y/TT-173", "TITLE": "7030", "REGION": "Teton", "ASSOCIATION": "USA - Wyoming", "POINTS": "4", "BONUSPOINTS": "3"}}, {"type": "Feature", "geometry": {"type": "Point", "coordinates": [-110.8058, 43.4851]}, "properties": {"NAME": "W7Y/TT-174", "TITLE": "6902", "REGION": "Teton", "ASSOCIATION": "USA - Wyoming", "POINTS": "2", "BONUSPOINTS": "3"}}, {"type": "Feature", "geometry": {"type": "Point", "coordinates": [-110.7974, 43.4681]}, "properties": {"NAME": "W7Y/TT-175", "TITLE": "6794", "REGION": "Teton", "ASSOCIATION": "USA - Wyoming", "POINTS": "2", "BONUSPOINTS": "3"}}, {"type": "Feature", "geometry": {"type": "Point", "coordinates": [-110.7589, 43.8985]}, "properties": {"NAME": "W7Y/TT-176", "TITLE": "Eagles Rest Peak", "REGION": "Teton", "ASSOCIATION": "USA - Wyoming", "POINTS": "8", "BONUSPOINTS": "3"}}, {"type": "Feature", "geometry": {"type": "Point", "coordinates": [-110.7679, 43.7882]}, "properties": {"NAME": "W7Y/TT-177", "TITLE": "Rockchuck Peak", "REGION": "Teton", "ASSOCIATION": "USA - Wyoming", "POINTS": "8", "BONUSPOINTS": "3"}}, {"type": "Feature", "geometry": {"type": "Point", "coordinates": [-110.3894, 43.7129]}, "properties": {"NAME": "W7Y/TT-178", "TITLE": "9700", "REGION": "Teton", "ASSOCIATION": "USA - Wyoming", "POINTS": "6", "BONUSPOINTS": "3"}}, {"type": "Feature", "geometry": {"type": "Point", "coordinates": [-110.9941, 44.4644]}, "properties": {"NAME": "W7Y/TT-179", "TITLE": "8870", "REGION": "Teton", "ASSOCIATION": "USA - Wyoming", "POINTS": "6", "BONUSPOINTS": "3"}}, {"type": "Feature", "geometry": {"type": "Point", "coordinates": [-110.2201, 43.8561]}, "properties": {"NAME": "W7Y/TT-180", "TITLE": "7915", "REGION": "Teton", "ASSOCIATION": "USA - Wyoming", "POINTS": "4", "BONUSPOINTS": "3"}}, {"type": "Feature", "geometry": {"type": "Point", "coordinates": [-110.7587, 43.5141]}, "properties": {"NAME": "W7Y/TT-181", "TITLE": "7155", "REGION": "Teton", "ASSOCIATION": "USA - Wyoming", "POINTS": "4", "BONUSPOINTS": "3"}}]}