{"type": "FeatureCollection", "name": "W7Y/PA SUMMITS", "features": [{"type": "Feature", "geometry": {"type": "Point", "coordinates": [-109.3393, 43.9613]}, "properties": {"NAME": "W7Y/PA-001", "TITLE": "Francs Peak", "REGION": "Park", "ASSOCIATION": "USA - Wyoming", "POINTS": "10", "BONUSPOINTS": "3"}}, {"type": "Feature", "geometry": {"type": "Point", "coordinates": [-109.4751, 43.9515]}, "properties": {"NAME": "W7Y/PA-002", "TITLE": "12635", "REGION": "Park", "ASSOCIATION": "USA - Wyoming", "POINTS": "10", "BONUSPOINTS": "3"}}, {"type": "Feature", "geometry": {"type": "Point", "coordinates": [-109.2786, 43.9626]}, "properties": {"NAME": "W7Y/PA-003", "TITLE": "Jojo Mountain", "REGION": "Park", "ASSOCIATION": "USA - Wyoming", "POINTS": "10", "BONUSPOINTS": "3"}}, {"type": "Feature", "geometry": {"type": "Point", "coordinates": [-109.3334, 43.8769]}, "properties": {"NAME": "W7Y/PA-004", "TITLE": "Crosby, Mount", "REGION": "Park", "ASSOCIATION": "USA - Wyoming", "POINTS": "10", "BONUSPOINTS": "3"}}, {"type": "Feature", "geometry": {"type": "Point", "coordinates": [-109.537, 43.9863]}, "properties": {"NAME": "W7Y/PA-005", "TITLE": "12380", "REGION": "Park", "ASSOCIATION": "USA - Wyoming", "POINTS": "10", "BONUSPOINTS": "3"}}, {"type": "Feature", "geometry": {"type": "Point", "coordinates": [-109.4111, 44.1971]}, "properties": {"NAME": "W7Y/PA-006", "TITLE": "Carter Mountain", "REGION": "Park", "ASSOCIATION": "USA - Wyoming", "POINTS": "10", "BONUSPOINTS": "3"}}, {"type": "Feature", "geometry": {"type": "Point", "coordinates": [-109.5253, 44.6012]}, "properties": {"NAME": "W7Y/PA-007", "TITLE": "Trout Peak", "REGION": "Park", "ASSOCIATION": "USA - Wyoming", "POINTS": "10", "BONUSPOINTS": "3"}}, {"type": "Feature", "geometry": {"type": "Point", "coordinates": [-109.6127, 43.9664]}, "properties": {"NAME": "W7Y/PA-008", "TITLE": "Red Tops", "REGION": "Park", "ASSOCIATION": "USA - Wyoming", "POINTS": "10", "BONUSPOINTS": "3"}}, {"type": "Feature", "geometry": {"type": "Point", "coordinates": [-109.5822, 44.6044]}, "properties": {"NAME": "W7Y/PA-009", "TITLE": "Mount Dewey", "REGION": "Park", "ASSOCIATION": "USA - Wyoming", "POINTS": "10", "BONUSPOINTS": "3"}}, {"type": "Feature", "geometry": {"type": "Point", "coordinates": [-109.6106, 44.6073]}, "properties": {"NAME": "W7Y/PA-010", "TITLE": "Dead Indian Peak", "REGION": "Park", "ASSOCIATION": "USA - Wyoming", "POINTS": "10", "BONUSPOINTS": "3"}}, {"type": "Feature", "geometry": {"type": "Point", "coordinates": [-109.6065, 44.3237]}, "properties": {"NAME": "W7Y/PA-011", "TITLE": "Wapiti Ridge", "REGION": "Park", "ASSOCIATION": "USA - Wyoming", "POINTS": "10", "BONUSPOINTS": "3"}}, {"type": "Feature", "geometry": {"type": "Point", "coordinates": [-109.2898, 43.8405]}, "properties": {"NAME": "W7Y/PA-012", "TITLE": "Cascade Benchmark", "REGION": "Park", "ASSOCIATION": "USA - Wyoming", "POINTS": "10", "BONUSPOINTS": "3"}}, {"type": "Feature", "geometry": {"type": "Point", "coordinates": [-109.8665, 43.982]}, "properties": {"NAME": "W7Y/PA-013", "TITLE": "Younts Peak", "REGION": "Park", "ASSOCIATION": "USA - Wyoming", "POINTS": "10", "BONUSPOINTS": "3"}}, {"type": "Feature", "geometry": {"type": "Point", "coordinates": [-109.5497, 44.5834]}, "properties": {"NAME": "W7Y/PA-014", "TITLE": "12132", "REGION": "Park", "ASSOCIATION": "USA - Wyoming", "POINTS": "10", "BONUSPOINTS": "3"}}, {"type": "Feature", "geometry": {"type": "Point", "coordinates": [-109.617, 44.0655]}, "properties": {"NAME": "W7Y/PA-015", "TITLE": "Needle Mountain", "REGION": "Park", "ASSOCIATION": "USA - Wyoming", "POINTS": "10", "BONUSPOINTS": "3"}}, {"type": "Feature", "geometry": {"type": "Point", "coordinates": [-109.5416, 44.067]}, "properties": {"NAME": "W7Y/PA-016", "TITLE": "12095", "REGION": "Park", "ASSOCIATION": "USA - Wyoming", "POINTS": "10", "BONUSPOINTS": "3"}}, {"type": "Feature", "geometry": {"type": "Point", "coordinates": [-109.2781, 43.8564]}, "properties": {"NAME": "W7Y/PA-017", "TITLE": "Spar Mountain", "REGION": "Park", "ASSOCIATION": "USA - Wyoming", "POINTS": "10", "BONUSPOINTS": "3"}}, {"type": "Feature", "geometry": {"type": "Point", "coordinates": [-109.7975, 44.3368]}, "properties": {"NAME": "W7Y/PA-018", "TITLE": "Fortress Mountain", "REGION": "Park", "ASSOCIATION": "USA - Wyoming", "POINTS": "10", "BONUSPOINTS": "3"}}, {"type": "Feature", "geometry": {"type": "Point", "coordinates": [-109.8392, 43.9811]}, "properties": {"NAME": "W7Y/PA-019", "TITLE": "Thorofare Mountain", "REGION": "Park", "ASSOCIATION": "USA - Wyoming", "POINTS": "10", "BONUSPOINTS": "3"}}, {"type": "Feature", "geometry": {"type": "Point", "coordinates": [-109.6146, 44.0013]}, "properties": {"NAME": "W7Y/PA-020", "TITLE": "Crater Mountain", "REGION": "Park", "ASSOCIATION": "USA - Wyoming", "POINTS": "10", "BONUSPOINTS": "3"}}, {"type": "Feature", "geometry": {"type": "Point", "coordinates": [-109.3155, 43.8448]}, "properties": {"NAME": "W7Y/PA-021", "TITLE": "11962", "REGION": "Park", "ASSOCIATION": "USA - Wyoming", "POINTS": "8", "BONUSPOINTS": "3"}}, {"type": "Feature", "geometry": {"type": "Point", "coordinates": [-109.7767, 44.6091]}, "properties": {"NAME": "W7Y/PA-022", "TITLE": "Sunlight Peak", "REGION": "Park", "ASSOCIATION": "USA - Wyoming", "POINTS": "8", "BONUSPOINTS": "3"}}, {"type": "Feature", "geometry": {"type": "Point", "coordinates": [-109.7428, 44.0238]}, "properties": {"NAME": "W7Y/PA-023", "TITLE": "Bruin Benchmark", "REGION": "Park", "ASSOCIATION": "USA - Wyoming", "POINTS": "8", "BONUSPOINTS": "3"}}, {"type": "Feature", "geometry": {"type": "Point", "coordinates": [-109.6837, 44.0817]}, "properties": {"NAME": "W7Y/PA-024", "TITLE": "11908", "REGION": "Park", "ASSOCIATION": "USA - Wyoming", "POINTS": "8", "BONUSPOINTS": "3"}}, {"type": "Feature", "geometry": {"type": "Point", "coordinates": [-109.2446, 43.8253]}, "properties": {"NAME": "W7Y/PA-025", "TITLE": "Standard Peak", "REGION": "Park", "ASSOCIATION": "USA - Wyoming", "POINTS": "8", "BONUSPOINTS": "3"}}, {"type": "Feature", "geometry": {"type": "Point", "coordinates": [-109.4037, 43.9177]}, "properties": {"NAME": "W7Y/PA-026", "TITLE": "11888", "REGION": "Park", "ASSOCIATION": "USA - Wyoming", "POINTS": "8", "BONUSPOINTS": "3"}}, {"type": "Feature", "geometry": {"type": "Point", "coordinates": [-109.4735, 44.1374]}, "properties": {"NAME": "W7Y/PA-027", "TITLE": "11875", "REGION": "Park", "ASSOCIATION": "USA - Wyoming", "POINTS": "8", "BONUSPOINTS": "3"}}, {"type": "Feature", "geometry": {"type": "Point", "coordinates": [-109.8741, 44.2579]}, "properties": {"NAME": "W7Y/PA-028", "TITLE": "Overlook Mountain", "REGION": "Park", "ASSOCIATION": "USA - Wyoming", "POINTS": "8", "BONUSPOINTS": "3"}}, {"type": "Feature", "geometry": {"type": "Point", "coordinates": [-109.7359, 44.0404]}, "properties": {"NAME": "W7Y/PA-029", "TITLE": "11868", "REGION": "Park", "ASSOCIATION": "USA - Wyoming", "POINTS": "8", "BONUSPOINTS": "3"}}, {"type": "Feature", "geometry": {"type": "Point", "coordinates": [-109.2431, 43.8958]}, "properties": {"NAME": "W7Y/PA-030", "TITLE": "Dundee Mountain", "REGION": "Park", "ASSOCIATION": "USA - Wyoming", "POINTS": "8", "BONUSPOINTS": "3"}}, {"type": "Feature", "geometry": {"type": "Point", "coordinates": [-109.8135, 44.2248]}, "properties": {"NAME": "W7Y/PA-031", "TITLE": "Ishawooa Cone", "REGION": "Park", "ASSOCIATION": "USA - Wyoming", "POINTS": "8", "BONUSPOINTS": "3"}}, {"type": "Feature", "geometry": {"type": "Point", "coordinates": [-109.7237, 44.0489]}, "properties": {"NAME": "W7Y/PA-032", "TITLE": "11843", "REGION": "Park", "ASSOCIATION": "USA - Wyoming", "POINTS": "8", "BONUSPOINTS": "3"}}, {"type": "Feature", "geometry": {"type": "Point", "coordinates": [-109.8345, 44.2443]}, "properties": {"NAME": "W7Y/PA-033", "TITLE": "11836", "REGION": "Park", "ASSOCIATION": "USA - Wyoming", "POINTS": "8", "BONUSPOINTS": "3"}}, {"type": "Feature", "geometry": {"type": "Point", "coordinates": [-109.8258, 44.2907]}, "properties": {"NAME": "W7Y/PA-034", "TITLE": "Battlement Mountain", "REGION": "Park", "ASSOCIATION": "USA - Wyoming", "POINTS": "8", "BONUSPOINTS": "3"}}, {"type": "Feature", "geometry": {"type": "Point", "coordinates": [-109.9241, 44.0174]}, "properties": {"NAME": "W7Y/PA-035", "TITLE": "11797", "REGION": "Park", "ASSOCIATION": "USA - Wyoming", "POINTS": "8", "BONUSPOINTS": "3"}}, {"type": "Feature", "geometry": {"type": "Point", "coordinates": [-109.6567, 43.9806]}, "properties": {"NAME": "W7Y/PA-036", "TITLE": "Hardluck Mountain", "REGION": "Park", "ASSOCIATION": "USA - Wyoming", "POINTS": "8", "BONUSPOINTS": "3"}}, {"type": "Feature", "geometry": {"type": "Point", "coordinates": [-109.5729, 44.3599]}, "properties": {"NAME": "W7Y/PA-037", "TITLE": "11780", "REGION": "Park", "ASSOCIATION": "USA - Wyoming", "POINTS": "8", "BONUSPOINTS": "3"}}, {"type": "Feature", "geometry": {"type": "Point", "coordinates": [-109.381, 43.9371]}, "properties": {"NAME": "W7Y/PA-038", "TITLE": "Pyramid Peak", "REGION": "Park", "ASSOCIATION": "USA - Wyoming", "POINTS": "8", "BONUSPOINTS": "3"}}, {"type": "Feature", "geometry": {"type": "Point", "coordinates": [-109.4753, 44.1233]}, "properties": {"NAME": "W7Y/PA-039", "TITLE": "11740", "REGION": "Park", "ASSOCIATION": "USA - Wyoming", "POINTS": "8", "BONUSPOINTS": "3"}}, {"type": "Feature", "geometry": {"type": "Point", "coordinates": [-109.8226, 43.9655]}, "properties": {"NAME": "W7Y/PA-040", "TITLE": "11736", "REGION": "Park", "ASSOCIATION": "USA - Wyoming", "POINTS": "8", "BONUSPOINTS": "3"}}, {"type": "Feature", "geometry": {"type": "Point", "coordinates": [-109.8813, 44.9762]}, "properties": {"NAME": "W7Y/PA-041", "TITLE": "Pilot Peak", "REGION": "Park", "ASSOCIATION": "USA - Wyoming", "POINTS": "8", "BONUSPOINTS": "3"}}, {"type": "Feature", "geometry": {"type": "Point", "coordinates": [-109.8841, 43.9716]}, "properties": {"NAME": "W7Y/PA-042", "TITLE": "11662", "REGION": "Park", "ASSOCIATION": "USA - Wyoming", "POINTS": "8", "BONUSPOINTS": "3"}}, {"type": "Feature", "geometry": {"type": "Point", "coordinates": [-109.3422, 44.2201]}, "properties": {"NAME": "W7Y/PA-043", "TITLE": "11660", "REGION": "Park", "ASSOCIATION": "USA - Wyoming", "POINTS": "8", "BONUSPOINTS": "3"}}, {"type": "Feature", "geometry": {"type": "Point", "coordinates": [-109.8807, 44.0269]}, "properties": {"NAME": "W7Y/PA-044", "TITLE": "11658", "REGION": "Park", "ASSOCIATION": "USA - Wyoming", "POINTS": "8", "BONUSPOINTS": "3"}}, {"type": "Feature", "geometry": {"type": "Point", "coordinates": [-109.6841, 44.6266]}, "properties": {"NAME": "W7Y/PA-045", "TITLE": "11656", "REGION": "Park", "ASSOCIATION": "USA - Wyoming", "POINTS": "8", "BONUSPOINTS": "3"}}, {"type": "Feature", "geometry": {"type": "Point", "coordinates": [-109.7334, 44.2478]}, "properties": {"NAME": "W7Y/PA-046", "TITLE": "Clouds Home Peak", "REGION": "Park", "ASSOCIATION": "USA - Wyoming", "POINTS": "8", "BONUSPOINTS": "3"}}, {"type": "Feature", "geometry": {"type": "Point", "coordinates": [-109.7643, 44.6327]}, "properties": {"NAME": "W7Y/PA-047", "TITLE": "Stinkingwater Peak", "REGION": "Park", "ASSOCIATION": "USA - Wyoming", "POINTS": "8", "BONUSPOINTS": "3"}}, {"type": "Feature", "geometry": {"type": "Point", "coordinates": [-109.6625, 44.614]}, "properties": {"NAME": "W7Y/PA-048", "TITLE": "11587", "REGION": "Park", "ASSOCIATION": "USA - Wyoming", "POINTS": "8", "BONUSPOINTS": "3"}}, {"type": "Feature", "geometry": {"type": "Point", "coordinates": [-109.6837, 44.1851]}, "properties": {"NAME": "W7Y/PA-049", "TITLE": "11573", "REGION": "Park", "ASSOCIATION": "USA - Wyoming", "POINTS": "8", "BONUSPOINTS": "3"}}, {"type": "Feature", "geometry": {"type": "Point", "coordinates": [-109.4637, 44.1901]}, "properties": {"NAME": "W7Y/PA-050", "TITLE": "11565", "REGION": "Park", "ASSOCIATION": "USA - Wyoming", "POINTS": "8", "BONUSPOINTS": "3"}}, {"type": "Feature", "geometry": {"type": "Point", "coordinates": [-109.7608, 44.6958]}, "properties": {"NAME": "W7Y/PA-051", "TITLE": "Black Mountain", "REGION": "Park", "ASSOCIATION": "USA - Wyoming", "POINTS": "8", "BONUSPOINTS": "3"}}, {"type": "Feature", "geometry": {"type": "Point", "coordinates": [-109.8402, 44.2112]}, "properties": {"NAME": "W7Y/PA-052", "TITLE": "11555", "REGION": "Park", "ASSOCIATION": "USA - Wyoming", "POINTS": "8", "BONUSPOINTS": "3"}}, {"type": "Feature", "geometry": {"type": "Point", "coordinates": [-109.7071, 44.6252]}, "properties": {"NAME": "W7Y/PA-053", "TITLE": "11524", "REGION": "Park", "ASSOCIATION": "USA - Wyoming", "POINTS": "8", "BONUSPOINTS": "3"}}, {"type": "Feature", "geometry": {"type": "Point", "coordinates": [-109.7618, 44.1659]}, "properties": {"NAME": "W7Y/PA-054", "TITLE": "11523", "REGION": "Park", "ASSOCIATION": "USA - Wyoming", "POINTS": "8", "BONUSPOINTS": "3"}}, {"type": "Feature", "geometry": {"type": "Point", "coordinates": [-109.7663, 43.9991]}, "properties": {"NAME": "W7Y/PA-055", "TITLE": "11500", "REGION": "Park", "ASSOCIATION": "USA - Wyoming", "POINTS": "8", "BONUSPOINTS": "3"}}, {"type": "Feature", "geometry": {"type": "Point", "coordinates": [-109.8024, 43.9192]}, "properties": {"NAME": "W7Y/PA-056", "TITLE": "Wall Mountain", "REGION": "Park", "ASSOCIATION": "USA - Wyoming", "POINTS": "8", "BONUSPOINTS": "3"}}, {"type": "Feature", "geometry": {"type": "Point", "coordinates": [-109.9744, 44.3226]}, "properties": {"NAME": "W7Y/PA-057", "TITLE": "11497", "REGION": "Park", "ASSOCIATION": "USA - Wyoming", "POINTS": "8", "BONUSPOINTS": "3"}}, {"type": "Feature", "geometry": {"type": "Point", "coordinates": [-109.7623, 44.0961]}, "properties": {"NAME": "W7Y/PA-058", "TITLE": "11487", "REGION": "Park", "ASSOCIATION": "USA - Wyoming", "POINTS": "8", "BONUSPOINTS": "3"}}, {"type": "Feature", "geometry": {"type": "Point", "coordinates": [-109.7885, 44.0219]}, "properties": {"NAME": "W7Y/PA-059", "TITLE": "11485", "REGION": "Park", "ASSOCIATION": "USA - Wyoming", "POINTS": "8", "BONUSPOINTS": "3"}}, {"type": "Feature", "geometry": {"type": "Point", "coordinates": [-109.2892, 44.2298]}, "properties": {"NAME": "W7Y/PA-060", "TITLE": "11464", "REGION": "Park", "ASSOCIATION": "USA - Wyoming", "POINTS": "8", "BONUSPOINTS": "3"}}, {"type": "Feature", "geometry": {"type": "Point", "coordinates": [-109.9284, 44.2288]}, "properties": {"NAME": "W7Y/PA-061", "TITLE": "11463", "REGION": "Park", "ASSOCIATION": "USA - Wyoming", "POINTS": "8", "BONUSPOINTS": "3"}}, {"type": "Feature", "geometry": {"type": "Point", "coordinates": [-109.7258, 44.7211]}, "properties": {"NAME": "W7Y/PA-062", "TITLE": "11460", "REGION": "Park", "ASSOCIATION": "USA - Wyoming", "POINTS": "8", "BONUSPOINTS": "3"}}, {"type": "Feature", "geometry": {"type": "Point", "coordinates": [-109.8035, 44.137]}, "properties": {"NAME": "W7Y/PA-063", "TITLE": "West Thorofare Butte", "REGION": "Park", "ASSOCIATION": "USA - Wyoming", "POINTS": "8", "BONUSPOINTS": "3"}}, {"type": "Feature", "geometry": {"type": "Point", "coordinates": [-109.6515, 44.6272]}, "properties": {"NAME": "W7Y/PA-064", "TITLE": "11420", "REGION": "Park", "ASSOCIATION": "USA - Wyoming", "POINTS": "8", "BONUSPOINTS": "3"}}, {"type": "Feature", "geometry": {"type": "Point", "coordinates": [-109.9174, 44.2805]}, "properties": {"NAME": "W7Y/PA-065", "TITLE": "Chaos Mountain", "REGION": "Park", "ASSOCIATION": "USA - Wyoming", "POINTS": "8", "BONUSPOINTS": "3"}}, {"type": "Feature", "geometry": {"type": "Point", "coordinates": [-109.7835, 44.1437]}, "properties": {"NAME": "W7Y/PA-066", "TITLE": "East Thorofare Butte", "REGION": "Park", "ASSOCIATION": "USA - Wyoming", "POINTS": "8", "BONUSPOINTS": "3"}}, {"type": "Feature", "geometry": {"type": "Point", "coordinates": [-110.0266, 44.3202]}, "properties": {"NAME": "W7Y/PA-067", "TITLE": "Eagle Peak", "REGION": "Park", "ASSOCIATION": "USA - Wyoming", "POINTS": "8", "BONUSPOINTS": "3"}}, {"type": "Feature", "geometry": {"type": "Point", "coordinates": [-109.7471, 44.0826]}, "properties": {"NAME": "W7Y/PA-068", "TITLE": "11347", "REGION": "Park", "ASSOCIATION": "USA - Wyoming", "POINTS": "8", "BONUSPOINTS": "3"}}, {"type": "Feature", "geometry": {"type": "Point", "coordinates": [-109.7164, 44.6171]}, "properties": {"NAME": "W7Y/PA-069", "TITLE": "11344", "REGION": "Park", "ASSOCIATION": "USA - Wyoming", "POINTS": "8", "BONUSPOINTS": "3"}}, {"type": "Feature", "geometry": {"type": "Point", "coordinates": [-109.901, 44.862]}, "properties": {"NAME": "W7Y/PA-070", "TITLE": "Closed Benchmark", "REGION": "Park", "ASSOCIATION": "USA - Wyoming", "POINTS": "8", "BONUSPOINTS": "3"}}, {"type": "Feature", "geometry": {"type": "Point", "coordinates": [-109.2611, 44.2713]}, "properties": {"NAME": "W7Y/PA-071", "TITLE": "Marquette No. 2 Benchmark", "REGION": "Park", "ASSOCIATION": "USA - Wyoming", "POINTS": "8", "BONUSPOINTS": "3"}}, {"type": "Feature", "geometry": {"type": "Point", "coordinates": [-109.7048, 43.9005]}, "properties": {"NAME": "W7Y/PA-072", "TITLE": "Shoshone Plateau", "REGION": "Park", "ASSOCIATION": "USA - Wyoming", "POINTS": "8", "BONUSPOINTS": "3"}}, {"type": "Feature", "geometry": {"type": "Point", "coordinates": [-109.8392, 44.6414]}, "properties": {"NAME": "W7Y/PA-073", "TITLE": "Land Mountain", "REGION": "Park", "ASSOCIATION": "USA - Wyoming", "POINTS": "8", "BONUSPOINTS": "3"}}, {"type": "Feature", "geometry": {"type": "Point", "coordinates": [-109.8045, 44.2615]}, "properties": {"NAME": "W7Y/PA-074", "TITLE": "11260", "REGION": "Park", "ASSOCIATION": "USA - Wyoming", "POINTS": "8", "BONUSPOINTS": "3"}}, {"type": "Feature", "geometry": {"type": "Point", "coordinates": [-109.8592, 44.8655]}, "properties": {"NAME": "W7Y/PA-075", "TITLE": "11255", "REGION": "Park", "ASSOCIATION": "USA - Wyoming", "POINTS": "8", "BONUSPOINTS": "3"}}, {"type": "Feature", "geometry": {"type": "Point", "coordinates": [-109.7599, 44.2485]}, "properties": {"NAME": "W7Y/PA-076", "TITLE": "11253", "REGION": "Park", "ASSOCIATION": "USA - Wyoming", "POINTS": "8", "BONUSPOINTS": "3"}}, {"type": "Feature", "geometry": {"type": "Point", "coordinates": [-109.8425, 44.5247]}, "properties": {"NAME": "W7Y/PA-077", "TITLE": "Sleeping Giant Mountain", "REGION": "Park", "ASSOCIATION": "USA - Wyoming", "POINTS": "8", "BONUSPOINTS": "3"}}, {"type": "Feature", "geometry": {"type": "Point", "coordinates": [-109.2099, 43.9549]}, "properties": {"NAME": "W7Y/PA-078", "TITLE": "11172", "REGION": "Park", "ASSOCIATION": "USA - Wyoming", "POINTS": "8", "BONUSPOINTS": "3"}}, {"type": "Feature", "geometry": {"type": "Point", "coordinates": [-110.0717, 44.342]}, "properties": {"NAME": "W7Y/PA-079", "TITLE": "Schutz, Mount", "REGION": "Park", "ASSOCIATION": "USA - Wyoming", "POINTS": "8", "BONUSPOINTS": "3"}}, {"type": "Feature", "geometry": {"type": "Point", "coordinates": [-109.8168, 44.644]}, "properties": {"NAME": "W7Y/PA-080", "TITLE": "11130", "REGION": "Park", "ASSOCIATION": "USA - Wyoming", "POINTS": "8", "BONUSPOINTS": "3"}}, {"type": "Feature", "geometry": {"type": "Point", "coordinates": [-109.7446, 44.6311]}, "properties": {"NAME": "W7Y/PA-081", "TITLE": "11128", "REGION": "Park", "ASSOCIATION": "USA - Wyoming", "POINTS": "8", "BONUSPOINTS": "3"}}, {"type": "Feature", "geometry": {"type": "Point", "coordinates": [-109.7887, 44.694]}, "properties": {"NAME": "W7Y/PA-082", "TITLE": "11125", "REGION": "Park", "ASSOCIATION": "USA - Wyoming", "POINTS": "8", "BONUSPOINTS": "3"}}, {"type": "Feature", "geometry": {"type": "Point", "coordinates": [-109.9802, 44.2005]}, "properties": {"NAME": "W7Y/PA-083", "TITLE": "Trident Plateau", "REGION": "Park", "ASSOCIATION": "USA - Wyoming", "POINTS": "8", "BONUSPOINTS": "3"}}, {"type": "Feature", "geometry": {"type": "Point", "coordinates": [-109.7145, 43.9251]}, "properties": {"NAME": "W7Y/PA-084", "TITLE": "11109", "REGION": "Park", "ASSOCIATION": "USA - Wyoming", "POINTS": "8", "BONUSPOINTS": "3"}}, {"type": "Feature", "geometry": {"type": "Point", "coordinates": [-109.7992, 44.5592]}, "properties": {"NAME": "W7Y/PA-085", "TITLE": "11109", "REGION": "Park", "ASSOCIATION": "USA - Wyoming", "POINTS": "8", "BONUSPOINTS": "3"}}, {"type": "Feature", "geometry": {"type": "Point", "coordinates": [-109.7482, 44.6481]}, "properties": {"NAME": "W7Y/PA-086", "TITLE": "11108", "REGION": "Park", "ASSOCIATION": "USA - Wyoming", "POINTS": "8", "BONUSPOINTS": "3"}}, {"type": "Feature", "geometry": {"type": "Point", "coordinates": [-109.5954, 44.562]}, "properties": {"NAME": "W7Y/PA-087", "TITLE": "11098", "REGION": "Park", "ASSOCIATION": "USA - Wyoming", "POINTS": "8", "BONUSPOINTS": "3"}}, {"type": "Feature", "geometry": {"type": "Point", "coordinates": [-109.4852, 44.9726]}, "properties": {"NAME": "W7Y/PA-088", "TITLE": "11095", "REGION": "Park", "ASSOCIATION": "USA - Wyoming", "POINTS": "8", "BONUSPOINTS": "3"}}, {"type": "Feature", "geometry": {"type": "Point", "coordinates": [-109.9431, 44.0615]}, "properties": {"NAME": "W7Y/PA-089", "TITLE": "Thorofare Plateau", "REGION": "Park", "ASSOCIATION": "USA - Wyoming", "POINTS": "8", "BONUSPOINTS": "3"}}, {"type": "Feature", "geometry": {"type": "Point", "coordinates": [-110.0552, 44.2962]}, "properties": {"NAME": "W7Y/PA-090", "TITLE": "Table Mountain", "REGION": "Park", "ASSOCIATION": "USA - Wyoming", "POINTS": "8", "BONUSPOINTS": "3"}}, {"type": "Feature", "geometry": {"type": "Point", "coordinates": [-109.8083, 44.8523]}, "properties": {"NAME": "W7Y/PA-091", "TITLE": "Hurricane Mesa", "REGION": "Park", "ASSOCIATION": "USA - Wyoming", "POINTS": "8", "BONUSPOINTS": "3"}}, {"type": "Feature", "geometry": {"type": "Point", "coordinates": [-109.6878, 44.147]}, "properties": {"NAME": "W7Y/PA-092", "TITLE": "11063", "REGION": "Park", "ASSOCIATION": "USA - Wyoming", "POINTS": "8", "BONUSPOINTS": "3"}}, {"type": "Feature", "geometry": {"type": "Point", "coordinates": [-109.9294, 44.6662]}, "properties": {"NAME": "W7Y/PA-093", "TITLE": "Pollux Peak", "REGION": "Park", "ASSOCIATION": "USA - Wyoming", "POINTS": "8", "BONUSPOINTS": "3"}}, {"type": "Feature", "geometry": {"type": "Point", "coordinates": [-109.3743, 44.0498]}, "properties": {"NAME": "W7Y/PA-094", "TITLE": "Irish Rock", "REGION": "Park", "ASSOCIATION": "USA - Wyoming", "POINTS": "8", "BONUSPOINTS": "3"}}, {"type": "Feature", "geometry": {"type": "Point", "coordinates": [-110.0679, 44.3759]}, "properties": {"NAME": "W7Y/PA-095", "TITLE": "Atkins Peak", "REGION": "Park", "ASSOCIATION": "USA - Wyoming", "POINTS": "8", "BONUSPOINTS": "3"}}, {"type": "Feature", "geometry": {"type": "Point", "coordinates": [-109.9957, 44.9714]}, "properties": {"NAME": "W7Y/PA-096", "TITLE": "Ampitheater Mountain", "REGION": "Park", "ASSOCIATION": "USA - Wyoming", "POINTS": "8", "BONUSPOINTS": "3"}}, {"type": "Feature", "geometry": {"type": "Point", "coordinates": [-109.7483, 44.1311]}, "properties": {"NAME": "W7Y/PA-097", "TITLE": "Kingfisher Peak", "REGION": "Park", "ASSOCIATION": "USA - Wyoming", "POINTS": "8", "BONUSPOINTS": "3"}}, {"type": "Feature", "geometry": {"type": "Point", "coordinates": [-109.8882, 44.5609]}, "properties": {"NAME": "W7Y/PA-098", "TITLE": "11020", "REGION": "Park", "ASSOCIATION": "USA - Wyoming", "POINTS": "8", "BONUSPOINTS": "3"}}, {"type": "Feature", "geometry": {"type": "Point", "coordinates": [-109.8751, 44.5733]}, "properties": {"NAME": "W7Y/PA-099", "TITLE": "Whirlwind Peak", "REGION": "Park", "ASSOCIATION": "USA - Wyoming", "POINTS": "8", "BONUSPOINTS": "3"}}, {"type": "Feature", "geometry": {"type": "Point", "coordinates": [-109.872, 44.9294]}, "properties": {"NAME": "W7Y/PA-100", "TITLE": "10979", "REGION": "Park", "ASSOCIATION": "USA - Wyoming", "POINTS": "8", "BONUSPOINTS": "3"}}, {"type": "Feature", "geometry": {"type": "Point", "coordinates": [-109.7843, 44.2987]}, "properties": {"NAME": "W7Y/PA-101", "TITLE": "10965", "REGION": "Park", "ASSOCIATION": "USA - Wyoming", "POINTS": "8", "BONUSPOINTS": "3"}}, {"type": "Feature", "geometry": {"type": "Point", "coordinates": [-109.9224, 44.3721]}, "properties": {"NAME": "W7Y/PA-102", "TITLE": "Howell Mountain", "REGION": "Park", "ASSOCIATION": "USA - Wyoming", "POINTS": "8", "BONUSPOINTS": "3"}}, {"type": "Feature", "geometry": {"type": "Point", "coordinates": [-109.9352, 44.6308]}, "properties": {"NAME": "W7Y/PA-103", "TITLE": "Notch Mountain", "REGION": "Park", "ASSOCIATION": "USA - Wyoming", "POINTS": "8", "BONUSPOINTS": "3"}}, {"type": "Feature", "geometry": {"type": "Point", "coordinates": [-109.7768, 44.2008]}, "properties": {"NAME": "W7Y/PA-104", "TITLE": "10945", "REGION": "Park", "ASSOCIATION": "USA - Wyoming", "POINTS": "8", "BONUSPOINTS": "3"}}, {"type": "Feature", "geometry": {"type": "Point", "coordinates": [-110.0319, 44.9751]}, "properties": {"NAME": "W7Y/PA-105", "TITLE": "Abiathar Peak", "REGION": "Park", "ASSOCIATION": "USA - Wyoming", "POINTS": "8", "BONUSPOINTS": "3"}}, {"type": "Feature", "geometry": {"type": "Point", "coordinates": [-109.8534, 44.7775]}, "properties": {"NAME": "W7Y/PA-106", "TITLE": "Indian Peak", "REGION": "Park", "ASSOCIATION": "USA - Wyoming", "POINTS": "8", "BONUSPOINTS": "3"}}, {"type": "Feature", "geometry": {"type": "Point", "coordinates": [-109.5843, 44.5558]}, "properties": {"NAME": "W7Y/PA-107", "TITLE": "10912", "REGION": "Park", "ASSOCIATION": "USA - Wyoming", "POINTS": "8", "BONUSPOINTS": "3"}}, {"type": "Feature", "geometry": {"type": "Point", "coordinates": [-109.7797, 44.2132]}, "properties": {"NAME": "W7Y/PA-108", "TITLE": "10903", "REGION": "Park", "ASSOCIATION": "USA - Wyoming", "POINTS": "8", "BONUSPOINTS": "3"}}, {"type": "Feature", "geometry": {"type": "Point", "coordinates": [-109.9281, 44.6306]}, "properties": {"NAME": "W7Y/PA-109", "TITLE": "10900", "REGION": "Park", "ASSOCIATION": "USA - Wyoming", "POINTS": "8", "BONUSPOINTS": "3"}}, {"type": "Feature", "geometry": {"type": "Point", "coordinates": [-109.9548, 44.6568]}, "properties": {"NAME": "W7Y/PA-110", "TITLE": "Castor Peak", "REGION": "Park", "ASSOCIATION": "USA - Wyoming", "POINTS": "8", "BONUSPOINTS": "3"}}, {"type": "Feature", "geometry": {"type": "Point", "coordinates": [-109.8865, 44.8659]}, "properties": {"NAME": "W7Y/PA-111", "TITLE": "10811", "REGION": "Park", "ASSOCIATION": "USA - Wyoming", "POINTS": "8", "BONUSPOINTS": "3"}}, {"type": "Feature", "geometry": {"type": "Point", "coordinates": [-110.109, 44.4071]}, "properties": {"NAME": "W7Y/PA-112", "TITLE": "Langford, Mount", "REGION": "Park", "ASSOCIATION": "USA - Wyoming", "POINTS": "8", "BONUSPOINTS": "3"}}, {"type": "Feature", "geometry": {"type": "Point", "coordinates": [-109.9286, 44.9343]}, "properties": {"NAME": "W7Y/PA-113", "TITLE": "10774", "REGION": "Park", "ASSOCIATION": "USA - Wyoming", "POINTS": "8", "BONUSPOINTS": "3"}}, {"type": "Feature", "geometry": {"type": "Point", "coordinates": [-110.0957, 44.5704]}, "properties": {"NAME": "W7Y/PA-114", "TITLE": "10773", "REGION": "Park", "ASSOCIATION": "USA - Wyoming", "POINTS": "8", "BONUSPOINTS": "3"}}, {"type": "Feature", "geometry": {"type": "Point", "coordinates": [-110.0381, 44.0353]}, "properties": {"NAME": "W7Y/PA-115", "TITLE": "10761", "REGION": "Park", "ASSOCIATION": "USA - Wyoming", "POINTS": "8", "BONUSPOINTS": "3"}}, {"type": "Feature", "geometry": {"type": "Point", "coordinates": [-109.906, 44.6335]}, "properties": {"NAME": "W7Y/PA-116", "TITLE": "10740", "REGION": "Park", "ASSOCIATION": "USA - Wyoming", "POINTS": "8", "BONUSPOINTS": "3"}}, {"type": "Feature", "geometry": {"type": "Point", "coordinates": [-109.8757, 44.5266]}, "properties": {"NAME": "W7Y/PA-117", "TITLE": "10740", "REGION": "Park", "ASSOCIATION": "USA - Wyoming", "POINTS": "8", "BONUSPOINTS": "3"}}, {"type": "Feature", "geometry": {"type": "Point", "coordinates": [-109.4222, 44.2356]}, "properties": {"NAME": "W7Y/PA-118", "TITLE": "10725", "REGION": "Park", "ASSOCIATION": "USA - Wyoming", "POINTS": "8", "BONUSPOINTS": "3"}}, {"type": "Feature", "geometry": {"type": "Point", "coordinates": [-109.7601, 44.3356]}, "properties": {"NAME": "W7Y/PA-119", "TITLE": "10725", "REGION": "Park", "ASSOCIATION": "USA - Wyoming", "POINTS": "8", "BONUSPOINTS": "3"}}, {"type": "Feature", "geometry": {"type": "Point", "coordinates": [-109.8741, 44.8651]}, "properties": {"NAME": "W7Y/PA-120", "TITLE": "10710", "REGION": "Park", "ASSOCIATION": "USA - Wyoming", "POINTS": "8", "BONUSPOINTS": "3"}}, {"type": "Feature", "geometry": {"type": "Point", "coordinates": [-109.864, 44.672]}, "properties": {"NAME": "W7Y/PA-121", "TITLE": "10710", "REGION": "Park", "ASSOCIATION": "USA - Wyoming", "POINTS": "8", "BONUSPOINTS": "3"}}, {"type": "Feature", "geometry": {"type": "Point", "coordinates": [-110.1096, 44.3016]}, "properties": {"NAME": "W7Y/PA-122", "TITLE": "Colter Peak", "REGION": "Park", "ASSOCIATION": "USA - Wyoming", "POINTS": "8", "BONUSPOINTS": "3"}}, {"type": "Feature", "geometry": {"type": "Point", "coordinates": [-109.4442, 44.9413]}, "properties": {"NAME": "W7Y/PA-123", "TITLE": "Tibbs Butte", "REGION": "Park", "ASSOCIATION": "USA - Wyoming", "POINTS": "8", "BONUSPOINTS": "3"}}, {"type": "Feature", "geometry": {"type": "Point", "coordinates": [-109.9842, 44.7105]}, "properties": {"NAME": "W7Y/PA-124", "TITLE": "Saddle Mountain", "REGION": "Park", "ASSOCIATION": "USA - Wyoming", "POINTS": "8", "BONUSPOINTS": "3"}}, {"type": "Feature", "geometry": {"type": "Point", "coordinates": [-109.9414, 44.6085]}, "properties": {"NAME": "W7Y/PA-125", "TITLE": "10660", "REGION": "Park", "ASSOCIATION": "USA - Wyoming", "POINTS": "8", "BONUSPOINTS": "3"}}, {"type": "Feature", "geometry": {"type": "Point", "coordinates": [-109.8873, 44.1583]}, "properties": {"NAME": "W7Y/PA-126", "TITLE": "Petrified Ridge West", "REGION": "Park", "ASSOCIATION": "USA - Wyoming", "POINTS": "8", "BONUSPOINTS": "3"}}, {"type": "Feature", "geometry": {"type": "Point", "coordinates": [-110.1466, 44.4133]}, "properties": {"NAME": "W7Y/PA-127", "TITLE": "Doane, Mount", "REGION": "Park", "ASSOCIATION": "USA - Wyoming", "POINTS": "8", "BONUSPOINTS": "3"}}, {"type": "Feature", "geometry": {"type": "Point", "coordinates": [-110.103, 44.5239]}, "properties": {"NAME": "W7Y/PA-128", "TITLE": "Silvertip Peak", "REGION": "Park", "ASSOCIATION": "USA - Wyoming", "POINTS": "8", "BONUSPOINTS": "3"}}, {"type": "Feature", "geometry": {"type": "Point", "coordinates": [-109.7428, 43.9684]}, "properties": {"NAME": "W7Y/PA-129", "TITLE": "10634", "REGION": "Park", "ASSOCIATION": "USA - Wyoming", "POINTS": "8", "BONUSPOINTS": "3"}}, {"type": "Feature", "geometry": {"type": "Point", "coordinates": [-110.0269, 44.4311]}, "properties": {"NAME": "W7Y/PA-130", "TITLE": "Reservation Peak", "REGION": "Park", "ASSOCIATION": "USA - Wyoming", "POINTS": "8", "BONUSPOINTS": "3"}}, {"type": "Feature", "geometry": {"type": "Point", "coordinates": [-109.8149, 44.5946]}, "properties": {"NAME": "W7Y/PA-131", "TITLE": "10622", "REGION": "Park", "ASSOCIATION": "USA - Wyoming", "POINTS": "8", "BONUSPOINTS": "3"}}, {"type": "Feature", "geometry": {"type": "Point", "coordinates": [-109.9673, 44.6288]}, "properties": {"NAME": "W7Y/PA-132", "TITLE": "10597", "REGION": "Park", "ASSOCIATION": "USA - Wyoming", "POINTS": "8", "BONUSPOINTS": "3"}}, {"type": "Feature", "geometry": {"type": "Point", "coordinates": [-110.1399, 44.4896]}, "properties": {"NAME": "W7Y/PA-133", "TITLE": "Avalanche Peak", "REGION": "Park", "ASSOCIATION": "USA - Wyoming", "POINTS": "8", "BONUSPOINTS": "3"}}, {"type": "Feature", "geometry": {"type": "Point", "coordinates": [-109.8669, 44.7348]}, "properties": {"NAME": "W7Y/PA-134", "TITLE": "Hoodoo Peak", "REGION": "Park", "ASSOCIATION": "USA - Wyoming", "POINTS": "8", "BONUSPOINTS": "3"}}, {"type": "Feature", "geometry": {"type": "Point", "coordinates": [-109.4291, 44.8808]}, "properties": {"NAME": "W7Y/PA-135", "TITLE": "Thief Benchmark", "REGION": "Park", "ASSOCIATION": "USA - Wyoming", "POINTS": "8", "BONUSPOINTS": "3"}}, {"type": "Feature", "geometry": {"type": "Point", "coordinates": [-110.0562, 44.9036]}, "properties": {"NAME": "W7Y/PA-136", "TITLE": "Thunderer, The", "REGION": "Park", "ASSOCIATION": "USA - Wyoming", "POINTS": "8", "BONUSPOINTS": "3"}}, {"type": "Feature", "geometry": {"type": "Point", "coordinates": [-110.1015, 44.3202]}, "properties": {"NAME": "W7Y/PA-137", "TITLE": "10540", "REGION": "Park", "ASSOCIATION": "USA - Wyoming", "POINTS": "8", "BONUSPOINTS": "3"}}, {"type": "Feature", "geometry": {"type": "Point", "coordinates": [-110.0851, 44.5258]}, "properties": {"NAME": "W7Y/PA-138", "TITLE": "10540", "REGION": "Park", "ASSOCIATION": "USA - Wyoming", "POINTS": "8", "BONUSPOINTS": "3"}}, {"type": "Feature", "geometry": {"type": "Point", "coordinates": [-109.8276, 43.9487]}, "properties": {"NAME": "W7Y/PA-139", "TITLE": "10530", "REGION": "Park", "ASSOCIATION": "USA - Wyoming", "POINTS": "8", "BONUSPOINTS": "3"}}, {"type": "Feature", "geometry": {"type": "Point", "coordinates": [-109.6135, 44.9786]}, "properties": {"NAME": "W7Y/PA-140", "TITLE": "10522", "REGION": "Park", "ASSOCIATION": "USA - Wyoming", "POINTS": "8", "BONUSPOINTS": "3"}}, {"type": "Feature", "geometry": {"type": "Point", "coordinates": [-110.0647, 44.6054]}, "properties": {"NAME": "W7Y/PA-141", "TITLE": "Pyramid Peak", "REGION": "Park", "ASSOCIATION": "USA - Wyoming", "POINTS": "8", "BONUSPOINTS": "3"}}, {"type": "Feature", "geometry": {"type": "Point", "coordinates": [-109.8793, 44.652]}, "properties": {"NAME": "W7Y/PA-142", "TITLE": "10500", "REGION": "Park", "ASSOCIATION": "USA - Wyoming", "POINTS": "8", "BONUSPOINTS": "3"}}, {"type": "Feature", "geometry": {"type": "Point", "coordinates": [-109.97, 44.9728]}, "properties": {"NAME": "W7Y/PA-143", "TITLE": "10500", "REGION": "Park", "ASSOCIATION": "USA - Wyoming", "POINTS": "8", "BONUSPOINTS": "3"}}, {"type": "Feature", "geometry": {"type": "Point", "coordinates": [-110.1272, 44.4771]}, "properties": {"NAME": "W7Y/PA-144", "TITLE": "Hoyt Peak", "REGION": "Park", "ASSOCIATION": "USA - Wyoming", "POINTS": "8", "BONUSPOINTS": "3"}}, {"type": "Feature", "geometry": {"type": "Point", "coordinates": [-109.8917, 44.1025]}, "properties": {"NAME": "W7Y/PA-145", "TITLE": "10499", "REGION": "Park", "ASSOCIATION": "USA - Wyoming", "POINTS": "8", "BONUSPOINTS": "3"}}, {"type": "Feature", "geometry": {"type": "Point", "coordinates": [-110.1218, 44.3873]}, "properties": {"NAME": "W7Y/PA-146", "TITLE": "10473", "REGION": "Park", "ASSOCIATION": "USA - Wyoming", "POINTS": "8", "BONUSPOINTS": "3"}}, {"type": "Feature", "geometry": {"type": "Point", "coordinates": [-109.9981, 44.4617]}, "properties": {"NAME": "W7Y/PA-147", "TITLE": "Canfield Benchmark", "REGION": "Park", "ASSOCIATION": "USA - Wyoming", "POINTS": "8", "BONUSPOINTS": "3"}}, {"type": "Feature", "geometry": {"type": "Point", "coordinates": [-110.8847, 44.9602]}, "properties": {"NAME": "W7Y/PA-148", "TITLE": "Joseph Peak", "REGION": "Park", "ASSOCIATION": "USA - Wyoming", "POINTS": "8", "BONUSPOINTS": "3"}}, {"type": "Feature", "geometry": {"type": "Point", "coordinates": [-110.0882, 44.9754]}, "properties": {"NAME": "W7Y/PA-149", "TITLE": "Barronette Peak", "REGION": "Park", "ASSOCIATION": "USA - Wyoming", "POINTS": "8", "BONUSPOINTS": "3"}}, {"type": "Feature", "geometry": {"type": "Point", "coordinates": [-109.4746, 44.529]}, "properties": {"NAME": "W7Y/PA-150", "TITLE": "Jim Mountain", "REGION": "Park", "ASSOCIATION": "USA - Wyoming", "POINTS": "8", "BONUSPOINTS": "3"}}, {"type": "Feature", "geometry": {"type": "Point", "coordinates": [-110.0312, 44.3938]}, "properties": {"NAME": "W7Y/PA-151", "TITLE": "10428", "REGION": "Park", "ASSOCIATION": "USA - Wyoming", "POINTS": "8", "BONUSPOINTS": "3"}}, {"type": "Feature", "geometry": {"type": "Point", "coordinates": [-110.0246, 44.3759]}, "properties": {"NAME": "W7Y/PA-152", "TITLE": "10380", "REGION": "Park", "ASSOCIATION": "USA - Wyoming", "POINTS": "8", "BONUSPOINTS": "3"}}, {"type": "Feature", "geometry": {"type": "Point", "coordinates": [-110.1584, 44.4017]}, "properties": {"NAME": "W7Y/PA-153", "TITLE": "Stevenson, Mount", "REGION": "Park", "ASSOCIATION": "USA - Wyoming", "POINTS": "8", "BONUSPOINTS": "3"}}, {"type": "Feature", "geometry": {"type": "Point", "coordinates": [-110.0178, 44.9498]}, "properties": {"NAME": "W7Y/PA-154", "TITLE": "10340", "REGION": "Park", "ASSOCIATION": "USA - Wyoming", "POINTS": "8", "BONUSPOINTS": "3"}}, {"type": "Feature", "geometry": {"type": "Point", "coordinates": [-110.8555, 44.8189]}, "properties": {"NAME": "W7Y/PA-155", "TITLE": "Holmes, Mount", "REGION": "Park", "ASSOCIATION": "USA - Wyoming", "POINTS": "8", "BONUSPOINTS": "3"}}, {"type": "Feature", "geometry": {"type": "Point", "coordinates": [-110.8719, 44.8922]}, "properties": {"NAME": "W7Y/PA-156", "TITLE": "Bannock Peak", "REGION": "Park", "ASSOCIATION": "USA - Wyoming", "POINTS": "8", "BONUSPOINTS": "3"}}, {"type": "Feature", "geometry": {"type": "Point", "coordinates": [-110.0831, 45.001]}, "properties": {"NAME": "W7Y/PA-157", "TITLE": "10270", "REGION": "Park", "ASSOCIATION": "USA - Wyoming", "POINTS": "8", "BONUSPOINTS": "3"}}, {"type": "Feature", "geometry": {"type": "Point", "coordinates": [-110.0286, 44.5009]}, "properties": {"NAME": "W7Y/PA-158", "TITLE": "Cody Peak", "REGION": "Park", "ASSOCIATION": "USA - Wyoming", "POINTS": "8", "BONUSPOINTS": "3"}}, {"type": "Feature", "geometry": {"type": "Point", "coordinates": [-109.5927, 44.7914]}, "properties": {"NAME": "W7Y/PA-159", "TITLE": "Windy Mountain", "REGION": "Park", "ASSOCIATION": "USA - Wyoming", "POINTS": "8", "BONUSPOINTS": "3"}}, {"type": "Feature", "geometry": {"type": "Point", "coordinates": [-110.082, 44.4916]}, "properties": {"NAME": "W7Y/PA-160", "TITLE": "10260", "REGION": "Park", "ASSOCIATION": "USA - Wyoming", "POINTS": "8", "BONUSPOINTS": "3"}}, {"type": "Feature", "geometry": {"type": "Point", "coordinates": [-109.4573, 44.9053]}, "properties": {"NAME": "W7Y/PA-161", "TITLE": "Sawtooth Mountain", "REGION": "Park", "ASSOCIATION": "USA - Wyoming", "POINTS": "8", "BONUSPOINTS": "3"}}, {"type": "Feature", "geometry": {"type": "Point", "coordinates": [-110.1431, 44.452]}, "properties": {"NAME": "W7Y/PA-162", "TITLE": "Top Notch Peak", "REGION": "Park", "ASSOCIATION": "USA - Wyoming", "POINTS": "8", "BONUSPOINTS": "3"}}, {"type": "Feature", "geometry": {"type": "Point", "coordinates": [-110.4339, 44.7975]}, "properties": {"NAME": "W7Y/PA-163", "TITLE": "Washburn, Mount", "REGION": "Park", "ASSOCIATION": "USA - Wyoming", "POINTS": "8", "BONUSPOINTS": "3"}}, {"type": "Feature", "geometry": {"type": "Point", "coordinates": [-109.7286, 44.4088]}, "properties": {"NAME": "W7Y/PA-164", "TITLE": "Clayton Mountain", "REGION": "Park", "ASSOCIATION": "USA - Wyoming", "POINTS": "8", "BONUSPOINTS": "3"}}, {"type": "Feature", "geometry": {"type": "Point", "coordinates": [-110.8603, 44.9027]}, "properties": {"NAME": "W7Y/PA-165", "TITLE": "Quadrant Mountain", "REGION": "Park", "ASSOCIATION": "USA - Wyoming", "POINTS": "8", "BONUSPOINTS": "3"}}, {"type": "Feature", "geometry": {"type": "Point", "coordinates": [-109.8927, 44.7234]}, "properties": {"NAME": "W7Y/PA-166", "TITLE": "Parker Peak", "REGION": "Park", "ASSOCIATION": "USA - Wyoming", "POINTS": "8", "BONUSPOINTS": "3"}}, {"type": "Feature", "geometry": {"type": "Point", "coordinates": [-109.9515, 44.8236]}, "properties": {"NAME": "W7Y/PA-167", "TITLE": "10180", "REGION": "Park", "ASSOCIATION": "USA - Wyoming", "POINTS": "8", "BONUSPOINTS": "3"}}, {"type": "Feature", "geometry": {"type": "Point", "coordinates": [-110.0035, 44.5354]}, "properties": {"NAME": "W7Y/PA-168", "TITLE": "Giant Castle Mountain", "REGION": "Park", "ASSOCIATION": "USA - Wyoming", "POINTS": "8", "BONUSPOINTS": "3"}}, {"type": "Feature", "geometry": {"type": "Point", "coordinates": [-110.1704, 44.5475]}, "properties": {"NAME": "W7Y/PA-169", "TITLE": "Chittenden, Mount", "REGION": "Park", "ASSOCIATION": "USA - Wyoming", "POINTS": "8", "BONUSPOINTS": "3"}}, {"type": "Feature", "geometry": {"type": "Point", "coordinates": [-109.9548, 45.0011]}, "properties": {"NAME": "W7Y/PA-170", "TITLE": "Republic Mountain", "REGION": "Park", "ASSOCIATION": "USA - Wyoming", "POINTS": "8", "BONUSPOINTS": "3"}}, {"type": "Feature", "geometry": {"type": "Point", "coordinates": [-109.8407, 44.1455]}, "properties": {"NAME": "W7Y/PA-171", "TITLE": "10077", "REGION": "Park", "ASSOCIATION": "USA - Wyoming", "POINTS": "8", "BONUSPOINTS": "3"}}, {"type": "Feature", "geometry": {"type": "Point", "coordinates": [-110.846, 44.8656]}, "properties": {"NAME": "W7Y/PA-172", "TITLE": "Antler Peak", "REGION": "Park", "ASSOCIATION": "USA - Wyoming", "POINTS": "8", "BONUSPOINTS": "3"}}, {"type": "Feature", "geometry": {"type": "Point", "coordinates": [-110.0026, 44.2631]}, "properties": {"NAME": "W7Y/PA-173", "TITLE": "10060", "REGION": "Park", "ASSOCIATION": "USA - Wyoming", "POINTS": "8", "BONUSPOINTS": "3"}}, {"type": "Feature", "geometry": {"type": "Point", "coordinates": [-109.5635, 44.9335]}, "properties": {"NAME": "W7Y/PA-174", "TITLE": "10060", "REGION": "Park", "ASSOCIATION": "USA - Wyoming", "POINTS": "8", "BONUSPOINTS": "3"}}, {"type": "Feature", "geometry": {"type": "Point", "coordinates": [-109.797, 44.9022]}, "properties": {"NAME": "W7Y/PA-175", "TITLE": "Squaw Peak", "REGION": "Park", "ASSOCIATION": "USA - Wyoming", "POINTS": "8", "BONUSPOINTS": "3"}}, {"type": "Feature", "geometry": {"type": "Point", "coordinates": [-110.1454, 44.9448]}, "properties": {"NAME": "W7Y/PA-176", "TITLE": "Hornaday, Mount", "REGION": "Park", "ASSOCIATION": "USA - Wyoming", "POINTS": "8", "BONUSPOINTS": "3"}}, {"type": "Feature", "geometry": {"type": "Point", "coordinates": [-110.8503, 44.836]}, "properties": {"NAME": "W7Y/PA-177", "TITLE": "9996", "REGION": "Park", "ASSOCIATION": "USA - Wyoming", "POINTS": "6", "BONUSPOINTS": "3"}}, {"type": "Feature", "geometry": {"type": "Point", "coordinates": [-110.0222, 44.5353]}, "properties": {"NAME": "W7Y/PA-178", "TITLE": "9980", "REGION": "Park", "ASSOCIATION": "USA - Wyoming", "POINTS": "6", "BONUSPOINTS": "3"}}, {"type": "Feature", "geometry": {"type": "Point", "coordinates": [-109.853, 44.8291]}, "properties": {"NAME": "W7Y/PA-179", "TITLE": "9980", "REGION": "Park", "ASSOCIATION": "USA - Wyoming", "POINTS": "6", "BONUSPOINTS": "3"}}, {"type": "Feature", "geometry": {"type": "Point", "coordinates": [-109.374, 44.6599]}, "properties": {"NAME": "W7Y/PA-180", "TITLE": "Pat O'Hara Mountain", "REGION": "Park", "ASSOCIATION": "USA - Wyoming", "POINTS": "6", "BONUSPOINTS": "3"}}, {"type": "Feature", "geometry": {"type": "Point", "coordinates": [-110.882, 44.8501]}, "properties": {"NAME": "W7Y/PA-181", "TITLE": "Three Rivers Peak", "REGION": "Park", "ASSOCIATION": "USA - Wyoming", "POINTS": "6", "BONUSPOINTS": "3"}}, {"type": "Feature", "geometry": {"type": "Point", "coordinates": [-110.4693, 44.7824]}, "properties": {"NAME": "W7Y/PA-182", "TITLE": "Dunraven Peak", "REGION": "Park", "ASSOCIATION": "USA - Wyoming", "POINTS": "6", "BONUSPOINTS": "3"}}, {"type": "Feature", "geometry": {"type": "Point", "coordinates": [-110.9452, 44.8849]}, "properties": {"NAME": "W7Y/PA-183", "TITLE": "Crowfoot Ridge North", "REGION": "Park", "ASSOCIATION": "USA - Wyoming", "POINTS": "6", "BONUSPOINTS": "3"}}, {"type": "Feature", "geometry": {"type": "Point", "coordinates": [-109.9056, 44.4295]}, "properties": {"NAME": "W7Y/PA-184", "TITLE": "9863", "REGION": "Park", "ASSOCIATION": "USA - Wyoming", "POINTS": "6", "BONUSPOINTS": "3"}}, {"type": "Feature", "geometry": {"type": "Point", "coordinates": [-110.5009, 44.784]}, "properties": {"NAME": "W7Y/PA-185", "TITLE": "9790", "REGION": "Park", "ASSOCIATION": "USA - Wyoming", "POINTS": "6", "BONUSPOINTS": "3"}}, {"type": "Feature", "geometry": {"type": "Point", "coordinates": [-109.832, 44.752]}, "properties": {"NAME": "W7Y/PA-186", "TITLE": "9780", "REGION": "Park", "ASSOCIATION": "USA - Wyoming", "POINTS": "6", "BONUSPOINTS": "3"}}, {"type": "Feature", "geometry": {"type": "Point", "coordinates": [-110.5753, 44.8426]}, "properties": {"NAME": "W7Y/PA-187", "TITLE": "Cook Peak", "REGION": "Park", "ASSOCIATION": "USA - Wyoming", "POINTS": "6", "BONUSPOINTS": "3"}}, {"type": "Feature", "geometry": {"type": "Point", "coordinates": [-109.6718, 44.765]}, "properties": {"NAME": "W7Y/PA-188", "TITLE": "9740", "REGION": "Park", "ASSOCIATION": "USA - Wyoming", "POINTS": "6", "BONUSPOINTS": "3"}}, {"type": "Feature", "geometry": {"type": "Point", "coordinates": [-109.6977, 44.5737]}, "properties": {"NAME": "W7Y/PA-189", "TITLE": "9740", "REGION": "Park", "ASSOCIATION": "USA - Wyoming", "POINTS": "6", "BONUSPOINTS": "3"}}, {"type": "Feature", "geometry": {"type": "Point", "coordinates": [-110.1805, 44.3851]}, "properties": {"NAME": "W7Y/PA-190", "TITLE": "9740", "REGION": "Park", "ASSOCIATION": "USA - Wyoming", "POINTS": "6", "BONUSPOINTS": "3"}}, {"type": "Feature", "geometry": {"type": "Point", "coordinates": [-109.5135, 44.6637]}, "properties": {"NAME": "W7Y/PA-191", "TITLE": "9672", "REGION": "Park", "ASSOCIATION": "USA - Wyoming", "POINTS": "6", "BONUSPOINTS": "3"}}, {"type": "Feature", "geometry": {"type": "Point", "coordinates": [-110.7666, 44.9903]}, "properties": {"NAME": "W7Y/PA-192", "TITLE": "Sepulcher Mountain", "REGION": "Park", "ASSOCIATION": "USA - Wyoming", "POINTS": "6", "BONUSPOINTS": "3"}}, {"type": "Feature", "geometry": {"type": "Point", "coordinates": [-110.1932, 44.6482]}, "properties": {"NAME": "W7Y/PA-193", "TITLE": "Pelican Cone", "REGION": "Park", "ASSOCIATION": "USA - Wyoming", "POINTS": "6", "BONUSPOINTS": "3"}}, {"type": "Feature", "geometry": {"type": "Point", "coordinates": [-110.2534, 44.8287]}, "properties": {"NAME": "W7Y/PA-194", "TITLE": "Amethyst Mountain", "REGION": "Park", "ASSOCIATION": "USA - Wyoming", "POINTS": "6", "BONUSPOINTS": "3"}}, {"type": "Feature", "geometry": {"type": "Point", "coordinates": [-110.179, 44.9043]}, "properties": {"NAME": "W7Y/PA-195", "TITLE": "Druid Peak", "REGION": "Park", "ASSOCIATION": "USA - Wyoming", "POINTS": "6", "BONUSPOINTS": "3"}}, {"type": "Feature", "geometry": {"type": "Point", "coordinates": [-110.0945, 44.6592]}, "properties": {"NAME": "W7Y/PA-196", "TITLE": "9580", "REGION": "Park", "ASSOCIATION": "USA - Wyoming", "POINTS": "6", "BONUSPOINTS": "3"}}, {"type": "Feature", "geometry": {"type": "Point", "coordinates": [-110.5026, 44.8878]}, "properties": {"NAME": "W7Y/PA-197", "TITLE": "Prospect Peak", "REGION": "Park", "ASSOCIATION": "USA - Wyoming", "POINTS": "6", "BONUSPOINTS": "3"}}, {"type": "Feature", "geometry": {"type": "Point", "coordinates": [-110.155, 44.5892]}, "properties": {"NAME": "W7Y/PA-198", "TITLE": "9439", "REGION": "Park", "ASSOCIATION": "USA - Wyoming", "POINTS": "6", "BONUSPOINTS": "3"}}, {"type": "Feature", "geometry": {"type": "Point", "coordinates": [-109.5082, 44.7806]}, "properties": {"NAME": "W7Y/PA-199", "TITLE": "9417", "REGION": "Park", "ASSOCIATION": "USA - Wyoming", "POINTS": "6", "BONUSPOINTS": "3"}}, {"type": "Feature", "geometry": {"type": "Point", "coordinates": [-110.1217, 44.6404]}, "properties": {"NAME": "W7Y/PA-200", "TITLE": "9414", "REGION": "Park", "ASSOCIATION": "USA - Wyoming", "POINTS": "6", "BONUSPOINTS": "3"}}, {"type": "Feature", "geometry": {"type": "Point", "coordinates": [-109.9435, 44.519]}, "properties": {"NAME": "W7Y/PA-201", "TITLE": "Crow Peak", "REGION": "Park", "ASSOCIATION": "USA - Wyoming", "POINTS": "6", "BONUSPOINTS": "3"}}, {"type": "Feature", "geometry": {"type": "Point", "coordinates": [-110.9468, 44.8356]}, "properties": {"NAME": "W7Y/PA-202", "TITLE": "Crags, The", "REGION": "Park", "ASSOCIATION": "USA - Wyoming", "POINTS": "6", "BONUSPOINTS": "3"}}, {"type": "Feature", "geometry": {"type": "Point", "coordinates": [-109.739, 44.8817]}, "properties": {"NAME": "W7Y/PA-203", "TITLE": "9300", "REGION": "Park", "ASSOCIATION": "USA - Wyoming", "POINTS": "6", "BONUSPOINTS": "3"}}, {"type": "Feature", "geometry": {"type": "Point", "coordinates": [-110.9519, 44.9502]}, "properties": {"NAME": "W7Y/PA-204", "TITLE": "9242", "REGION": "Park", "ASSOCIATION": "USA - Wyoming", "POINTS": "6", "BONUSPOINTS": "3"}}, {"type": "Feature", "geometry": {"type": "Point", "coordinates": [-110.305, 44.7036]}, "properties": {"NAME": "W7Y/PA-205", "TITLE": "9221", "REGION": "Park", "ASSOCIATION": "USA - Wyoming", "POINTS": "6", "BONUSPOINTS": "3"}}, {"type": "Feature", "geometry": {"type": "Point", "coordinates": [-109.5263, 44.8165]}, "properties": {"NAME": "W7Y/PA-206", "TITLE": "Russell Peak", "REGION": "Park", "ASSOCIATION": "USA - Wyoming", "POINTS": "6", "BONUSPOINTS": "3"}}, {"type": "Feature", "geometry": {"type": "Point", "coordinates": [-109.2638, 44.5537]}, "properties": {"NAME": "W7Y/PA-207", "TITLE": "Rattlesnake Mountain HP", "REGION": "Park", "ASSOCIATION": "USA - Wyoming", "POINTS": "6", "BONUSPOINTS": "3"}}, {"type": "Feature", "geometry": {"type": "Point", "coordinates": [-109.498, 44.7328]}, "properties": {"NAME": "W7Y/PA-208", "TITLE": "9100", "REGION": "Park", "ASSOCIATION": "USA - Wyoming", "POINTS": "6", "BONUSPOINTS": "3"}}, {"type": "Feature", "geometry": {"type": "Point", "coordinates": [-110.3158, 44.6189]}, "properties": {"NAME": "W7Y/PA-209", "TITLE": "Stonetop Mountain", "REGION": "Park", "ASSOCIATION": "USA - Wyoming", "POINTS": "6", "BONUSPOINTS": "3"}}, {"type": "Feature", "geometry": {"type": "Point", "coordinates": [-109.9837, 44.3904]}, "properties": {"NAME": "W7Y/PA-210", "TITLE": "9049", "REGION": "Park", "ASSOCIATION": "USA - Wyoming", "POINTS": "6", "BONUSPOINTS": "3"}}, {"type": "Feature", "geometry": {"type": "Point", "coordinates": [-109.67, 44.8664]}, "properties": {"NAME": "W7Y/PA-211", "TITLE": "Hunter Peak", "REGION": "Park", "ASSOCIATION": "USA - Wyoming", "POINTS": "6", "BONUSPOINTS": "3"}}, {"type": "Feature", "geometry": {"type": "Point", "coordinates": [-109.5939, 44.5226]}, "properties": {"NAME": "W7Y/PA-212", "TITLE": "8860", "REGION": "Park", "ASSOCIATION": "USA - Wyoming", "POINTS": "6", "BONUSPOINTS": "3"}}, {"type": "Feature", "geometry": {"type": "Point", "coordinates": [-110.9387, 44.9896]}, "properties": {"NAME": "W7Y/PA-213", "TITLE": "8860", "REGION": "Park", "ASSOCIATION": "USA - Wyoming", "POINTS": "6", "BONUSPOINTS": "3"}}, {"type": "Feature", "geometry": {"type": "Point", "coordinates": [-110.3479, 44.7556]}, "properties": {"NAME": "W7Y/PA-214", "TITLE": "8860", "REGION": "Park", "ASSOCIATION": "USA - Wyoming", "POINTS": "6", "BONUSPOINTS": "3"}}, {"type": "Feature", "geometry": {"type": "Point", "coordinates": [-110.0452, 44.4633]}, "properties": {"NAME": "W7Y/PA-215", "TITLE": "8860", "REGION": "Park", "ASSOCIATION": "USA - Wyoming", "POINTS": "6", "BONUSPOINTS": "3"}}, {"type": "Feature", "geometry": {"type": "Point", "coordinates": [-110.9201, 44.8063]}, "properties": {"NAME": "W7Y/PA-216", "TITLE": "8843", "REGION": "Park", "ASSOCIATION": "USA - Wyoming", "POINTS": "6", "BONUSPOINTS": "3"}}, {"type": "Feature", "geometry": {"type": "Point", "coordinates": [-110.2457, 44.6473]}, "properties": {"NAME": "W7Y/PA-217", "TITLE": "8820", "REGION": "Park", "ASSOCIATION": "USA - Wyoming", "POINTS": "6", "BONUSPOINTS": "3"}}, {"type": "Feature", "geometry": {"type": "Point", "coordinates": [-109.4848, 44.8225]}, "properties": {"NAME": "W7Y/PA-218", "TITLE": "Sugarloaf Mountain", "REGION": "Park", "ASSOCIATION": "USA - Wyoming", "POINTS": "6", "BONUSPOINTS": "3"}}, {"type": "Feature", "geometry": {"type": "Point", "coordinates": [-110.2628, 44.5125]}, "properties": {"NAME": "W7Y/PA-219", "TITLE": "Lake Butte", "REGION": "Park", "ASSOCIATION": "USA - Wyoming", "POINTS": "6", "BONUSPOINTS": "3"}}, {"type": "Feature", "geometry": {"type": "Point", "coordinates": [-109.5027, 44.7046]}, "properties": {"NAME": "W7Y/PA-220", "TITLE": "8722", "REGION": "Park", "ASSOCIATION": "USA - Wyoming", "POINTS": "6", "BONUSPOINTS": "3"}}, {"type": "Feature", "geometry": {"type": "Point", "coordinates": [-109.6297, 44.5256]}, "properties": {"NAME": "W7Y/PA-221", "TITLE": "8700", "REGION": "Park", "ASSOCIATION": "USA - Wyoming", "POINTS": "6", "BONUSPOINTS": "3"}}, {"type": "Feature", "geometry": {"type": "Point", "coordinates": [-109.3746, 44.7573]}, "properties": {"NAME": "W7Y/PA-222", "TITLE": "Dead Indian Hill", "REGION": "Park", "ASSOCIATION": "USA - Wyoming", "POINTS": "6", "BONUSPOINTS": "3"}}, {"type": "Feature", "geometry": {"type": "Point", "coordinates": [-109.3224, 44.8191]}, "properties": {"NAME": "W7Y/PA-223", "TITLE": "Bald Peak", "REGION": "Park", "ASSOCIATION": "USA - Wyoming", "POINTS": "6", "BONUSPOINTS": "3"}}, {"type": "Feature", "geometry": {"type": "Point", "coordinates": [-110.706, 44.9315]}, "properties": {"NAME": "W7Y/PA-224", "TITLE": "Bunsen Peak", "REGION": "Park", "ASSOCIATION": "USA - Wyoming", "POINTS": "6", "BONUSPOINTS": "3"}}, {"type": "Feature", "geometry": {"type": "Point", "coordinates": [-110.9479, 44.7847]}, "properties": {"NAME": "W7Y/PA-225", "TITLE": "8413", "REGION": "Park", "ASSOCIATION": "USA - Wyoming", "POINTS": "6", "BONUSPOINTS": "3"}}, {"type": "Feature", "geometry": {"type": "Point", "coordinates": [-110.644, 44.8089]}, "properties": {"NAME": "W7Y/PA-226", "TITLE": "8390", "REGION": "Park", "ASSOCIATION": "USA - Wyoming", "POINTS": "6", "BONUSPOINTS": "3"}}, {"type": "Feature", "geometry": {"type": "Point", "coordinates": [-110.7855, 44.7705]}, "properties": {"NAME": "W7Y/PA-227", "TITLE": "8185", "REGION": "Park", "ASSOCIATION": "USA - Wyoming", "POINTS": "6", "BONUSPOINTS": "3"}}, {"type": "Feature", "geometry": {"type": "Point", "coordinates": [-109.3456, 44.5539]}, "properties": {"NAME": "W7Y/PA-228", "TITLE": "Logan Mountain", "REGION": "Park", "ASSOCIATION": "USA - Wyoming", "POINTS": "6", "BONUSPOINTS": "3"}}, {"type": "Feature", "geometry": {"type": "Point", "coordinates": [-109.1193, 44.6653]}, "properties": {"NAME": "W7Y/PA-229", "TITLE": "Heart Mountain", "REGION": "Park", "ASSOCIATION": "USA - Wyoming", "POINTS": "6", "BONUSPOINTS": "3"}}, {"type": "Feature", "geometry": {"type": "Point", "coordinates": [-110.7342, 44.9557]}, "properties": {"NAME": "W7Y/PA-230", "TITLE": "Terrace Mountain", "REGION": "Park", "ASSOCIATION": "USA - Wyoming", "POINTS": "6", "BONUSPOINTS": "3"}}, {"type": "Feature", "geometry": {"type": "Point", "coordinates": [-109.2945, 44.441]}, "properties": {"NAME": "W7Y/PA-231", "TITLE": "Sheep Mountain East", "REGION": "Park", "ASSOCIATION": "USA - Wyoming", "POINTS": "4", "BONUSPOINTS": "3"}}, {"type": "Feature", "geometry": {"type": "Point", "coordinates": [-109.1697, 44.4933]}, "properties": {"NAME": "W7Y/PA-232", "TITLE": "Cedar Mountain", "REGION": "Park", "ASSOCIATION": "USA - Wyoming", "POINTS": "4", "BONUSPOINTS": "3"}}, {"type": "Feature", "geometry": {"type": "Point", "coordinates": [-108.9432, 43.9507]}, "properties": {"NAME": "W7Y/PA-233", "TITLE": "Soapy Dale Peak", "REGION": "Park", "ASSOCIATION": "USA - Wyoming", "POINTS": "4", "BONUSPOINTS": "3"}}, {"type": "Feature", "geometry": {"type": "Point", "coordinates": [-110.661, 44.9753]}, "properties": {"NAME": "W7Y/PA-234", "TITLE": "Everts, Mount", "REGION": "Park", "ASSOCIATION": "USA - Wyoming", "POINTS": "4", "BONUSPOINTS": "3"}}, {"type": "Feature", "geometry": {"type": "Point", "coordinates": [-109.3323, 44.4602]}, "properties": {"NAME": "W7Y/PA-235", "TITLE": "7811", "REGION": "Park", "ASSOCIATION": "USA - Wyoming", "POINTS": "4", "BONUSPOINTS": "3"}}, {"type": "Feature", "geometry": {"type": "Point", "coordinates": [-109.6618, 44.4839]}, "properties": {"NAME": "W7Y/PA-236", "TITLE": "7780", "REGION": "Park", "ASSOCIATION": "USA - Wyoming", "POINTS": "4", "BONUSPOINTS": "3"}}, {"type": "Feature", "geometry": {"type": "Point", "coordinates": [-109.5728, 44.7448]}, "properties": {"NAME": "W7Y/PA-237", "TITLE": "7658", "REGION": "Park", "ASSOCIATION": "USA - Wyoming", "POINTS": "4", "BONUSPOINTS": "3"}}, {"type": "Feature", "geometry": {"type": "Point", "coordinates": [-109.3901, 44.5099]}, "properties": {"NAME": "W7Y/PA-238", "TITLE": "Four Bear Benchmark", "REGION": "Park", "ASSOCIATION": "USA - Wyoming", "POINTS": "4", "BONUSPOINTS": "3"}}, {"type": "Feature", "geometry": {"type": "Point", "coordinates": [-110.6036, 44.9923]}, "properties": {"NAME": "W7Y/PA-239", "TITLE": "7530", "REGION": "Park", "ASSOCIATION": "USA - Wyoming", "POINTS": "4", "BONUSPOINTS": "3"}}, {"type": "Feature", "geometry": {"type": "Point", "coordinates": [-109.4314, 44.7528]}, "properties": {"NAME": "W7Y/PA-240", "TITLE": "7242", "REGION": "Park", "ASSOCIATION": "USA - Wyoming", "POINTS": "4", "BONUSPOINTS": "3"}}, {"type": "Feature", "geometry": {"type": "Point", "coordinates": [-110.5323, 44.9867]}, "properties": {"NAME": "W7Y/PA-241", "TITLE": "7070", "REGION": "Park", "ASSOCIATION": "USA - Wyoming", "POINTS": "4", "BONUSPOINTS": "3"}}, {"type": "Feature", "geometry": {"type": "Point", "coordinates": [-110.435, 44.9509]}, "properties": {"NAME": "W7Y/PA-242", "TITLE": "Garnet Hill", "REGION": "Park", "ASSOCIATION": "USA - Wyoming", "POINTS": "4", "BONUSPOINTS": "3"}}, {"type": "Feature", "geometry": {"type": "Point", "coordinates": [-108.8798, 44.0973]}, "properties": {"NAME": "W7Y/PA-243", "TITLE": "6994", "REGION": "Park", "ASSOCIATION": "USA - Wyoming", "POINTS": "2", "BONUSPOINTS": "3"}}, {"type": "Feature", "geometry": {"type": "Point", "coordinates": [-109.0024, 44.3217]}, "properties": {"NAME": "W7Y/PA-244", "TITLE": "Spring Benchmark", "REGION": "Park", "ASSOCIATION": "USA - Wyoming", "POINTS": "2", "BONUSPOINTS": "3"}}, {"type": "Feature", "geometry": {"type": "Point", "coordinates": [-108.8198, 44.1376]}, "properties": {"NAME": "W7Y/PA-245", "TITLE": "6730", "REGION": "Park", "ASSOCIATION": "USA - Wyoming", "POINTS": "2", "BONUSPOINTS": "3"}}, {"type": "Feature", "geometry": {"type": "Point", "coordinates": [-109.1714, 44.6946]}, "properties": {"NAME": "W7Y/PA-246", "TITLE": "6585", "REGION": "Park", "ASSOCIATION": "USA - Wyoming", "POINTS": "2", "BONUSPOINTS": "3"}}, {"type": "Feature", "geometry": {"type": "Point", "coordinates": [-108.8528, 44.5871]}, "properties": {"NAME": "W7Y/PA-247", "TITLE": "McCullough Peaks HP", "REGION": "Park", "ASSOCIATION": "USA - Wyoming", "POINTS": "2", "BONUSPOINTS": "3"}}, {"type": "Feature", "geometry": {"type": "Point", "coordinates": [-108.8949, 44.6062]}, "properties": {"NAME": "W7Y/PA-248", "TITLE": "6442", "REGION": "Park", "ASSOCIATION": "USA - Wyoming", "POINTS": "2", "BONUSPOINTS": "3"}}, {"type": "Feature", "geometry": {"type": "Point", "coordinates": [-108.6036, 44.2663]}, "properties": {"NAME": "W7Y/PA-249", "TITLE": "Sheets Mountain", "REGION": "Park", "ASSOCIATION": "USA - Wyoming", "POINTS": "2", "BONUSPOINTS": "3"}}, {"type": "Feature", "geometry": {"type": "Point", "coordinates": [-109.0493, 44.4129]}, "properties": {"NAME": "W7Y/PA-250", "TITLE": "Crater Benchmark", "REGION": "Park", "ASSOCIATION": "USA - Wyoming", "POINTS": "2", "BONUSPOINTS": "3"}}, {"type": "Feature", "geometry": {"type": "Point", "coordinates": [-108.9247, 44.3536]}, "properties": {"NAME": "W7Y/PA-251", "TITLE": "Elk Butte", "REGION": "Park", "ASSOCIATION": "USA - Wyoming", "POINTS": "2", "BONUSPOINTS": "3"}}, {"type": "Feature", "geometry": {"type": "Point", "coordinates": [-109.2556, 44.9579]}, "properties": {"NAME": "W7Y/PA-252", "TITLE": "6123", "REGION": "Park", "ASSOCIATION": "USA - Wyoming", "POINTS": "2", "BONUSPOINTS": "3"}}, {"type": "Feature", "geometry": {"type": "Point", "coordinates": [-108.9559, 44.4359]}, "properties": {"NAME": "W7Y/PA-253", "TITLE": "5978", "REGION": "Park", "ASSOCIATION": "USA - Wyoming", "POINTS": "1", "BONUSPOINTS": "0"}}, {"type": "Feature", "geometry": {"type": "Point", "coordinates": [-109.2643, 44.8814]}, "properties": {"NAME": "W7Y/PA-254", "TITLE": "5532", "REGION": "Park", "ASSOCIATION": "USA - Wyoming", "POINTS": "1", "BONUSPOINTS": "0"}}, {"type": "Feature", "geometry": {"type": "Point", "coordinates": [-109.2547, 44.8619]}, "properties": {"NAME": "W7Y/PA-255", "TITLE": "Rock Benchmark", "REGION": "Park", "ASSOCIATION": "USA - Wyoming", "POINTS": "1", "BONUSPOINTS": "0"}}, {"type": "Feature", "geometry": {"type": "Point", "coordinates": [-109.054, 44.8178]}, "properties": {"NAME": "W7Y/PA-256", "TITLE": "Badland Hills HP", "REGION": "Park", "ASSOCIATION": "USA - Wyoming", "POINTS": "1", "BONUSPOINTS": "0"}}, {"type": "Feature", "geometry": {"type": "Point", "coordinates": [-109.7205, 44.5988]}, "properties": {"NAME": "W7Y/PA-257", "TITLE": "Pleasant, Mount", "REGION": "Park", "ASSOCIATION": "USA - Wyoming", "POINTS": "8", "BONUSPOINTS": "3"}}, {"type": "Feature", "geometry": {"type": "Point", "coordinates": [-109.8683, 44.0535]}, "properties": {"NAME": "W7Y/PA-258", "TITLE": "11112", "REGION": "Park", "ASSOCIATION": "USA - Wyoming", "POINTS": "8", "BONUSPOINTS": "3"}}, {"type": "Feature", "geometry": {"type": "Point", "coordinates": [-110.0626, 44.3356]}, "properties": {"NAME": "W7Y/PA-259", "TITLE": "Humphreys, Mount", "REGION": "Park", "ASSOCIATION": "USA - Wyoming", "POINTS": "8", "BONUSPOINTS": "3"}}, {"type": "Feature", "geometry": {"type": "Point", "coordinates": [-109.7686, 44.5227]}, "properties": {"NAME": "W7Y/PA-260", "TITLE": "Monument Mountain", "REGION": "Park", "ASSOCIATION": "USA - Wyoming", "POINTS": "8", "BONUSPOINTS": "3"}}, {"type": "Feature", "geometry": {"type": "Point", "coordinates": [-109.9722, 44.27]}, "properties": {"NAME": "W7Y/PA-261", "TITLE": "9955", "REGION": "Park", "ASSOCIATION": "USA - Wyoming", "POINTS": "6", "BONUSPOINTS": "3"}}, {"type": "Feature", "geometry": {"type": "Point", "coordinates": [-109.4385, 44.6459]}, "properties": {"NAME": "W7Y/PA-262", "TITLE": "9718", "REGION": "Park", "ASSOCIATION": "USA - Wyoming", "POINTS": "6", "BONUSPOINTS": "3"}}, {"type": "Feature", "geometry": {"type": "Point", "coordinates": [-108.9353, 44.0183]}, "properties": {"NAME": "W7Y/PA-263", "TITLE": "7222", "REGION": "Park", "ASSOCIATION": "USA - Wyoming", "POINTS": "4", "BONUSPOINTS": "3"}}]}