{"type": "FeatureCollection", "name": "W7Y/SW SUMMITS", "features": [{"type": "Feature", "geometry": {"type": "Point", "coordinates": [-110.6238, 42.6044]}, "properties": {"NAME": "W7Y/SW-001", "TITLE": "Wyoming Peak", "REGION": "South Wyoming", "ASSOCIATION": "USA - Wyoming", "POINTS": "8", "BONUSPOINTS": "3"}}, {"type": "Feature", "geometry": {"type": "Point", "coordinates": [-106.5261, 41.6331]}, "properties": {"NAME": "W7Y/SW-002", "TITLE": "Elk Mountain", "REGION": "South Wyoming", "ASSOCIATION": "USA - Wyoming", "POINTS": "8", "BONUSPOINTS": "3"}}, {"type": "Feature", "geometry": {"type": "Point", "coordinates": [-110.635, 42.7358]}, "properties": {"NAME": "W7Y/SW-003", "TITLE": "11032", "REGION": "South Wyoming", "ASSOCIATION": "USA - Wyoming", "POINTS": "8", "BONUSPOINTS": "3"}}, {"type": "Feature", "geometry": {"type": "Point", "coordinates": [-107.0321, 41.1864]}, "properties": {"NAME": "W7Y/SW-004", "TITLE": "Bridger Peak", "REGION": "South Wyoming", "ASSOCIATION": "USA - Wyoming", "POINTS": "8", "BONUSPOINTS": "3"}}, {"type": "Feature", "geometry": {"type": "Point", "coordinates": [-110.6443, 42.7075]}, "properties": {"NAME": "W7Y/SW-005", "TITLE": "10982", "REGION": "South Wyoming", "ASSOCIATION": "USA - Wyoming", "POINTS": "8", "BONUSPOINTS": "3"}}, {"type": "Feature", "geometry": {"type": "Point", "coordinates": [-106.6843, 41.0331]}, "properties": {"NAME": "W7Y/SW-006", "TITLE": "Blackhall Mountain", "REGION": "South Wyoming", "ASSOCIATION": "USA - Wyoming", "POINTS": "8", "BONUSPOINTS": "3"}}, {"type": "Feature", "geometry": {"type": "Point", "coordinates": [-110.6178, 42.5775]}, "properties": {"NAME": "W7Y/SW-007", "TITLE": "10940", "REGION": "South Wyoming", "ASSOCIATION": "USA - Wyoming", "POINTS": "8", "BONUSPOINTS": "3"}}, {"type": "Feature", "geometry": {"type": "Point", "coordinates": [-110.7763, 42.724]}, "properties": {"NAME": "W7Y/SW-008", "TITLE": "Fitzpatrick, Mount", "REGION": "South Wyoming", "ASSOCIATION": "USA - Wyoming", "POINTS": "8", "BONUSPOINTS": "3"}}, {"type": "Feature", "geometry": {"type": "Point", "coordinates": [-110.7805, 42.7502]}, "properties": {"NAME": "W7Y/SW-009", "TITLE": "10860", "REGION": "South Wyoming", "ASSOCIATION": "USA - Wyoming", "POINTS": "8", "BONUSPOINTS": "3"}}, {"type": "Feature", "geometry": {"type": "Point", "coordinates": [-106.518, 41.4524]}, "properties": {"NAME": "W7Y/SW-010", "TITLE": "Kennaday Peak", "REGION": "South Wyoming", "ASSOCIATION": "USA - Wyoming", "POINTS": "8", "BONUSPOINTS": "3"}}, {"type": "Feature", "geometry": {"type": "Point", "coordinates": [-107.0066, 41.2026]}, "properties": {"NAME": "W7Y/SW-011", "TITLE": "Vulcan Mountain", "REGION": "South Wyoming", "ASSOCIATION": "USA - Wyoming", "POINTS": "8", "BONUSPOINTS": "3"}}, {"type": "Feature", "geometry": {"type": "Point", "coordinates": [-110.592, 42.8585]}, "properties": {"NAME": "W7Y/SW-012", "TITLE": "McDougal, Mount", "REGION": "South Wyoming", "ASSOCIATION": "USA - Wyoming", "POINTS": "8", "BONUSPOINTS": "3"}}, {"type": "Feature", "geometry": {"type": "Point", "coordinates": [-110.8026, 42.7847]}, "properties": {"NAME": "W7Y/SW-013", "TITLE": "Rock Lake Peak", "REGION": "South Wyoming", "ASSOCIATION": "USA - Wyoming", "POINTS": "8", "BONUSPOINTS": "3"}}, {"type": "Feature", "geometry": {"type": "Point", "coordinates": [-110.7625, 42.6025]}, "properties": {"NAME": "W7Y/SW-014", "TITLE": "Greysalt Peak", "REGION": "South Wyoming", "ASSOCIATION": "USA - Wyoming", "POINTS": "8", "BONUSPOINTS": "3"}}, {"type": "Feature", "geometry": {"type": "Point", "coordinates": [-110.807, 42.5882]}, "properties": {"NAME": "W7Y/SW-015", "TITLE": "Wagner, Mount", "REGION": "South Wyoming", "ASSOCIATION": "USA - Wyoming", "POINTS": "8", "BONUSPOINTS": "3"}}, {"type": "Feature", "geometry": {"type": "Point", "coordinates": [-110.7463, 42.6182]}, "properties": {"NAME": "W7Y/SW-016", "TITLE": "10682", "REGION": "South Wyoming", "ASSOCIATION": "USA - Wyoming", "POINTS": "8", "BONUSPOINTS": "3"}}, {"type": "Feature", "geometry": {"type": "Point", "coordinates": [-106.1665, 41.4414]}, "properties": {"NAME": "W7Y/SW-017", "TITLE": "Rock Creek Ridge", "REGION": "South Wyoming", "ASSOCIATION": "USA - Wyoming", "POINTS": "8", "BONUSPOINTS": "3"}}, {"type": "Feature", "geometry": {"type": "Point", "coordinates": [-110.7593, 42.6536]}, "properties": {"NAME": "W7Y/SW-018", "TITLE": "10625", "REGION": "South Wyoming", "ASSOCIATION": "USA - Wyoming", "POINTS": "8", "BONUSPOINTS": "3"}}, {"type": "Feature", "geometry": {"type": "Point", "coordinates": [-110.5807, 43.1584]}, "properties": {"NAME": "W7Y/SW-019", "TITLE": "Clause Peak", "REGION": "South Wyoming", "ASSOCIATION": "USA - Wyoming", "POINTS": "8", "BONUSPOINTS": "3"}}, {"type": "Feature", "geometry": {"type": "Point", "coordinates": [-106.9356, 41.0948]}, "properties": {"NAME": "W7Y/SW-020", "TITLE": "10561", "REGION": "South Wyoming", "ASSOCIATION": "USA - Wyoming", "POINTS": "8", "BONUSPOINTS": "3"}}, {"type": "Feature", "geometry": {"type": "Point", "coordinates": [-110.79, 42.6946]}, "properties": {"NAME": "W7Y/SW-021", "TITLE": "10508", "REGION": "South Wyoming", "ASSOCIATION": "USA - Wyoming", "POINTS": "8", "BONUSPOINTS": "3"}}, {"type": "Feature", "geometry": {"type": "Point", "coordinates": [-106.9858, 41.1383]}, "properties": {"NAME": "W7Y/SW-022", "TITLE": "Red Mountain", "REGION": "South Wyoming", "ASSOCIATION": "USA - Wyoming", "POINTS": "8", "BONUSPOINTS": "3"}}, {"type": "Feature", "geometry": {"type": "Point", "coordinates": [-110.5911, 42.5421]}, "properties": {"NAME": "W7Y/SW-023", "TITLE": "10463", "REGION": "South Wyoming", "ASSOCIATION": "USA - Wyoming", "POINTS": "8", "BONUSPOINTS": "3"}}, {"type": "Feature", "geometry": {"type": "Point", "coordinates": [-110.5979, 42.684]}, "properties": {"NAME": "W7Y/SW-024", "TITLE": "10452", "REGION": "South Wyoming", "ASSOCIATION": "USA - Wyoming", "POINTS": "8", "BONUSPOINTS": "3"}}, {"type": "Feature", "geometry": {"type": "Point", "coordinates": [-110.8069, 42.8246]}, "properties": {"NAME": "W7Y/SW-025", "TITLE": "10430", "REGION": "South Wyoming", "ASSOCIATION": "USA - Wyoming", "POINTS": "8", "BONUSPOINTS": "3"}}, {"type": "Feature", "geometry": {"type": "Point", "coordinates": [-110.8469, 42.6554]}, "properties": {"NAME": "W7Y/SW-026", "TITLE": "Red Top Mountain", "REGION": "South Wyoming", "ASSOCIATION": "USA - Wyoming", "POINTS": "8", "BONUSPOINTS": "3"}}, {"type": "Feature", "geometry": {"type": "Point", "coordinates": [-110.6655, 43.005]}, "properties": {"NAME": "W7Y/SW-027", "TITLE": "Deadman Mountain", "REGION": "South Wyoming", "ASSOCIATION": "USA - Wyoming", "POINTS": "8", "BONUSPOINTS": "3"}}, {"type": "Feature", "geometry": {"type": "Point", "coordinates": [-110.6734, 42.45]}, "properties": {"NAME": "W7Y/SW-028", "TITLE": "Graham Peak", "REGION": "South Wyoming", "ASSOCIATION": "USA - Wyoming", "POINTS": "8", "BONUSPOINTS": "3"}}, {"type": "Feature", "geometry": {"type": "Point", "coordinates": [-110.8213, 42.9679]}, "properties": {"NAME": "W7Y/SW-029", "TITLE": "Man Peak", "REGION": "South Wyoming", "ASSOCIATION": "USA - Wyoming", "POINTS": "8", "BONUSPOINTS": "3"}}, {"type": "Feature", "geometry": {"type": "Point", "coordinates": [-110.756, 42.7038]}, "properties": {"NAME": "W7Y/SW-030", "TITLE": "10315", "REGION": "South Wyoming", "ASSOCIATION": "USA - Wyoming", "POINTS": "8", "BONUSPOINTS": "3"}}, {"type": "Feature", "geometry": {"type": "Point", "coordinates": [-110.8027, 42.7006]}, "properties": {"NAME": "W7Y/SW-031", "TITLE": "10267", "REGION": "South Wyoming", "ASSOCIATION": "USA - Wyoming", "POINTS": "8", "BONUSPOINTS": "3"}}, {"type": "Feature", "geometry": {"type": "Point", "coordinates": [-110.7822, 42.865]}, "properties": {"NAME": "W7Y/SW-032", "TITLE": "Cabin Creek Peak", "REGION": "South Wyoming", "ASSOCIATION": "USA - Wyoming", "POINTS": "8", "BONUSPOINTS": "3"}}, {"type": "Feature", "geometry": {"type": "Point", "coordinates": [-110.8029, 42.6768]}, "properties": {"NAME": "W7Y/SW-033", "TITLE": "10220", "REGION": "South Wyoming", "ASSOCIATION": "USA - Wyoming", "POINTS": "8", "BONUSPOINTS": "3"}}, {"type": "Feature", "geometry": {"type": "Point", "coordinates": [-110.6041, 43.1636]}, "properties": {"NAME": "W7Y/SW-034", "TITLE": "10171", "REGION": "South Wyoming", "ASSOCIATION": "USA - Wyoming", "POINTS": "8", "BONUSPOINTS": "3"}}, {"type": "Feature", "geometry": {"type": "Point", "coordinates": [-110.7035, 42.4433]}, "properties": {"NAME": "W7Y/SW-035", "TITLE": "Isabel, Mount", "REGION": "South Wyoming", "ASSOCIATION": "USA - Wyoming", "POINTS": "8", "BONUSPOINTS": "3"}}, {"type": "Feature", "geometry": {"type": "Point", "coordinates": [-110.7867, 42.9349]}, "properties": {"NAME": "W7Y/SW-036", "TITLE": "Virginia Peak", "REGION": "South Wyoming", "ASSOCIATION": "USA - Wyoming", "POINTS": "8", "BONUSPOINTS": "3"}}, {"type": "Feature", "geometry": {"type": "Point", "coordinates": [-110.7918, 42.6494]}, "properties": {"NAME": "W7Y/SW-037", "TITLE": "10138", "REGION": "South Wyoming", "ASSOCIATION": "USA - Wyoming", "POINTS": "8", "BONUSPOINTS": "3"}}, {"type": "Feature", "geometry": {"type": "Point", "coordinates": [-110.8515, 42.7209]}, "properties": {"NAME": "W7Y/SW-038", "TITLE": "10132", "REGION": "South Wyoming", "ASSOCIATION": "USA - Wyoming", "POINTS": "8", "BONUSPOINTS": "3"}}, {"type": "Feature", "geometry": {"type": "Point", "coordinates": [-110.8685, 43.0105]}, "properties": {"NAME": "W7Y/SW-039", "TITLE": "South Star Peak", "REGION": "South Wyoming", "ASSOCIATION": "USA - Wyoming", "POINTS": "8", "BONUSPOINTS": "3"}}, {"type": "Feature", "geometry": {"type": "Point", "coordinates": [-110.8614, 42.9254]}, "properties": {"NAME": "W7Y/SW-040", "TITLE": "Haystack Peak", "REGION": "South Wyoming", "ASSOCIATION": "USA - Wyoming", "POINTS": "8", "BONUSPOINTS": "3"}}, {"type": "Feature", "geometry": {"type": "Point", "coordinates": [-110.9248, 43.0725]}, "properties": {"NAME": "W7Y/SW-041", "TITLE": "Stewart Peak", "REGION": "South Wyoming", "ASSOCIATION": "USA - Wyoming", "POINTS": "8", "BONUSPOINTS": "3"}}, {"type": "Feature", "geometry": {"type": "Point", "coordinates": [-110.8515, 42.9426]}, "properties": {"NAME": "W7Y/SW-042", "TITLE": "10081", "REGION": "South Wyoming", "ASSOCIATION": "USA - Wyoming", "POINTS": "8", "BONUSPOINTS": "3"}}, {"type": "Feature", "geometry": {"type": "Point", "coordinates": [-110.9148, 43.0077]}, "properties": {"NAME": "W7Y/SW-043", "TITLE": "Prater Mountain", "REGION": "South Wyoming", "ASSOCIATION": "USA - Wyoming", "POINTS": "8", "BONUSPOINTS": "3"}}, {"type": "Feature", "geometry": {"type": "Point", "coordinates": [-110.7879, 42.5644]}, "properties": {"NAME": "W7Y/SW-044", "TITLE": "10074", "REGION": "South Wyoming", "ASSOCIATION": "USA - Wyoming", "POINTS": "8", "BONUSPOINTS": "3"}}, {"type": "Feature", "geometry": {"type": "Point", "coordinates": [-110.7199, 42.4706]}, "properties": {"NAME": "W7Y/SW-045", "TITLE": "10065", "REGION": "South Wyoming", "ASSOCIATION": "USA - Wyoming", "POINTS": "8", "BONUSPOINTS": "3"}}, {"type": "Feature", "geometry": {"type": "Point", "coordinates": [-106.5858, 41.5219]}, "properties": {"NAME": "W7Y/SW-046", "TITLE": "Pennock Mountain", "REGION": "South Wyoming", "ASSOCIATION": "USA - Wyoming", "POINTS": "8", "BONUSPOINTS": "3"}}, {"type": "Feature", "geometry": {"type": "Point", "coordinates": [-110.6458, 42.8979]}, "properties": {"NAME": "W7Y/SW-047", "TITLE": "10041", "REGION": "South Wyoming", "ASSOCIATION": "USA - Wyoming", "POINTS": "8", "BONUSPOINTS": "3"}}, {"type": "Feature", "geometry": {"type": "Point", "coordinates": [-107.2394, 42.2566]}, "properties": {"NAME": "W7Y/SW-048", "TITLE": "Ferris Mountain East", "REGION": "South Wyoming", "ASSOCIATION": "USA - Wyoming", "POINTS": "8", "BONUSPOINTS": "3"}}, {"type": "Feature", "geometry": {"type": "Point", "coordinates": [-106.6197, 41.075]}, "properties": {"NAME": "W7Y/SW-049", "TITLE": "Bear Mountain", "REGION": "South Wyoming", "ASSOCIATION": "USA - Wyoming", "POINTS": "6", "BONUSPOINTS": "3"}}, {"type": "Feature", "geometry": {"type": "Point", "coordinates": [-110.9498, 43.2841]}, "properties": {"NAME": "W7Y/SW-050", "TITLE": "Observation Peak", "REGION": "South Wyoming", "ASSOCIATION": "USA - Wyoming", "POINTS": "6", "BONUSPOINTS": "3"}}, {"type": "Feature", "geometry": {"type": "Point", "coordinates": [-110.9095, 42.9992]}, "properties": {"NAME": "W7Y/SW-051", "TITLE": "9957", "REGION": "South Wyoming", "ASSOCIATION": "USA - Wyoming", "POINTS": "6", "BONUSPOINTS": "3"}}, {"type": "Feature", "geometry": {"type": "Point", "coordinates": [-110.7982, 42.5476]}, "properties": {"NAME": "W7Y/SW-052", "TITLE": "9928", "REGION": "South Wyoming", "ASSOCIATION": "USA - Wyoming", "POINTS": "6", "BONUSPOINTS": "3"}}, {"type": "Feature", "geometry": {"type": "Point", "coordinates": [-110.6161, 43.1218]}, "properties": {"NAME": "W7Y/SW-053", "TITLE": "9896", "REGION": "South Wyoming", "ASSOCIATION": "USA - Wyoming", "POINTS": "6", "BONUSPOINTS": "3"}}, {"type": "Feature", "geometry": {"type": "Point", "coordinates": [-110.606, 42.8264]}, "properties": {"NAME": "W7Y/SW-054", "TITLE": "9890", "REGION": "South Wyoming", "ASSOCIATION": "USA - Wyoming", "POINTS": "6", "BONUSPOINTS": "3"}}, {"type": "Feature", "geometry": {"type": "Point", "coordinates": [-110.6281, 42.2741]}, "properties": {"NAME": "W7Y/SW-055", "TITLE": "Indian Mountain", "REGION": "South Wyoming", "ASSOCIATION": "USA - Wyoming", "POINTS": "6", "BONUSPOINTS": "3"}}, {"type": "Feature", "geometry": {"type": "Point", "coordinates": [-106.9386, 41.0246]}, "properties": {"NAME": "W7Y/SW-056", "TITLE": "9860", "REGION": "South Wyoming", "ASSOCIATION": "USA - Wyoming", "POINTS": "6", "BONUSPOINTS": "3"}}, {"type": "Feature", "geometry": {"type": "Point", "coordinates": [-110.6639, 42.407]}, "properties": {"NAME": "W7Y/SW-057", "TITLE": "Bull Mountain", "REGION": "South Wyoming", "ASSOCIATION": "USA - Wyoming", "POINTS": "6", "BONUSPOINTS": "3"}}, {"type": "Feature", "geometry": {"type": "Point", "coordinates": [-110.6742, 42.3843]}, "properties": {"NAME": "W7Y/SW-058", "TITLE": "9770", "REGION": "South Wyoming", "ASSOCIATION": "USA - Wyoming", "POINTS": "6", "BONUSPOINTS": "3"}}, {"type": "Feature", "geometry": {"type": "Point", "coordinates": [-110.8653, 42.7962]}, "properties": {"NAME": "W7Y/SW-059", "TITLE": "9770", "REGION": "South Wyoming", "ASSOCIATION": "USA - Wyoming", "POINTS": "6", "BONUSPOINTS": "3"}}, {"type": "Feature", "geometry": {"type": "Point", "coordinates": [-110.9567, 43.2327]}, "properties": {"NAME": "W7Y/SW-060", "TITLE": "Deadhorse Peak", "REGION": "South Wyoming", "ASSOCIATION": "USA - Wyoming", "POINTS": "6", "BONUSPOINTS": "3"}}, {"type": "Feature", "geometry": {"type": "Point", "coordinates": [-110.8653, 42.9624]}, "properties": {"NAME": "W7Y/SW-061", "TITLE": "9762", "REGION": "South Wyoming", "ASSOCIATION": "USA - Wyoming", "POINTS": "6", "BONUSPOINTS": "3"}}, {"type": "Feature", "geometry": {"type": "Point", "coordinates": [-110.6705, 43.1114]}, "properties": {"NAME": "W7Y/SW-062", "TITLE": "Grayback Ridge", "REGION": "South Wyoming", "ASSOCIATION": "USA - Wyoming", "POINTS": "6", "BONUSPOINTS": "3"}}, {"type": "Feature", "geometry": {"type": "Point", "coordinates": [-110.8618, 42.8887]}, "properties": {"NAME": "W7Y/SW-063", "TITLE": "9743", "REGION": "South Wyoming", "ASSOCIATION": "USA - Wyoming", "POINTS": "6", "BONUSPOINTS": "3"}}, {"type": "Feature", "geometry": {"type": "Point", "coordinates": [-110.5923, 42.494]}, "properties": {"NAME": "W7Y/SW-064", "TITLE": "Thompson, Mount", "REGION": "South Wyoming", "ASSOCIATION": "USA - Wyoming", "POINTS": "6", "BONUSPOINTS": "3"}}, {"type": "Feature", "geometry": {"type": "Point", "coordinates": [-106.7195, 41.1176]}, "properties": {"NAME": "W7Y/SW-065", "TITLE": "Wood Mountain", "REGION": "South Wyoming", "ASSOCIATION": "USA - Wyoming", "POINTS": "6", "BONUSPOINTS": "3"}}, {"type": "Feature", "geometry": {"type": "Point", "coordinates": [-110.8279, 42.9252]}, "properties": {"NAME": "W7Y/SW-066", "TITLE": "9678", "REGION": "South Wyoming", "ASSOCIATION": "USA - Wyoming", "POINTS": "6", "BONUSPOINTS": "3"}}, {"type": "Feature", "geometry": {"type": "Point", "coordinates": [-107.3471, 42.2847]}, "properties": {"NAME": "W7Y/SW-067", "TITLE": "Ferris Mountain West", "REGION": "South Wyoming", "ASSOCIATION": "USA - Wyoming", "POINTS": "6", "BONUSPOINTS": "3"}}, {"type": "Feature", "geometry": {"type": "Point", "coordinates": [-110.7117, 43.1997]}, "properties": {"NAME": "W7Y/SW-068", "TITLE": "9666", "REGION": "South Wyoming", "ASSOCIATION": "USA - Wyoming", "POINTS": "6", "BONUSPOINTS": "3"}}, {"type": "Feature", "geometry": {"type": "Point", "coordinates": [-111.0411, 43.2944]}, "properties": {"NAME": "W7Y/SW-069", "TITLE": "9660", "REGION": "South Wyoming", "ASSOCIATION": "USA - Wyoming", "POINTS": "6", "BONUSPOINTS": "3"}}, {"type": "Feature", "geometry": {"type": "Point", "coordinates": [-110.9828, 43.2134]}, "properties": {"NAME": "W7Y/SW-070", "TITLE": "Ferry Peak", "REGION": "South Wyoming", "ASSOCIATION": "USA - Wyoming", "POINTS": "6", "BONUSPOINTS": "3"}}, {"type": "Feature", "geometry": {"type": "Point", "coordinates": [-110.8447, 43.017]}, "properties": {"NAME": "W7Y/SW-071", "TITLE": "9561", "REGION": "South Wyoming", "ASSOCIATION": "USA - Wyoming", "POINTS": "6", "BONUSPOINTS": "3"}}, {"type": "Feature", "geometry": {"type": "Point", "coordinates": [-109.0145, 41.0234]}, "properties": {"NAME": "W7Y/SW-072", "TITLE": "Pine Mountain", "REGION": "South Wyoming", "ASSOCIATION": "USA - Wyoming", "POINTS": "6", "BONUSPOINTS": "3"}}, {"type": "Feature", "geometry": {"type": "Point", "coordinates": [-110.8749, 43.2756]}, "properties": {"NAME": "W7Y/SW-073", "TITLE": "Wolf Mountain", "REGION": "South Wyoming", "ASSOCIATION": "USA - Wyoming", "POINTS": "6", "BONUSPOINTS": "3"}}, {"type": "Feature", "geometry": {"type": "Point", "coordinates": [-110.5707, 42.0767]}, "properties": {"NAME": "W7Y/SW-074", "TITLE": "South Fork Mountain", "REGION": "South Wyoming", "ASSOCIATION": "USA - Wyoming", "POINTS": "6", "BONUSPOINTS": "3"}}, {"type": "Feature", "geometry": {"type": "Point", "coordinates": [-106.5839, 41.567]}, "properties": {"NAME": "W7Y/SW-075", "TITLE": "Coad Mountain", "REGION": "South Wyoming", "ASSOCIATION": "USA - Wyoming", "POINTS": "6", "BONUSPOINTS": "3"}}, {"type": "Feature", "geometry": {"type": "Point", "coordinates": [-110.8818, 42.7061]}, "properties": {"NAME": "W7Y/SW-076", "TITLE": "9395", "REGION": "South Wyoming", "ASSOCIATION": "USA - Wyoming", "POINTS": "6", "BONUSPOINTS": "3"}}, {"type": "Feature", "geometry": {"type": "Point", "coordinates": [-110.7383, 42.3931]}, "properties": {"NAME": "W7Y/SW-077", "TITLE": "Lake Mountain", "REGION": "South Wyoming", "ASSOCIATION": "USA - Wyoming", "POINTS": "6", "BONUSPOINTS": "3"}}, {"type": "Feature", "geometry": {"type": "Point", "coordinates": [-110.6412, 42.9567]}, "properties": {"NAME": "W7Y/SW-078", "TITLE": "9376", "REGION": "South Wyoming", "ASSOCIATION": "USA - Wyoming", "POINTS": "6", "BONUSPOINTS": "3"}}, {"type": "Feature", "geometry": {"type": "Point", "coordinates": [-110.8394, 42.7626]}, "properties": {"NAME": "W7Y/SW-079", "TITLE": "9370", "REGION": "South Wyoming", "ASSOCIATION": "USA - Wyoming", "POINTS": "6", "BONUSPOINTS": "3"}}, {"type": "Feature", "geometry": {"type": "Point", "coordinates": [-110.6658, 42.9249]}, "properties": {"NAME": "W7Y/SW-080", "TITLE": "9370", "REGION": "South Wyoming", "ASSOCIATION": "USA - Wyoming", "POINTS": "6", "BONUSPOINTS": "3"}}, {"type": "Feature", "geometry": {"type": "Point", "coordinates": [-110.758, 42.4244]}, "properties": {"NAME": "W7Y/SW-081", "TITLE": "9340", "REGION": "South Wyoming", "ASSOCIATION": "USA - Wyoming", "POINTS": "6", "BONUSPOINTS": "3"}}, {"type": "Feature", "geometry": {"type": "Point", "coordinates": [-111.006, 43.2599]}, "properties": {"NAME": "W7Y/SW-082", "TITLE": "9327", "REGION": "South Wyoming", "ASSOCIATION": "USA - Wyoming", "POINTS": "6", "BONUSPOINTS": "3"}}, {"type": "Feature", "geometry": {"type": "Point", "coordinates": [-111.0034, 42.2547]}, "properties": {"NAME": "W7Y/SW-083", "TITLE": "Sublette Mountain", "REGION": "South Wyoming", "ASSOCIATION": "USA - Wyoming", "POINTS": "6", "BONUSPOINTS": "3"}}, {"type": "Feature", "geometry": {"type": "Point", "coordinates": [-110.7726, 42.4783]}, "properties": {"NAME": "W7Y/SW-084", "TITLE": "9300", "REGION": "South Wyoming", "ASSOCIATION": "USA - Wyoming", "POINTS": "6", "BONUSPOINTS": "3"}}, {"type": "Feature", "geometry": {"type": "Point", "coordinates": [-110.9135, 43.1708]}, "properties": {"NAME": "W7Y/SW-085", "TITLE": "Bradley Mountain", "REGION": "South Wyoming", "ASSOCIATION": "USA - Wyoming", "POINTS": "6", "BONUSPOINTS": "3"}}, {"type": "Feature", "geometry": {"type": "Point", "coordinates": [-106.4981, 41.3008]}, "properties": {"NAME": "W7Y/SW-086", "TITLE": "Barrett Ridge", "REGION": "South Wyoming", "ASSOCIATION": "USA - Wyoming", "POINTS": "6", "BONUSPOINTS": "3"}}, {"type": "Feature", "geometry": {"type": "Point", "coordinates": [-106.5565, 42.1666]}, "properties": {"NAME": "W7Y/SW-087", "TITLE": "Shirley Mountains HP", "REGION": "South Wyoming", "ASSOCIATION": "USA - Wyoming", "POINTS": "6", "BONUSPOINTS": "3"}}, {"type": "Feature", "geometry": {"type": "Point", "coordinates": [-110.7601, 42.3055]}, "properties": {"NAME": "W7Y/SW-088", "TITLE": "Green Knoll", "REGION": "South Wyoming", "ASSOCIATION": "USA - Wyoming", "POINTS": "6", "BONUSPOINTS": "3"}}, {"type": "Feature", "geometry": {"type": "Point", "coordinates": [-109.2886, 41.0798]}, "properties": {"NAME": "W7Y/SW-089", "TITLE": "Little Mountain", "REGION": "South Wyoming", "ASSOCIATION": "USA - Wyoming", "POINTS": "6", "BONUSPOINTS": "3"}}, {"type": "Feature", "geometry": {"type": "Point", "coordinates": [-110.4645, 42.2689]}, "properties": {"NAME": "W7Y/SW-090", "TITLE": "Miller Mountain", "REGION": "South Wyoming", "ASSOCIATION": "USA - Wyoming", "POINTS": "6", "BONUSPOINTS": "3"}}, {"type": "Feature", "geometry": {"type": "Point", "coordinates": [-110.8731, 42.5963]}, "properties": {"NAME": "W7Y/SW-091", "TITLE": "9114", "REGION": "South Wyoming", "ASSOCIATION": "USA - Wyoming", "POINTS": "6", "BONUSPOINTS": "3"}}, {"type": "Feature", "geometry": {"type": "Point", "coordinates": [-107.2819, 41.0316]}, "properties": {"NAME": "W7Y/SW-092", "TITLE": "Battle Mountain", "REGION": "South Wyoming", "ASSOCIATION": "USA - Wyoming", "POINTS": "6", "BONUSPOINTS": "3"}}, {"type": "Feature", "geometry": {"type": "Point", "coordinates": [-110.9949, 42.3108]}, "properties": {"NAME": "W7Y/SW-093", "TITLE": "9100", "REGION": "South Wyoming", "ASSOCIATION": "USA - Wyoming", "POINTS": "6", "BONUSPOINTS": "3"}}, {"type": "Feature", "geometry": {"type": "Point", "coordinates": [-110.9473, 43.1028]}, "properties": {"NAME": "W7Y/SW-094", "TITLE": "9099", "REGION": "South Wyoming", "ASSOCIATION": "USA - Wyoming", "POINTS": "6", "BONUSPOINTS": "3"}}, {"type": "Feature", "geometry": {"type": "Point", "coordinates": [-106.5819, 41.0354]}, "properties": {"NAME": "W7Y/SW-095", "TITLE": "9076", "REGION": "South Wyoming", "ASSOCIATION": "USA - Wyoming", "POINTS": "6", "BONUSPOINTS": "3"}}, {"type": "Feature", "geometry": {"type": "Point", "coordinates": [-110.874, 42.643]}, "properties": {"NAME": "W7Y/SW-096", "TITLE": "9068", "REGION": "South Wyoming", "ASSOCIATION": "USA - Wyoming", "POINTS": "6", "BONUSPOINTS": "3"}}, {"type": "Feature", "geometry": {"type": "Point", "coordinates": [-110.8622, 42.8596]}, "properties": {"NAME": "W7Y/SW-097", "TITLE": "9020", "REGION": "South Wyoming", "ASSOCIATION": "USA - Wyoming", "POINTS": "6", "BONUSPOINTS": "3"}}, {"type": "Feature", "geometry": {"type": "Point", "coordinates": [-110.6541, 43.0515]}, "properties": {"NAME": "W7Y/SW-098", "TITLE": "9015", "REGION": "South Wyoming", "ASSOCIATION": "USA - Wyoming", "POINTS": "6", "BONUSPOINTS": "3"}}, {"type": "Feature", "geometry": {"type": "Point", "coordinates": [-110.963, 43.1627]}, "properties": {"NAME": "W7Y/SW-099", "TITLE": "Brad Benchmark", "REGION": "South Wyoming", "ASSOCIATION": "USA - Wyoming", "POINTS": "6", "BONUSPOINTS": "3"}}, {"type": "Feature", "geometry": {"type": "Point", "coordinates": [-107.0577, 42.1673]}, "properties": {"NAME": "W7Y/SW-100", "TITLE": "Bradley Peak", "REGION": "South Wyoming", "ASSOCIATION": "USA - Wyoming", "POINTS": "6", "BONUSPOINTS": "3"}}, {"type": "Feature", "geometry": {"type": "Point", "coordinates": [-110.9011, 43.094]}, "properties": {"NAME": "W7Y/SW-101", "TITLE": "8935", "REGION": "South Wyoming", "ASSOCIATION": "USA - Wyoming", "POINTS": "6", "BONUSPOINTS": "3"}}, {"type": "Feature", "geometry": {"type": "Point", "coordinates": [-110.805, 43.1006]}, "properties": {"NAME": "W7Y/SW-102", "TITLE": "Middle Ridge North", "REGION": "South Wyoming", "ASSOCIATION": "USA - Wyoming", "POINTS": "6", "BONUSPOINTS": "3"}}, {"type": "Feature", "geometry": {"type": "Point", "coordinates": [-110.7447, 43.0065]}, "properties": {"NAME": "W7Y/SW-103", "TITLE": "Middle Ridge South", "REGION": "South Wyoming", "ASSOCIATION": "USA - Wyoming", "POINTS": "6", "BONUSPOINTS": "3"}}, {"type": "Feature", "geometry": {"type": "Point", "coordinates": [-110.7968, 42.0629]}, "properties": {"NAME": "W7Y/SW-104", "TITLE": "Coke Mountain", "REGION": "South Wyoming", "ASSOCIATION": "USA - Wyoming", "POINTS": "6", "BONUSPOINTS": "3"}}, {"type": "Feature", "geometry": {"type": "Point", "coordinates": [-109.1432, 41.015]}, "properties": {"NAME": "W7Y/SW-105", "TITLE": "8830", "REGION": "South Wyoming", "ASSOCIATION": "USA - Wyoming", "POINTS": "6", "BONUSPOINTS": "3"}}, {"type": "Feature", "geometry": {"type": "Point", "coordinates": [-110.9831, 42.5332]}, "properties": {"NAME": "W7Y/SW-106", "TITLE": "Gannett Hills HP", "REGION": "South Wyoming", "ASSOCIATION": "USA - Wyoming", "POINTS": "6", "BONUSPOINTS": "3"}}, {"type": "Feature", "geometry": {"type": "Point", "coordinates": [-108.6807, 41.3076]}, "properties": {"NAME": "W7Y/SW-107", "TITLE": "Pine Butte", "REGION": "South Wyoming", "ASSOCIATION": "USA - Wyoming", "POINTS": "6", "BONUSPOINTS": "3"}}, {"type": "Feature", "geometry": {"type": "Point", "coordinates": [-109.3048, 41.0148]}, "properties": {"NAME": "W7Y/SW-108", "TITLE": "Richards Mountain", "REGION": "South Wyoming", "ASSOCIATION": "USA - Wyoming", "POINTS": "6", "BONUSPOINTS": "3"}}, {"type": "Feature", "geometry": {"type": "Point", "coordinates": [-106.6264, 41.6701]}, "properties": {"NAME": "W7Y/SW-109", "TITLE": "Sheephead Mountain", "REGION": "South Wyoming", "ASSOCIATION": "USA - Wyoming", "POINTS": "6", "BONUSPOINTS": "3"}}, {"type": "Feature", "geometry": {"type": "Point", "coordinates": [-108.9668, 41.9669]}, "properties": {"NAME": "W7Y/SW-110", "TITLE": "Steamboat Mountain", "REGION": "South Wyoming", "ASSOCIATION": "USA - Wyoming", "POINTS": "6", "BONUSPOINTS": "3"}}, {"type": "Feature", "geometry": {"type": "Point", "coordinates": [-109.1209, 41.4303]}, "properties": {"NAME": "W7Y/SW-111", "TITLE": "Quaking Asp Mountain", "REGION": "South Wyoming", "ASSOCIATION": "USA - Wyoming", "POINTS": "6", "BONUSPOINTS": "3"}}, {"type": "Feature", "geometry": {"type": "Point", "coordinates": [-107.0928, 41.0709]}, "properties": {"NAME": "W7Y/SW-112", "TITLE": "Fletcher Peak", "REGION": "South Wyoming", "ASSOCIATION": "USA - Wyoming", "POINTS": "6", "BONUSPOINTS": "3"}}, {"type": "Feature", "geometry": {"type": "Point", "coordinates": [-106.406, 41.0653]}, "properties": {"NAME": "W7Y/SW-113", "TITLE": "Elkhorn Point", "REGION": "South Wyoming", "ASSOCIATION": "USA - Wyoming", "POINTS": "6", "BONUSPOINTS": "3"}}, {"type": "Feature", "geometry": {"type": "Point", "coordinates": [-108.8576, 42.2551]}, "properties": {"NAME": "W7Y/SW-114", "TITLE": "Oregon Buttes North", "REGION": "South Wyoming", "ASSOCIATION": "USA - Wyoming", "POINTS": "6", "BONUSPOINTS": "3"}}, {"type": "Feature", "geometry": {"type": "Point", "coordinates": [-106.3695, 41.0163]}, "properties": {"NAME": "W7Y/SW-115", "TITLE": "8610", "REGION": "South Wyoming", "ASSOCIATION": "USA - Wyoming", "POINTS": "6", "BONUSPOINTS": "3"}}, {"type": "Feature", "geometry": {"type": "Point", "coordinates": [-110.9079, 41.3525]}, "properties": {"NAME": "W7Y/SW-116", "TITLE": "Medicine Butte", "REGION": "South Wyoming", "ASSOCIATION": "USA - Wyoming", "POINTS": "6", "BONUSPOINTS": "3"}}, {"type": "Feature", "geometry": {"type": "Point", "coordinates": [-110.0639, 41.0843]}, "properties": {"NAME": "W7Y/SW-117", "TITLE": "Cedar Mountain", "REGION": "South Wyoming", "ASSOCIATION": "USA - Wyoming", "POINTS": "6", "BONUSPOINTS": "3"}}, {"type": "Feature", "geometry": {"type": "Point", "coordinates": [-108.6694, 41.3441]}, "properties": {"NAME": "W7Y/SW-118", "TITLE": "Sand Butte", "REGION": "South Wyoming", "ASSOCIATION": "USA - Wyoming", "POINTS": "6", "BONUSPOINTS": "3"}}, {"type": "Feature", "geometry": {"type": "Point", "coordinates": [-110.6782, 42.9652]}, "properties": {"NAME": "W7Y/SW-119", "TITLE": "8573", "REGION": "South Wyoming", "ASSOCIATION": "USA - Wyoming", "POINTS": "6", "BONUSPOINTS": "3"}}, {"type": "Feature", "geometry": {"type": "Point", "coordinates": [-109.1433, 41.1674]}, "properties": {"NAME": "W7Y/SW-120", "TITLE": "Miller Mountain", "REGION": "South Wyoming", "ASSOCIATION": "USA - Wyoming", "POINTS": "6", "BONUSPOINTS": "3"}}, {"type": "Feature", "geometry": {"type": "Point", "coordinates": [-106.803, 41.1531]}, "properties": {"NAME": "W7Y/SW-121", "TITLE": "8545", "REGION": "South Wyoming", "ASSOCIATION": "USA - Wyoming", "POINTS": "6", "BONUSPOINTS": "3"}}, {"type": "Feature", "geometry": {"type": "Point", "coordinates": [-108.8478, 42.2408]}, "properties": {"NAME": "W7Y/SW-122", "TITLE": "Oregon Buttes East", "REGION": "South Wyoming", "ASSOCIATION": "USA - Wyoming", "POINTS": "6", "BONUSPOINTS": "3"}}, {"type": "Feature", "geometry": {"type": "Point", "coordinates": [-107.3884, 41.6194]}, "properties": {"NAME": "W7Y/SW-123", "TITLE": "Atlantic Rim West", "REGION": "South Wyoming", "ASSOCIATION": "USA - Wyoming", "POINTS": "6", "BONUSPOINTS": "3"}}, {"type": "Feature", "geometry": {"type": "Point", "coordinates": [-110.8253, 43.1671]}, "properties": {"NAME": "W7Y/SW-124", "TITLE": "Elk Mountain", "REGION": "South Wyoming", "ASSOCIATION": "USA - Wyoming", "POINTS": "6", "BONUSPOINTS": "3"}}, {"type": "Feature", "geometry": {"type": "Point", "coordinates": [-110.8584, 42.4957]}, "properties": {"NAME": "W7Y/SW-125", "TITLE": "8478", "REGION": "South Wyoming", "ASSOCIATION": "USA - Wyoming", "POINTS": "6", "BONUSPOINTS": "3"}}, {"type": "Feature", "geometry": {"type": "Point", "coordinates": [-110.9023, 42.4551]}, "properties": {"NAME": "W7Y/SW-126", "TITLE": "8476", "REGION": "South Wyoming", "ASSOCIATION": "USA - Wyoming", "POINTS": "6", "BONUSPOINTS": "3"}}, {"type": "Feature", "geometry": {"type": "Point", "coordinates": [-110.1345, 41.1346]}, "properties": {"NAME": "W7Y/SW-127", "TITLE": "Sage Creek Mountain", "REGION": "South Wyoming", "ASSOCIATION": "USA - Wyoming", "POINTS": "6", "BONUSPOINTS": "3"}}, {"type": "Feature", "geometry": {"type": "Point", "coordinates": [-107.3532, 41.5434]}, "properties": {"NAME": "W7Y/SW-128", "TITLE": "Miller Hill", "REGION": "South Wyoming", "ASSOCIATION": "USA - Wyoming", "POINTS": "6", "BONUSPOINTS": "3"}}, {"type": "Feature", "geometry": {"type": "Point", "coordinates": [-107.0234, 42.1898]}, "properties": {"NAME": "W7Y/SW-129", "TITLE": "8421", "REGION": "South Wyoming", "ASSOCIATION": "USA - Wyoming", "POINTS": "6", "BONUSPOINTS": "3"}}, {"type": "Feature", "geometry": {"type": "Point", "coordinates": [-110.451, 42.0359]}, "properties": {"NAME": "W7Y/SW-130", "TITLE": "Slate Creek Ridge", "REGION": "South Wyoming", "ASSOCIATION": "USA - Wyoming", "POINTS": "6", "BONUSPOINTS": "3"}}, {"type": "Feature", "geometry": {"type": "Point", "coordinates": [-107.2902, 41.1831]}, "properties": {"NAME": "W7Y/SW-131", "TITLE": "Green Ridge", "REGION": "South Wyoming", "ASSOCIATION": "USA - Wyoming", "POINTS": "6", "BONUSPOINTS": "3"}}, {"type": "Feature", "geometry": {"type": "Point", "coordinates": [-111.0414, 42.5388]}, "properties": {"NAME": "W7Y/SW-132", "TITLE": "Pinnacle, The", "REGION": "South Wyoming", "ASSOCIATION": "USA - Wyoming", "POINTS": "6", "BONUSPOINTS": "3"}}, {"type": "Feature", "geometry": {"type": "Point", "coordinates": [-108.9726, 41.1435]}, "properties": {"NAME": "W7Y/SW-133", "TITLE": "Potter Mountain", "REGION": "South Wyoming", "ASSOCIATION": "USA - Wyoming", "POINTS": "6", "BONUSPOINTS": "3"}}, {"type": "Feature", "geometry": {"type": "Point", "coordinates": [-106.9801, 42.1505]}, "properties": {"NAME": "W7Y/SW-134", "TITLE": "8350", "REGION": "South Wyoming", "ASSOCIATION": "USA - Wyoming", "POINTS": "6", "BONUSPOINTS": "3"}}, {"type": "Feature", "geometry": {"type": "Point", "coordinates": [-110.9454, 42.2723]}, "properties": {"NAME": "W7Y/SW-135", "TITLE": "Pine Knoll", "REGION": "South Wyoming", "ASSOCIATION": "USA - Wyoming", "POINTS": "6", "BONUSPOINTS": "3"}}, {"type": "Feature", "geometry": {"type": "Point", "coordinates": [-106.2971, 42.0958]}, "properties": {"NAME": "W7Y/SW-136", "TITLE": "Windy Hill", "REGION": "South Wyoming", "ASSOCIATION": "USA - Wyoming", "POINTS": "6", "BONUSPOINTS": "3"}}, {"type": "Feature", "geometry": {"type": "Point", "coordinates": [-106.8722, 42.3421]}, "properties": {"NAME": "W7Y/SW-137", "TITLE": "Pyramid Peak", "REGION": "South Wyoming", "ASSOCIATION": "USA - Wyoming", "POINTS": "6", "BONUSPOINTS": "3"}}, {"type": "Feature", "geometry": {"type": "Point", "coordinates": [-106.6021, 41.2632]}, "properties": {"NAME": "W7Y/SW-138", "TITLE": "Bennett Peak", "REGION": "South Wyoming", "ASSOCIATION": "USA - Wyoming", "POINTS": "6", "BONUSPOINTS": "3"}}, {"type": "Feature", "geometry": {"type": "Point", "coordinates": [-107.1845, 41.009]}, "properties": {"NAME": "W7Y/SW-139", "TITLE": "Sheep Mountain", "REGION": "South Wyoming", "ASSOCIATION": "USA - Wyoming", "POINTS": "6", "BONUSPOINTS": "3"}}, {"type": "Feature", "geometry": {"type": "Point", "coordinates": [-109.0079, 41.9063]}, "properties": {"NAME": "W7Y/SW-140", "TITLE": "South Table Mountain", "REGION": "South Wyoming", "ASSOCIATION": "USA - Wyoming", "POINTS": "6", "BONUSPOINTS": "3"}}, {"type": "Feature", "geometry": {"type": "Point", "coordinates": [-106.385, 42.1491]}, "properties": {"NAME": "W7Y/SW-141", "TITLE": "Sullivan Benchmark", "REGION": "South Wyoming", "ASSOCIATION": "USA - Wyoming", "POINTS": "6", "BONUSPOINTS": "3"}}, {"type": "Feature", "geometry": {"type": "Point", "coordinates": [-106.7711, 42.1395]}, "properties": {"NAME": "W7Y/SW-142", "TITLE": "Sailor Benchmark", "REGION": "South Wyoming", "ASSOCIATION": "USA - Wyoming", "POINTS": "6", "BONUSPOINTS": "3"}}, {"type": "Feature", "geometry": {"type": "Point", "coordinates": [-106.8353, 42.3079]}, "properties": {"NAME": "W7Y/SW-143", "TITLE": "Pedro Benchmark", "REGION": "South Wyoming", "ASSOCIATION": "USA - Wyoming", "POINTS": "6", "BONUSPOINTS": "3"}}, {"type": "Feature", "geometry": {"type": "Point", "coordinates": [-110.8246, 41.7217]}, "properties": {"NAME": "W7Y/SW-144", "TITLE": "Elk Mountain", "REGION": "South Wyoming", "ASSOCIATION": "USA - Wyoming", "POINTS": "6", "BONUSPOINTS": "3"}}, {"type": "Feature", "geometry": {"type": "Point", "coordinates": [-110.9632, 42.2437]}, "properties": {"NAME": "W7Y/SW-145", "TITLE": "8227", "REGION": "South Wyoming", "ASSOCIATION": "USA - Wyoming", "POINTS": "6", "BONUSPOINTS": "3"}}, {"type": "Feature", "geometry": {"type": "Point", "coordinates": [-108.5669, 41.1551]}, "properties": {"NAME": "W7Y/SW-146", "TITLE": "Kinney Rim", "REGION": "South Wyoming", "ASSOCIATION": "USA - Wyoming", "POINTS": "6", "BONUSPOINTS": "3"}}, {"type": "Feature", "geometry": {"type": "Point", "coordinates": [-109.0335, 41.2065]}, "properties": {"NAME": "W7Y/SW-147", "TITLE": "Laney Rim", "REGION": "South Wyoming", "ASSOCIATION": "USA - Wyoming", "POINTS": "6", "BONUSPOINTS": "3"}}, {"type": "Feature", "geometry": {"type": "Point", "coordinates": [-110.8414, 41.992]}, "properties": {"NAME": "W7Y/SW-148", "TITLE": "Rock Creek Ridge", "REGION": "South Wyoming", "ASSOCIATION": "USA - Wyoming", "POINTS": "6", "BONUSPOINTS": "3"}}, {"type": "Feature", "geometry": {"type": "Point", "coordinates": [-107.237, 41.6793]}, "properties": {"NAME": "W7Y/SW-149", "TITLE": "Chokecherry Knob", "REGION": "South Wyoming", "ASSOCIATION": "USA - Wyoming", "POINTS": "6", "BONUSPOINTS": "3"}}, {"type": "Feature", "geometry": {"type": "Point", "coordinates": [-110.7752, 41.1731]}, "properties": {"NAME": "W7Y/SW-150", "TITLE": "Aspen Mountain", "REGION": "South Wyoming", "ASSOCIATION": "USA - Wyoming", "POINTS": "6", "BONUSPOINTS": "3"}}, {"type": "Feature", "geometry": {"type": "Point", "coordinates": [-108.8027, 41.5549]}, "properties": {"NAME": "W7Y/SW-151", "TITLE": "Black Buttes", "REGION": "South Wyoming", "ASSOCIATION": "USA - Wyoming", "POINTS": "6", "BONUSPOINTS": "3"}}, {"type": "Feature", "geometry": {"type": "Point", "coordinates": [-106.3113, 42.0526]}, "properties": {"NAME": "W7Y/SW-152", "TITLE": "8086", "REGION": "South Wyoming", "ASSOCIATION": "USA - Wyoming", "POINTS": "6", "BONUSPOINTS": "3"}}, {"type": "Feature", "geometry": {"type": "Point", "coordinates": [-107.6435, 42.1973]}, "properties": {"NAME": "W7Y/SW-153", "TITLE": "Ridge Benchmark", "REGION": "South Wyoming", "ASSOCIATION": "USA - Wyoming", "POINTS": "6", "BONUSPOINTS": "3"}}, {"type": "Feature", "geometry": {"type": "Point", "coordinates": [-109.7523, 41.1297]}, "properties": {"NAME": "W7Y/SW-154", "TITLE": "Twin Buttes North", "REGION": "South Wyoming", "ASSOCIATION": "USA - Wyoming", "POINTS": "6", "BONUSPOINTS": "3"}}, {"type": "Feature", "geometry": {"type": "Point", "coordinates": [-106.5938, 41.7033]}, "properties": {"NAME": "W7Y/SW-155", "TITLE": "Halleck Ridge", "REGION": "South Wyoming", "ASSOCIATION": "USA - Wyoming", "POINTS": "6", "BONUSPOINTS": "3"}}, {"type": "Feature", "geometry": {"type": "Point", "coordinates": [-109.1153, 42.0553]}, "properties": {"NAME": "W7Y/SW-156", "TITLE": "Essex Mountain", "REGION": "South Wyoming", "ASSOCIATION": "USA - Wyoming", "POINTS": "6", "BONUSPOINTS": "3"}}, {"type": "Feature", "geometry": {"type": "Point", "coordinates": [-110.8181, 41.9072]}, "properties": {"NAME": "W7Y/SW-157", "TITLE": "8043", "REGION": "South Wyoming", "ASSOCIATION": "USA - Wyoming", "POINTS": "6", "BONUSPOINTS": "3"}}, {"type": "Feature", "geometry": {"type": "Point", "coordinates": [-107.3438, 41.039]}, "properties": {"NAME": "W7Y/SW-158", "TITLE": "Horse Mountain", "REGION": "South Wyoming", "ASSOCIATION": "USA - Wyoming", "POINTS": "6", "BONUSPOINTS": "3"}}, {"type": "Feature", "geometry": {"type": "Point", "coordinates": [-110.5042, 41.8384]}, "properties": {"NAME": "W7Y/SW-159", "TITLE": "Quealy Peak", "REGION": "South Wyoming", "ASSOCIATION": "USA - Wyoming", "POINTS": "6", "BONUSPOINTS": "3"}}, {"type": "Feature", "geometry": {"type": "Point", "coordinates": [-110.4671, 41.921]}, "properties": {"NAME": "W7Y/SW-160", "TITLE": "Slate Benchmark", "REGION": "South Wyoming", "ASSOCIATION": "USA - Wyoming", "POINTS": "6", "BONUSPOINTS": "3"}}, {"type": "Feature", "geometry": {"type": "Point", "coordinates": [-106.4731, 42.3425]}, "properties": {"NAME": "W7Y/SW-161", "TITLE": "Chalk Mountain", "REGION": "South Wyoming", "ASSOCIATION": "USA - Wyoming", "POINTS": "6", "BONUSPOINTS": "3"}}, {"type": "Feature", "geometry": {"type": "Point", "coordinates": [-108.9331, 41.7969]}, "properties": {"NAME": "W7Y/SW-162", "TITLE": "Zirkel Mesa", "REGION": "South Wyoming", "ASSOCIATION": "USA - Wyoming", "POINTS": "6", "BONUSPOINTS": "3"}}, {"type": "Feature", "geometry": {"type": "Point", "coordinates": [-109.7523, 41.1574]}, "properties": {"NAME": "W7Y/SW-163", "TITLE": "Black Mountain West", "REGION": "South Wyoming", "ASSOCIATION": "USA - Wyoming", "POINTS": "4", "BONUSPOINTS": "3"}}, {"type": "Feature", "geometry": {"type": "Point", "coordinates": [-107.1177, 42.1199]}, "properties": {"NAME": "W7Y/SW-164", "TITLE": "Windy Ridge", "REGION": "South Wyoming", "ASSOCIATION": "USA - Wyoming", "POINTS": "4", "BONUSPOINTS": "3"}}, {"type": "Feature", "geometry": {"type": "Point", "coordinates": [-109.3521, 41.6434]}, "properties": {"NAME": "W7Y/SW-165", "TITLE": "Pilot Butte", "REGION": "South Wyoming", "ASSOCIATION": "USA - Wyoming", "POINTS": "4", "BONUSPOINTS": "3"}}, {"type": "Feature", "geometry": {"type": "Point", "coordinates": [-110.9417, 41.4761]}, "properties": {"NAME": "W7Y/SW-166", "TITLE": "7910", "REGION": "South Wyoming", "ASSOCIATION": "USA - Wyoming", "POINTS": "4", "BONUSPOINTS": "3"}}, {"type": "Feature", "geometry": {"type": "Point", "coordinates": [-106.6923, 41.7637]}, "properties": {"NAME": "W7Y/SW-167", "TITLE": "Dana Ridge North", "REGION": "South Wyoming", "ASSOCIATION": "USA - Wyoming", "POINTS": "4", "BONUSPOINTS": "3"}}, {"type": "Feature", "geometry": {"type": "Point", "coordinates": [-107.5378, 41.1166]}, "properties": {"NAME": "W7Y/SW-168", "TITLE": "Muddy Mountain", "REGION": "South Wyoming", "ASSOCIATION": "USA - Wyoming", "POINTS": "4", "BONUSPOINTS": "3"}}, {"type": "Feature", "geometry": {"type": "Point", "coordinates": [-106.2176, 42.1079]}, "properties": {"NAME": "W7Y/SW-169", "TITLE": "Battle Mountain", "REGION": "South Wyoming", "ASSOCIATION": "USA - Wyoming", "POINTS": "4", "BONUSPOINTS": "3"}}, {"type": "Feature", "geometry": {"type": "Point", "coordinates": [-110.8511, 42.4071]}, "properties": {"NAME": "W7Y/SW-170", "TITLE": "7875", "REGION": "South Wyoming", "ASSOCIATION": "USA - Wyoming", "POINTS": "4", "BONUSPOINTS": "3"}}, {"type": "Feature", "geometry": {"type": "Point", "coordinates": [-107.5545, 42.1403]}, "properties": {"NAME": "W7Y/SW-171", "TITLE": "Bull Springs Rim", "REGION": "South Wyoming", "ASSOCIATION": "USA - Wyoming", "POINTS": "4", "BONUSPOINTS": "3"}}, {"type": "Feature", "geometry": {"type": "Point", "coordinates": [-107.1269, 41.9223]}, "properties": {"NAME": "W7Y/SW-172", "TITLE": "Haystack Mountains HP", "REGION": "South Wyoming", "ASSOCIATION": "USA - Wyoming", "POINTS": "4", "BONUSPOINTS": "3"}}, {"type": "Feature", "geometry": {"type": "Point", "coordinates": [-107.326, 41.8155]}, "properties": {"NAME": "W7Y/SW-173", "TITLE": "Cherokee Peak", "REGION": "South Wyoming", "ASSOCIATION": "USA - Wyoming", "POINTS": "4", "BONUSPOINTS": "3"}}, {"type": "Feature", "geometry": {"type": "Point", "coordinates": [-107.8338, 41.2169]}, "properties": {"NAME": "W7Y/SW-174", "TITLE": "North Flat Top", "REGION": "South Wyoming", "ASSOCIATION": "USA - Wyoming", "POINTS": "4", "BONUSPOINTS": "3"}}, {"type": "Feature", "geometry": {"type": "Point", "coordinates": [-107.3309, 41.0501]}, "properties": {"NAME": "W7Y/SW-175", "TITLE": "7819", "REGION": "South Wyoming", "ASSOCIATION": "USA - Wyoming", "POINTS": "4", "BONUSPOINTS": "3"}}, {"type": "Feature", "geometry": {"type": "Point", "coordinates": [-110.9206, 42.3125]}, "properties": {"NAME": "W7Y/SW-176", "TITLE": "7808", "REGION": "South Wyoming", "ASSOCIATION": "USA - Wyoming", "POINTS": "4", "BONUSPOINTS": "3"}}, {"type": "Feature", "geometry": {"type": "Point", "coordinates": [-107.2683, 41.8046]}, "properties": {"NAME": "W7Y/SW-177", "TITLE": "Rawlins Peak", "REGION": "South Wyoming", "ASSOCIATION": "USA - Wyoming", "POINTS": "4", "BONUSPOINTS": "3"}}, {"type": "Feature", "geometry": {"type": "Point", "coordinates": [-106.7194, 41.294]}, "properties": {"NAME": "W7Y/SW-178", "TITLE": "Baggot Rocks", "REGION": "South Wyoming", "ASSOCIATION": "USA - Wyoming", "POINTS": "4", "BONUSPOINTS": "3"}}, {"type": "Feature", "geometry": {"type": "Point", "coordinates": [-107.8078, 41.1724]}, "properties": {"NAME": "W7Y/SW-179", "TITLE": "7790", "REGION": "South Wyoming", "ASSOCIATION": "USA - Wyoming", "POINTS": "4", "BONUSPOINTS": "3"}}, {"type": "Feature", "geometry": {"type": "Point", "coordinates": [-109.3069, 41.2536]}, "properties": {"NAME": "W7Y/SW-180", "TITLE": "Sheep Mountain", "REGION": "South Wyoming", "ASSOCIATION": "USA - Wyoming", "POINTS": "4", "BONUSPOINTS": "3"}}, {"type": "Feature", "geometry": {"type": "Point", "coordinates": [-108.9262, 41.5102]}, "properties": {"NAME": "W7Y/SW-181", "TITLE": "7744", "REGION": "South Wyoming", "ASSOCIATION": "USA - Wyoming", "POINTS": "4", "BONUSPOINTS": "3"}}, {"type": "Feature", "geometry": {"type": "Point", "coordinates": [-110.636, 41.7671]}, "properties": {"NAME": "W7Y/SW-182", "TITLE": "7731", "REGION": "South Wyoming", "ASSOCIATION": "USA - Wyoming", "POINTS": "4", "BONUSPOINTS": "3"}}, {"type": "Feature", "geometry": {"type": "Point", "coordinates": [-109.2735, 41.9243]}, "properties": {"NAME": "W7Y/SW-183", "TITLE": "White Mountain North", "REGION": "South Wyoming", "ASSOCIATION": "USA - Wyoming", "POINTS": "4", "BONUSPOINTS": "3"}}, {"type": "Feature", "geometry": {"type": "Point", "coordinates": [-109.1653, 42.0322]}, "properties": {"NAME": "W7Y/SW-184", "TITLE": "7728", "REGION": "South Wyoming", "ASSOCIATION": "USA - Wyoming", "POINTS": "4", "BONUSPOINTS": "3"}}, {"type": "Feature", "geometry": {"type": "Point", "coordinates": [-110.8133, 41.8525]}, "properties": {"NAME": "W7Y/SW-185", "TITLE": "7718", "REGION": "South Wyoming", "ASSOCIATION": "USA - Wyoming", "POINTS": "4", "BONUSPOINTS": "3"}}, {"type": "Feature", "geometry": {"type": "Point", "coordinates": [-111.0364, 42.017]}, "properties": {"NAME": "W7Y/SW-186", "TITLE": "7718", "REGION": "South Wyoming", "ASSOCIATION": "USA - Wyoming", "POINTS": "4", "BONUSPOINTS": "3"}}, {"type": "Feature", "geometry": {"type": "Point", "coordinates": [-106.792, 42.362]}, "properties": {"NAME": "W7Y/SW-187", "TITLE": "Tops Benchmark", "REGION": "South Wyoming", "ASSOCIATION": "USA - Wyoming", "POINTS": "4", "BONUSPOINTS": "3"}}, {"type": "Feature", "geometry": {"type": "Point", "coordinates": [-110.9154, 42.6919]}, "properties": {"NAME": "W7Y/SW-188", "TITLE": "7715", "REGION": "South Wyoming", "ASSOCIATION": "USA - Wyoming", "POINTS": "4", "BONUSPOINTS": "3"}}, {"type": "Feature", "geometry": {"type": "Point", "coordinates": [-110.9495, 42.1574]}, "properties": {"NAME": "W7Y/SW-189", "TITLE": "7710", "REGION": "South Wyoming", "ASSOCIATION": "USA - Wyoming", "POINTS": "4", "BONUSPOINTS": "3"}}, {"type": "Feature", "geometry": {"type": "Point", "coordinates": [-108.1669, 41.0499]}, "properties": {"NAME": "W7Y/SW-190", "TITLE": "Powder Rim", "REGION": "South Wyoming", "ASSOCIATION": "USA - Wyoming", "POINTS": "4", "BONUSPOINTS": "3"}}, {"type": "Feature", "geometry": {"type": "Point", "coordinates": [-108.9625, 41.2918]}, "properties": {"NAME": "W7Y/SW-191", "TITLE": "7688", "REGION": "South Wyoming", "ASSOCIATION": "USA - Wyoming", "POINTS": "4", "BONUSPOINTS": "3"}}, {"type": "Feature", "geometry": {"type": "Point", "coordinates": [-107.3084, 41.9727]}, "properties": {"NAME": "W7Y/SW-192", "TITLE": "Rendle Hill", "REGION": "South Wyoming", "ASSOCIATION": "USA - Wyoming", "POINTS": "4", "BONUSPOINTS": "3"}}, {"type": "Feature", "geometry": {"type": "Point", "coordinates": [-107.6426, 41.4505]}, "properties": {"NAME": "W7Y/SW-193", "TITLE": "Doty Mountain", "REGION": "South Wyoming", "ASSOCIATION": "USA - Wyoming", "POINTS": "4", "BONUSPOINTS": "3"}}, {"type": "Feature", "geometry": {"type": "Point", "coordinates": [-108.1582, 41.412]}, "properties": {"NAME": "W7Y/SW-194", "TITLE": "Haystacks East, The", "REGION": "South Wyoming", "ASSOCIATION": "USA - Wyoming", "POINTS": "4", "BONUSPOINTS": "3"}}, {"type": "Feature", "geometry": {"type": "Point", "coordinates": [-109.3455, 41.4959]}, "properties": {"NAME": "W7Y/SW-195", "TITLE": "Wilkins Peak", "REGION": "South Wyoming", "ASSOCIATION": "USA - Wyoming", "POINTS": "4", "BONUSPOINTS": "3"}}, {"type": "Feature", "geometry": {"type": "Point", "coordinates": [-106.2375, 42.0513]}, "properties": {"NAME": "W7Y/SW-196", "TITLE": "7641", "REGION": "South Wyoming", "ASSOCIATION": "USA - Wyoming", "POINTS": "4", "BONUSPOINTS": "3"}}, {"type": "Feature", "geometry": {"type": "Point", "coordinates": [-108.8789, 41.8518]}, "properties": {"NAME": "W7Y/SW-197", "TITLE": "Spring Butte", "REGION": "South Wyoming", "ASSOCIATION": "USA - Wyoming", "POINTS": "4", "BONUSPOINTS": "3"}}, {"type": "Feature", "geometry": {"type": "Point", "coordinates": [-110.9601, 41.7397]}, "properties": {"NAME": "W7Y/SW-198", "TITLE": "Sillem Ridge", "REGION": "South Wyoming", "ASSOCIATION": "USA - Wyoming", "POINTS": "4", "BONUSPOINTS": "3"}}, {"type": "Feature", "geometry": {"type": "Point", "coordinates": [-108.3856, 41.4949]}, "properties": {"NAME": "W7Y/SW-199", "TITLE": "Delaney Rim", "REGION": "South Wyoming", "ASSOCIATION": "USA - Wyoming", "POINTS": "4", "BONUSPOINTS": "3"}}, {"type": "Feature", "geometry": {"type": "Point", "coordinates": [-106.9977, 41.8378]}, "properties": {"NAME": "W7Y/SW-200", "TITLE": "Steele, Mount", "REGION": "South Wyoming", "ASSOCIATION": "USA - Wyoming", "POINTS": "4", "BONUSPOINTS": "3"}}, {"type": "Feature", "geometry": {"type": "Point", "coordinates": [-107.0949, 42.2388]}, "properties": {"NAME": "W7Y/SW-201", "TITLE": "Bear Mountain", "REGION": "South Wyoming", "ASSOCIATION": "USA - Wyoming", "POINTS": "4", "BONUSPOINTS": "3"}}, {"type": "Feature", "geometry": {"type": "Point", "coordinates": [-106.5797, 41.9139]}, "properties": {"NAME": "W7Y/SW-202", "TITLE": "One Benchmark", "REGION": "South Wyoming", "ASSOCIATION": "USA - Wyoming", "POINTS": "4", "BONUSPOINTS": "3"}}, {"type": "Feature", "geometry": {"type": "Point", "coordinates": [-110.9163, 42.8141]}, "properties": {"NAME": "W7Y/SW-203", "TITLE": "7500", "REGION": "South Wyoming", "ASSOCIATION": "USA - Wyoming", "POINTS": "4", "BONUSPOINTS": "3"}}, {"type": "Feature", "geometry": {"type": "Point", "coordinates": [-106.8414, 41.795]}, "properties": {"NAME": "W7Y/SW-204", "TITLE": "Saint Marys Hill", "REGION": "South Wyoming", "ASSOCIATION": "USA - Wyoming", "POINTS": "4", "BONUSPOINTS": "3"}}, {"type": "Feature", "geometry": {"type": "Point", "coordinates": [-111.0435, 41.9868]}, "properties": {"NAME": "W7Y/SW-205", "TITLE": "7471", "REGION": "South Wyoming", "ASSOCIATION": "USA - Wyoming", "POINTS": "4", "BONUSPOINTS": "3"}}, {"type": "Feature", "geometry": {"type": "Point", "coordinates": [-110.9733, 41.3174]}, "properties": {"NAME": "W7Y/SW-206", "TITLE": "7470", "REGION": "South Wyoming", "ASSOCIATION": "USA - Wyoming", "POINTS": "4", "BONUSPOINTS": "3"}}, {"type": "Feature", "geometry": {"type": "Point", "coordinates": [-108.9327, 41.4437]}, "properties": {"NAME": "W7Y/SW-207", "TITLE": "7370", "REGION": "South Wyoming", "ASSOCIATION": "USA - Wyoming", "POINTS": "4", "BONUSPOINTS": "3"}}, {"type": "Feature", "geometry": {"type": "Point", "coordinates": [-107.4222, 42.3387]}, "properties": {"NAME": "W7Y/SW-208", "TITLE": "Fork Benchmark", "REGION": "South Wyoming", "ASSOCIATION": "USA - Wyoming", "POINTS": "4", "BONUSPOINTS": "3"}}, {"type": "Feature", "geometry": {"type": "Point", "coordinates": [-109.4354, 41.4366]}, "properties": {"NAME": "W7Y/SW-209", "TITLE": "7194", "REGION": "South Wyoming", "ASSOCIATION": "USA - Wyoming", "POINTS": "4", "BONUSPOINTS": "3"}}, {"type": "Feature", "geometry": {"type": "Point", "coordinates": [-110.9368, 42.8571]}, "properties": {"NAME": "W7Y/SW-210", "TITLE": "7100", "REGION": "South Wyoming", "ASSOCIATION": "USA - Wyoming", "POINTS": "4", "BONUSPOINTS": "3"}}, {"type": "Feature", "geometry": {"type": "Point", "coordinates": [-109.4414, 41.0049]}, "properties": {"NAME": "W7Y/SW-211", "TITLE": "Glades West, The", "REGION": "South Wyoming", "ASSOCIATION": "USA - Wyoming", "POINTS": "4", "BONUSPOINTS": "3"}}, {"type": "Feature", "geometry": {"type": "Point", "coordinates": [-109.3779, 41.4085]}, "properties": {"NAME": "W7Y/SW-212", "TITLE": "6981", "REGION": "South Wyoming", "ASSOCIATION": "USA - Wyoming", "POINTS": "2", "BONUSPOINTS": "3"}}, {"type": "Feature", "geometry": {"type": "Point", "coordinates": [-107.1607, 42.4025]}, "properties": {"NAME": "W7Y/SW-213", "TITLE": "Point Of Rocks", "REGION": "South Wyoming", "ASSOCIATION": "USA - Wyoming", "POINTS": "2", "BONUSPOINTS": "3"}}, {"type": "Feature", "geometry": {"type": "Point", "coordinates": [-106.9208, 42.3541]}, "properties": {"NAME": "W7Y/SW-214", "TITLE": "6590", "REGION": "South Wyoming", "ASSOCIATION": "USA - Wyoming", "POINTS": "2", "BONUSPOINTS": "3"}}, {"type": "Feature", "geometry": {"type": "Point", "coordinates": [-106.9218, 42.3402]}, "properties": {"NAME": "W7Y/SW-215", "TITLE": "6539", "REGION": "South Wyoming", "ASSOCIATION": "USA - Wyoming", "POINTS": "2", "BONUSPOINTS": "3"}}, {"type": "Feature", "geometry": {"type": "Point", "coordinates": [-106.5509, 41.0029]}, "properties": {"NAME": "W7Y/SW-216", "TITLE": "8945", "REGION": "South Wyoming", "ASSOCIATION": "USA - Wyoming", "POINTS": "6", "BONUSPOINTS": "3"}}, {"type": "Feature", "geometry": {"type": "Point", "coordinates": [-107.6116, 41.1888]}, "properties": {"NAME": "W7Y/SW-217", "TITLE": "Wild Horse Butte", "REGION": "South Wyoming", "ASSOCIATION": "USA - Wyoming", "POINTS": "4", "BONUSPOINTS": "3"}}, {"type": "Feature", "geometry": {"type": "Point", "coordinates": [-111.0148, 41.5143]}, "properties": {"NAME": "W7Y/SW-218", "TITLE": "Hanks Hill", "REGION": "South Wyoming", "ASSOCIATION": "USA - Wyoming", "POINTS": "2", "BONUSPOINTS": "3"}}]}