{"type": "FeatureCollection", "name": "W7U/UT SUMMITS", "features": [{"type": "Feature", "geometry": {"type": "Point", "coordinates": [-111.6678, 40.4161]}, "properties": {"NAME": "W7U/UT-001", "TITLE": "11441", "REGION": "Utah County", "ASSOCIATION": "USA - Utah", "POINTS": "10", "BONUSPOINTS": "3"}}, {"type": "Feature", "geometry": {"type": "Point", "coordinates": [-111.6964, 40.49]}, "properties": {"NAME": "W7U/UT-002", "TITLE": "Box Elder Peak", "REGION": "Utah County", "ASSOCIATION": "USA - Utah", "POINTS": "10", "BONUSPOINTS": "3"}}, {"type": "Feature", "geometry": {"type": "Point", "coordinates": [-111.5467, 40.2483]}, "properties": {"NAME": "W7U/UT-003", "TITLE": "11044", "REGION": "Utah County", "ASSOCIATION": "USA - Utah", "POINTS": "10", "BONUSPOINTS": "3"}}, {"type": "Feature", "geometry": {"type": "Point", "coordinates": [-111.6375, 40.3998]}, "properties": {"NAME": "W7U/UT-004", "TITLE": "Roberts Horn", "REGION": "Utah County", "ASSOCIATION": "USA - Utah", "POINTS": "10", "BONUSPOINTS": "3"}}, {"type": "Feature", "geometry": {"type": "Point", "coordinates": [-111.5767, 40.4962]}, "properties": {"NAME": "W7U/UT-005", "TITLE": "Mill Canyon Peak", "REGION": "Utah County", "ASSOCIATION": "USA - Utah", "POINTS": "8", "BONUSPOINTS": "3"}}, {"type": "Feature", "geometry": {"type": "Point", "coordinates": [-111.315, 40.2875]}, "properties": {"NAME": "W7U/UT-006", "TITLE": "Strawberry Peak", "REGION": "Utah County", "ASSOCIATION": "USA - Utah", "POINTS": "8", "BONUSPOINTS": "3"}}, {"type": "Feature", "geometry": {"type": "Point", "coordinates": [-111.7329, 39.92]}, "properties": {"NAME": "W7U/UT-007", "TITLE": "9596", "REGION": "Utah County", "ASSOCIATION": "USA - Utah", "POINTS": "8", "BONUSPOINTS": "3"}}, {"type": "Feature", "geometry": {"type": "Point", "coordinates": [-111.5884, 40.2139]}, "properties": {"NAME": "W7U/UT-008", "TITLE": "Buckley Mountain", "REGION": "Utah County", "ASSOCIATION": "USA - Utah", "POINTS": "8", "BONUSPOINTS": "3"}}, {"type": "Feature", "geometry": {"type": "Point", "coordinates": [-111.5015, 40.2853]}, "properties": {"NAME": "W7U/UT-009", "TITLE": "9474", "REGION": "Utah County", "ASSOCIATION": "USA - Utah", "POINTS": "8", "BONUSPOINTS": "3"}}, {"type": "Feature", "geometry": {"type": "Point", "coordinates": [-111.2041, 40.0507]}, "properties": {"NAME": "W7U/UT-010", "TITLE": "Baldy Mountain", "REGION": "Utah County", "ASSOCIATION": "USA - Utah", "POINTS": "8", "BONUSPOINTS": "3"}}, {"type": "Feature", "geometry": {"type": "Point", "coordinates": [-111.3145, 39.8578]}, "properties": {"NAME": "W7U/UT-011", "TITLE": "Bear Benchmark", "REGION": "Utah County", "ASSOCIATION": "USA - Utah", "POINTS": "8", "BONUSPOINTS": "3"}}, {"type": "Feature", "geometry": {"type": "Point", "coordinates": [-111.459, 40.3007]}, "properties": {"NAME": "W7U/UT-012", "TITLE": "Bald Knoll", "REGION": "Utah County", "ASSOCIATION": "USA - Utah", "POINTS": "8", "BONUSPOINTS": "3"}}, {"type": "Feature", "geometry": {"type": "Point", "coordinates": [-111.36, 40.2883]}, "properties": {"NAME": "W7U/UT-013", "TITLE": "9200", "REGION": "Utah County", "ASSOCIATION": "USA - Utah", "POINTS": "8", "BONUSPOINTS": "3"}}, {"type": "Feature", "geometry": {"type": "Point", "coordinates": [-111.4526, 40.3351]}, "properties": {"NAME": "W7U/UT-014", "TITLE": "Wallsburg Ridge", "REGION": "Utah County", "ASSOCIATION": "USA - Utah", "POINTS": "8", "BONUSPOINTS": "3"}}, {"type": "Feature", "geometry": {"type": "Point", "coordinates": [-111.5972, 40.2374]}, "properties": {"NAME": "W7U/UT-015", "TITLE": "Maple Mountain", "REGION": "Utah County", "ASSOCIATION": "USA - Utah", "POINTS": "8", "BONUSPOINTS": "3"}}, {"type": "Feature", "geometry": {"type": "Point", "coordinates": [-111.7142, 40.4101]}, "properties": {"NAME": "W7U/UT-016", "TITLE": "Mahogany Mountain", "REGION": "Utah County", "ASSOCIATION": "USA - Utah", "POINTS": "8", "BONUSPOINTS": "3"}}, {"type": "Feature", "geometry": {"type": "Point", "coordinates": [-111.5852, 40.244]}, "properties": {"NAME": "W7U/UT-017", "TITLE": "9001", "REGION": "Utah County", "ASSOCIATION": "USA - Utah", "POINTS": "8", "BONUSPOINTS": "3"}}, {"type": "Feature", "geometry": {"type": "Point", "coordinates": [-111.1133, 39.8913]}, "properties": {"NAME": "W7U/UT-018", "TITLE": "8980", "REGION": "Utah County", "ASSOCIATION": "USA - Utah", "POINTS": "6", "BONUSPOINTS": "3"}}, {"type": "Feature", "geometry": {"type": "Point", "coordinates": [-111.2472, 40.0536]}, "properties": {"NAME": "W7U/UT-019", "TITLE": "8942", "REGION": "Utah County", "ASSOCIATION": "USA - Utah", "POINTS": "6", "BONUSPOINTS": "3"}}, {"type": "Feature", "geometry": {"type": "Point", "coordinates": [-111.5998, 40.0381]}, "properties": {"NAME": "W7U/UT-020", "TITLE": "Salem Benchmark", "REGION": "Utah County", "ASSOCIATION": "USA - Utah", "POINTS": "6", "BONUSPOINTS": "3"}}, {"type": "Feature", "geometry": {"type": "Point", "coordinates": [-111.6007, 40.4344]}, "properties": {"NAME": "W7U/UT-021", "TITLE": "North Fork Ridge", "REGION": "Utah County", "ASSOCIATION": "USA - Utah", "POINTS": "6", "BONUSPOINTS": "3"}}, {"type": "Feature", "geometry": {"type": "Point", "coordinates": [-111.438, 39.8664]}, "properties": {"NAME": "W7U/UT-022", "TITLE": "8580", "REGION": "Utah County", "ASSOCIATION": "USA - Utah", "POINTS": "6", "BONUSPOINTS": "3"}}, {"type": "Feature", "geometry": {"type": "Point", "coordinates": [-111.4687, 39.903]}, "properties": {"NAME": "W7U/UT-023", "TITLE": "Lake Benchmark", "REGION": "Utah County", "ASSOCIATION": "USA - Utah", "POINTS": "6", "BONUSPOINTS": "3"}}, {"type": "Feature", "geometry": {"type": "Point", "coordinates": [-111.6066, 40.2567]}, "properties": {"NAME": "W7U/UT-024", "TITLE": "Y Mountain", "REGION": "Utah County", "ASSOCIATION": "USA - Utah", "POINTS": "6", "BONUSPOINTS": "3"}}, {"type": "Feature", "geometry": {"type": "Point", "coordinates": [-111.48, 40.1413]}, "properties": {"NAME": "W7U/UT-025", "TITLE": "Dick Benchmark", "REGION": "Utah County", "ASSOCIATION": "USA - Utah", "POINTS": "6", "BONUSPOINTS": "3"}}, {"type": "Feature", "geometry": {"type": "Point", "coordinates": [-111.3696, 40.1707]}, "properties": {"NAME": "W7U/UT-026", "TITLE": "Pumphouse Hill", "REGION": "Utah County", "ASSOCIATION": "USA - Utah", "POINTS": "6", "BONUSPOINTS": "3"}}, {"type": "Feature", "geometry": {"type": "Point", "coordinates": [-111.5017, 40.3524]}, "properties": {"NAME": "W7U/UT-027", "TITLE": "8220", "REGION": "Utah County", "ASSOCIATION": "USA - Utah", "POINTS": "6", "BONUSPOINTS": "3"}}, {"type": "Feature", "geometry": {"type": "Point", "coordinates": [-111.4139, 40.243]}, "properties": {"NAME": "W7U/UT-028", "TITLE": "Red Pine Knoll", "REGION": "Utah County", "ASSOCIATION": "USA - Utah", "POINTS": "6", "BONUSPOINTS": "3"}}, {"type": "Feature", "geometry": {"type": "Point", "coordinates": [-111.3705, 40.1311]}, "properties": {"NAME": "W7U/UT-029", "TITLE": "Red Mountain", "REGION": "Utah County", "ASSOCIATION": "USA - Utah", "POINTS": "6", "BONUSPOINTS": "3"}}, {"type": "Feature", "geometry": {"type": "Point", "coordinates": [-112.1254, 40.0191]}, "properties": {"NAME": "W7U/UT-030", "TITLE": "Bismark Peak", "REGION": "Utah County", "ASSOCIATION": "USA - Utah", "POINTS": "6", "BONUSPOINTS": "3"}}, {"type": "Feature", "geometry": {"type": "Point", "coordinates": [-111.3173, 40.0277]}, "properties": {"NAME": "W7U/UT-031", "TITLE": "Miller Ridge", "REGION": "Utah County", "ASSOCIATION": "USA - Utah", "POINTS": "6", "BONUSPOINTS": "3"}}, {"type": "Feature", "geometry": {"type": "Point", "coordinates": [-111.5249, 40.1768]}, "properties": {"NAME": "W7U/UT-032", "TITLE": "Powerhouse Mountain", "REGION": "Utah County", "ASSOCIATION": "USA - Utah", "POINTS": "6", "BONUSPOINTS": "3"}}, {"type": "Feature", "geometry": {"type": "Point", "coordinates": [-111.3945, 39.9594]}, "properties": {"NAME": "W7U/UT-033", "TITLE": "Sky High", "REGION": "Utah County", "ASSOCIATION": "USA - Utah", "POINTS": "6", "BONUSPOINTS": "3"}}, {"type": "Feature", "geometry": {"type": "Point", "coordinates": [-111.6171, 40.2715]}, "properties": {"NAME": "W7U/UT-034", "TITLE": "Squaw Mountain", "REGION": "Utah County", "ASSOCIATION": "USA - Utah", "POINTS": "6", "BONUSPOINTS": "3"}}, {"type": "Feature", "geometry": {"type": "Point", "coordinates": [-111.4262, 40.156]}, "properties": {"NAME": "W7U/UT-035", "TITLE": "7860", "REGION": "Utah County", "ASSOCIATION": "USA - Utah", "POINTS": "6", "BONUSPOINTS": "3"}}, {"type": "Feature", "geometry": {"type": "Point", "coordinates": [-111.5374, 40.3569]}, "properties": {"NAME": "W7U/UT-036", "TITLE": "7742", "REGION": "Utah County", "ASSOCIATION": "USA - Utah", "POINTS": "6", "BONUSPOINTS": "3"}}, {"type": "Feature", "geometry": {"type": "Point", "coordinates": [-112.066, 39.9941]}, "properties": {"NAME": "W7U/UT-037", "TITLE": "Pinyon Peak", "REGION": "Utah County", "ASSOCIATION": "USA - Utah", "POINTS": "6", "BONUSPOINTS": "3"}}, {"type": "Feature", "geometry": {"type": "Point", "coordinates": [-111.9406, 40.2748]}, "properties": {"NAME": "W7U/UT-038", "TITLE": "Lake Mountains HP", "REGION": "Utah County", "ASSOCIATION": "USA - Utah", "POINTS": "6", "BONUSPOINTS": "3"}}, {"type": "Feature", "geometry": {"type": "Point", "coordinates": [-111.5194, 40.1459]}, "properties": {"NAME": "W7U/UT-039", "TITLE": "Grindstone Ridge", "REGION": "Utah County", "ASSOCIATION": "USA - Utah", "POINTS": "6", "BONUSPOINTS": "3"}}, {"type": "Feature", "geometry": {"type": "Point", "coordinates": [-111.4449, 40.1722]}, "properties": {"NAME": "W7U/UT-040", "TITLE": "7412", "REGION": "Utah County", "ASSOCIATION": "USA - Utah", "POINTS": "4", "BONUSPOINTS": "3"}}, {"type": "Feature", "geometry": {"type": "Point", "coordinates": [-111.4803, 40.1934]}, "properties": {"NAME": "W7U/UT-041", "TITLE": "Granger Mountain", "REGION": "Utah County", "ASSOCIATION": "USA - Utah", "POINTS": "4", "BONUSPOINTS": "3"}}, {"type": "Feature", "geometry": {"type": "Point", "coordinates": [-112.1089, 40.4283]}, "properties": {"NAME": "W7U/UT-042", "TITLE": "Sheps Ridge", "REGION": "Utah County", "ASSOCIATION": "USA - Utah", "POINTS": "4", "BONUSPOINTS": "3"}}, {"type": "Feature", "geometry": {"type": "Point", "coordinates": [-111.8531, 40.463]}, "properties": {"NAME": "W7U/UT-043", "TITLE": "View Benchmark", "REGION": "Utah County", "ASSOCIATION": "USA - Utah", "POINTS": "4", "BONUSPOINTS": "3"}}, {"type": "Feature", "geometry": {"type": "Point", "coordinates": [-112.1528, 40.2197]}, "properties": {"NAME": "W7U/UT-044", "TITLE": "Thorpe Hills", "REGION": "Utah County", "ASSOCIATION": "USA - Utah", "POINTS": "2", "BONUSPOINTS": "0"}}, {"type": "Feature", "geometry": {"type": "Point", "coordinates": [-111.494, 40.0]}, "properties": {"NAME": "W7U/UT-045", "TITLE": "Thistle Junction Benchmark", "REGION": "Utah County", "ASSOCIATION": "USA - Utah", "POINTS": "2", "BONUSPOINTS": "0"}}, {"type": "Feature", "geometry": {"type": "Point", "coordinates": [-112.0277, 40.0771]}, "properties": {"NAME": "W7U/UT-046", "TITLE": "Wanlass Hill", "REGION": "Utah County", "ASSOCIATION": "USA - Utah", "POINTS": "2", "BONUSPOINTS": "0"}}]}