{"type": "FeatureCollection", "name": "W7U/DA SUMMITS", "features": [{"type": "Feature", "geometry": {"type": "Point", "coordinates": [-109.8784, 40.7708]}, "properties": {"NAME": "W7U/DA-001", "TITLE": "Untermann, Mount", "REGION": "Daggett County", "ASSOCIATION": "USA - Utah", "POINTS": "10", "BONUSPOINTS": "3"}}, {"type": "Feature", "geometry": {"type": "Point", "coordinates": [-109.6733, 40.7958]}, "properties": {"NAME": "W7U/DA-002", "TITLE": "Trout Benchmark", "REGION": "Daggett County", "ASSOCIATION": "USA - Utah", "POINTS": "10", "BONUSPOINTS": "3"}}, {"type": "Feature", "geometry": {"type": "Point", "coordinates": [-109.6201, 40.8126]}, "properties": {"NAME": "W7U/DA-003", "TITLE": "10442", "REGION": "Daggett County", "ASSOCIATION": "USA - Utah", "POINTS": "8", "BONUSPOINTS": "3"}}, {"type": "Feature", "geometry": {"type": "Point", "coordinates": [-109.5065, 40.7856]}, "properties": {"NAME": "W7U/DA-004", "TITLE": "10057", "REGION": "Daggett County", "ASSOCIATION": "USA - Utah", "POINTS": "8", "BONUSPOINTS": "3"}}, {"type": "Feature", "geometry": {"type": "Point", "coordinates": [-109.5136, 40.752]}, "properties": {"NAME": "W7U/DA-005", "TITLE": "Grizzly Benchmark", "REGION": "Daggett County", "ASSOCIATION": "USA - Utah", "POINTS": "8", "BONUSPOINTS": "3"}}, {"type": "Feature", "geometry": {"type": "Point", "coordinates": [-109.4149, 40.7868]}, "properties": {"NAME": "W7U/DA-006", "TITLE": "Lena, Mount", "REGION": "Daggett County", "ASSOCIATION": "USA - Utah", "POINTS": "8", "BONUSPOINTS": "3"}}, {"type": "Feature", "geometry": {"type": "Point", "coordinates": [-109.9211, 40.972]}, "properties": {"NAME": "W7U/DA-007", "TITLE": "Corson Peak", "REGION": "Daggett County", "ASSOCIATION": "USA - Utah", "POINTS": "8", "BONUSPOINTS": "3"}}, {"type": "Feature", "geometry": {"type": "Point", "coordinates": [-109.841, 40.9172]}, "properties": {"NAME": "W7U/DA-008", "TITLE": "9350", "REGION": "Daggett County", "ASSOCIATION": "USA - Utah", "POINTS": "8", "BONUSPOINTS": "3"}}, {"type": "Feature", "geometry": {"type": "Point", "coordinates": [-109.3994, 40.8205]}, "properties": {"NAME": "W7U/DA-009", "TITLE": "9300", "REGION": "Daggett County", "ASSOCIATION": "USA - Utah", "POINTS": "8", "BONUSPOINTS": "3"}}, {"type": "Feature", "geometry": {"type": "Point", "coordinates": [-109.4213, 40.8447]}, "properties": {"NAME": "W7U/DA-010", "TITLE": "9184", "REGION": "Daggett County", "ASSOCIATION": "USA - Utah", "POINTS": "8", "BONUSPOINTS": "3"}}, {"type": "Feature", "geometry": {"type": "Point", "coordinates": [-109.0926, 40.9834]}, "properties": {"NAME": "W7U/DA-011", "TITLE": "Bender Mountain", "REGION": "Daggett County", "ASSOCIATION": "USA - Utah", "POINTS": "8", "BONUSPOINTS": "3"}}, {"type": "Feature", "geometry": {"type": "Point", "coordinates": [-109.0709, 40.9934]}, "properties": {"NAME": "W7U/DA-012", "TITLE": "Willow Creek Butte", "REGION": "Daggett County", "ASSOCIATION": "USA - Utah", "POINTS": "6", "BONUSPOINTS": "3"}}, {"type": "Feature", "geometry": {"type": "Point", "coordinates": [-109.0681, 40.6538]}, "properties": {"NAME": "W7U/DA-013", "TITLE": "8856", "REGION": "Daggett County", "ASSOCIATION": "USA - Utah", "POINTS": "6", "BONUSPOINTS": "3"}}, {"type": "Feature", "geometry": {"type": "Point", "coordinates": [-109.0624, 40.7189]}, "properties": {"NAME": "W7U/DA-014", "TITLE": "Hoy Mountain", "REGION": "Daggett County", "ASSOCIATION": "USA - Utah", "POINTS": "6", "BONUSPOINTS": "3"}}, {"type": "Feature", "geometry": {"type": "Point", "coordinates": [-109.353, 40.8601]}, "properties": {"NAME": "W7U/DA-015", "TITLE": "8774", "REGION": "Daggett County", "ASSOCIATION": "USA - Utah", "POINTS": "6", "BONUSPOINTS": "3"}}, {"type": "Feature", "geometry": {"type": "Point", "coordinates": [-109.1919, 40.8173]}, "properties": {"NAME": "W7U/DA-016", "TITLE": "8744", "REGION": "Daggett County", "ASSOCIATION": "USA - Utah", "POINTS": "6", "BONUSPOINTS": "3"}}, {"type": "Feature", "geometry": {"type": "Point", "coordinates": [-109.0565, 40.7572]}, "properties": {"NAME": "W7U/DA-017", "TITLE": "8674", "REGION": "Daggett County", "ASSOCIATION": "USA - Utah", "POINTS": "6", "BONUSPOINTS": "3"}}, {"type": "Feature", "geometry": {"type": "Point", "coordinates": [-109.8027, 40.9522]}, "properties": {"NAME": "W7U/DA-018", "TITLE": "Jessen Butte", "REGION": "Daggett County", "ASSOCIATION": "USA - Utah", "POINTS": "6", "BONUSPOINTS": "3"}}, {"type": "Feature", "geometry": {"type": "Point", "coordinates": [-109.4534, 40.818]}, "properties": {"NAME": "W7U/DA-019", "TITLE": "8612", "REGION": "Daggett County", "ASSOCIATION": "USA - Utah", "POINTS": "6", "BONUSPOINTS": "3"}}, {"type": "Feature", "geometry": {"type": "Point", "coordinates": [-109.1362, 40.687]}, "properties": {"NAME": "W7U/DA-020", "TITLE": "8498", "REGION": "Daggett County", "ASSOCIATION": "USA - Utah", "POINTS": "6", "BONUSPOINTS": "3"}}, {"type": "Feature", "geometry": {"type": "Point", "coordinates": [-109.13, 40.788]}, "properties": {"NAME": "W7U/DA-021", "TITLE": "8328", "REGION": "Daggett County", "ASSOCIATION": "USA - Utah", "POINTS": "6", "BONUSPOINTS": "3"}}, {"type": "Feature", "geometry": {"type": "Point", "coordinates": [-109.1586, 40.7346]}, "properties": {"NAME": "W7U/DA-022", "TITLE": "8225", "REGION": "Daggett County", "ASSOCIATION": "USA - Utah", "POINTS": "6", "BONUSPOINTS": "3"}}, {"type": "Feature", "geometry": {"type": "Point", "coordinates": [-109.2307, 40.8644]}, "properties": {"NAME": "W7U/DA-023", "TITLE": "8216", "REGION": "Daggett County", "ASSOCIATION": "USA - Utah", "POINTS": "6", "BONUSPOINTS": "3"}}, {"type": "Feature", "geometry": {"type": "Point", "coordinates": [-109.1562, 40.8164]}, "properties": {"NAME": "W7U/DA-024", "TITLE": "8192", "REGION": "Daggett County", "ASSOCIATION": "USA - Utah", "POINTS": "6", "BONUSPOINTS": "3"}}, {"type": "Feature", "geometry": {"type": "Point", "coordinates": [-109.1299, 40.757]}, "properties": {"NAME": "W7U/DA-025", "TITLE": "8125", "REGION": "Daggett County", "ASSOCIATION": "USA - Utah", "POINTS": "6", "BONUSPOINTS": "3"}}, {"type": "Feature", "geometry": {"type": "Point", "coordinates": [-109.2645, 40.863]}, "properties": {"NAME": "W7U/DA-026", "TITLE": "8004", "REGION": "Daggett County", "ASSOCIATION": "USA - Utah", "POINTS": "6", "BONUSPOINTS": "3"}}, {"type": "Feature", "geometry": {"type": "Point", "coordinates": [-109.0554, 40.8004]}, "properties": {"NAME": "W7U/DA-027", "TITLE": "7996", "REGION": "Daggett County", "ASSOCIATION": "USA - Utah", "POINTS": "6", "BONUSPOINTS": "3"}}, {"type": "Feature", "geometry": {"type": "Point", "coordinates": [-109.1965, 40.9432]}, "properties": {"NAME": "W7U/DA-028", "TITLE": "Mountain Home", "REGION": "Daggett County", "ASSOCIATION": "USA - Utah", "POINTS": "6", "BONUSPOINTS": "3"}}, {"type": "Feature", "geometry": {"type": "Point", "coordinates": [-109.594, 40.9116]}, "properties": {"NAME": "W7U/DA-029", "TITLE": "Bear Mountain", "REGION": "Daggett County", "ASSOCIATION": "USA - Utah", "POINTS": "6", "BONUSPOINTS": "3"}}, {"type": "Feature", "geometry": {"type": "Point", "coordinates": [-109.5595, 40.9434]}, "properties": {"NAME": "W7U/DA-030", "TITLE": "Boars Tusk", "REGION": "Daggett County", "ASSOCIATION": "USA - Utah", "POINTS": "6", "BONUSPOINTS": "3"}}, {"type": "Feature", "geometry": {"type": "Point", "coordinates": [-109.2323, 40.9512]}, "properties": {"NAME": "W7U/DA-031", "TITLE": "Two Horse Butte", "REGION": "Daggett County", "ASSOCIATION": "USA - Utah", "POINTS": "4", "BONUSPOINTS": "3"}}, {"type": "Feature", "geometry": {"type": "Point", "coordinates": [-109.6813, 40.9298]}, "properties": {"NAME": "W7U/DA-032", "TITLE": "7180", "REGION": "Daggett County", "ASSOCIATION": "USA - Utah", "POINTS": "4", "BONUSPOINTS": "3"}}, {"type": "Feature", "geometry": {"type": "Point", "coordinates": [-109.6156, 40.9608]}, "properties": {"NAME": "W7U/DA-033", "TITLE": "Horseshoe Benchmark", "REGION": "Daggett County", "ASSOCIATION": "USA - Utah", "POINTS": "4", "BONUSPOINTS": "3"}}, {"type": "Feature", "geometry": {"type": "Point", "coordinates": [-109.6043, 40.9436]}, "properties": {"NAME": "W7U/DA-034", "TITLE": "6914", "REGION": "Daggett County", "ASSOCIATION": "USA - Utah", "POINTS": "4", "BONUSPOINTS": "3"}}]}