{"type": "FeatureCollection", "name": "W7U/BO SUMMITS", "features": [{"type": "Feature", "geometry": {"type": "Point", "coordinates": [-113.3658, 41.9105]}, "properties": {"NAME": "W7U/BO-001", "TITLE": "Bull Mountain", "REGION": "Box Elder County", "ASSOCIATION": "USA - Utah", "POINTS": "8", "BONUSPOINTS": "3"}}, {"type": "Feature", "geometry": {"type": "Point", "coordinates": [-113.4211, 41.9296]}, "properties": {"NAME": "W7U/BO-002", "TITLE": "9335", "REGION": "Box Elder County", "ASSOCIATION": "USA - Utah", "POINTS": "8", "BONUSPOINTS": "3"}}, {"type": "Feature", "geometry": {"type": "Point", "coordinates": [-113.7417, 41.6906]}, "properties": {"NAME": "W7U/BO-003", "TITLE": "Red Butte", "REGION": "Box Elder County", "ASSOCIATION": "USA - Utah", "POINTS": "6", "BONUSPOINTS": "3"}}, {"type": "Feature", "geometry": {"type": "Point", "coordinates": [-114.0214, 41.1594]}, "properties": {"NAME": "W7U/BO-004", "TITLE": "8721", "REGION": "Box Elder County", "ASSOCIATION": "USA - Utah", "POINTS": "6", "BONUSPOINTS": "3"}}, {"type": "Feature", "geometry": {"type": "Point", "coordinates": [-113.8062, 41.9263]}, "properties": {"NAME": "W7U/BO-005", "TITLE": "Goose Creek Mountains HP", "REGION": "Box Elder County", "ASSOCIATION": "USA - Utah", "POINTS": "6", "BONUSPOINTS": "3"}}, {"type": "Feature", "geometry": {"type": "Point", "coordinates": [-113.8632, 41.9272]}, "properties": {"NAME": "W7U/BO-006", "TITLE": "Twin Peaks", "REGION": "Box Elder County", "ASSOCIATION": "USA - Utah", "POINTS": "6", "BONUSPOINTS": "3"}}, {"type": "Feature", "geometry": {"type": "Point", "coordinates": [-113.7517, 41.7888]}, "properties": {"NAME": "W7U/BO-007", "TITLE": "Pine Benchmark", "REGION": "Box Elder County", "ASSOCIATION": "USA - Utah", "POINTS": "6", "BONUSPOINTS": "3"}}, {"type": "Feature", "geometry": {"type": "Point", "coordinates": [-113.7511, 41.6504]}, "properties": {"NAME": "W7U/BO-008", "TITLE": "Ingham Peak", "REGION": "Box Elder County", "ASSOCIATION": "USA - Utah", "POINTS": "6", "BONUSPOINTS": "3"}}, {"type": "Feature", "geometry": {"type": "Point", "coordinates": [-113.5039, 41.9143]}, "properties": {"NAME": "W7U/BO-009", "TITLE": "8402", "REGION": "Box Elder County", "ASSOCIATION": "USA - Utah", "POINTS": "6", "BONUSPOINTS": "3"}}, {"type": "Feature", "geometry": {"type": "Point", "coordinates": [-113.6764, 41.7908]}, "properties": {"NAME": "W7U/BO-010", "TITLE": "8372", "REGION": "Box Elder County", "ASSOCIATION": "USA - Utah", "POINTS": "6", "BONUSPOINTS": "3"}}, {"type": "Feature", "geometry": {"type": "Point", "coordinates": [-113.674, 41.8933]}, "properties": {"NAME": "W7U/BO-011", "TITLE": "Lynn Benchmark", "REGION": "Box Elder County", "ASSOCIATION": "USA - Utah", "POINTS": "6", "BONUSPOINTS": "3"}}, {"type": "Feature", "geometry": {"type": "Point", "coordinates": [-112.1272, 41.9242]}, "properties": {"NAME": "W7U/BO-012", "TITLE": "Gunsight Peak", "REGION": "Box Elder County", "ASSOCIATION": "USA - Utah", "POINTS": "6", "BONUSPOINTS": "3"}}, {"type": "Feature", "geometry": {"type": "Point", "coordinates": [-111.9773, 41.4627]}, "properties": {"NAME": "W7U/BO-013", "TITLE": "Perry Benchmark", "REGION": "Box Elder County", "ASSOCIATION": "USA - Utah", "POINTS": "6", "BONUSPOINTS": "3"}}, {"type": "Feature", "geometry": {"type": "Point", "coordinates": [-113.8592, 41.8811]}, "properties": {"NAME": "W7U/BO-014", "TITLE": "8180", "REGION": "Box Elder County", "ASSOCIATION": "USA - Utah", "POINTS": "6", "BONUSPOINTS": "3"}}, {"type": "Feature", "geometry": {"type": "Point", "coordinates": [-113.6357, 41.8724]}, "properties": {"NAME": "W7U/BO-015", "TITLE": "8140", "REGION": "Box Elder County", "ASSOCIATION": "USA - Utah", "POINTS": "6", "BONUSPOINTS": "3"}}, {"type": "Feature", "geometry": {"type": "Point", "coordinates": [-113.4737, 41.9638]}, "properties": {"NAME": "W7U/BO-016", "TITLE": "Bally Mountains HP", "REGION": "Box Elder County", "ASSOCIATION": "USA - Utah", "POINTS": "6", "BONUSPOINTS": "3"}}, {"type": "Feature", "geometry": {"type": "Point", "coordinates": [-114.0158, 41.2645]}, "properties": {"NAME": "W7U/BO-017", "TITLE": "Bald Eagle Mountain", "REGION": "Box Elder County", "ASSOCIATION": "USA - Utah", "POINTS": "6", "BONUSPOINTS": "3"}}, {"type": "Feature", "geometry": {"type": "Point", "coordinates": [-113.9996, 41.8052]}, "properties": {"NAME": "W7U/BO-018", "TITLE": "7940", "REGION": "Box Elder County", "ASSOCIATION": "USA - Utah", "POINTS": "6", "BONUSPOINTS": "3"}}, {"type": "Feature", "geometry": {"type": "Point", "coordinates": [-114.0188, 41.2066]}, "properties": {"NAME": "W7U/BO-019", "TITLE": "7875", "REGION": "Box Elder County", "ASSOCIATION": "USA - Utah", "POINTS": "6", "BONUSPOINTS": "3"}}, {"type": "Feature", "geometry": {"type": "Point", "coordinates": [-113.9405, 41.8069]}, "properties": {"NAME": "W7U/BO-020", "TITLE": "Dry Canyon Mountain", "REGION": "Box Elder County", "ASSOCIATION": "USA - Utah", "POINTS": "6", "BONUSPOINTS": "3"}}, {"type": "Feature", "geometry": {"type": "Point", "coordinates": [-113.769, 41.5302]}, "properties": {"NAME": "W7U/BO-021", "TITLE": "Rocky Pass Peak", "REGION": "Box Elder County", "ASSOCIATION": "USA - Utah", "POINTS": "4", "BONUSPOINTS": "3"}}, {"type": "Feature", "geometry": {"type": "Point", "coordinates": [-112.5081, 41.4902]}, "properties": {"NAME": "W7U/BO-022", "TITLE": "Messix Peak", "REGION": "Box Elder County", "ASSOCIATION": "USA - Utah", "POINTS": "4", "BONUSPOINTS": "3"}}, {"type": "Feature", "geometry": {"type": "Point", "coordinates": [-113.6164, 41.7825]}, "properties": {"NAME": "W7U/BO-023", "TITLE": "Dennis Hill", "REGION": "Box Elder County", "ASSOCIATION": "USA - Utah", "POINTS": "4", "BONUSPOINTS": "3"}}, {"type": "Feature", "geometry": {"type": "Point", "coordinates": [-113.9778, 41.8606]}, "properties": {"NAME": "W7U/BO-024", "TITLE": "Meadow Creek Butte", "REGION": "Box Elder County", "ASSOCIATION": "USA - Utah", "POINTS": "4", "BONUSPOINTS": "3"}}, {"type": "Feature", "geometry": {"type": "Point", "coordinates": [-112.4858, 41.3983]}, "properties": {"NAME": "W7U/BO-025", "TITLE": "7218", "REGION": "Box Elder County", "ASSOCIATION": "USA - Utah", "POINTS": "4", "BONUSPOINTS": "3"}}, {"type": "Feature", "geometry": {"type": "Point", "coordinates": [-112.3254, 41.929]}, "properties": {"NAME": "W7U/BO-026", "TITLE": "West Benchmark", "REGION": "Box Elder County", "ASSOCIATION": "USA - Utah", "POINTS": "4", "BONUSPOINTS": "3"}}, {"type": "Feature", "geometry": {"type": "Point", "coordinates": [-111.937, 41.5509]}, "properties": {"NAME": "W7U/BO-027", "TITLE": "Pisgah, Mount", "REGION": "Box Elder County", "ASSOCIATION": "USA - Utah", "POINTS": "4", "BONUSPOINTS": "3"}}, {"type": "Feature", "geometry": {"type": "Point", "coordinates": [-112.5442, 41.7942]}, "properties": {"NAME": "W7U/BO-028", "TITLE": "Howell Benchmark", "REGION": "Box Elder County", "ASSOCIATION": "USA - Utah", "POINTS": "4", "BONUSPOINTS": "3"}}, {"type": "Feature", "geometry": {"type": "Point", "coordinates": [-112.447, 41.3069]}, "properties": {"NAME": "W7U/BO-029", "TITLE": "7075", "REGION": "Box Elder County", "ASSOCIATION": "USA - Utah", "POINTS": "4", "BONUSPOINTS": "3"}}, {"type": "Feature", "geometry": {"type": "Point", "coordinates": [-113.1744, 41.4815]}, "properties": {"NAME": "W7U/BO-030", "TITLE": "Tangent Peak", "REGION": "Box Elder County", "ASSOCIATION": "USA - Utah", "POINTS": "4", "BONUSPOINTS": "3"}}, {"type": "Feature", "geometry": {"type": "Point", "coordinates": [-113.3683, 41.1858]}, "properties": {"NAME": "W7U/BO-031", "TITLE": "Desert Peak", "REGION": "Box Elder County", "ASSOCIATION": "USA - Utah", "POINTS": "4", "BONUSPOINTS": "3"}}, {"type": "Feature", "geometry": {"type": "Point", "coordinates": [-113.6162, 41.8035]}, "properties": {"NAME": "W7U/BO-032", "TITLE": "6998", "REGION": "Box Elder County", "ASSOCIATION": "USA - Utah", "POINTS": "4", "BONUSPOINTS": "3"}}, {"type": "Feature", "geometry": {"type": "Point", "coordinates": [-112.5551, 41.501]}, "properties": {"NAME": "W7U/BO-033", "TITLE": "Tarpey, Mount", "REGION": "Box Elder County", "ASSOCIATION": "USA - Utah", "POINTS": "4", "BONUSPOINTS": "3"}}, {"type": "Feature", "geometry": {"type": "Point", "coordinates": [-113.6881, 41.6747]}, "properties": {"NAME": "W7U/BO-034", "TITLE": "6961", "REGION": "Box Elder County", "ASSOCIATION": "USA - Utah", "POINTS": "4", "BONUSPOINTS": "3"}}, {"type": "Feature", "geometry": {"type": "Point", "coordinates": [-113.697, 41.6528]}, "properties": {"NAME": "W7U/BO-035", "TITLE": "6952", "REGION": "Box Elder County", "ASSOCIATION": "USA - Utah", "POINTS": "4", "BONUSPOINTS": "3"}}, {"type": "Feature", "geometry": {"type": "Point", "coordinates": [-112.5447, 41.7607]}, "properties": {"NAME": "W7U/BO-036", "TITLE": "6951", "REGION": "Box Elder County", "ASSOCIATION": "USA - Utah", "POINTS": "4", "BONUSPOINTS": "3"}}, {"type": "Feature", "geometry": {"type": "Point", "coordinates": [-114.0144, 41.6491]}, "properties": {"NAME": "W7U/BO-037", "TITLE": "Burnt Mountain", "REGION": "Box Elder County", "ASSOCIATION": "USA - Utah", "POINTS": "4", "BONUSPOINTS": "3"}}, {"type": "Feature", "geometry": {"type": "Point", "coordinates": [-112.2328, 41.7847]}, "properties": {"NAME": "W7U/BO-038", "TITLE": "Cal Mtn Benchmark", "REGION": "Box Elder County", "ASSOCIATION": "USA - Utah", "POINTS": "4", "BONUSPOINTS": "3"}}, {"type": "Feature", "geometry": {"type": "Point", "coordinates": [-113.8061, 41.5261]}, "properties": {"NAME": "W7U/BO-039", "TITLE": "6865", "REGION": "Box Elder County", "ASSOCIATION": "USA - Utah", "POINTS": "4", "BONUSPOINTS": "3"}}, {"type": "Feature", "geometry": {"type": "Point", "coordinates": [-112.5416, 41.5469]}, "properties": {"NAME": "W7U/BO-040", "TITLE": "6831", "REGION": "Box Elder County", "ASSOCIATION": "USA - Utah", "POINTS": "4", "BONUSPOINTS": "3"}}, {"type": "Feature", "geometry": {"type": "Point", "coordinates": [-112.3552, 41.9536]}, "properties": {"NAME": "W7U/BO-041", "TITLE": "6820", "REGION": "Box Elder County", "ASSOCIATION": "USA - Utah", "POINTS": "4", "BONUSPOINTS": "3"}}, {"type": "Feature", "geometry": {"type": "Point", "coordinates": [-112.4861, 41.4247]}, "properties": {"NAME": "W7U/BO-042", "TITLE": "6796", "REGION": "Box Elder County", "ASSOCIATION": "USA - Utah", "POINTS": "4", "BONUSPOINTS": "3"}}, {"type": "Feature", "geometry": {"type": "Point", "coordinates": [-112.2559, 41.8548]}, "properties": {"NAME": "W7U/BO-043", "TITLE": "6718", "REGION": "Box Elder County", "ASSOCIATION": "USA - Utah", "POINTS": "4", "BONUSPOINTS": "3"}}, {"type": "Feature", "geometry": {"type": "Point", "coordinates": [-112.3688, 41.8918]}, "properties": {"NAME": "W7U/BO-044", "TITLE": "6696", "REGION": "Box Elder County", "ASSOCIATION": "USA - Utah", "POINTS": "4", "BONUSPOINTS": "3"}}, {"type": "Feature", "geometry": {"type": "Point", "coordinates": [-112.535, 41.5686]}, "properties": {"NAME": "W7U/BO-045", "TITLE": "6677", "REGION": "Box Elder County", "ASSOCIATION": "USA - Utah", "POINTS": "4", "BONUSPOINTS": "3"}}, {"type": "Feature", "geometry": {"type": "Point", "coordinates": [-111.9726, 41.5133]}, "properties": {"NAME": "W7U/BO-046", "TITLE": "6658", "REGION": "Box Elder County", "ASSOCIATION": "USA - Utah", "POINTS": "4", "BONUSPOINTS": "3"}}, {"type": "Feature", "geometry": {"type": "Point", "coordinates": [-114.0133, 41.6639]}, "properties": {"NAME": "W7U/BO-047", "TITLE": "6642", "REGION": "Box Elder County", "ASSOCIATION": "USA - Utah", "POINTS": "4", "BONUSPOINTS": "3"}}, {"type": "Feature", "geometry": {"type": "Point", "coordinates": [-112.5683, 41.5498]}, "properties": {"NAME": "W7U/BO-048", "TITLE": "6635", "REGION": "Box Elder County", "ASSOCIATION": "USA - Utah", "POINTS": "4", "BONUSPOINTS": "3"}}, {"type": "Feature", "geometry": {"type": "Point", "coordinates": [-113.1293, 41.4968]}, "properties": {"NAME": "W7U/BO-049", "TITLE": "Race Benchmark", "REGION": "Box Elder County", "ASSOCIATION": "USA - Utah", "POINTS": "4", "BONUSPOINTS": "3"}}, {"type": "Feature", "geometry": {"type": "Point", "coordinates": [-112.4198, 41.2979]}, "properties": {"NAME": "W7U/BO-050", "TITLE": "Promontory Benchmark", "REGION": "Box Elder County", "ASSOCIATION": "USA - Utah", "POINTS": "4", "BONUSPOINTS": "3"}}, {"type": "Feature", "geometry": {"type": "Point", "coordinates": [-112.3013, 41.9049]}, "properties": {"NAME": "W7U/BO-051", "TITLE": "6580", "REGION": "Box Elder County", "ASSOCIATION": "USA - Utah", "POINTS": "4", "BONUSPOINTS": "3"}}, {"type": "Feature", "geometry": {"type": "Point", "coordinates": [-112.4405, 41.2575]}, "properties": {"NAME": "W7U/BO-052", "TITLE": "6570", "REGION": "Box Elder County", "ASSOCIATION": "USA - Utah", "POINTS": "4", "BONUSPOINTS": "3"}}, {"type": "Feature", "geometry": {"type": "Point", "coordinates": [-112.346, 41.7874]}, "properties": {"NAME": "W7U/BO-053", "TITLE": "Blue Spring Hills", "REGION": "Box Elder County", "ASSOCIATION": "USA - Utah", "POINTS": "4", "BONUSPOINTS": "3"}}, {"type": "Feature", "geometry": {"type": "Point", "coordinates": [-112.594, 41.6724]}, "properties": {"NAME": "W7U/BO-054", "TITLE": "Cedar Ridge", "REGION": "Box Elder County", "ASSOCIATION": "USA - Utah", "POINTS": "2", "BONUSPOINTS": "3"}}, {"type": "Feature", "geometry": {"type": "Point", "coordinates": [-113.7912, 41.4944]}, "properties": {"NAME": "W7U/BO-055", "TITLE": "6355", "REGION": "Box Elder County", "ASSOCIATION": "USA - Utah", "POINTS": "2", "BONUSPOINTS": "3"}}, {"type": "Feature", "geometry": {"type": "Point", "coordinates": [-112.6524, 41.9079]}, "properties": {"NAME": "W7U/BO-056", "TITLE": "6303", "REGION": "Box Elder County", "ASSOCIATION": "USA - Utah", "POINTS": "2", "BONUSPOINTS": "3"}}, {"type": "Feature", "geometry": {"type": "Point", "coordinates": [-112.3688, 41.8509]}, "properties": {"NAME": "W7U/BO-057", "TITLE": "6286", "REGION": "Box Elder County", "ASSOCIATION": "USA - Utah", "POINTS": "2", "BONUSPOINTS": "3"}}, {"type": "Feature", "geometry": {"type": "Point", "coordinates": [-112.6729, 41.8489]}, "properties": {"NAME": "W7U/BO-058", "TITLE": "6242", "REGION": "Box Elder County", "ASSOCIATION": "USA - Utah", "POINTS": "2", "BONUSPOINTS": "3"}}, {"type": "Feature", "geometry": {"type": "Point", "coordinates": [-112.3407, 41.688]}, "properties": {"NAME": "W7U/BO-059", "TITLE": "Thatcher Mountain", "REGION": "Box Elder County", "ASSOCIATION": "USA - Utah", "POINTS": "2", "BONUSPOINTS": "3"}}, {"type": "Feature", "geometry": {"type": "Point", "coordinates": [-112.3419, 41.7205]}, "properties": {"NAME": "W7U/BO-060", "TITLE": "Thatcher Benchmark", "REGION": "Box Elder County", "ASSOCIATION": "USA - Utah", "POINTS": "2", "BONUSPOINTS": "3"}}, {"type": "Feature", "geometry": {"type": "Point", "coordinates": [-112.3799, 41.6807]}, "properties": {"NAME": "W7U/BO-061", "TITLE": "6184", "REGION": "Box Elder County", "ASSOCIATION": "USA - Utah", "POINTS": "2", "BONUSPOINTS": "0"}}, {"type": "Feature", "geometry": {"type": "Point", "coordinates": [-113.6262, 41.6466]}, "properties": {"NAME": "W7U/BO-062", "TITLE": "6161", "REGION": "Box Elder County", "ASSOCIATION": "USA - Utah", "POINTS": "2", "BONUSPOINTS": "0"}}, {"type": "Feature", "geometry": {"type": "Point", "coordinates": [-113.6424, 41.621]}, "properties": {"NAME": "W7U/BO-063", "TITLE": "6125", "REGION": "Box Elder County", "ASSOCIATION": "USA - Utah", "POINTS": "2", "BONUSPOINTS": "0"}}, {"type": "Feature", "geometry": {"type": "Point", "coordinates": [-113.3797, 41.2381]}, "properties": {"NAME": "W7U/BO-064", "TITLE": "6110", "REGION": "Box Elder County", "ASSOCIATION": "USA - Utah", "POINTS": "2", "BONUSPOINTS": "0"}}, {"type": "Feature", "geometry": {"type": "Point", "coordinates": [-112.5832, 41.7053]}, "properties": {"NAME": "W7U/BO-065", "TITLE": "6097", "REGION": "Box Elder County", "ASSOCIATION": "USA - Utah", "POINTS": "2", "BONUSPOINTS": "0"}}, {"type": "Feature", "geometry": {"type": "Point", "coordinates": [-113.3847, 41.1718]}, "properties": {"NAME": "W7U/BO-066", "TITLE": "6058", "REGION": "Box Elder County", "ASSOCIATION": "USA - Utah", "POINTS": "2", "BONUSPOINTS": "0"}}, {"type": "Feature", "geometry": {"type": "Point", "coordinates": [-113.3716, 41.031]}, "properties": {"NAME": "W7U/BO-067", "TITLE": "South Newfoundland Benchmark", "REGION": "Box Elder County", "ASSOCIATION": "USA - Utah", "POINTS": "2", "BONUSPOINTS": "0"}}, {"type": "Feature", "geometry": {"type": "Point", "coordinates": [-113.8056, 41.4799]}, "properties": {"NAME": "W7U/BO-068", "TITLE": "6031", "REGION": "Box Elder County", "ASSOCIATION": "USA - Utah", "POINTS": "2", "BONUSPOINTS": "0"}}, {"type": "Feature", "geometry": {"type": "Point", "coordinates": [-113.3887, 41.084]}, "properties": {"NAME": "W7U/BO-069", "TITLE": "6015", "REGION": "Box Elder County", "ASSOCIATION": "USA - Utah", "POINTS": "2", "BONUSPOINTS": "0"}}, {"type": "Feature", "geometry": {"type": "Point", "coordinates": [-112.7864, 41.7755]}, "properties": {"NAME": "W7U/BO-070", "TITLE": "Monument Peak", "REGION": "Box Elder County", "ASSOCIATION": "USA - Utah", "POINTS": "2", "BONUSPOINTS": "0"}}, {"type": "Feature", "geometry": {"type": "Point", "coordinates": [-113.3073, 41.6058]}, "properties": {"NAME": "W7U/BO-071", "TITLE": "Matlin Mountains", "REGION": "Box Elder County", "ASSOCIATION": "USA - Utah", "POINTS": "2", "BONUSPOINTS": "0"}}, {"type": "Feature", "geometry": {"type": "Point", "coordinates": [-114.0301, 41.3266]}, "properties": {"NAME": "W7U/BO-072", "TITLE": "Rhyolite Butte", "REGION": "Box Elder County", "ASSOCIATION": "USA - Utah", "POINTS": "2", "BONUSPOINTS": "0"}}, {"type": "Feature", "geometry": {"type": "Point", "coordinates": [-112.4837, 41.9994]}, "properties": {"NAME": "W7U/BO-073", "TITLE": "5941", "REGION": "Box Elder County", "ASSOCIATION": "USA - Utah", "POINTS": "2", "BONUSPOINTS": "0"}}, {"type": "Feature", "geometry": {"type": "Point", "coordinates": [-113.3669, 41.6135]}, "properties": {"NAME": "W7U/BO-074", "TITLE": "Coyote Hill", "REGION": "Box Elder County", "ASSOCIATION": "USA - Utah", "POINTS": "2", "BONUSPOINTS": "0"}}, {"type": "Feature", "geometry": {"type": "Point", "coordinates": [-112.8866, 41.1074]}, "properties": {"NAME": "W7U/BO-075", "TITLE": "Sally Mountain", "REGION": "Box Elder County", "ASSOCIATION": "USA - Utah", "POINTS": "2", "BONUSPOINTS": "0"}}, {"type": "Feature", "geometry": {"type": "Point", "coordinates": [-113.496, 41.6463]}, "properties": {"NAME": "W7U/BO-076", "TITLE": "Dove Creek Hills", "REGION": "Box Elder County", "ASSOCIATION": "USA - Utah", "POINTS": "2", "BONUSPOINTS": "0"}}, {"type": "Feature", "geometry": {"type": "Point", "coordinates": [-112.0358, 41.8273]}, "properties": {"NAME": "W7U/BO-077", "TITLE": "5752", "REGION": "Box Elder County", "ASSOCIATION": "USA - Utah", "POINTS": "2", "BONUSPOINTS": "0"}}, {"type": "Feature", "geometry": {"type": "Point", "coordinates": [-113.7612, 41.0881]}, "properties": {"NAME": "W7U/BO-078", "TITLE": "Crater Island", "REGION": "Box Elder County", "ASSOCIATION": "USA - Utah", "POINTS": "2", "BONUSPOINTS": "0"}}, {"type": "Feature", "geometry": {"type": "Point", "coordinates": [-112.641, 41.9411]}, "properties": {"NAME": "W7U/BO-079", "TITLE": "5673", "REGION": "Box Elder County", "ASSOCIATION": "USA - Utah", "POINTS": "2", "BONUSPOINTS": "0"}}, {"type": "Feature", "geometry": {"type": "Point", "coordinates": [-112.2504, 41.5968]}, "properties": {"NAME": "W7U/BO-080", "TITLE": "Little Mountain", "REGION": "Box Elder County", "ASSOCIATION": "USA - Utah", "POINTS": "2", "BONUSPOINTS": "0"}}, {"type": "Feature", "geometry": {"type": "Point", "coordinates": [-113.2516, 41.6955]}, "properties": {"NAME": "W7U/BO-081", "TITLE": "Baker Mountain", "REGION": "Box Elder County", "ASSOCIATION": "USA - Utah", "POINTS": "2", "BONUSPOINTS": "0"}}, {"type": "Feature", "geometry": {"type": "Point", "coordinates": [-112.8946, 41.1478]}, "properties": {"NAME": "W7U/BO-082", "TITLE": "Death Ridge", "REGION": "Box Elder County", "ASSOCIATION": "USA - Utah", "POINTS": "2", "BONUSPOINTS": "0"}}, {"type": "Feature", "geometry": {"type": "Point", "coordinates": [-113.0171, 41.0416]}, "properties": {"NAME": "W7U/BO-083", "TITLE": "Round Mountain", "REGION": "Box Elder County", "ASSOCIATION": "USA - Utah", "POINTS": "1", "BONUSPOINTS": "0"}}, {"type": "Feature", "geometry": {"type": "Point", "coordinates": [-112.4403, 41.818]}, "properties": {"NAME": "W7U/BO-084", "TITLE": "Anderson Hill", "REGION": "Box Elder County", "ASSOCIATION": "USA - Utah", "POINTS": "1", "BONUSPOINTS": "0"}}, {"type": "Feature", "geometry": {"type": "Point", "coordinates": [-112.86, 41.1737]}, "properties": {"NAME": "W7U/BO-085", "TITLE": "Scad Ridge", "REGION": "Box Elder County", "ASSOCIATION": "USA - Utah", "POINTS": "1", "BONUSPOINTS": "0"}}, {"type": "Feature", "geometry": {"type": "Point", "coordinates": [-113.7534, 41.3514]}, "properties": {"NAME": "W7U/BO-086", "TITLE": "Pigeon Mountain", "REGION": "Box Elder County", "ASSOCIATION": "USA - Utah", "POINTS": "1", "BONUSPOINTS": "0"}}, {"type": "Feature", "geometry": {"type": "Point", "coordinates": [-113.4872, 41.4634]}, "properties": {"NAME": "W7U/BO-087", "TITLE": "Terrace Mountain", "REGION": "Box Elder County", "ASSOCIATION": "USA - Utah", "POINTS": "1", "BONUSPOINTS": "0"}}, {"type": "Feature", "geometry": {"type": "Point", "coordinates": [-112.9315, 41.1564]}, "properties": {"NAME": "W7U/BO-088", "TITLE": "Homestead Knoll", "REGION": "Box Elder County", "ASSOCIATION": "USA - Utah", "POINTS": "1", "BONUSPOINTS": "0"}}, {"type": "Feature", "geometry": {"type": "Point", "coordinates": [-112.8666, 41.8441]}, "properties": {"NAME": "W7U/BO-089", "TITLE": "Cedar Hill", "REGION": "Box Elder County", "ASSOCIATION": "USA - Utah", "POINTS": "1", "BONUSPOINTS": "0"}}, {"type": "Feature", "geometry": {"type": "Point", "coordinates": [-112.9804, 41.0699]}, "properties": {"NAME": "W7U/BO-090", "TITLE": "5130", "REGION": "Box Elder County", "ASSOCIATION": "USA - Utah", "POINTS": "1", "BONUSPOINTS": "0"}}, {"type": "Feature", "geometry": {"type": "Point", "coordinates": [-113.032, 41.8344]}, "properties": {"NAME": "W7U/BO-091", "TITLE": "Wildcat Hills", "REGION": "Box Elder County", "ASSOCIATION": "USA - Utah", "POINTS": "1", "BONUSPOINTS": "0"}}, {"type": "Feature", "geometry": {"type": "Point", "coordinates": [-112.8846, 41.2455]}, "properties": {"NAME": "W7U/BO-092", "TITLE": "Strongs Knob", "REGION": "Box Elder County", "ASSOCIATION": "USA - Utah", "POINTS": "1", "BONUSPOINTS": "0"}}]}