{"type": "FeatureCollection", "name": "W7U/GA SUMMITS", "features": [{"type": "Feature", "geometry": {"type": "Point", "coordinates": [-110.7949, 38.0727]}, "properties": {"NAME": "W7U/GA-001", "TITLE": "South Summit Ridge", "REGION": "Garfield County", "ASSOCIATION": "USA - Utah", "POINTS": "10", "BONUSPOINTS": "3"}}, {"type": "Feature", "geometry": {"type": "Point", "coordinates": [-111.8914, 37.9128]}, "properties": {"NAME": "W7U/GA-002", "TITLE": "Griffin Top", "REGION": "Garfield County", "ASSOCIATION": "USA - Utah", "POINTS": "10", "BONUSPOINTS": "3"}}, {"type": "Feature", "geometry": {"type": "Point", "coordinates": [-112.1977, 38.0455]}, "properties": {"NAME": "W7U/GA-003", "TITLE": "10653", "REGION": "Garfield County", "ASSOCIATION": "USA - Utah", "POINTS": "10", "BONUSPOINTS": "3"}}, {"type": "Feature", "geometry": {"type": "Point", "coordinates": [-111.8741, 37.7561]}, "properties": {"NAME": "W7U/GA-004", "TITLE": "Barney Top", "REGION": "Garfield County", "ASSOCIATION": "USA - Utah", "POINTS": "10", "BONUSPOINTS": "3"}}, {"type": "Feature", "geometry": {"type": "Point", "coordinates": [-111.7464, 37.9382]}, "properties": {"NAME": "W7U/GA-005", "TITLE": "10575", "REGION": "Garfield County", "ASSOCIATION": "USA - Utah", "POINTS": "10", "BONUSPOINTS": "3"}}, {"type": "Feature", "geometry": {"type": "Point", "coordinates": [-110.8134, 38.1382]}, "properties": {"NAME": "W7U/GA-006", "TITLE": "Dry Lakes Peak", "REGION": "Garfield County", "ASSOCIATION": "USA - Utah", "POINTS": "8", "BONUSPOINTS": "3"}}, {"type": "Feature", "geometry": {"type": "Point", "coordinates": [-112.2485, 37.8744]}, "properties": {"NAME": "W7U/GA-007", "TITLE": "Hancock Peak", "REGION": "Garfield County", "ASSOCIATION": "USA - Utah", "POINTS": "8", "BONUSPOINTS": "3"}}, {"type": "Feature", "geometry": {"type": "Point", "coordinates": [-112.1405, 38.1411]}, "properties": {"NAME": "W7U/GA-008", "TITLE": "Table Mountain", "REGION": "Garfield County", "ASSOCIATION": "USA - Utah", "POINTS": "8", "BONUSPOINTS": "3"}}, {"type": "Feature", "geometry": {"type": "Point", "coordinates": [-110.77, 38.1028]}, "properties": {"NAME": "W7U/GA-009", "TITLE": "Wickiup Ridge", "REGION": "Garfield County", "ASSOCIATION": "USA - Utah", "POINTS": "8", "BONUSPOINTS": "3"}}, {"type": "Feature", "geometry": {"type": "Point", "coordinates": [-112.2508, 37.8475]}, "properties": {"NAME": "W7U/GA-010", "TITLE": "9734", "REGION": "Garfield County", "ASSOCIATION": "USA - Utah", "POINTS": "8", "BONUSPOINTS": "3"}}, {"type": "Feature", "geometry": {"type": "Point", "coordinates": [-112.286, 37.9061]}, "properties": {"NAME": "W7U/GA-011", "TITLE": "Blind Spring Mountain", "REGION": "Garfield County", "ASSOCIATION": "USA - Utah", "POINTS": "8", "BONUSPOINTS": "3"}}, {"type": "Feature", "geometry": {"type": "Point", "coordinates": [-110.7112, 37.9067]}, "properties": {"NAME": "W7U/GA-012", "TITLE": "Cass Creek Peak", "REGION": "Garfield County", "ASSOCIATION": "USA - Utah", "POINTS": "8", "BONUSPOINTS": "3"}}, {"type": "Feature", "geometry": {"type": "Point", "coordinates": [-112.1808, 37.8188]}, "properties": {"NAME": "W7U/GA-013", "TITLE": "Flat Top", "REGION": "Garfield County", "ASSOCIATION": "USA - Utah", "POINTS": "8", "BONUSPOINTS": "3"}}, {"type": "Feature", "geometry": {"type": "Point", "coordinates": [-111.8009, 37.609]}, "properties": {"NAME": "W7U/GA-014", "TITLE": "Canaan Peak", "REGION": "Garfield County", "ASSOCIATION": "USA - Utah", "POINTS": "8", "BONUSPOINTS": "3"}}, {"type": "Feature", "geometry": {"type": "Point", "coordinates": [-110.7321, 38.1403]}, "properties": {"NAME": "W7U/GA-015", "TITLE": "Bull Mountain", "REGION": "Garfield County", "ASSOCIATION": "USA - Utah", "POINTS": "8", "BONUSPOINTS": "3"}}, {"type": "Feature", "geometry": {"type": "Point", "coordinates": [-110.7575, 38.0165]}, "properties": {"NAME": "W7U/GA-016", "TITLE": "Ragged Mountain", "REGION": "Garfield County", "ASSOCIATION": "USA - Utah", "POINTS": "8", "BONUSPOINTS": "3"}}, {"type": "Feature", "geometry": {"type": "Point", "coordinates": [-112.6159, 37.7094]}, "properties": {"NAME": "W7U/GA-017", "TITLE": "Cooper Knoll", "REGION": "Garfield County", "ASSOCIATION": "USA - Utah", "POINTS": "8", "BONUSPOINTS": "3"}}, {"type": "Feature", "geometry": {"type": "Point", "coordinates": [-112.5837, 37.719]}, "properties": {"NAME": "W7U/GA-018", "TITLE": "Haycock Mountain", "REGION": "Garfield County", "ASSOCIATION": "USA - Utah", "POINTS": "8", "BONUSPOINTS": "3"}}, {"type": "Feature", "geometry": {"type": "Point", "coordinates": [-112.5566, 37.6533]}, "properties": {"NAME": "W7U/GA-019", "TITLE": "Hatch Mountain", "REGION": "Garfield County", "ASSOCIATION": "USA - Utah", "POINTS": "6", "BONUSPOINTS": "3"}}, {"type": "Feature", "geometry": {"type": "Point", "coordinates": [-112.2968, 38.0622]}, "properties": {"NAME": "W7U/GA-020", "TITLE": "Horse Valley Peak", "REGION": "Garfield County", "ASSOCIATION": "USA - Utah", "POINTS": "6", "BONUSPOINTS": "3"}}, {"type": "Feature", "geometry": {"type": "Point", "coordinates": [-112.4008, 38.1039]}, "properties": {"NAME": "W7U/GA-021", "TITLE": "Little Dog Valley Peak", "REGION": "Garfield County", "ASSOCIATION": "USA - Utah", "POINTS": "6", "BONUSPOINTS": "3"}}, {"type": "Feature", "geometry": {"type": "Point", "coordinates": [-112.0472, 37.7373]}, "properties": {"NAME": "W7U/GA-022", "TITLE": "8538", "REGION": "Garfield County", "ASSOCIATION": "USA - Utah", "POINTS": "6", "BONUSPOINTS": "3"}}, {"type": "Feature", "geometry": {"type": "Point", "coordinates": [-112.5507, 37.5997]}, "properties": {"NAME": "W7U/GA-023", "TITLE": "Mammoth Ridge", "REGION": "Garfield County", "ASSOCIATION": "USA - Utah", "POINTS": "6", "BONUSPOINTS": "3"}}, {"type": "Feature", "geometry": {"type": "Point", "coordinates": [-112.127, 37.7617]}, "properties": {"NAME": "W7U/GA-024", "TITLE": "Flake Mountain", "REGION": "Garfield County", "ASSOCIATION": "USA - Utah", "POINTS": "6", "BONUSPOINTS": "3"}}, {"type": "Feature", "geometry": {"type": "Point", "coordinates": [-111.9992, 37.6833]}, "properties": {"NAME": "W7U/GA-025", "TITLE": "8256", "REGION": "Garfield County", "ASSOCIATION": "USA - Utah", "POINTS": "6", "BONUSPOINTS": "3"}}, {"type": "Feature", "geometry": {"type": "Point", "coordinates": [-112.4679, 37.9997]}, "properties": {"NAME": "W7U/GA-026", "TITLE": "8063", "REGION": "Garfield County", "ASSOCIATION": "USA - Utah", "POINTS": "6", "BONUSPOINTS": "3"}}, {"type": "Feature", "geometry": {"type": "Point", "coordinates": [-111.2719, 37.9984]}, "properties": {"NAME": "W7U/GA-027", "TITLE": "7980", "REGION": "Garfield County", "ASSOCIATION": "USA - Utah", "POINTS": "6", "BONUSPOINTS": "3"}}, {"type": "Feature", "geometry": {"type": "Point", "coordinates": [-111.7079, 37.5711]}, "properties": {"NAME": "W7U/GA-028", "TITLE": "Death Ridge", "REGION": "Garfield County", "ASSOCIATION": "USA - Utah", "POINTS": "6", "BONUSPOINTS": "3"}}, {"type": "Feature", "geometry": {"type": "Point", "coordinates": [-111.7409, 37.6752]}, "properties": {"NAME": "W7U/GA-029", "TITLE": "7917", "REGION": "Garfield County", "ASSOCIATION": "USA - Utah", "POINTS": "6", "BONUSPOINTS": "3"}}, {"type": "Feature", "geometry": {"type": "Point", "coordinates": [-111.881, 37.5644]}, "properties": {"NAME": "W7U/GA-030", "TITLE": "7828", "REGION": "Garfield County", "ASSOCIATION": "USA - Utah", "POINTS": "6", "BONUSPOINTS": "3"}}, {"type": "Feature", "geometry": {"type": "Point", "coordinates": [-110.631, 37.8979]}, "properties": {"NAME": "W7U/GA-031", "TITLE": "Cocks Comb", "REGION": "Garfield County", "ASSOCIATION": "USA - Utah", "POINTS": "6", "BONUSPOINTS": "3"}}, {"type": "Feature", "geometry": {"type": "Point", "coordinates": [-111.9126, 37.5842]}, "properties": {"NAME": "W7U/GA-032", "TITLE": "7655", "REGION": "Garfield County", "ASSOCIATION": "USA - Utah", "POINTS": "6", "BONUSPOINTS": "3"}}, {"type": "Feature", "geometry": {"type": "Point", "coordinates": [-111.1734, 38.1209]}, "properties": {"NAME": "W7U/GA-033", "TITLE": "Buck Benchmark", "REGION": "Garfield County", "ASSOCIATION": "USA - Utah", "POINTS": "6", "BONUSPOINTS": "3"}}, {"type": "Feature", "geometry": {"type": "Point", "coordinates": [-111.7053, 37.544]}, "properties": {"NAME": "W7U/GA-034", "TITLE": "7618", "REGION": "Garfield County", "ASSOCIATION": "USA - Utah", "POINTS": "6", "BONUSPOINTS": "3"}}, {"type": "Feature", "geometry": {"type": "Point", "coordinates": [-110.9823, 37.7036]}, "properties": {"NAME": "W7U/GA-035", "TITLE": "Deer Point", "REGION": "Garfield County", "ASSOCIATION": "USA - Utah", "POINTS": "4", "BONUSPOINTS": "3"}}, {"type": "Feature", "geometry": {"type": "Point", "coordinates": [-111.0769, 37.8245]}, "properties": {"NAME": "W7U/GA-036", "TITLE": "Wagon Box Mesa", "REGION": "Garfield County", "ASSOCIATION": "USA - Utah", "POINTS": "4", "BONUSPOINTS": "3"}}, {"type": "Feature", "geometry": {"type": "Point", "coordinates": [-111.1413, 38.1137]}, "properties": {"NAME": "W7U/GA-037", "TITLE": "7220", "REGION": "Garfield County", "ASSOCIATION": "USA - Utah", "POINTS": "4", "BONUSPOINTS": "3"}}, {"type": "Feature", "geometry": {"type": "Point", "coordinates": [-111.2437, 37.9755]}, "properties": {"NAME": "W7U/GA-038", "TITLE": "7220", "REGION": "Garfield County", "ASSOCIATION": "USA - Utah", "POINTS": "4", "BONUSPOINTS": "3"}}, {"type": "Feature", "geometry": {"type": "Point", "coordinates": [-110.1301, 38.1019]}, "properties": {"NAME": "W7U/GA-039", "TITLE": "Lands End", "REGION": "Garfield County", "ASSOCIATION": "USA - Utah", "POINTS": "4", "BONUSPOINTS": "3"}}, {"type": "Feature", "geometry": {"type": "Point", "coordinates": [-110.973, 37.6899]}, "properties": {"NAME": "W7U/GA-040", "TITLE": "7140", "REGION": "Garfield County", "ASSOCIATION": "USA - Utah", "POINTS": "4", "BONUSPOINTS": "3"}}, {"type": "Feature", "geometry": {"type": "Point", "coordinates": [-111.2389, 37.9626]}, "properties": {"NAME": "W7U/GA-041", "TITLE": "7140", "REGION": "Garfield County", "ASSOCIATION": "USA - Utah", "POINTS": "4", "BONUSPOINTS": "3"}}, {"type": "Feature", "geometry": {"type": "Point", "coordinates": [-110.207, 38.043]}, "properties": {"NAME": "W7U/GA-042", "TITLE": "North Block", "REGION": "Garfield County", "ASSOCIATION": "USA - Utah", "POINTS": "4", "BONUSPOINTS": "3"}}, {"type": "Feature", "geometry": {"type": "Point", "coordinates": [-111.2421, 37.9461]}, "properties": {"NAME": "W7U/GA-043", "TITLE": "7020", "REGION": "Garfield County", "ASSOCIATION": "USA - Utah", "POINTS": "4", "BONUSPOINTS": "3"}}, {"type": "Feature", "geometry": {"type": "Point", "coordinates": [-111.6222, 37.6625]}, "properties": {"NAME": "W7U/GA-044", "TITLE": "7019", "REGION": "Garfield County", "ASSOCIATION": "USA - Utah", "POINTS": "4", "BONUSPOINTS": "3"}}, {"type": "Feature", "geometry": {"type": "Point", "coordinates": [-111.2631, 37.966]}, "properties": {"NAME": "W7U/GA-045", "TITLE": "7010", "REGION": "Garfield County", "ASSOCIATION": "USA - Utah", "POINTS": "4", "BONUSPOINTS": "3"}}, {"type": "Feature", "geometry": {"type": "Point", "coordinates": [-111.4672, 37.5425]}, "properties": {"NAME": "W7U/GA-046", "TITLE": "6964", "REGION": "Garfield County", "ASSOCIATION": "USA - Utah", "POINTS": "4", "BONUSPOINTS": "3"}}, {"type": "Feature", "geometry": {"type": "Point", "coordinates": [-111.5527, 37.871]}, "properties": {"NAME": "W7U/GA-047", "TITLE": "6940", "REGION": "Garfield County", "ASSOCIATION": "USA - Utah", "POINTS": "4", "BONUSPOINTS": "3"}}, {"type": "Feature", "geometry": {"type": "Point", "coordinates": [-110.921, 38.0749]}, "properties": {"NAME": "W7U/GA-048", "TITLE": "Steele Butte", "REGION": "Garfield County", "ASSOCIATION": "USA - Utah", "POINTS": "4", "BONUSPOINTS": "3"}}, {"type": "Feature", "geometry": {"type": "Point", "coordinates": [-111.2557, 37.8675]}, "properties": {"NAME": "W7U/GA-049", "TITLE": "King Bench", "REGION": "Garfield County", "ASSOCIATION": "USA - Utah", "POINTS": "4", "BONUSPOINTS": "3"}}, {"type": "Feature", "geometry": {"type": "Point", "coordinates": [-111.1317, 38.1173]}, "properties": {"NAME": "W7U/GA-050", "TITLE": "6820", "REGION": "Garfield County", "ASSOCIATION": "USA - Utah", "POINTS": "4", "BONUSPOINTS": "3"}}, {"type": "Feature", "geometry": {"type": "Point", "coordinates": [-111.1584, 37.7629]}, "properties": {"NAME": "W7U/GA-051", "TITLE": "Big Bown Bench", "REGION": "Garfield County", "ASSOCIATION": "USA - Utah", "POINTS": "4", "BONUSPOINTS": "3"}}, {"type": "Feature", "geometry": {"type": "Point", "coordinates": [-110.1881, 38.0641]}, "properties": {"NAME": "W7U/GA-052", "TITLE": "Gunsight Butte", "REGION": "Garfield County", "ASSOCIATION": "USA - Utah", "POINTS": "4", "BONUSPOINTS": "3"}}, {"type": "Feature", "geometry": {"type": "Point", "coordinates": [-111.5594, 37.7775]}, "properties": {"NAME": "W7U/GA-053", "TITLE": "Big Flat", "REGION": "Garfield County", "ASSOCIATION": "USA - Utah", "POINTS": "4", "BONUSPOINTS": "3"}}, {"type": "Feature", "geometry": {"type": "Point", "coordinates": [-110.2754, 37.9706]}, "properties": {"NAME": "W7U/GA-054", "TITLE": "6660", "REGION": "Garfield County", "ASSOCIATION": "USA - Utah", "POINTS": "4", "BONUSPOINTS": "3"}}, {"type": "Feature", "geometry": {"type": "Point", "coordinates": [-111.0218, 37.8061]}, "properties": {"NAME": "W7U/GA-055", "TITLE": "6620", "REGION": "Garfield County", "ASSOCIATION": "USA - Utah", "POINTS": "4", "BONUSPOINTS": "3"}}, {"type": "Feature", "geometry": {"type": "Point", "coordinates": [-111.0972, 37.721]}, "properties": {"NAME": "W7U/GA-056", "TITLE": "Silver Falls Bench", "REGION": "Garfield County", "ASSOCIATION": "USA - Utah", "POINTS": "4", "BONUSPOINTS": "3"}}, {"type": "Feature", "geometry": {"type": "Point", "coordinates": [-110.6048, 37.7825]}, "properties": {"NAME": "W7U/GA-057", "TITLE": "Freds Ridge", "REGION": "Garfield County", "ASSOCIATION": "USA - Utah", "POINTS": "4", "BONUSPOINTS": "3"}}, {"type": "Feature", "geometry": {"type": "Point", "coordinates": [-111.1142, 37.7437]}, "properties": {"NAME": "W7U/GA-058", "TITLE": "6595", "REGION": "Garfield County", "ASSOCIATION": "USA - Utah", "POINTS": "4", "BONUSPOINTS": "3"}}, {"type": "Feature", "geometry": {"type": "Point", "coordinates": [-110.8038, 37.8862]}, "properties": {"NAME": "W7U/GA-059", "TITLE": "No Man Mesa", "REGION": "Garfield County", "ASSOCIATION": "USA - Utah", "POINTS": "4", "BONUSPOINTS": "3"}}, {"type": "Feature", "geometry": {"type": "Point", "coordinates": [-111.0058, 37.7706]}, "properties": {"NAME": "W7U/GA-060", "TITLE": "6540", "REGION": "Garfield County", "ASSOCIATION": "USA - Utah", "POINTS": "4", "BONUSPOINTS": "3"}}, {"type": "Feature", "geometry": {"type": "Point", "coordinates": [-110.2299, 38.0813]}, "properties": {"NAME": "W7U/GA-061", "TITLE": "6500", "REGION": "Garfield County", "ASSOCIATION": "USA - Utah", "POINTS": "2", "BONUSPOINTS": "3"}}, {"type": "Feature", "geometry": {"type": "Point", "coordinates": [-110.9974, 38.0862]}, "properties": {"NAME": "W7U/GA-062", "TITLE": "6471", "REGION": "Garfield County", "ASSOCIATION": "USA - Utah", "POINTS": "2", "BONUSPOINTS": "3"}}, {"type": "Feature", "geometry": {"type": "Point", "coordinates": [-111.1268, 37.734]}, "properties": {"NAME": "W7U/GA-063", "TITLE": "6438", "REGION": "Garfield County", "ASSOCIATION": "USA - Utah", "POINTS": "2", "BONUSPOINTS": "3"}}, {"type": "Feature", "geometry": {"type": "Point", "coordinates": [-111.1442, 37.746]}, "properties": {"NAME": "W7U/GA-064", "TITLE": "6388", "REGION": "Garfield County", "ASSOCIATION": "USA - Utah", "POINTS": "2", "BONUSPOINTS": "3"}}, {"type": "Feature", "geometry": {"type": "Point", "coordinates": [-111.1201, 38.1018]}, "properties": {"NAME": "W7U/GA-065", "TITLE": "6380", "REGION": "Garfield County", "ASSOCIATION": "USA - Utah", "POINTS": "2", "BONUSPOINTS": "3"}}, {"type": "Feature", "geometry": {"type": "Point", "coordinates": [-111.0945, 37.7005]}, "properties": {"NAME": "W7U/GA-066", "TITLE": "6380", "REGION": "Garfield County", "ASSOCIATION": "USA - Utah", "POINTS": "2", "BONUSPOINTS": "3"}}, {"type": "Feature", "geometry": {"type": "Point", "coordinates": [-111.1756, 37.7749]}, "properties": {"NAME": "W7U/GA-067", "TITLE": "6377", "REGION": "Garfield County", "ASSOCIATION": "USA - Utah", "POINTS": "2", "BONUSPOINTS": "3"}}, {"type": "Feature", "geometry": {"type": "Point", "coordinates": [-111.0287, 37.8389]}, "properties": {"NAME": "W7U/GA-068", "TITLE": "6340", "REGION": "Garfield County", "ASSOCIATION": "USA - Utah", "POINTS": "2", "BONUSPOINTS": "3"}}, {"type": "Feature", "geometry": {"type": "Point", "coordinates": [-111.2273, 37.8378]}, "properties": {"NAME": "W7U/GA-069", "TITLE": "Wolverine Bench", "REGION": "Garfield County", "ASSOCIATION": "USA - Utah", "POINTS": "2", "BONUSPOINTS": "3"}}, {"type": "Feature", "geometry": {"type": "Point", "coordinates": [-111.1927, 37.7856]}, "properties": {"NAME": "W7U/GA-070", "TITLE": "Little Bown Bench", "REGION": "Garfield County", "ASSOCIATION": "USA - Utah", "POINTS": "2", "BONUSPOINTS": "3"}}, {"type": "Feature", "geometry": {"type": "Point", "coordinates": [-111.1924, 37.7973]}, "properties": {"NAME": "W7U/GA-071", "TITLE": "6288", "REGION": "Garfield County", "ASSOCIATION": "USA - Utah", "POINTS": "2", "BONUSPOINTS": "3"}}, {"type": "Feature", "geometry": {"type": "Point", "coordinates": [-111.3623, 37.6971]}, "properties": {"NAME": "W7U/GA-072", "TITLE": "Red Breaks", "REGION": "Garfield County", "ASSOCIATION": "USA - Utah", "POINTS": "2", "BONUSPOINTS": "3"}}, {"type": "Feature", "geometry": {"type": "Point", "coordinates": [-111.0848, 37.6773]}, "properties": {"NAME": "W7U/GA-073", "TITLE": "Choprock Bench", "REGION": "Garfield County", "ASSOCIATION": "USA - Utah", "POINTS": "2", "BONUSPOINTS": "3"}}, {"type": "Feature", "geometry": {"type": "Point", "coordinates": [-110.2854, 38.0469]}, "properties": {"NAME": "W7U/GA-074", "TITLE": "6224", "REGION": "Garfield County", "ASSOCIATION": "USA - Utah", "POINTS": "2", "BONUSPOINTS": "3"}}, {"type": "Feature", "geometry": {"type": "Point", "coordinates": [-110.9977, 37.6254]}, "properties": {"NAME": "W7U/GA-075", "TITLE": "6220", "REGION": "Garfield County", "ASSOCIATION": "USA - Utah", "POINTS": "2", "BONUSPOINTS": "3"}}, {"type": "Feature", "geometry": {"type": "Point", "coordinates": [-111.2032, 37.7948]}, "properties": {"NAME": "W7U/GA-076", "TITLE": "6208", "REGION": "Garfield County", "ASSOCIATION": "USA - Utah", "POINTS": "2", "BONUSPOINTS": "3"}}, {"type": "Feature", "geometry": {"type": "Point", "coordinates": [-111.0272, 37.6398]}, "properties": {"NAME": "W7U/GA-077", "TITLE": "6170", "REGION": "Garfield County", "ASSOCIATION": "USA - Utah", "POINTS": "2", "BONUSPOINTS": "0"}}, {"type": "Feature", "geometry": {"type": "Point", "coordinates": [-110.3125, 38.0481]}, "properties": {"NAME": "W7U/GA-078", "TITLE": "Fiddler Butte", "REGION": "Garfield County", "ASSOCIATION": "USA - Utah", "POINTS": "2", "BONUSPOINTS": "0"}}, {"type": "Feature", "geometry": {"type": "Point", "coordinates": [-110.4266, 38.0682]}, "properties": {"NAME": "W7U/GA-079", "TITLE": "Cedar Point", "REGION": "Garfield County", "ASSOCIATION": "USA - Utah", "POINTS": "2", "BONUSPOINTS": "0"}}, {"type": "Feature", "geometry": {"type": "Point", "coordinates": [-111.2232, 37.6304]}, "properties": {"NAME": "W7U/GA-080", "TITLE": "Allen Dump", "REGION": "Garfield County", "ASSOCIATION": "USA - Utah", "POINTS": "2", "BONUSPOINTS": "0"}}, {"type": "Feature", "geometry": {"type": "Point", "coordinates": [-111.2911, 37.6989]}, "properties": {"NAME": "W7U/GA-081", "TITLE": "5932", "REGION": "Garfield County", "ASSOCIATION": "USA - Utah", "POINTS": "2", "BONUSPOINTS": "0"}}, {"type": "Feature", "geometry": {"type": "Point", "coordinates": [-110.0875, 38.0051]}, "properties": {"NAME": "W7U/GA-082", "TITLE": "Ocean Point", "REGION": "Garfield County", "ASSOCIATION": "USA - Utah", "POINTS": "2", "BONUSPOINTS": "0"}}, {"type": "Feature", "geometry": {"type": "Point", "coordinates": [-110.3398, 38.0626]}, "properties": {"NAME": "W7U/GA-083", "TITLE": "5792", "REGION": "Garfield County", "ASSOCIATION": "USA - Utah", "POINTS": "2", "BONUSPOINTS": "0"}}, {"type": "Feature", "geometry": {"type": "Point", "coordinates": [-110.4297, 37.8596]}, "properties": {"NAME": "W7U/GA-084", "TITLE": "Hite Benchmark", "REGION": "Garfield County", "ASSOCIATION": "USA - Utah", "POINTS": "2", "BONUSPOINTS": "0"}}, {"type": "Feature", "geometry": {"type": "Point", "coordinates": [-110.4898, 37.9388]}, "properties": {"NAME": "W7U/GA-085", "TITLE": "Trachyte Point East", "REGION": "Garfield County", "ASSOCIATION": "USA - Utah", "POINTS": "2", "BONUSPOINTS": "0"}}, {"type": "Feature", "geometry": {"type": "Point", "coordinates": [-110.4771, 37.7549]}, "properties": {"NAME": "W7U/GA-086", "TITLE": "5390", "REGION": "Garfield County", "ASSOCIATION": "USA - Utah", "POINTS": "1", "BONUSPOINTS": "0"}}, {"type": "Feature", "geometry": {"type": "Point", "coordinates": [-110.3433, 38.1498]}, "properties": {"NAME": "W7U/GA-087", "TITLE": "Pinnacle, The", "REGION": "Garfield County", "ASSOCIATION": "USA - Utah", "POINTS": "1", "BONUSPOINTS": "0"}}, {"type": "Feature", "geometry": {"type": "Point", "coordinates": [-110.7668, 37.6863]}, "properties": {"NAME": "W7U/GA-088", "TITLE": "Saleratus Point", "REGION": "Garfield County", "ASSOCIATION": "USA - Utah", "POINTS": "1", "BONUSPOINTS": "0"}}]}