{"type": "FeatureCollection", "name": "W7U/EM SUMMITS", "features": [{"type": "Feature", "geometry": {"type": "Point", "coordinates": [-111.2168, 39.4755]}, "properties": {"NAME": "W7U/EM-001", "TITLE": "East Mountain", "REGION": "Emery County", "ASSOCIATION": "USA - Utah", "POINTS": "10", "BONUSPOINTS": "3"}}, {"type": "Feature", "geometry": {"type": "Point", "coordinates": [-111.2179, 39.4217]}, "properties": {"NAME": "W7U/EM-002", "TITLE": "Bald Benchmark", "REGION": "Emery County", "ASSOCIATION": "USA - Utah", "POINTS": "10", "BONUSPOINTS": "3"}}, {"type": "Feature", "geometry": {"type": "Point", "coordinates": [-111.2149, 39.5057]}, "properties": {"NAME": "W7U/EM-003", "TITLE": "Seeley Mountain", "REGION": "Emery County", "ASSOCIATION": "USA - Utah", "POINTS": "8", "BONUSPOINTS": "3"}}, {"type": "Feature", "geometry": {"type": "Point", "coordinates": [-111.2196, 39.2184]}, "properties": {"NAME": "W7U/EM-004", "TITLE": "North Horn Mountain", "REGION": "Emery County", "ASSOCIATION": "USA - Utah", "POINTS": "8", "BONUSPOINTS": "3"}}, {"type": "Feature", "geometry": {"type": "Point", "coordinates": [-110.2927, 39.4575]}, "properties": {"NAME": "W7U/EM-005", "TITLE": "9327", "REGION": "Emery County", "ASSOCIATION": "USA - Utah", "POINTS": "8", "BONUSPOINTS": "3"}}, {"type": "Feature", "geometry": {"type": "Point", "coordinates": [-111.2582, 39.4063]}, "properties": {"NAME": "W7U/EM-006", "TITLE": "Middle Mountain", "REGION": "Emery County", "ASSOCIATION": "USA - Utah", "POINTS": "8", "BONUSPOINTS": "3"}}, {"type": "Feature", "geometry": {"type": "Point", "coordinates": [-111.2228, 39.0444]}, "properties": {"NAME": "W7U/EM-007", "TITLE": "Nelson Mountain", "REGION": "Emery County", "ASSOCIATION": "USA - Utah", "POINTS": "8", "BONUSPOINTS": "3"}}, {"type": "Feature", "geometry": {"type": "Point", "coordinates": [-110.2577, 39.4049]}, "properties": {"NAME": "W7U/EM-008", "TITLE": "Cone Shape Benchmark", "REGION": "Emery County", "ASSOCIATION": "USA - Utah", "POINTS": "8", "BONUSPOINTS": "3"}}, {"type": "Feature", "geometry": {"type": "Point", "coordinates": [-110.2346, 39.3939]}, "properties": {"NAME": "W7U/EM-009", "TITLE": "8889", "REGION": "Emery County", "ASSOCIATION": "USA - Utah", "POINTS": "6", "BONUSPOINTS": "3"}}, {"type": "Feature", "geometry": {"type": "Point", "coordinates": [-110.2579, 39.4395]}, "properties": {"NAME": "W7U/EM-010", "TITLE": "8878", "REGION": "Emery County", "ASSOCIATION": "USA - Utah", "POINTS": "6", "BONUSPOINTS": "3"}}, {"type": "Feature", "geometry": {"type": "Point", "coordinates": [-110.2511, 39.3797]}, "properties": {"NAME": "W7U/EM-011", "TITLE": "8809", "REGION": "Emery County", "ASSOCIATION": "USA - Utah", "POINTS": "6", "BONUSPOINTS": "3"}}, {"type": "Feature", "geometry": {"type": "Point", "coordinates": [-111.2287, 39.0852]}, "properties": {"NAME": "W7U/EM-012", "TITLE": "Little Nelson Mountain", "REGION": "Emery County", "ASSOCIATION": "USA - Utah", "POINTS": "6", "BONUSPOINTS": "3"}}, {"type": "Feature", "geometry": {"type": "Point", "coordinates": [-110.2382, 39.364]}, "properties": {"NAME": "W7U/EM-013", "TITLE": "8561", "REGION": "Emery County", "ASSOCIATION": "USA - Utah", "POINTS": "6", "BONUSPOINTS": "3"}}, {"type": "Feature", "geometry": {"type": "Point", "coordinates": [-110.1495, 39.4125]}, "properties": {"NAME": "W7U/EM-014", "TITLE": "8389", "REGION": "Emery County", "ASSOCIATION": "USA - Utah", "POINTS": "6", "BONUSPOINTS": "3"}}, {"type": "Feature", "geometry": {"type": "Point", "coordinates": [-110.8091, 38.8297]}, "properties": {"NAME": "W7U/EM-015", "TITLE": "7762", "REGION": "Emery County", "ASSOCIATION": "USA - Utah", "POINTS": "6", "BONUSPOINTS": "3"}}, {"type": "Feature", "geometry": {"type": "Point", "coordinates": [-110.7517, 38.8933]}, "properties": {"NAME": "W7U/EM-016", "TITLE": "Saddle Benchmark", "REGION": "Emery County", "ASSOCIATION": "USA - Utah", "POINTS": "6", "BONUSPOINTS": "3"}}, {"type": "Feature", "geometry": {"type": "Point", "coordinates": [-110.8957, 38.7742]}, "properties": {"NAME": "W7U/EM-017", "TITLE": "Square Top", "REGION": "Emery County", "ASSOCIATION": "USA - Utah", "POINTS": "4", "BONUSPOINTS": "3"}}, {"type": "Feature", "geometry": {"type": "Point", "coordinates": [-110.0809, 39.3636]}, "properties": {"NAME": "W7U/EM-018", "TITLE": "7330", "REGION": "Emery County", "ASSOCIATION": "USA - Utah", "POINTS": "4", "BONUSPOINTS": "3"}}, {"type": "Feature", "geometry": {"type": "Point", "coordinates": [-110.3, 39.1829]}, "properties": {"NAME": "W7U/EM-019", "TITLE": "Elliott, Mount", "REGION": "Emery County", "ASSOCIATION": "USA - Utah", "POINTS": "4", "BONUSPOINTS": "3"}}, {"type": "Feature", "geometry": {"type": "Point", "coordinates": [-110.7632, 38.9389]}, "properties": {"NAME": "W7U/EM-020", "TITLE": "7140", "REGION": "Emery County", "ASSOCIATION": "USA - Utah", "POINTS": "4", "BONUSPOINTS": "3"}}, {"type": "Feature", "geometry": {"type": "Point", "coordinates": [-110.5826, 39.3266]}, "properties": {"NAME": "W7U/EM-021", "TITLE": "Flattop Mountain", "REGION": "Emery County", "ASSOCIATION": "USA - Utah", "POINTS": "4", "BONUSPOINTS": "3"}}, {"type": "Feature", "geometry": {"type": "Point", "coordinates": [-111.1484, 38.8733]}, "properties": {"NAME": "W7U/EM-022", "TITLE": "Molen Reef", "REGION": "Emery County", "ASSOCIATION": "USA - Utah", "POINTS": "4", "BONUSPOINTS": "3"}}, {"type": "Feature", "geometry": {"type": "Point", "coordinates": [-111.1152, 38.6089]}, "properties": {"NAME": "W7U/EM-023", "TITLE": "Cedar Mountain", "REGION": "Emery County", "ASSOCIATION": "USA - Utah", "POINTS": "4", "BONUSPOINTS": "3"}}, {"type": "Feature", "geometry": {"type": "Point", "coordinates": [-111.0946, 38.6211]}, "properties": {"NAME": "W7U/EM-024", "TITLE": "East Cedar Mountain", "REGION": "Emery County", "ASSOCIATION": "USA - Utah", "POINTS": "4", "BONUSPOINTS": "3"}}, {"type": "Feature", "geometry": {"type": "Point", "coordinates": [-110.6563, 39.0447]}, "properties": {"NAME": "W7U/EM-025", "TITLE": "Window Blind Peak", "REGION": "Emery County", "ASSOCIATION": "USA - Utah", "POINTS": "4", "BONUSPOINTS": "3"}}, {"type": "Feature", "geometry": {"type": "Point", "coordinates": [-110.269, 39.145]}, "properties": {"NAME": "W7U/EM-026", "TITLE": "Middle Mountain", "REGION": "Emery County", "ASSOCIATION": "USA - Utah", "POINTS": "4", "BONUSPOINTS": "3"}}, {"type": "Feature", "geometry": {"type": "Point", "coordinates": [-110.7328, 38.9743]}, "properties": {"NAME": "W7U/EM-027", "TITLE": "Pinnacle Benchmark", "REGION": "Emery County", "ASSOCIATION": "USA - Utah", "POINTS": "4", "BONUSPOINTS": "3"}}, {"type": "Feature", "geometry": {"type": "Point", "coordinates": [-110.2841, 39.168]}, "properties": {"NAME": "W7U/EM-028", "TITLE": "Elliott Mesa", "REGION": "Emery County", "ASSOCIATION": "USA - Utah", "POINTS": "4", "BONUSPOINTS": "3"}}, {"type": "Feature", "geometry": {"type": "Point", "coordinates": [-110.7627, 39.005]}, "properties": {"NAME": "W7U/EM-029", "TITLE": "Sids Mountain", "REGION": "Emery County", "ASSOCIATION": "USA - Utah", "POINTS": "4", "BONUSPOINTS": "3"}}, {"type": "Feature", "geometry": {"type": "Point", "coordinates": [-111.2126, 38.5219]}, "properties": {"NAME": "W7U/EM-030", "TITLE": "Little Black Mountains HP", "REGION": "Emery County", "ASSOCIATION": "USA - Utah", "POINTS": "4", "BONUSPOINTS": "3"}}, {"type": "Feature", "geometry": {"type": "Point", "coordinates": [-110.6238, 39.0734]}, "properties": {"NAME": "W7U/EM-031", "TITLE": "6915", "REGION": "Emery County", "ASSOCIATION": "USA - Utah", "POINTS": "4", "BONUSPOINTS": "3"}}, {"type": "Feature", "geometry": {"type": "Point", "coordinates": [-110.5751, 39.0436]}, "properties": {"NAME": "W7U/EM-032", "TITLE": "6912", "REGION": "Emery County", "ASSOCIATION": "USA - Utah", "POINTS": "4", "BONUSPOINTS": "3"}}, {"type": "Feature", "geometry": {"type": "Point", "coordinates": [-110.6067, 39.0579]}, "properties": {"NAME": "W7U/EM-033", "TITLE": "6905", "REGION": "Emery County", "ASSOCIATION": "USA - Utah", "POINTS": "4", "BONUSPOINTS": "3"}}, {"type": "Feature", "geometry": {"type": "Point", "coordinates": [-111.2146, 38.7766]}, "properties": {"NAME": "W7U/EM-034", "TITLE": "Mesa Butte", "REGION": "Emery County", "ASSOCIATION": "USA - Utah", "POINTS": "4", "BONUSPOINTS": "3"}}, {"type": "Feature", "geometry": {"type": "Point", "coordinates": [-110.847, 38.9372]}, "properties": {"NAME": "W7U/EM-035", "TITLE": "6860", "REGION": "Emery County", "ASSOCIATION": "USA - Utah", "POINTS": "4", "BONUSPOINTS": "3"}}, {"type": "Feature", "geometry": {"type": "Point", "coordinates": [-110.5136, 39.0489]}, "properties": {"NAME": "W7U/EM-036", "TITLE": "6842", "REGION": "Emery County", "ASSOCIATION": "USA - Utah", "POINTS": "4", "BONUSPOINTS": "3"}}, {"type": "Feature", "geometry": {"type": "Point", "coordinates": [-111.0183, 38.5882]}, "properties": {"NAME": "W7U/EM-037", "TITLE": "Moroni Benchmark", "REGION": "Emery County", "ASSOCIATION": "USA - Utah", "POINTS": "4", "BONUSPOINTS": "3"}}, {"type": "Feature", "geometry": {"type": "Point", "coordinates": [-110.6792, 38.6883]}, "properties": {"NAME": "W7U/EM-038", "TITLE": "Temple Mountain", "REGION": "Emery County", "ASSOCIATION": "USA - Utah", "POINTS": "4", "BONUSPOINTS": "3"}}, {"type": "Feature", "geometry": {"type": "Point", "coordinates": [-110.252, 39.096]}, "properties": {"NAME": "W7U/EM-039", "TITLE": "Little Elliott Mesa", "REGION": "Emery County", "ASSOCIATION": "USA - Utah", "POINTS": "4", "BONUSPOINTS": "3"}}, {"type": "Feature", "geometry": {"type": "Point", "coordinates": [-111.0243, 38.6599]}, "properties": {"NAME": "W7U/EM-040", "TITLE": "Slaughter Benchmark", "REGION": "Emery County", "ASSOCIATION": "USA - Utah", "POINTS": "4", "BONUSPOINTS": "3"}}, {"type": "Feature", "geometry": {"type": "Point", "coordinates": [-110.5802, 39.0665]}, "properties": {"NAME": "W7U/EM-041", "TITLE": "6705", "REGION": "Emery County", "ASSOCIATION": "USA - Utah", "POINTS": "4", "BONUSPOINTS": "3"}}, {"type": "Feature", "geometry": {"type": "Point", "coordinates": [-111.2154, 38.8291]}, "properties": {"NAME": "W7U/EM-042", "TITLE": "Coal Cliffs", "REGION": "Emery County", "ASSOCIATION": "USA - Utah", "POINTS": "4", "BONUSPOINTS": "3"}}, {"type": "Feature", "geometry": {"type": "Point", "coordinates": [-110.6822, 39.0877]}, "properties": {"NAME": "W7U/EM-043", "TITLE": "Wedge East, The", "REGION": "Emery County", "ASSOCIATION": "USA - Utah", "POINTS": "4", "BONUSPOINTS": "3"}}, {"type": "Feature", "geometry": {"type": "Point", "coordinates": [-111.2102, 38.5517]}, "properties": {"NAME": "W7U/EM-044", "TITLE": "6694", "REGION": "Emery County", "ASSOCIATION": "USA - Utah", "POINTS": "4", "BONUSPOINTS": "3"}}, {"type": "Feature", "geometry": {"type": "Point", "coordinates": [-110.9414, 38.7319]}, "properties": {"NAME": "W7U/EM-045", "TITLE": "6661", "REGION": "Emery County", "ASSOCIATION": "USA - Utah", "POINTS": "4", "BONUSPOINTS": "3"}}, {"type": "Feature", "geometry": {"type": "Point", "coordinates": [-110.5599, 39.2011]}, "properties": {"NAME": "W7U/EM-046", "TITLE": "Chimmey Rock", "REGION": "Emery County", "ASSOCIATION": "USA - Utah", "POINTS": "4", "BONUSPOINTS": "3"}}, {"type": "Feature", "geometry": {"type": "Point", "coordinates": [-110.5688, 39.2767]}, "properties": {"NAME": "W7U/EM-047", "TITLE": "6654", "REGION": "Emery County", "ASSOCIATION": "USA - Utah", "POINTS": "4", "BONUSPOINTS": "3"}}, {"type": "Feature", "geometry": {"type": "Point", "coordinates": [-110.8589, 38.9275]}, "properties": {"NAME": "W7U/EM-048", "TITLE": "6644", "REGION": "Emery County", "ASSOCIATION": "USA - Utah", "POINTS": "4", "BONUSPOINTS": "3"}}, {"type": "Feature", "geometry": {"type": "Point", "coordinates": [-111.1709, 38.5103]}, "properties": {"NAME": "W7U/EM-049", "TITLE": "Factory Butte", "REGION": "Emery County", "ASSOCIATION": "USA - Utah", "POINTS": "4", "BONUSPOINTS": "3"}}, {"type": "Feature", "geometry": {"type": "Point", "coordinates": [-110.7237, 39.0712]}, "properties": {"NAME": "W7U/EM-050", "TITLE": "6545", "REGION": "Emery County", "ASSOCIATION": "USA - Utah", "POINTS": "4", "BONUSPOINTS": "3"}}, {"type": "Feature", "geometry": {"type": "Point", "coordinates": [-110.9908, 38.5363]}, "properties": {"NAME": "W7U/EM-051", "TITLE": "Trough Benchmark", "REGION": "Emery County", "ASSOCIATION": "USA - Utah", "POINTS": "4", "BONUSPOINTS": "3"}}, {"type": "Feature", "geometry": {"type": "Point", "coordinates": [-110.7874, 38.6331]}, "properties": {"NAME": "W7U/EM-052", "TITLE": "Chute Benchmark", "REGION": "Emery County", "ASSOCIATION": "USA - Utah", "POINTS": "4", "BONUSPOINTS": "3"}}, {"type": "Feature", "geometry": {"type": "Point", "coordinates": [-110.7911, 38.9796]}, "properties": {"NAME": "W7U/EM-053", "TITLE": "6505", "REGION": "Emery County", "ASSOCIATION": "USA - Utah", "POINTS": "4", "BONUSPOINTS": "3"}}, {"type": "Feature", "geometry": {"type": "Point", "coordinates": [-110.2598, 39.1036]}, "properties": {"NAME": "W7U/EM-054", "TITLE": "6410", "REGION": "Emery County", "ASSOCIATION": "USA - Utah", "POINTS": "2", "BONUSPOINTS": "3"}}, {"type": "Feature", "geometry": {"type": "Point", "coordinates": [-110.6874, 39.0603]}, "properties": {"NAME": "W7U/EM-055", "TITLE": "Bottleneck Peak", "REGION": "Emery County", "ASSOCIATION": "USA - Utah", "POINTS": "2", "BONUSPOINTS": "3"}}, {"type": "Feature", "geometry": {"type": "Point", "coordinates": [-110.6579, 39.0669]}, "properties": {"NAME": "W7U/EM-056", "TITLE": "Assembly Hall Peak", "REGION": "Emery County", "ASSOCIATION": "USA - Utah", "POINTS": "2", "BONUSPOINTS": "3"}}, {"type": "Feature", "geometry": {"type": "Point", "coordinates": [-110.4706, 39.0061]}, "properties": {"NAME": "W7U/EM-057", "TITLE": "Mexican Mountain", "REGION": "Emery County", "ASSOCIATION": "USA - Utah", "POINTS": "2", "BONUSPOINTS": "3"}}, {"type": "Feature", "geometry": {"type": "Point", "coordinates": [-110.9816, 38.6952]}, "properties": {"NAME": "W7U/EM-058", "TITLE": "6340", "REGION": "Emery County", "ASSOCIATION": "USA - Utah", "POINTS": "2", "BONUSPOINTS": "3"}}, {"type": "Feature", "geometry": {"type": "Point", "coordinates": [-110.9375, 38.5658]}, "properties": {"NAME": "W7U/EM-059", "TITLE": "6340", "REGION": "Emery County", "ASSOCIATION": "USA - Utah", "POINTS": "2", "BONUSPOINTS": "3"}}, {"type": "Feature", "geometry": {"type": "Point", "coordinates": [-110.5028, 39.0275]}, "properties": {"NAME": "W7U/EM-060", "TITLE": "6333", "REGION": "Emery County", "ASSOCIATION": "USA - Utah", "POINTS": "2", "BONUSPOINTS": "3"}}, {"type": "Feature", "geometry": {"type": "Point", "coordinates": [-110.7288, 38.6339]}, "properties": {"NAME": "W7U/EM-061", "TITLE": "6260", "REGION": "Emery County", "ASSOCIATION": "USA - Utah", "POINTS": "2", "BONUSPOINTS": "3"}}, {"type": "Feature", "geometry": {"type": "Point", "coordinates": [-110.5844, 38.7399]}, "properties": {"NAME": "W7U/EM-062", "TITLE": "6220", "REGION": "Emery County", "ASSOCIATION": "USA - Utah", "POINTS": "2", "BONUSPOINTS": "3"}}, {"type": "Feature", "geometry": {"type": "Point", "coordinates": [-110.2127, 39.279]}, "properties": {"NAME": "W7U/EM-063", "TITLE": "6220", "REGION": "Emery County", "ASSOCIATION": "USA - Utah", "POINTS": "2", "BONUSPOINTS": "3"}}, {"type": "Feature", "geometry": {"type": "Point", "coordinates": [-110.5467, 39.3788]}, "properties": {"NAME": "W7U/EM-064", "TITLE": "6205", "REGION": "Emery County", "ASSOCIATION": "USA - Utah", "POINTS": "2", "BONUSPOINTS": "3"}}, {"type": "Feature", "geometry": {"type": "Point", "coordinates": [-110.8109, 38.6151]}, "properties": {"NAME": "W7U/EM-065", "TITLE": "6180", "REGION": "Emery County", "ASSOCIATION": "USA - Utah", "POINTS": "2", "BONUSPOINTS": "0"}}, {"type": "Feature", "geometry": {"type": "Point", "coordinates": [-110.9017, 38.5787]}, "properties": {"NAME": "W7U/EM-066", "TITLE": "6140", "REGION": "Emery County", "ASSOCIATION": "USA - Utah", "POINTS": "2", "BONUSPOINTS": "0"}}, {"type": "Feature", "geometry": {"type": "Point", "coordinates": [-110.4522, 38.5077]}, "properties": {"NAME": "W7U/EM-067", "TITLE": "Big Flat Tops South, The", "REGION": "Emery County", "ASSOCIATION": "USA - Utah", "POINTS": "2", "BONUSPOINTS": "0"}}, {"type": "Feature", "geometry": {"type": "Point", "coordinates": [-110.8515, 38.599]}, "properties": {"NAME": "W7U/EM-068", "TITLE": "Ding Dang Dome", "REGION": "Emery County", "ASSOCIATION": "USA - Utah", "POINTS": "2", "BONUSPOINTS": "0"}}, {"type": "Feature", "geometry": {"type": "Point", "coordinates": [-110.4547, 38.9392]}, "properties": {"NAME": "W7U/EM-069", "TITLE": "Dragon Benchmark", "REGION": "Emery County", "ASSOCIATION": "USA - Utah", "POINTS": "2", "BONUSPOINTS": "0"}}, {"type": "Feature", "geometry": {"type": "Point", "coordinates": [-111.067, 38.7083]}, "properties": {"NAME": "W7U/EM-070", "TITLE": "Lone Tree Wedge", "REGION": "Emery County", "ASSOCIATION": "USA - Utah", "POINTS": "2", "BONUSPOINTS": "0"}}, {"type": "Feature", "geometry": {"type": "Point", "coordinates": [-110.4458, 38.9862]}, "properties": {"NAME": "W7U/EM-071", "TITLE": "6001", "REGION": "Emery County", "ASSOCIATION": "USA - Utah", "POINTS": "2", "BONUSPOINTS": "0"}}, {"type": "Feature", "geometry": {"type": "Point", "coordinates": [-110.4556, 38.9579]}, "properties": {"NAME": "W7U/EM-072", "TITLE": "5940", "REGION": "Emery County", "ASSOCIATION": "USA - Utah", "POINTS": "2", "BONUSPOINTS": "0"}}, {"type": "Feature", "geometry": {"type": "Point", "coordinates": [-110.5269, 38.7763]}, "properties": {"NAME": "W7U/EM-073", "TITLE": "5875", "REGION": "Emery County", "ASSOCIATION": "USA - Utah", "POINTS": "2", "BONUSPOINTS": "0"}}, {"type": "Feature", "geometry": {"type": "Point", "coordinates": [-110.2035, 39.0861]}, "properties": {"NAME": "W7U/EM-074", "TITLE": "Blue Castle Butte", "REGION": "Emery County", "ASSOCIATION": "USA - Utah", "POINTS": "2", "BONUSPOINTS": "0"}}, {"type": "Feature", "geometry": {"type": "Point", "coordinates": [-110.7203, 38.5788]}, "properties": {"NAME": "W7U/EM-075", "TITLE": "Wild Horse Butte", "REGION": "Emery County", "ASSOCIATION": "USA - Utah", "POINTS": "2", "BONUSPOINTS": "0"}}, {"type": "Feature", "geometry": {"type": "Point", "coordinates": [-110.4662, 38.8709]}, "properties": {"NAME": "W7U/EM-076", "TITLE": "5740", "REGION": "Emery County", "ASSOCIATION": "USA - Utah", "POINTS": "2", "BONUSPOINTS": "0"}}, {"type": "Feature", "geometry": {"type": "Point", "coordinates": [-110.804, 38.5742]}, "properties": {"NAME": "W7U/EM-077", "TITLE": "Middle Wild Horse Mesa", "REGION": "Emery County", "ASSOCIATION": "USA - Utah", "POINTS": "2", "BONUSPOINTS": "0"}}, {"type": "Feature", "geometry": {"type": "Point", "coordinates": [-110.4993, 38.7967]}, "properties": {"NAME": "W7U/EM-078", "TITLE": "5620", "REGION": "Emery County", "ASSOCIATION": "USA - Utah", "POINTS": "2", "BONUSPOINTS": "0"}}, {"type": "Feature", "geometry": {"type": "Point", "coordinates": [-110.859, 38.5722]}, "properties": {"NAME": "W7U/EM-079", "TITLE": "Little Wild Horse Mesa", "REGION": "Emery County", "ASSOCIATION": "USA - Utah", "POINTS": "2", "BONUSPOINTS": "0"}}, {"type": "Feature", "geometry": {"type": "Point", "coordinates": [-110.4708, 38.8506]}, "properties": {"NAME": "W7U/EM-080", "TITLE": "5580", "REGION": "Emery County", "ASSOCIATION": "USA - Utah", "POINTS": "2", "BONUSPOINTS": "0"}}, {"type": "Feature", "geometry": {"type": "Point", "coordinates": [-110.2597, 39.2399]}, "properties": {"NAME": "W7U/EM-081", "TITLE": "5264", "REGION": "Emery County", "ASSOCIATION": "USA - Utah", "POINTS": "1", "BONUSPOINTS": "0"}}, {"type": "Feature", "geometry": {"type": "Point", "coordinates": [-110.125, 39.1059]}, "properties": {"NAME": "W7U/EM-082", "TITLE": "Gunnison Butte", "REGION": "Emery County", "ASSOCIATION": "USA - Utah", "POINTS": "1", "BONUSPOINTS": "0"}}, {"type": "Feature", "geometry": {"type": "Point", "coordinates": [-110.0044, 38.6056]}, "properties": {"NAME": "W7U/EM-083", "TITLE": "Bowknot Bend", "REGION": "Emery County", "ASSOCIATION": "USA - Utah", "POINTS": "1", "BONUSPOINTS": "0"}}, {"type": "Feature", "geometry": {"type": "Point", "coordinates": [-110.0493, 38.5658]}, "properties": {"NAME": "W7U/EM-084", "TITLE": "4780", "REGION": "Emery County", "ASSOCIATION": "USA - Utah", "POINTS": "1", "BONUSPOINTS": "0"}}]}