{"type": "FeatureCollection", "name": "W7U/BE SUMMITS", "features": [{"type": "Feature", "geometry": {"type": "Point", "coordinates": [-112.4022, 38.1966]}, "properties": {"NAME": "W7U/BE-001", "TITLE": "Circleville Mountain", "REGION": "Beaver County", "ASSOCIATION": "USA - Utah", "POINTS": "10", "BONUSPOINTS": "3"}}, {"type": "Feature", "geometry": {"type": "Point", "coordinates": [-112.3389, 38.3116]}, "properties": {"NAME": "W7U/BE-002", "TITLE": "City Creek Peak", "REGION": "Beaver County", "ASSOCIATION": "USA - Utah", "POINTS": "10", "BONUSPOINTS": "3"}}, {"type": "Feature", "geometry": {"type": "Point", "coordinates": [-112.4544, 38.219]}, "properties": {"NAME": "W7U/BE-003", "TITLE": "Birch Creek Mountain", "REGION": "Beaver County", "ASSOCIATION": "USA - Utah", "POINTS": "10", "BONUSPOINTS": "3"}}, {"type": "Feature", "geometry": {"type": "Point", "coordinates": [-112.5101, 38.4894]}, "properties": {"NAME": "W7U/BE-004", "TITLE": "10010", "REGION": "Beaver County", "ASSOCIATION": "USA - Utah", "POINTS": "8", "BONUSPOINTS": "3"}}, {"type": "Feature", "geometry": {"type": "Point", "coordinates": [-112.5222, 38.5192]}, "properties": {"NAME": "W7U/BE-005", "TITLE": "9930", "REGION": "Beaver County", "ASSOCIATION": "USA - Utah", "POINTS": "8", "BONUSPOINTS": "3"}}, {"type": "Feature", "geometry": {"type": "Point", "coordinates": [-112.4962, 38.4409]}, "properties": {"NAME": "W7U/BE-006", "TITLE": "Little Shelly", "REGION": "Beaver County", "ASSOCIATION": "USA - Utah", "POINTS": "8", "BONUSPOINTS": "3"}}, {"type": "Feature", "geometry": {"type": "Point", "coordinates": [-113.8754, 38.267]}, "properties": {"NAME": "W7U/BE-007", "TITLE": "Indian Peak", "REGION": "Beaver County", "ASSOCIATION": "USA - Utah", "POINTS": "8", "BONUSPOINTS": "3"}}, {"type": "Feature", "geometry": {"type": "Point", "coordinates": [-112.8157, 38.3842]}, "properties": {"NAME": "W7U/BE-008", "TITLE": "Mineral Mountains HP", "REGION": "Beaver County", "ASSOCIATION": "USA - Utah", "POINTS": "8", "BONUSPOINTS": "3"}}, {"type": "Feature", "geometry": {"type": "Point", "coordinates": [-113.8584, 38.1796]}, "properties": {"NAME": "W7U/BE-009", "TITLE": "9576", "REGION": "Beaver County", "ASSOCIATION": "USA - Utah", "POINTS": "8", "BONUSPOINTS": "3"}}, {"type": "Feature", "geometry": {"type": "Point", "coordinates": [-113.9579, 38.4899]}, "properties": {"NAME": "W7U/BE-010", "TITLE": "Mountain Home Range HP", "REGION": "Beaver County", "ASSOCIATION": "USA - Utah", "POINTS": "8", "BONUSPOINTS": "3"}}, {"type": "Feature", "geometry": {"type": "Point", "coordinates": [-112.533, 38.4011]}, "properties": {"NAME": "W7U/BE-011", "TITLE": "Pole Mountain", "REGION": "Beaver County", "ASSOCIATION": "USA - Utah", "POINTS": "8", "BONUSPOINTS": "3"}}, {"type": "Feature", "geometry": {"type": "Point", "coordinates": [-113.5866, 38.3541]}, "properties": {"NAME": "W7U/BE-012", "TITLE": "Wah Wah Mountains HP", "REGION": "Beaver County", "ASSOCIATION": "USA - Utah", "POINTS": "8", "BONUSPOINTS": "3"}}, {"type": "Feature", "geometry": {"type": "Point", "coordinates": [-112.8212, 38.3572]}, "properties": {"NAME": "W7U/BE-013", "TITLE": "9180", "REGION": "Beaver County", "ASSOCIATION": "USA - Utah", "POINTS": "8", "BONUSPOINTS": "3"}}, {"type": "Feature", "geometry": {"type": "Point", "coordinates": [-113.6293, 38.3048]}, "properties": {"NAME": "W7U/BE-014", "TITLE": "9135", "REGION": "Beaver County", "ASSOCIATION": "USA - Utah", "POINTS": "8", "BONUSPOINTS": "3"}}, {"type": "Feature", "geometry": {"type": "Point", "coordinates": [-112.7811, 38.455]}, "properties": {"NAME": "W7U/BE-015", "TITLE": "Bearskin Mountain", "REGION": "Beaver County", "ASSOCIATION": "USA - Utah", "POINTS": "8", "BONUSPOINTS": "3"}}, {"type": "Feature", "geometry": {"type": "Point", "coordinates": [-113.8665, 38.2244]}, "properties": {"NAME": "W7U/BE-016", "TITLE": "9074", "REGION": "Beaver County", "ASSOCIATION": "USA - Utah", "POINTS": "8", "BONUSPOINTS": "3"}}, {"type": "Feature", "geometry": {"type": "Point", "coordinates": [-113.5481, 38.5476]}, "properties": {"NAME": "W7U/BE-017", "TITLE": "North Wah Wah Mountains HP", "REGION": "Beaver County", "ASSOCIATION": "USA - Utah", "POINTS": "6", "BONUSPOINTS": "3"}}, {"type": "Feature", "geometry": {"type": "Point", "coordinates": [-112.8747, 38.3198]}, "properties": {"NAME": "W7U/BE-018", "TITLE": "8829", "REGION": "Beaver County", "ASSOCIATION": "USA - Utah", "POINTS": "6", "BONUSPOINTS": "3"}}, {"type": "Feature", "geometry": {"type": "Point", "coordinates": [-113.5653, 38.415]}, "properties": {"NAME": "W7U/BE-019", "TITLE": "8820", "REGION": "Beaver County", "ASSOCIATION": "USA - Utah", "POINTS": "6", "BONUSPOINTS": "3"}}, {"type": "Feature", "geometry": {"type": "Point", "coordinates": [-113.5545, 38.4662]}, "properties": {"NAME": "W7U/BE-020", "TITLE": "8745", "REGION": "Beaver County", "ASSOCIATION": "USA - Utah", "POINTS": "6", "BONUSPOINTS": "3"}}, {"type": "Feature", "geometry": {"type": "Point", "coordinates": [-113.984, 38.5727]}, "properties": {"NAME": "W7U/BE-021", "TITLE": "8660", "REGION": "Beaver County", "ASSOCIATION": "USA - Utah", "POINTS": "6", "BONUSPOINTS": "3"}}, {"type": "Feature", "geometry": {"type": "Point", "coordinates": [-113.6221, 38.3509]}, "properties": {"NAME": "W7U/BE-022", "TITLE": "8561", "REGION": "Beaver County", "ASSOCIATION": "USA - Utah", "POINTS": "6", "BONUSPOINTS": "3"}}, {"type": "Feature", "geometry": {"type": "Point", "coordinates": [-113.5829, 38.2636]}, "properties": {"NAME": "W7U/BE-023", "TITLE": "Blawn Mountain", "REGION": "Beaver County", "ASSOCIATION": "USA - Utah", "POINTS": "6", "BONUSPOINTS": "3"}}, {"type": "Feature", "geometry": {"type": "Point", "coordinates": [-113.8475, 38.3013]}, "properties": {"NAME": "W7U/BE-024", "TITLE": "8229", "REGION": "Beaver County", "ASSOCIATION": "USA - Utah", "POINTS": "6", "BONUSPOINTS": "3"}}, {"type": "Feature", "geometry": {"type": "Point", "coordinates": [-113.8891, 38.2096]}, "properties": {"NAME": "W7U/BE-025", "TITLE": "8228", "REGION": "Beaver County", "ASSOCIATION": "USA - Utah", "POINTS": "6", "BONUSPOINTS": "3"}}, {"type": "Feature", "geometry": {"type": "Point", "coordinates": [-113.8965, 38.1785]}, "properties": {"NAME": "W7U/BE-026", "TITLE": "8214", "REGION": "Beaver County", "ASSOCIATION": "USA - Utah", "POINTS": "6", "BONUSPOINTS": "3"}}, {"type": "Feature", "geometry": {"type": "Point", "coordinates": [-113.9202, 38.2935]}, "properties": {"NAME": "W7U/BE-027", "TITLE": "8195", "REGION": "Beaver County", "ASSOCIATION": "USA - Utah", "POINTS": "6", "BONUSPOINTS": "3"}}, {"type": "Feature", "geometry": {"type": "Point", "coordinates": [-113.9603, 38.3443]}, "properties": {"NAME": "W7U/BE-028", "TITLE": "8142", "REGION": "Beaver County", "ASSOCIATION": "USA - Utah", "POINTS": "6", "BONUSPOINTS": "3"}}, {"type": "Feature", "geometry": {"type": "Point", "coordinates": [-112.8438, 38.3858]}, "properties": {"NAME": "W7U/BE-029", "TITLE": "8140", "REGION": "Beaver County", "ASSOCIATION": "USA - Utah", "POINTS": "6", "BONUSPOINTS": "3"}}, {"type": "Feature", "geometry": {"type": "Point", "coordinates": [-113.2916, 38.4701]}, "properties": {"NAME": "W7U/BE-030", "TITLE": "Indian Grave Peak", "REGION": "Beaver County", "ASSOCIATION": "USA - Utah", "POINTS": "6", "BONUSPOINTS": "3"}}, {"type": "Feature", "geometry": {"type": "Point", "coordinates": [-113.8411, 38.2736]}, "properties": {"NAME": "W7U/BE-031", "TITLE": "8015", "REGION": "Beaver County", "ASSOCIATION": "USA - Utah", "POINTS": "6", "BONUSPOINTS": "3"}}, {"type": "Feature", "geometry": {"type": "Point", "coordinates": [-112.9092, 38.2978]}, "properties": {"NAME": "W7U/BE-032", "TITLE": "Bradshaw Mountain", "REGION": "Beaver County", "ASSOCIATION": "USA - Utah", "POINTS": "6", "BONUSPOINTS": "3"}}, {"type": "Feature", "geometry": {"type": "Point", "coordinates": [-112.8211, 38.1485]}, "properties": {"NAME": "W7U/BE-033", "TITLE": "Mahogany Knoll", "REGION": "Beaver County", "ASSOCIATION": "USA - Utah", "POINTS": "6", "BONUSPOINTS": "3"}}, {"type": "Feature", "geometry": {"type": "Point", "coordinates": [-113.8669, 38.3202]}, "properties": {"NAME": "W7U/BE-034", "TITLE": "7972", "REGION": "Beaver County", "ASSOCIATION": "USA - Utah", "POINTS": "6", "BONUSPOINTS": "3"}}, {"type": "Feature", "geometry": {"type": "Point", "coordinates": [-113.5597, 38.2132]}, "properties": {"NAME": "W7U/BE-035", "TITLE": "Tetons, The", "REGION": "Beaver County", "ASSOCIATION": "USA - Utah", "POINTS": "6", "BONUSPOINTS": "3"}}, {"type": "Feature", "geometry": {"type": "Point", "coordinates": [-112.7917, 38.5236]}, "properties": {"NAME": "W7U/BE-036", "TITLE": "7940", "REGION": "Beaver County", "ASSOCIATION": "USA - Utah", "POINTS": "6", "BONUSPOINTS": "3"}}, {"type": "Feature", "geometry": {"type": "Point", "coordinates": [-113.8665, 38.4388]}, "properties": {"NAME": "W7U/BE-037", "TITLE": "7869", "REGION": "Beaver County", "ASSOCIATION": "USA - Utah", "POINTS": "6", "BONUSPOINTS": "3"}}, {"type": "Feature", "geometry": {"type": "Point", "coordinates": [-112.7169, 38.4556]}, "properties": {"NAME": "W7U/BE-038", "TITLE": "Bald Ridges North", "REGION": "Beaver County", "ASSOCIATION": "USA - Utah", "POINTS": "6", "BONUSPOINTS": "3"}}, {"type": "Feature", "geometry": {"type": "Point", "coordinates": [-113.5258, 38.2355]}, "properties": {"NAME": "W7U/BE-039", "TITLE": "7794", "REGION": "Beaver County", "ASSOCIATION": "USA - Utah", "POINTS": "6", "BONUSPOINTS": "3"}}, {"type": "Feature", "geometry": {"type": "Point", "coordinates": [-113.8734, 38.4854]}, "properties": {"NAME": "W7U/BE-040", "TITLE": "Needles, The", "REGION": "Beaver County", "ASSOCIATION": "USA - Utah", "POINTS": "6", "BONUSPOINTS": "3"}}, {"type": "Feature", "geometry": {"type": "Point", "coordinates": [-112.8133, 38.5668]}, "properties": {"NAME": "W7U/BE-041", "TITLE": "Antelope Benchmark", "REGION": "Beaver County", "ASSOCIATION": "USA - Utah", "POINTS": "6", "BONUSPOINTS": "3"}}, {"type": "Feature", "geometry": {"type": "Point", "coordinates": [-113.525, 38.1521]}, "properties": {"NAME": "W7U/BE-042", "TITLE": "7706", "REGION": "Beaver County", "ASSOCIATION": "USA - Utah", "POINTS": "6", "BONUSPOINTS": "3"}}, {"type": "Feature", "geometry": {"type": "Point", "coordinates": [-113.5142, 38.2807]}, "properties": {"NAME": "W7U/BE-043", "TITLE": "7676", "REGION": "Beaver County", "ASSOCIATION": "USA - Utah", "POINTS": "6", "BONUSPOINTS": "3"}}, {"type": "Feature", "geometry": {"type": "Point", "coordinates": [-113.5102, 38.2647]}, "properties": {"NAME": "W7U/BE-044", "TITLE": "7602", "REGION": "Beaver County", "ASSOCIATION": "USA - Utah", "POINTS": "6", "BONUSPOINTS": "3"}}, {"type": "Feature", "geometry": {"type": "Point", "coordinates": [-113.3919, 38.1758]}, "properties": {"NAME": "W7U/BE-045", "TITLE": "Blue Mountain", "REGION": "Beaver County", "ASSOCIATION": "USA - Utah", "POINTS": "6", "BONUSPOINTS": "3"}}, {"type": "Feature", "geometry": {"type": "Point", "coordinates": [-112.5772, 38.266]}, "properties": {"NAME": "W7U/BE-046", "TITLE": "Black Mountain", "REGION": "Beaver County", "ASSOCIATION": "USA - Utah", "POINTS": "6", "BONUSPOINTS": "3"}}, {"type": "Feature", "geometry": {"type": "Point", "coordinates": [-113.4554, 38.2763]}, "properties": {"NAME": "W7U/BE-047", "TITLE": "7580", "REGION": "Beaver County", "ASSOCIATION": "USA - Utah", "POINTS": "6", "BONUSPOINTS": "3"}}, {"type": "Feature", "geometry": {"type": "Point", "coordinates": [-113.8697, 38.5211]}, "properties": {"NAME": "W7U/BE-048", "TITLE": "Toad, The", "REGION": "Beaver County", "ASSOCIATION": "USA - Utah", "POINTS": "6", "BONUSPOINTS": "3"}}, {"type": "Feature", "geometry": {"type": "Point", "coordinates": [-113.8816, 38.4196]}, "properties": {"NAME": "W7U/BE-049", "TITLE": "7540", "REGION": "Beaver County", "ASSOCIATION": "USA - Utah", "POINTS": "6", "BONUSPOINTS": "3"}}, {"type": "Feature", "geometry": {"type": "Point", "coordinates": [-113.508, 38.5411]}, "properties": {"NAME": "W7U/BE-050", "TITLE": "7460", "REGION": "Beaver County", "ASSOCIATION": "USA - Utah", "POINTS": "4", "BONUSPOINTS": "3"}}, {"type": "Feature", "geometry": {"type": "Point", "coordinates": [-113.5878, 38.5328]}, "properties": {"NAME": "W7U/BE-051", "TITLE": "7340", "REGION": "Beaver County", "ASSOCIATION": "USA - Utah", "POINTS": "4", "BONUSPOINTS": "3"}}, {"type": "Feature", "geometry": {"type": "Point", "coordinates": [-112.8516, 38.2446]}, "properties": {"NAME": "W7U/BE-052", "TITLE": "Adams Benchmark", "REGION": "Beaver County", "ASSOCIATION": "USA - Utah", "POINTS": "4", "BONUSPOINTS": "3"}}, {"type": "Feature", "geometry": {"type": "Point", "coordinates": [-112.5924, 38.1657]}, "properties": {"NAME": "W7U/BE-053", "TITLE": "7290", "REGION": "Beaver County", "ASSOCIATION": "USA - Utah", "POINTS": "4", "BONUSPOINTS": "3"}}, {"type": "Feature", "geometry": {"type": "Point", "coordinates": [-113.8422, 38.3764]}, "properties": {"NAME": "W7U/BE-054", "TITLE": "Sawtooth Peak", "REGION": "Beaver County", "ASSOCIATION": "USA - Utah", "POINTS": "4", "BONUSPOINTS": "3"}}, {"type": "Feature", "geometry": {"type": "Point", "coordinates": [-113.39, 38.1583]}, "properties": {"NAME": "W7U/BE-055", "TITLE": "7262", "REGION": "Beaver County", "ASSOCIATION": "USA - Utah", "POINTS": "4", "BONUSPOINTS": "3"}}, {"type": "Feature", "geometry": {"type": "Point", "coordinates": [-112.8635, 38.1876]}, "properties": {"NAME": "W7U/BE-056", "TITLE": "Black Mountain East", "REGION": "Beaver County", "ASSOCIATION": "USA - Utah", "POINTS": "4", "BONUSPOINTS": "3"}}, {"type": "Feature", "geometry": {"type": "Point", "coordinates": [-113.6, 38.414]}, "properties": {"NAME": "W7U/BE-057", "TITLE": "7220", "REGION": "Beaver County", "ASSOCIATION": "USA - Utah", "POINTS": "4", "BONUSPOINTS": "3"}}, {"type": "Feature", "geometry": {"type": "Point", "coordinates": [-113.2764, 38.4205]}, "properties": {"NAME": "W7U/BE-058", "TITLE": "Squaw Peak", "REGION": "Beaver County", "ASSOCIATION": "USA - Utah", "POINTS": "4", "BONUSPOINTS": "3"}}, {"type": "Feature", "geometry": {"type": "Point", "coordinates": [-113.4329, 38.2271]}, "properties": {"NAME": "W7U/BE-059", "TITLE": "Mine Benchmark", "REGION": "Beaver County", "ASSOCIATION": "USA - Utah", "POINTS": "4", "BONUSPOINTS": "3"}}, {"type": "Feature", "geometry": {"type": "Point", "coordinates": [-112.6402, 38.5682]}, "properties": {"NAME": "W7U/BE-060", "TITLE": "Cinder Crater", "REGION": "Beaver County", "ASSOCIATION": "USA - Utah", "POINTS": "4", "BONUSPOINTS": "3"}}, {"type": "Feature", "geometry": {"type": "Point", "coordinates": [-113.1533, 38.3347]}, "properties": {"NAME": "W7U/BE-061", "TITLE": "Topache Peak", "REGION": "Beaver County", "ASSOCIATION": "USA - Utah", "POINTS": "4", "BONUSPOINTS": "3"}}, {"type": "Feature", "geometry": {"type": "Point", "coordinates": [-113.1186, 38.5383]}, "properties": {"NAME": "W7U/BE-062", "TITLE": "Lime Mountain", "REGION": "Beaver County", "ASSOCIATION": "USA - Utah", "POINTS": "4", "BONUSPOINTS": "3"}}, {"type": "Feature", "geometry": {"type": "Point", "coordinates": [-113.1379, 38.3697]}, "properties": {"NAME": "W7U/BE-063", "TITLE": "6842", "REGION": "Beaver County", "ASSOCIATION": "USA - Utah", "POINTS": "4", "BONUSPOINTS": "3"}}, {"type": "Feature", "geometry": {"type": "Point", "coordinates": [-113.328, 38.3449]}, "properties": {"NAME": "W7U/BE-064", "TITLE": "Antelope Peak", "REGION": "Beaver County", "ASSOCIATION": "USA - Utah", "POINTS": "4", "BONUSPOINTS": "3"}}, {"type": "Feature", "geometry": {"type": "Point", "coordinates": [-113.245, 38.3103]}, "properties": {"NAME": "W7U/BE-065", "TITLE": "Long Lick Mountain", "REGION": "Beaver County", "ASSOCIATION": "USA - Utah", "POINTS": "4", "BONUSPOINTS": "3"}}, {"type": "Feature", "geometry": {"type": "Point", "coordinates": [-113.4992, 38.3528]}, "properties": {"NAME": "W7U/BE-066", "TITLE": "6783", "REGION": "Beaver County", "ASSOCIATION": "USA - Utah", "POINTS": "4", "BONUSPOINTS": "3"}}, {"type": "Feature", "geometry": {"type": "Point", "coordinates": [-113.3064, 38.3016]}, "properties": {"NAME": "W7U/BE-067", "TITLE": "White Mountain", "REGION": "Beaver County", "ASSOCIATION": "USA - Utah", "POINTS": "4", "BONUSPOINTS": "3"}}, {"type": "Feature", "geometry": {"type": "Point", "coordinates": [-113.5074, 38.3808]}, "properties": {"NAME": "W7U/BE-068", "TITLE": "6575", "REGION": "Beaver County", "ASSOCIATION": "USA - Utah", "POINTS": "4", "BONUSPOINTS": "3"}}, {"type": "Feature", "geometry": {"type": "Point", "coordinates": [-113.0771, 38.4685]}, "properties": {"NAME": "W7U/BE-069", "TITLE": "Rocky Range HP", "REGION": "Beaver County", "ASSOCIATION": "USA - Utah", "POINTS": "2", "BONUSPOINTS": "0"}}]}