{"type": "FeatureCollection", "name": "W7U/SU SUMMITS", "features": [{"type": "Feature", "geometry": {"type": "Point", "coordinates": [-109.234, 38.4633]}, "properties": {"NAME": "W7U/SU-001", "TITLE": "Mellenthin Mount", "REGION": "South Utah", "ASSOCIATION": "USA - Utah", "POINTS": "10", "BONUSPOINTS": "3"}}, {"type": "Feature", "geometry": {"type": "Point", "coordinates": [-109.2601, 38.4394]}, "properties": {"NAME": "W7U/SU-002", "TITLE": "Tukuhnikivatz Mount", "REGION": "South Utah", "ASSOCIATION": "USA - Utah", "POINTS": "10", "BONUSPOINTS": "3"}}, {"type": "Feature", "geometry": {"type": "Point", "coordinates": [-109.2276, 38.5392]}, "properties": {"NAME": "W7U/SU-003", "TITLE": "Waas Mount", "REGION": "South Utah", "ASSOCIATION": "USA - Utah", "POINTS": "10", "BONUSPOINTS": "3"}}, {"type": "Feature", "geometry": {"type": "Point", "coordinates": [-109.2223, 38.5147]}, "properties": {"NAME": "W7U/SU-004", "TITLE": "Manns Peak", "REGION": "South Utah", "ASSOCIATION": "USA - Utah", "POINTS": "10", "BONUSPOINTS": "3"}}, {"type": "Feature", "geometry": {"type": "Point", "coordinates": [-109.2068, 38.5022]}, "properties": {"NAME": "W7U/SU-005", "TITLE": "Tomasaki Mount", "REGION": "South Utah", "ASSOCIATION": "USA - Utah", "POINTS": "10", "BONUSPOINTS": "3"}}, {"type": "Feature", "geometry": {"type": "Point", "coordinates": [-112.3713, 38.3691]}, "properties": {"NAME": "W7U/SU-006", "TITLE": "Delano Peak", "REGION": "South Utah", "ASSOCIATION": "USA - Utah", "POINTS": "10", "BONUSPOINTS": "3"}}, {"type": "Feature", "geometry": {"type": "Point", "coordinates": [-112.4125, 38.4194]}, "properties": {"NAME": "W7U/SU-007", "TITLE": "Belknap Mount", "REGION": "South Utah", "ASSOCIATION": "USA - Utah", "POINTS": "10", "BONUSPOINTS": "3"}}, {"type": "Feature", "geometry": {"type": "Point", "coordinates": [-112.4338, 38.4016]}, "properties": {"NAME": "W7U/SU-008", "TITLE": "Baldy Mount", "REGION": "South Utah", "ASSOCIATION": "USA - Utah", "POINTS": "10", "BONUSPOINTS": "3"}}, {"type": "Feature", "geometry": {"type": "Point", "coordinates": [-111.7394, 38.608]}, "properties": {"NAME": "W7U/SU-009", "TITLE": "Fish Lake Hightop", "REGION": "South Utah", "ASSOCIATION": "USA - Utah", "POINTS": "10", "BONUSPOINTS": "3"}}, {"type": "Feature", "geometry": {"type": "Point", "coordinates": [-111.6469, 38.7123]}, "properties": {"NAME": "W7U/SU-010", "TITLE": "Terrill Mount", "REGION": "South Utah", "ASSOCIATION": "USA - Utah", "POINTS": "10", "BONUSPOINTS": "3"}}, {"type": "Feature", "geometry": {"type": "Point", "coordinates": [-111.5438, 38.6841]}, "properties": {"NAME": "W7U/SU-011", "TITLE": "Hilgard Mountain", "REGION": "South Utah", "ASSOCIATION": "USA - Utah", "POINTS": "10", "BONUSPOINTS": "3"}}, {"type": "Feature", "geometry": {"type": "Point", "coordinates": [-110.8133, 38.1089]}, "properties": {"NAME": "W7U/SU-012", "TITLE": "Ellen Mount", "REGION": "South Utah", "ASSOCIATION": "USA - Utah", "POINTS": "10", "BONUSPOINTS": "3"}}, {"type": "Feature", "geometry": {"type": "Point", "coordinates": [-110.7907, 37.9567]}, "properties": {"NAME": "W7U/SU-013", "TITLE": "Pennell Mount", "REGION": "South Utah", "ASSOCIATION": "USA - Utah", "POINTS": "10", "BONUSPOINTS": "3"}}, {"type": "Feature", "geometry": {"type": "Point", "coordinates": [-109.4626, 37.8394]}, "properties": {"NAME": "W7U/SU-014", "TITLE": "Abajo Peak", "REGION": "South Utah", "ASSOCIATION": "USA - Utah", "POINTS": "10", "BONUSPOINTS": "3"}}, {"type": "Feature", "geometry": {"type": "Point", "coordinates": [-111.5003, 38.1591]}, "properties": {"NAME": "W7U/SU-015", "TITLE": "Bluebell Knoll", "REGION": "South Utah", "ASSOCIATION": "USA - Utah", "POINTS": "10", "BONUSPOINTS": "3"}}, {"type": "Feature", "geometry": {"type": "Point", "coordinates": [-112.8313, 37.6811]}, "properties": {"NAME": "W7U/SU-016", "TITLE": "Brian Head", "REGION": "South Utah", "ASSOCIATION": "USA - Utah", "POINTS": "10", "BONUSPOINTS": "3"}}, {"type": "Feature", "geometry": {"type": "Point", "coordinates": [-111.4793, 38.4171]}, "properties": {"NAME": "W7U/SU-017", "TITLE": "Thousand Lake Mountain", "REGION": "South Utah", "ASSOCIATION": "USA - Utah", "POINTS": "10", "BONUSPOINTS": "3"}}, {"type": "Feature", "geometry": {"type": "Point", "coordinates": [-111.3576, 39.392]}, "properties": {"NAME": "W7U/SU-018", "TITLE": "South Tent Mountain", "REGION": "South Utah", "ASSOCIATION": "USA - Utah", "POINTS": "10", "BONUSPOINTS": "3"}}, {"type": "Feature", "geometry": {"type": "Point", "coordinates": [-112.0733, 38.5361]}, "properties": {"NAME": "W7U/SU-019", "TITLE": "Monroe Peak", "REGION": "South Utah", "ASSOCIATION": "USA - Utah", "POINTS": "10", "BONUSPOINTS": "3"}}, {"type": "Feature", "geometry": {"type": "Point", "coordinates": [-111.3204, 39.4273]}, "properties": {"NAME": "W7U/SU-020", "TITLE": "Lowry Top", "REGION": "South Utah", "ASSOCIATION": "USA - Utah", "POINTS": "10", "BONUSPOINTS": "3"}}, {"type": "Feature", "geometry": {"type": "Point", "coordinates": [-112.2174, 38.0205]}, "properties": {"NAME": "W7U/SU-021", "TITLE": "Dutton Mount", "REGION": "South Utah", "ASSOCIATION": "USA - Utah", "POINTS": "10", "BONUSPOINTS": "3"}}, {"type": "Feature", "geometry": {"type": "Point", "coordinates": [-110.6969, 37.8873]}, "properties": {"NAME": "W7U/SU-022", "TITLE": "Hillers Mount", "REGION": "South Utah", "ASSOCIATION": "USA - Utah", "POINTS": "10", "BONUSPOINTS": "3"}}, {"type": "Feature", "geometry": {"type": "Point", "coordinates": [-112.2086, 37.933]}, "properties": {"NAME": "W7U/SU-023", "TITLE": "Adams Head", "REGION": "South Utah", "ASSOCIATION": "USA - Utah", "POINTS": "8", "BONUSPOINTS": "3"}}, {"type": "Feature", "geometry": {"type": "Point", "coordinates": [-113.4922, 37.3195]}, "properties": {"NAME": "W7U/SU-024", "TITLE": "Signal Peak", "REGION": "South Utah", "ASSOCIATION": "USA - Utah", "POINTS": "8", "BONUSPOINTS": "3"}}, {"type": "Feature", "geometry": {"type": "Point", "coordinates": [-110.8696, 37.0342]}, "properties": {"NAME": "W7U/SU-025", "TITLE": "Navajo Mountain", "REGION": "South Utah", "ASSOCIATION": "USA - Utah", "POINTS": "8", "BONUSPOINTS": "3"}}, {"type": "Feature", "geometry": {"type": "Point", "coordinates": [-112.0194, 38.3911]}, "properties": {"NAME": "W7U/SU-026", "TITLE": "Langdon Mountain", "REGION": "South Utah", "ASSOCIATION": "USA - Utah", "POINTS": "8", "BONUSPOINTS": "3"}}, {"type": "Feature", "geometry": {"type": "Point", "coordinates": [-112.2533, 38.8738]}, "properties": {"NAME": "W7U/SU-027", "TITLE": "Mine Camp Peak", "REGION": "South Utah", "ASSOCIATION": "USA - Utah", "POINTS": "8", "BONUSPOINTS": "3"}}, {"type": "Feature", "geometry": {"type": "Point", "coordinates": [-113.0557, 37.5583]}, "properties": {"NAME": "W7U/SU-028", "TITLE": "Cedar Mountain", "REGION": "South Utah", "ASSOCIATION": "USA - Utah", "POINTS": "8", "BONUSPOINTS": "3"}}, {"type": "Feature", "geometry": {"type": "Point", "coordinates": [-112.2691, 38.8342]}, "properties": {"NAME": "W7U/SU-029", "TITLE": "Sunset Peak", "REGION": "South Utah", "ASSOCIATION": "USA - Utah", "POINTS": "8", "BONUSPOINTS": "3"}}, {"type": "Feature", "geometry": {"type": "Point", "coordinates": [-111.2346, 39.3919]}, "properties": {"NAME": "W7U/SU-030", "TITLE": "Trail Mountain", "REGION": "South Utah", "ASSOCIATION": "USA - Utah", "POINTS": "8", "BONUSPOINTS": "3"}}, {"type": "Feature", "geometry": {"type": "Point", "coordinates": [-112.2072, 39.3925]}, "properties": {"NAME": "W7U/SU-031", "TITLE": "Fool Creek Peak", "REGION": "South Utah", "ASSOCIATION": "USA - Utah", "POINTS": "8", "BONUSPOINTS": "3"}}, {"type": "Feature", "geometry": {"type": "Point", "coordinates": [-113.2876, 38.5203]}, "properties": {"NAME": "W7U/SU-032", "TITLE": "Frisco Peak", "REGION": "South Utah", "ASSOCIATION": "USA - Utah", "POINTS": "8", "BONUSPOINTS": "3"}}, {"type": "Feature", "geometry": {"type": "Point", "coordinates": [-113.4092, 39.1432]}, "properties": {"NAME": "W7U/SU-033", "TITLE": "Notch Peak", "REGION": "South Utah", "ASSOCIATION": "USA - Utah", "POINTS": "8", "BONUSPOINTS": "3"}}, {"type": "Feature", "geometry": {"type": "Point", "coordinates": [-111.6405, 39.0449]}, "properties": {"NAME": "W7U/SU-034", "TITLE": "Order Mountain", "REGION": "South Utah", "ASSOCIATION": "USA - Utah", "POINTS": "8", "BONUSPOINTS": "3"}}, {"type": "Feature", "geometry": {"type": "Point", "coordinates": [-111.7217, 41.4412]}, "properties": {"NAME": "W7U/SU-035", "TITLE": "Sharp Mountain", "REGION": "South Utah", "ASSOCIATION": "USA - Utah", "POINTS": "8", "BONUSPOINTS": "3"}}, {"type": "Feature", "geometry": {"type": "Point", "coordinates": [-112.3041, 37.6892]}, "properties": {"NAME": "W7U/SU-036", "TITLE": "Wilson Peak", "REGION": "South Utah", "ASSOCIATION": "USA - Utah", "POINTS": "8", "BONUSPOINTS": "3"}}, {"type": "Feature", "geometry": {"type": "Point", "coordinates": [-111.8747, 38.6553]}, "properties": {"NAME": "W7U/SU-037", "TITLE": "Mormon Mountain", "REGION": "South Utah", "ASSOCIATION": "USA - Utah", "POINTS": "6", "BONUSPOINTS": "3"}}, {"type": "Feature", "geometry": {"type": "Point", "coordinates": [-112.5563, 38.0078]}, "properties": {"NAME": "W7U/SU-038", "TITLE": "Showalter Mountain", "REGION": "South Utah", "ASSOCIATION": "USA - Utah", "POINTS": "6", "BONUSPOINTS": "3"}}, {"type": "Feature", "geometry": {"type": "Point", "coordinates": [-109.7229, 37.8542]}, "properties": {"NAME": "W7U/SU-039", "TITLE": "Mormon Pasture Mountain", "REGION": "South Utah", "ASSOCIATION": "USA - Utah", "POINTS": "6", "BONUSPOINTS": "3"}}, {"type": "Feature", "geometry": {"type": "Point", "coordinates": [-110.6199, 37.7462]}, "properties": {"NAME": "W7U/SU-040", "TITLE": "Ellsworth Mount", "REGION": "South Utah", "ASSOCIATION": "USA - Utah", "POINTS": "6", "BONUSPOINTS": "3"}}, {"type": "Feature", "geometry": {"type": "Point", "coordinates": [-112.8478, 37.2938]}, "properties": {"NAME": "W7U/SU-041", "TITLE": "Clear Creek Mountain", "REGION": "South Utah", "ASSOCIATION": "USA - Utah", "POINTS": "6", "BONUSPOINTS": "3"}}, {"type": "Feature", "geometry": {"type": "Point", "coordinates": [-110.5831, 37.7976]}, "properties": {"NAME": "W7U/SU-042", "TITLE": "Holmes Mount", "REGION": "South Utah", "ASSOCIATION": "USA - Utah", "POINTS": "6", "BONUSPOINTS": "3"}}, {"type": "Feature", "geometry": {"type": "Point", "coordinates": [-110.8545, 38.8131]}, "properties": {"NAME": "W7U/SU-043", "TITLE": "San Rafael Knob", "REGION": "South Utah", "ASSOCIATION": "USA - Utah", "POINTS": "6", "BONUSPOINTS": "3"}}, {"type": "Feature", "geometry": {"type": "Point", "coordinates": [-112.6588, 38.458]}, "properties": {"NAME": "W7U/SU-044", "TITLE": "Gillies Hill", "REGION": "South Utah", "ASSOCIATION": "USA - Utah", "POINTS": "6", "BONUSPOINTS": "3"}}, {"type": "Feature", "geometry": {"type": "Point", "coordinates": [-113.8832, 37.1551]}, "properties": {"NAME": "W7U/SU-045", "TITLE": "West Mountain Peak", "REGION": "South Utah", "ASSOCIATION": "USA - Utah", "POINTS": "6", "BONUSPOINTS": "3"}}, {"type": "Feature", "geometry": {"type": "Point", "coordinates": [-110.6188, 39.1714]}, "properties": {"NAME": "W7U/SU-046", "TITLE": "Cedar Mountain", "REGION": "South Utah", "ASSOCIATION": "USA - Utah", "POINTS": "6", "BONUSPOINTS": "3"}}, {"type": "Feature", "geometry": {"type": "Point", "coordinates": [-111.1435, 37.3256]}, "properties": {"NAME": "W7U/SU-047", "TITLE": "Fiftymile Mountain", "REGION": "South Utah", "ASSOCIATION": "USA - Utah", "POINTS": "6", "BONUSPOINTS": "3"}}, {"type": "Feature", "geometry": {"type": "Point", "coordinates": [-112.9979, 38.1051]}, "properties": {"NAME": "W7U/SU-048", "TITLE": "Dry Willow Peak", "REGION": "South Utah", "ASSOCIATION": "USA - Utah", "POINTS": "6", "BONUSPOINTS": "3"}}, {"type": "Feature", "geometry": {"type": "Point", "coordinates": [-113.0289, 37.0687]}, "properties": {"NAME": "W7U/SU-049", "TITLE": "Canaan Mountain", "REGION": "South Utah", "ASSOCIATION": "USA - Utah", "POINTS": "4", "BONUSPOINTS": "3"}}, {"type": "Feature", "geometry": {"type": "Point", "coordinates": [-113.808, 37.5138]}, "properties": {"NAME": "W7U/SU-050", "TITLE": "Flat Top Mountain South", "REGION": "South Utah", "ASSOCIATION": "USA - Utah", "POINTS": "4", "BONUSPOINTS": "3"}}, {"type": "Feature", "geometry": {"type": "Point", "coordinates": [-113.6572, 37.5108]}, "properties": {"NAME": "W7U/SU-051", "TITLE": "Big Mountain", "REGION": "South Utah", "ASSOCIATION": "USA - Utah", "POINTS": "4", "BONUSPOINTS": "3"}}, {"type": "Feature", "geometry": {"type": "Point", "coordinates": [-110.8819, 38.0083]}, "properties": {"NAME": "W7U/SU-052", "TITLE": "Tarantula Mesa", "REGION": "South Utah", "ASSOCIATION": "USA - Utah", "POINTS": "4", "BONUSPOINTS": "3"}}, {"type": "Feature", "geometry": {"type": "Point", "coordinates": [-112.0144, 38.7366]}, "properties": {"NAME": "W7U/SU-055", "TITLE": "Bull Claim Hill", "REGION": "South Utah", "ASSOCIATION": "USA - Utah", "POINTS": "4", "BONUSPOINTS": "3"}}, {"type": "Feature", "geometry": {"type": "Point", "coordinates": [-113.9602, 37.4353]}, "properties": {"NAME": "W7U/SU-056", "TITLE": "Mineral Mountain", "REGION": "South Utah", "ASSOCIATION": "USA - Utah", "POINTS": "2", "BONUSPOINTS": "3"}}, {"type": "Feature", "geometry": {"type": "Point", "coordinates": [-110.8043, 39.195]}, "properties": {"NAME": "W7U/SU-057", "TITLE": "Little Cedar Mountain", "REGION": "South Utah", "ASSOCIATION": "USA - Utah", "POINTS": "2", "BONUSPOINTS": "3"}}, {"type": "Feature", "geometry": {"type": "Point", "coordinates": [-109.8749, 38.3975]}, "properties": {"NAME": "W7U/SU-058", "TITLE": "Aztec Butte", "REGION": "South Utah", "ASSOCIATION": "USA - Utah", "POINTS": "2", "BONUSPOINTS": "3"}}, {"type": "Feature", "geometry": {"type": "Point", "coordinates": [-109.5401, 38.6958]}, "properties": {"NAME": "W7U/SU-059", "TITLE": "Elephant Butte", "REGION": "South Utah", "ASSOCIATION": "USA - Utah", "POINTS": "2", "BONUSPOINTS": "0"}}, {"type": "Feature", "geometry": {"type": "Point", "coordinates": [-113.1029, 37.2105]}, "properties": {"NAME": "W7U/SU-060", "TITLE": "Crater Hill", "REGION": "South Utah", "ASSOCIATION": "USA - Utah", "POINTS": "1", "BONUSPOINTS": "0"}}, {"type": "Feature", "geometry": {"type": "Point", "coordinates": [-113.3936, 37.0627]}, "properties": {"NAME": "W7U/SU-061", "TITLE": "Sand Mountain", "REGION": "South Utah", "ASSOCIATION": "USA - Utah", "POINTS": "1", "BONUSPOINTS": "0"}}, {"type": "Feature", "geometry": {"type": "Point", "coordinates": [-109.2293, 38.4383]}, "properties": {"NAME": "W7U/SU-062", "TITLE": "Peale Mount", "REGION": "South Utah", "ASSOCIATION": "USA - Utah", "POINTS": "10", "BONUSPOINTS": "3"}}, {"type": "Feature", "geometry": {"type": "Point", "coordinates": [-112.3492, 37.5627]}, "properties": {"NAME": "W7U/SU-063", "TITLE": "Black Butte", "REGION": "South Utah", "ASSOCIATION": "USA - Utah", "POINTS": "8", "BONUSPOINTS": "3"}}, {"type": "Feature", "geometry": {"type": "Point", "coordinates": [-112.2519, 38.5149]}, "properties": {"NAME": "W7U/SU-064", "TITLE": "Hoover Peak", "REGION": "South Utah", "ASSOCIATION": "USA - Utah", "POINTS": "6", "BONUSPOINTS": "3"}}, {"type": "Feature", "geometry": {"type": "Point", "coordinates": [-109.7178, 38.0075]}, "properties": {"NAME": "W7U/SU-065", "TITLE": "Cedar Mesa", "REGION": "South Utah", "ASSOCIATION": "USA - Utah", "POINTS": "6", "BONUSPOINTS": "3"}}]}