{"type": "FeatureCollection", "name": "W7U/JU SUMMITS", "features": [{"type": "Feature", "geometry": {"type": "Point", "coordinates": [-113.9047, 39.848]}, "properties": {"NAME": "W7U/JU-001", "TITLE": "Haystack Peak", "REGION": "Juab County", "ASSOCIATION": "USA - Utah", "POINTS": "10", "BONUSPOINTS": "3"}}, {"type": "Feature", "geometry": {"type": "Point", "coordinates": [-113.9367, 39.7999]}, "properties": {"NAME": "W7U/JU-002", "TITLE": "Red Mountain", "REGION": "Juab County", "ASSOCIATION": "USA - Utah", "POINTS": "10", "BONUSPOINTS": "3"}}, {"type": "Feature", "geometry": {"type": "Point", "coordinates": [-113.9658, 39.7715]}, "properties": {"NAME": "W7U/JU-003", "TITLE": "Trout Benchmark", "REGION": "Juab County", "ASSOCIATION": "USA - Utah", "POINTS": "10", "BONUSPOINTS": "3"}}, {"type": "Feature", "geometry": {"type": "Point", "coordinates": [-111.7497, 39.8386]}, "properties": {"NAME": "W7U/JU-004", "TITLE": "North Peak", "REGION": "Juab County", "ASSOCIATION": "USA - Utah", "POINTS": "10", "BONUSPOINTS": "3"}}, {"type": "Feature", "geometry": {"type": "Point", "coordinates": [-111.7582, 39.8772]}, "properties": {"NAME": "W7U/JU-005", "TITLE": "Bald Mountain", "REGION": "Juab County", "ASSOCIATION": "USA - Utah", "POINTS": "10", "BONUSPOINTS": "3"}}, {"type": "Feature", "geometry": {"type": "Point", "coordinates": [-113.9311, 39.7538]}, "properties": {"NAME": "W7U/JU-006", "TITLE": "10621", "REGION": "Juab County", "ASSOCIATION": "USA - Utah", "POINTS": "10", "BONUSPOINTS": "3"}}, {"type": "Feature", "geometry": {"type": "Point", "coordinates": [-113.984, 39.725]}, "properties": {"NAME": "W7U/JU-007", "TITLE": "10462", "REGION": "Juab County", "ASSOCIATION": "USA - Utah", "POINTS": "8", "BONUSPOINTS": "3"}}, {"type": "Feature", "geometry": {"type": "Point", "coordinates": [-111.77, 39.8717]}, "properties": {"NAME": "W7U/JU-008", "TITLE": "10460", "REGION": "Juab County", "ASSOCIATION": "USA - Utah", "POINTS": "8", "BONUSPOINTS": "3"}}, {"type": "Feature", "geometry": {"type": "Point", "coordinates": [-114.0416, 39.7482]}, "properties": {"NAME": "W7U/JU-009", "TITLE": "9860", "REGION": "Juab County", "ASSOCIATION": "USA - Utah", "POINTS": "8", "BONUSPOINTS": "3"}}, {"type": "Feature", "geometry": {"type": "Point", "coordinates": [-111.7282, 39.6264]}, "properties": {"NAME": "W7U/JU-010", "TITLE": "9723", "REGION": "Juab County", "ASSOCIATION": "USA - Utah", "POINTS": "8", "BONUSPOINTS": "3"}}, {"type": "Feature", "geometry": {"type": "Point", "coordinates": [-111.7775, 39.8511]}, "properties": {"NAME": "W7U/JU-011", "TITLE": "9352", "REGION": "Juab County", "ASSOCIATION": "USA - Utah", "POINTS": "8", "BONUSPOINTS": "3"}}, {"type": "Feature", "geometry": {"type": "Point", "coordinates": [-114.0425, 39.8041]}, "properties": {"NAME": "W7U/JU-012", "TITLE": "Spring Creek Mountain", "REGION": "Juab County", "ASSOCIATION": "USA - Utah", "POINTS": "8", "BONUSPOINTS": "3"}}, {"type": "Feature", "geometry": {"type": "Point", "coordinates": [-114.029, 39.7836]}, "properties": {"NAME": "W7U/JU-013", "TITLE": "9038", "REGION": "Juab County", "ASSOCIATION": "USA - Utah", "POINTS": "8", "BONUSPOINTS": "3"}}, {"type": "Feature", "geometry": {"type": "Point", "coordinates": [-113.9259, 39.717]}, "properties": {"NAME": "W7U/JU-014", "TITLE": "8970", "REGION": "Juab County", "ASSOCIATION": "USA - Utah", "POINTS": "6", "BONUSPOINTS": "3"}}, {"type": "Feature", "geometry": {"type": "Point", "coordinates": [-111.7516, 39.3911]}, "properties": {"NAME": "W7U/JU-015", "TITLE": "Big Baldy", "REGION": "Juab County", "ASSOCIATION": "USA - Utah", "POINTS": "6", "BONUSPOINTS": "3"}}, {"type": "Feature", "geometry": {"type": "Point", "coordinates": [-111.6154, 39.7724]}, "properties": {"NAME": "W7U/JU-016", "TITLE": "Hop Creek Ridge", "REGION": "Juab County", "ASSOCIATION": "USA - Utah", "POINTS": "6", "BONUSPOINTS": "3"}}, {"type": "Feature", "geometry": {"type": "Point", "coordinates": [-113.8436, 39.8964]}, "properties": {"NAME": "W7U/JU-017", "TITLE": "8676", "REGION": "Juab County", "ASSOCIATION": "USA - Utah", "POINTS": "6", "BONUSPOINTS": "3"}}, {"type": "Feature", "geometry": {"type": "Point", "coordinates": [-111.7853, 39.489]}, "properties": {"NAME": "W7U/JU-018", "TITLE": "8567", "REGION": "Juab County", "ASSOCIATION": "USA - Utah", "POINTS": "6", "BONUSPOINTS": "3"}}, {"type": "Feature", "geometry": {"type": "Point", "coordinates": [-113.4403, 39.725]}, "properties": {"NAME": "W7U/JU-019", "TITLE": "George H Hansen Peak", "REGION": "Juab County", "ASSOCIATION": "USA - Utah", "POINTS": "6", "BONUSPOINTS": "3"}}, {"type": "Feature", "geometry": {"type": "Point", "coordinates": [-111.8164, 39.4919]}, "properties": {"NAME": "W7U/JU-020", "TITLE": "8507", "REGION": "Juab County", "ASSOCIATION": "USA - Utah", "POINTS": "6", "BONUSPOINTS": "3"}}, {"type": "Feature", "geometry": {"type": "Point", "coordinates": [-111.7916, 39.5112]}, "properties": {"NAME": "W7U/JU-021", "TITLE": "Horse Heaven Mountain", "REGION": "Juab County", "ASSOCIATION": "USA - Utah", "POINTS": "6", "BONUSPOINTS": "3"}}, {"type": "Feature", "geometry": {"type": "Point", "coordinates": [-113.4425, 39.7112]}, "properties": {"NAME": "W7U/JU-022", "TITLE": "8354", "REGION": "Juab County", "ASSOCIATION": "USA - Utah", "POINTS": "6", "BONUSPOINTS": "3"}}, {"type": "Feature", "geometry": {"type": "Point", "coordinates": [-111.645, 39.7338]}, "properties": {"NAME": "W7U/JU-023", "TITLE": "8300", "REGION": "Juab County", "ASSOCIATION": "USA - Utah", "POINTS": "6", "BONUSPOINTS": "3"}}, {"type": "Feature", "geometry": {"type": "Point", "coordinates": [-112.0687, 39.8196]}, "properties": {"NAME": "W7U/JU-024", "TITLE": "Tintic Mountain", "REGION": "Juab County", "ASSOCIATION": "USA - Utah", "POINTS": "6", "BONUSPOINTS": "3"}}, {"type": "Feature", "geometry": {"type": "Point", "coordinates": [-112.1037, 39.9317]}, "properties": {"NAME": "W7U/JU-025", "TITLE": "Mammoth Peak", "REGION": "Juab County", "ASSOCIATION": "USA - Utah", "POINTS": "6", "BONUSPOINTS": "3"}}, {"type": "Feature", "geometry": {"type": "Point", "coordinates": [-112.3216, 39.8658]}, "properties": {"NAME": "W7U/JU-026", "TITLE": "Maple Peak", "REGION": "Juab County", "ASSOCIATION": "USA - Utah", "POINTS": "6", "BONUSPOINTS": "3"}}, {"type": "Feature", "geometry": {"type": "Point", "coordinates": [-112.0807, 39.8536]}, "properties": {"NAME": "W7U/JU-027", "TITLE": "Buckhorn Mountain", "REGION": "Juab County", "ASSOCIATION": "USA - Utah", "POINTS": "6", "BONUSPOINTS": "3"}}, {"type": "Feature", "geometry": {"type": "Point", "coordinates": [-112.1246, 39.974]}, "properties": {"NAME": "W7U/JU-028", "TITLE": "Packard Peak", "REGION": "Juab County", "ASSOCIATION": "USA - Utah", "POINTS": "6", "BONUSPOINTS": "3"}}, {"type": "Feature", "geometry": {"type": "Point", "coordinates": [-112.3947, 39.8806]}, "properties": {"NAME": "W7U/JU-029", "TITLE": "7763", "REGION": "Juab County", "ASSOCIATION": "USA - Utah", "POINTS": "6", "BONUSPOINTS": "3"}}, {"type": "Feature", "geometry": {"type": "Point", "coordinates": [-112.3584, 39.8802]}, "properties": {"NAME": "W7U/JU-030", "TITLE": "7655", "REGION": "Juab County", "ASSOCIATION": "USA - Utah", "POINTS": "6", "BONUSPOINTS": "3"}}, {"type": "Feature", "geometry": {"type": "Point", "coordinates": [-112.1868, 39.4868]}, "properties": {"NAME": "W7U/JU-031", "TITLE": "Wild Horse Peak", "REGION": "Juab County", "ASSOCIATION": "USA - Utah", "POINTS": "6", "BONUSPOINTS": "3"}}, {"type": "Feature", "geometry": {"type": "Point", "coordinates": [-112.0695, 39.9008]}, "properties": {"NAME": "W7U/JU-032", "TITLE": "Silver Benchmark", "REGION": "Juab County", "ASSOCIATION": "USA - Utah", "POINTS": "6", "BONUSPOINTS": "3"}}, {"type": "Feature", "geometry": {"type": "Point", "coordinates": [-112.2026, 39.4525]}, "properties": {"NAME": "W7U/JU-033", "TITLE": "7591", "REGION": "Juab County", "ASSOCIATION": "USA - Utah", "POINTS": "6", "BONUSPOINTS": "3"}}, {"type": "Feature", "geometry": {"type": "Point", "coordinates": [-112.2205, 39.6166]}, "properties": {"NAME": "W7U/JU-034", "TITLE": "Champlin Peak", "REGION": "Juab County", "ASSOCIATION": "USA - Utah", "POINTS": "6", "BONUSPOINTS": "3"}}, {"type": "Feature", "geometry": {"type": "Point", "coordinates": [-112.8414, 39.7888]}, "properties": {"NAME": "W7U/JU-035", "TITLE": "Keg Mountain", "REGION": "Juab County", "ASSOCIATION": "USA - Utah", "POINTS": "4", "BONUSPOINTS": "3"}}, {"type": "Feature", "geometry": {"type": "Point", "coordinates": [-112.987, 39.5613]}, "properties": {"NAME": "W7U/JU-036", "TITLE": "Drum Mountains HP", "REGION": "Juab County", "ASSOCIATION": "USA - Utah", "POINTS": "4", "BONUSPOINTS": "3"}}, {"type": "Feature", "geometry": {"type": "Point", "coordinates": [-112.2425, 39.585]}, "properties": {"NAME": "W7U/JU-037", "TITLE": "7202", "REGION": "Juab County", "ASSOCIATION": "USA - Utah", "POINTS": "4", "BONUSPOINTS": "3"}}, {"type": "Feature", "geometry": {"type": "Point", "coordinates": [-111.8073, 39.5663]}, "properties": {"NAME": "W7U/JU-038", "TITLE": "7116", "REGION": "Juab County", "ASSOCIATION": "USA - Utah", "POINTS": "4", "BONUSPOINTS": "3"}}, {"type": "Feature", "geometry": {"type": "Point", "coordinates": [-113.1342, 39.741]}, "properties": {"NAME": "W7U/JU-039", "TITLE": "Thomas Range HP", "REGION": "Juab County", "ASSOCIATION": "USA - Utah", "POINTS": "4", "BONUSPOINTS": "3"}}, {"type": "Feature", "geometry": {"type": "Point", "coordinates": [-112.1801, 39.644]}, "properties": {"NAME": "W7U/JU-040", "TITLE": "7098", "REGION": "Juab County", "ASSOCIATION": "USA - Utah", "POINTS": "4", "BONUSPOINTS": "3"}}, {"type": "Feature", "geometry": {"type": "Point", "coordinates": [-113.1058, 39.7095]}, "properties": {"NAME": "W7U/JU-041", "TITLE": "Topaz Mountain", "REGION": "Juab County", "ASSOCIATION": "USA - Utah", "POINTS": "4", "BONUSPOINTS": "3"}}, {"type": "Feature", "geometry": {"type": "Point", "coordinates": [-111.961, 39.8145]}, "properties": {"NAME": "W7U/JU-042", "TITLE": "Long Ridge", "REGION": "Juab County", "ASSOCIATION": "USA - Utah", "POINTS": "4", "BONUSPOINTS": "3"}}, {"type": "Feature", "geometry": {"type": "Point", "coordinates": [-113.0494, 39.5623]}, "properties": {"NAME": "W7U/JU-043", "TITLE": "Lady Laird Peak", "REGION": "Juab County", "ASSOCIATION": "USA - Utah", "POINTS": "4", "BONUSPOINTS": "3"}}, {"type": "Feature", "geometry": {"type": "Point", "coordinates": [-113.4483, 39.8263]}, "properties": {"NAME": "W7U/JU-044", "TITLE": "6953", "REGION": "Juab County", "ASSOCIATION": "USA - Utah", "POINTS": "4", "BONUSPOINTS": "3"}}, {"type": "Feature", "geometry": {"type": "Point", "coordinates": [-112.1051, 39.7225]}, "properties": {"NAME": "W7U/JU-045", "TITLE": "6952", "REGION": "Juab County", "ASSOCIATION": "USA - Utah", "POINTS": "4", "BONUSPOINTS": "3"}}, {"type": "Feature", "geometry": {"type": "Point", "coordinates": [-113.7605, 39.5666]}, "properties": {"NAME": "W7U/JU-046", "TITLE": "6940", "REGION": "Juab County", "ASSOCIATION": "USA - Utah", "POINTS": "4", "BONUSPOINTS": "3"}}, {"type": "Feature", "geometry": {"type": "Point", "coordinates": [-113.1283, 39.8007]}, "properties": {"NAME": "W7U/JU-047", "TITLE": "Cairn Benchmark", "REGION": "Juab County", "ASSOCIATION": "USA - Utah", "POINTS": "4", "BONUSPOINTS": "3"}}, {"type": "Feature", "geometry": {"type": "Point", "coordinates": [-113.1433, 39.7654]}, "properties": {"NAME": "W7U/JU-048", "TITLE": "Thomas Ridge", "REGION": "Juab County", "ASSOCIATION": "USA - Utah", "POINTS": "4", "BONUSPOINTS": "3"}}, {"type": "Feature", "geometry": {"type": "Point", "coordinates": [-111.9952, 39.8013]}, "properties": {"NAME": "W7U/JU-049", "TITLE": "6885", "REGION": "Juab County", "ASSOCIATION": "USA - Utah", "POINTS": "4", "BONUSPOINTS": "3"}}, {"type": "Feature", "geometry": {"type": "Point", "coordinates": [-112.9083, 39.7863]}, "properties": {"NAME": "W7U/JU-050", "TITLE": "Keg Mountain West", "REGION": "Juab County", "ASSOCIATION": "USA - Utah", "POINTS": "4", "BONUSPOINTS": "3"}}, {"type": "Feature", "geometry": {"type": "Point", "coordinates": [-113.5896, 39.6246]}, "properties": {"NAME": "W7U/JU-051", "TITLE": "Middle Range HP", "REGION": "Juab County", "ASSOCIATION": "USA - Utah", "POINTS": "4", "BONUSPOINTS": "3"}}, {"type": "Feature", "geometry": {"type": "Point", "coordinates": [-112.2188, 39.5178]}, "properties": {"NAME": "W7U/JU-052", "TITLE": "6770", "REGION": "Juab County", "ASSOCIATION": "USA - Utah", "POINTS": "4", "BONUSPOINTS": "3"}}, {"type": "Feature", "geometry": {"type": "Point", "coordinates": [-113.1265, 39.6076]}, "properties": {"NAME": "W7U/JU-053", "TITLE": "Wildcat Hills", "REGION": "Juab County", "ASSOCIATION": "USA - Utah", "POINTS": "4", "BONUSPOINTS": "3"}}, {"type": "Feature", "geometry": {"type": "Point", "coordinates": [-113.0764, 39.6188]}, "properties": {"NAME": "W7U/JU-054", "TITLE": "6658", "REGION": "Juab County", "ASSOCIATION": "USA - Utah", "POINTS": "4", "BONUSPOINTS": "3"}}, {"type": "Feature", "geometry": {"type": "Point", "coordinates": [-111.9451, 39.6247]}, "properties": {"NAME": "W7U/JU-055", "TITLE": "West Hills", "REGION": "Juab County", "ASSOCIATION": "USA - Utah", "POINTS": "4", "BONUSPOINTS": "3"}}, {"type": "Feature", "geometry": {"type": "Point", "coordinates": [-113.184, 39.7484]}, "properties": {"NAME": "W7U/JU-056", "TITLE": "Spor Mountain North", "REGION": "Juab County", "ASSOCIATION": "USA - Utah", "POINTS": "4", "BONUSPOINTS": "3"}}, {"type": "Feature", "geometry": {"type": "Point", "coordinates": [-112.933, 39.7398]}, "properties": {"NAME": "W7U/JU-057", "TITLE": "McDowell Benchmark", "REGION": "Juab County", "ASSOCIATION": "USA - Utah", "POINTS": "4", "BONUSPOINTS": "3"}}, {"type": "Feature", "geometry": {"type": "Point", "coordinates": [-113.6943, 39.6058]}, "properties": {"NAME": "W7U/JU-058", "TITLE": "Granite Mountain", "REGION": "Juab County", "ASSOCIATION": "USA - Utah", "POINTS": "2", "BONUSPOINTS": "3"}}, {"type": "Feature", "geometry": {"type": "Point", "coordinates": [-112.5944, 39.7813]}, "properties": {"NAME": "W7U/JU-059", "TITLE": "Desert Mountain", "REGION": "Juab County", "ASSOCIATION": "USA - Utah", "POINTS": "2", "BONUSPOINTS": "3"}}, {"type": "Feature", "geometry": {"type": "Point", "coordinates": [-111.9049, 39.4091]}, "properties": {"NAME": "W7U/JU-060", "TITLE": "Skinner Peaks South", "REGION": "Juab County", "ASSOCIATION": "USA - Utah", "POINTS": "2", "BONUSPOINTS": "3"}}, {"type": "Feature", "geometry": {"type": "Point", "coordinates": [-113.0799, 39.8364]}, "properties": {"NAME": "W7U/JU-061", "TITLE": "6228", "REGION": "Juab County", "ASSOCIATION": "USA - Utah", "POINTS": "2", "BONUSPOINTS": "3"}}, {"type": "Feature", "geometry": {"type": "Point", "coordinates": [-113.0781, 39.6485]}, "properties": {"NAME": "W7U/JU-062", "TITLE": "6173", "REGION": "Juab County", "ASSOCIATION": "USA - Utah", "POINTS": "2", "BONUSPOINTS": "0"}}, {"type": "Feature", "geometry": {"type": "Point", "coordinates": [-112.5777, 39.778]}, "properties": {"NAME": "W7U/JU-063", "TITLE": "6157", "REGION": "Juab County", "ASSOCIATION": "USA - Utah", "POINTS": "2", "BONUSPOINTS": "0"}}, {"type": "Feature", "geometry": {"type": "Point", "coordinates": [-113.3923, 39.558]}, "properties": {"NAME": "W7U/JU-064", "TITLE": "6081", "REGION": "Juab County", "ASSOCIATION": "USA - Utah", "POINTS": "2", "BONUSPOINTS": "0"}}, {"type": "Feature", "geometry": {"type": "Point", "coordinates": [-112.5785, 39.742]}, "properties": {"NAME": "W7U/JU-065", "TITLE": "6050", "REGION": "Juab County", "ASSOCIATION": "USA - Utah", "POINTS": "2", "BONUSPOINTS": "0"}}, {"type": "Feature", "geometry": {"type": "Point", "coordinates": [-113.4515, 39.8661]}, "properties": {"NAME": "W7U/JU-066", "TITLE": "6031", "REGION": "Juab County", "ASSOCIATION": "USA - Utah", "POINTS": "2", "BONUSPOINTS": "0"}}, {"type": "Feature", "geometry": {"type": "Point", "coordinates": [-112.6137, 39.7538]}, "properties": {"NAME": "W7U/JU-067", "TITLE": "6013", "REGION": "Juab County", "ASSOCIATION": "USA - Utah", "POINTS": "2", "BONUSPOINTS": "0"}}, {"type": "Feature", "geometry": {"type": "Point", "coordinates": [-111.866, 39.9057]}, "properties": {"NAME": "W7U/JU-068", "TITLE": "5980", "REGION": "Juab County", "ASSOCIATION": "USA - Utah", "POINTS": "2", "BONUSPOINTS": "0"}}, {"type": "Feature", "geometry": {"type": "Point", "coordinates": [-113.4283, 39.8726]}, "properties": {"NAME": "W7U/JU-069", "TITLE": "5943", "REGION": "Juab County", "ASSOCIATION": "USA - Utah", "POINTS": "2", "BONUSPOINTS": "0"}}, {"type": "Feature", "geometry": {"type": "Point", "coordinates": [-112.3081, 39.6936]}, "properties": {"NAME": "W7U/JU-070", "TITLE": "Black Mountains HP", "REGION": "Juab County", "ASSOCIATION": "USA - Utah", "POINTS": "2", "BONUSPOINTS": "0"}}, {"type": "Feature", "geometry": {"type": "Point", "coordinates": [-113.238, 39.8445]}, "properties": {"NAME": "W7U/JU-071", "TITLE": "Black Rock Hills", "REGION": "Juab County", "ASSOCIATION": "USA - Utah", "POINTS": "2", "BONUSPOINTS": "0"}}, {"type": "Feature", "geometry": {"type": "Point", "coordinates": [-113.5774, 39.7108]}, "properties": {"NAME": "W7U/JU-072", "TITLE": "Honeycombs North, The", "REGION": "Juab County", "ASSOCIATION": "USA - Utah", "POINTS": "2", "BONUSPOINTS": "0"}}, {"type": "Feature", "geometry": {"type": "Point", "coordinates": [-112.8618, 39.8823]}, "properties": {"NAME": "W7U/JU-073", "TITLE": "5540", "REGION": "Juab County", "ASSOCIATION": "USA - Utah", "POINTS": "2", "BONUSPOINTS": "0"}}]}