{"type": "FeatureCollection", "name": "W7U/TO SUMMITS", "features": [{"type": "Feature", "geometry": {"type": "Point", "coordinates": [-113.8975, 39.9116]}, "properties": {"NAME": "W7U/TO-001", "TITLE": "Rocky Peak", "REGION": "Tooele County", "ASSOCIATION": "USA - Utah", "POINTS": "10", "BONUSPOINTS": "3"}}, {"type": "Feature", "geometry": {"type": "Point", "coordinates": [-112.63, 40.4864]}, "properties": {"NAME": "W7U/TO-002", "TITLE": "10685", "REGION": "Tooele County", "ASSOCIATION": "USA - Utah", "POINTS": "10", "BONUSPOINTS": "3"}}, {"type": "Feature", "geometry": {"type": "Point", "coordinates": [-112.1889, 40.3725]}, "properties": {"NAME": "W7U/TO-003", "TITLE": "Flat Top Mountain", "REGION": "Tooele County", "ASSOCIATION": "USA - Utah", "POINTS": "10", "BONUSPOINTS": "3"}}, {"type": "Feature", "geometry": {"type": "Point", "coordinates": [-113.8876, 39.9253]}, "properties": {"NAME": "W7U/TO-004", "TITLE": "10611", "REGION": "Tooele County", "ASSOCIATION": "USA - Utah", "POINTS": "10", "BONUSPOINTS": "3"}}, {"type": "Feature", "geometry": {"type": "Point", "coordinates": [-112.1988, 40.4255]}, "properties": {"NAME": "W7U/TO-005", "TITLE": "Lowe Peak", "REGION": "Tooele County", "ASSOCIATION": "USA - Utah", "POINTS": "10", "BONUSPOINTS": "3"}}, {"type": "Feature", "geometry": {"type": "Point", "coordinates": [-112.2142, 40.4519]}, "properties": {"NAME": "W7U/TO-006", "TITLE": "Kelsey Peak", "REGION": "Tooele County", "ASSOCIATION": "USA - Utah", "POINTS": "8", "BONUSPOINTS": "3"}}, {"type": "Feature", "geometry": {"type": "Point", "coordinates": [-112.5946, 40.3961]}, "properties": {"NAME": "W7U/TO-007", "TITLE": "Vickory Mountain", "REGION": "Tooele County", "ASSOCIATION": "USA - Utah", "POINTS": "8", "BONUSPOINTS": "3"}}, {"type": "Feature", "geometry": {"type": "Point", "coordinates": [-112.2643, 40.3987]}, "properties": {"NAME": "W7U/TO-008", "TITLE": "Bald Mountain East", "REGION": "Tooele County", "ASSOCIATION": "USA - Utah", "POINTS": "8", "BONUSPOINTS": "3"}}, {"type": "Feature", "geometry": {"type": "Point", "coordinates": [-112.5404, 39.9844]}, "properties": {"NAME": "W7U/TO-009", "TITLE": "Black Crook Peak", "REGION": "Tooele County", "ASSOCIATION": "USA - Utah", "POINTS": "8", "BONUSPOINTS": "3"}}, {"type": "Feature", "geometry": {"type": "Point", "coordinates": [-113.8882, 39.9796]}, "properties": {"NAME": "W7U/TO-010", "TITLE": "Pole Benchmark", "REGION": "Tooele County", "ASSOCIATION": "USA - Utah", "POINTS": "8", "BONUSPOINTS": "3"}}, {"type": "Feature", "geometry": {"type": "Point", "coordinates": [-112.5777, 40.4487]}, "properties": {"NAME": "W7U/TO-011", "TITLE": "Bald Mountain", "REGION": "Tooele County", "ASSOCIATION": "USA - Utah", "POINTS": "8", "BONUSPOINTS": "3"}}, {"type": "Feature", "geometry": {"type": "Point", "coordinates": [-112.2707, 40.4403]}, "properties": {"NAME": "W7U/TO-012", "TITLE": "9183", "REGION": "Tooele County", "ASSOCIATION": "USA - Utah", "POINTS": "8", "BONUSPOINTS": "3"}}, {"type": "Feature", "geometry": {"type": "Point", "coordinates": [-112.6152, 40.6027]}, "properties": {"NAME": "W7U/TO-013", "TITLE": "Onaqui Benchmark", "REGION": "Tooele County", "ASSOCIATION": "USA - Utah", "POINTS": "8", "BONUSPOINTS": "3"}}, {"type": "Feature", "geometry": {"type": "Point", "coordinates": [-112.5435, 40.2485]}, "properties": {"NAME": "W7U/TO-014", "TITLE": "Stookey Benchmark", "REGION": "Tooele County", "ASSOCIATION": "USA - Utah", "POINTS": "8", "BONUSPOINTS": "3"}}, {"type": "Feature", "geometry": {"type": "Point", "coordinates": [-112.4805, 39.955]}, "properties": {"NAME": "W7U/TO-015", "TITLE": "Dutch Peak", "REGION": "Tooele County", "ASSOCIATION": "USA - Utah", "POINTS": "6", "BONUSPOINTS": "3"}}, {"type": "Feature", "geometry": {"type": "Point", "coordinates": [-112.6232, 40.5387]}, "properties": {"NAME": "W7U/TO-016", "TITLE": "8900", "REGION": "Tooele County", "ASSOCIATION": "USA - Utah", "POINTS": "6", "BONUSPOINTS": "3"}}, {"type": "Feature", "geometry": {"type": "Point", "coordinates": [-112.5582, 40.4041]}, "properties": {"NAME": "W7U/TO-017", "TITLE": "8855", "REGION": "Tooele County", "ASSOCIATION": "USA - Utah", "POINTS": "6", "BONUSPOINTS": "3"}}, {"type": "Feature", "geometry": {"type": "Point", "coordinates": [-112.235, 40.3589]}, "properties": {"NAME": "W7U/TO-018", "TITLE": "8790", "REGION": "Tooele County", "ASSOCIATION": "USA - Utah", "POINTS": "6", "BONUSPOINTS": "3"}}, {"type": "Feature", "geometry": {"type": "Point", "coordinates": [-112.2184, 40.5164]}, "properties": {"NAME": "W7U/TO-019", "TITLE": "Clipper Ridge", "REGION": "Tooele County", "ASSOCIATION": "USA - Utah", "POINTS": "6", "BONUSPOINTS": "3"}}, {"type": "Feature", "geometry": {"type": "Point", "coordinates": [-112.5775, 40.0524]}, "properties": {"NAME": "W7U/TO-020", "TITLE": "Red Pine Mountain", "REGION": "Tooele County", "ASSOCIATION": "USA - Utah", "POINTS": "6", "BONUSPOINTS": "3"}}, {"type": "Feature", "geometry": {"type": "Point", "coordinates": [-112.4378, 39.9241]}, "properties": {"NAME": "W7U/TO-021", "TITLE": "Pole Benchmark", "REGION": "Tooele County", "ASSOCIATION": "USA - Utah", "POINTS": "6", "BONUSPOINTS": "3"}}, {"type": "Feature", "geometry": {"type": "Point", "coordinates": [-113.8813, 40.0357]}, "properties": {"NAME": "W7U/TO-022", "TITLE": "8460", "REGION": "Tooele County", "ASSOCIATION": "USA - Utah", "POINTS": "6", "BONUSPOINTS": "3"}}, {"type": "Feature", "geometry": {"type": "Point", "coordinates": [-112.7269, 40.0077]}, "properties": {"NAME": "W7U/TO-023", "TITLE": "Indian Peaks", "REGION": "Tooele County", "ASSOCIATION": "USA - Utah", "POINTS": "6", "BONUSPOINTS": "3"}}, {"type": "Feature", "geometry": {"type": "Point", "coordinates": [-112.7095, 39.9521]}, "properties": {"NAME": "W7U/TO-024", "TITLE": "8334", "REGION": "Tooele County", "ASSOCIATION": "USA - Utah", "POINTS": "6", "BONUSPOINTS": "3"}}, {"type": "Feature", "geometry": {"type": "Point", "coordinates": [-112.5481, 40.1882]}, "properties": {"NAME": "W7U/TO-025", "TITLE": "8161", "REGION": "Tooele County", "ASSOCIATION": "USA - Utah", "POINTS": "6", "BONUSPOINTS": "3"}}, {"type": "Feature", "geometry": {"type": "Point", "coordinates": [-113.8947, 40.0466]}, "properties": {"NAME": "W7U/TO-026", "TITLE": "South Peak", "REGION": "Tooele County", "ASSOCIATION": "USA - Utah", "POINTS": "6", "BONUSPOINTS": "3"}}, {"type": "Feature", "geometry": {"type": "Point", "coordinates": [-112.3418, 39.9668]}, "properties": {"NAME": "W7U/TO-027", "TITLE": "Sabie Mountain", "REGION": "Tooele County", "ASSOCIATION": "USA - Utah", "POINTS": "6", "BONUSPOINTS": "3"}}, {"type": "Feature", "geometry": {"type": "Point", "coordinates": [-112.6184, 40.6537]}, "properties": {"NAME": "W7U/TO-028", "TITLE": "8003", "REGION": "Tooele County", "ASSOCIATION": "USA - Utah", "POINTS": "6", "BONUSPOINTS": "3"}}, {"type": "Feature", "geometry": {"type": "Point", "coordinates": [-112.2111, 40.3061]}, "properties": {"NAME": "W7U/TO-029", "TITLE": "Eagle Hill", "REGION": "Tooele County", "ASSOCIATION": "USA - Utah", "POINTS": "6", "BONUSPOINTS": "3"}}, {"type": "Feature", "geometry": {"type": "Point", "coordinates": [-112.7092, 39.9862]}, "properties": {"NAME": "W7U/TO-030", "TITLE": "7890", "REGION": "Tooele County", "ASSOCIATION": "USA - Utah", "POINTS": "6", "BONUSPOINTS": "3"}}, {"type": "Feature", "geometry": {"type": "Point", "coordinates": [-113.8443, 40.2234]}, "properties": {"NAME": "W7U/TO-031", "TITLE": "Dutch Mountain", "REGION": "Tooele County", "ASSOCIATION": "USA - Utah", "POINTS": "6", "BONUSPOINTS": "3"}}, {"type": "Feature", "geometry": {"type": "Point", "coordinates": [-112.9686, 40.5425]}, "properties": {"NAME": "W7U/TO-032", "TITLE": "Cedar Mountains HP", "REGION": "Tooele County", "ASSOCIATION": "USA - Utah", "POINTS": "6", "BONUSPOINTS": "3"}}, {"type": "Feature", "geometry": {"type": "Point", "coordinates": [-112.9779, 40.5167]}, "properties": {"NAME": "W7U/TO-033", "TITLE": "7700", "REGION": "Tooele County", "ASSOCIATION": "USA - Utah", "POINTS": "6", "BONUSPOINTS": "3"}}, {"type": "Feature", "geometry": {"type": "Point", "coordinates": [-113.7895, 40.9516]}, "properties": {"NAME": "W7U/TO-034", "TITLE": "Graham Peak", "REGION": "Tooele County", "ASSOCIATION": "USA - Utah", "POINTS": "6", "BONUSPOINTS": "3"}}, {"type": "Feature", "geometry": {"type": "Point", "coordinates": [-113.8856, 40.133]}, "properties": {"NAME": "W7U/TO-035", "TITLE": "Ochre Mountain", "REGION": "Tooele County", "ASSOCIATION": "USA - Utah", "POINTS": "6", "BONUSPOINTS": "3"}}, {"type": "Feature", "geometry": {"type": "Point", "coordinates": [-112.5584, 40.1548]}, "properties": {"NAME": "W7U/TO-036", "TITLE": "7500", "REGION": "Tooele County", "ASSOCIATION": "USA - Utah", "POINTS": "4", "BONUSPOINTS": "3"}}, {"type": "Feature", "geometry": {"type": "Point", "coordinates": [-112.5846, 40.3331]}, "properties": {"NAME": "W7U/TO-037", "TITLE": "7444", "REGION": "Tooele County", "ASSOCIATION": "USA - Utah", "POINTS": "4", "BONUSPOINTS": "3"}}, {"type": "Feature", "geometry": {"type": "Point", "coordinates": [-113.8132, 40.0895]}, "properties": {"NAME": "W7U/TO-038", "TITLE": "Montezuma Peak", "REGION": "Tooele County", "ASSOCIATION": "USA - Utah", "POINTS": "4", "BONUSPOINTS": "3"}}, {"type": "Feature", "geometry": {"type": "Point", "coordinates": [-113.8268, 40.9066]}, "properties": {"NAME": "W7U/TO-039", "TITLE": "Jenkins Peak", "REGION": "Tooele County", "ASSOCIATION": "USA - Utah", "POINTS": "4", "BONUSPOINTS": "3"}}, {"type": "Feature", "geometry": {"type": "Point", "coordinates": [-113.2719, 40.128]}, "properties": {"NAME": "W7U/TO-040", "TITLE": "Granite Peak", "REGION": "Tooele County", "ASSOCIATION": "USA - Utah", "POINTS": "4", "BONUSPOINTS": "3"}}, {"type": "Feature", "geometry": {"type": "Point", "coordinates": [-113.0035, 40.3689]}, "properties": {"NAME": "W7U/TO-041", "TITLE": "7039", "REGION": "Tooele County", "ASSOCIATION": "USA - Utah", "POINTS": "4", "BONUSPOINTS": "3"}}, {"type": "Feature", "geometry": {"type": "Point", "coordinates": [-113.732, 40.9595]}, "properties": {"NAME": "W7U/TO-042", "TITLE": "Cobb Peak", "REGION": "Tooele County", "ASSOCIATION": "USA - Utah", "POINTS": "4", "BONUSPOINTS": "3"}}, {"type": "Feature", "geometry": {"type": "Point", "coordinates": [-112.6363, 39.9553]}, "properties": {"NAME": "W7U/TO-043", "TITLE": "6985", "REGION": "Tooele County", "ASSOCIATION": "USA - Utah", "POINTS": "4", "BONUSPOINTS": "3"}}, {"type": "Feature", "geometry": {"type": "Point", "coordinates": [-113.0146, 40.4099]}, "properties": {"NAME": "W7U/TO-044", "TITLE": "6929", "REGION": "Tooele County", "ASSOCIATION": "USA - Utah", "POINTS": "4", "BONUSPOINTS": "3"}}, {"type": "Feature", "geometry": {"type": "Point", "coordinates": [-112.9875, 40.4633]}, "properties": {"NAME": "W7U/TO-045", "TITLE": "Tabbys Peak", "REGION": "Tooele County", "ASSOCIATION": "USA - Utah", "POINTS": "4", "BONUSPOINTS": "3"}}, {"type": "Feature", "geometry": {"type": "Point", "coordinates": [-112.97, 40.3448]}, "properties": {"NAME": "W7U/TO-046", "TITLE": "6838", "REGION": "Tooele County", "ASSOCIATION": "USA - Utah", "POINTS": "4", "BONUSPOINTS": "3"}}, {"type": "Feature", "geometry": {"type": "Point", "coordinates": [-113.1044, 39.9306]}, "properties": {"NAME": "W7U/TO-047", "TITLE": "6830", "REGION": "Tooele County", "ASSOCIATION": "USA - Utah", "POINTS": "4", "BONUSPOINTS": "3"}}, {"type": "Feature", "geometry": {"type": "Point", "coordinates": [-113.1382, 39.9496]}, "properties": {"NAME": "W7U/TO-048", "TITLE": "Castle Mountain", "REGION": "Tooele County", "ASSOCIATION": "USA - Utah", "POINTS": "4", "BONUSPOINTS": "3"}}, {"type": "Feature", "geometry": {"type": "Point", "coordinates": [-114.0396, 40.2653]}, "properties": {"NAME": "W7U/TO-049", "TITLE": "Utah Peak", "REGION": "Tooele County", "ASSOCIATION": "USA - Utah", "POINTS": "4", "BONUSPOINTS": "3"}}, {"type": "Feature", "geometry": {"type": "Point", "coordinates": [-112.896, 40.755]}, "properties": {"NAME": "W7U/TO-050", "TITLE": "Hastings Benchmark", "REGION": "Tooele County", "ASSOCIATION": "USA - Utah", "POINTS": "4", "BONUSPOINTS": "3"}}, {"type": "Feature", "geometry": {"type": "Point", "coordinates": [-112.4991, 40.8468]}, "properties": {"NAME": "W7U/TO-051", "TITLE": "Stansbury Island", "REGION": "Tooele County", "ASSOCIATION": "USA - Utah", "POINTS": "4", "BONUSPOINTS": "3"}}, {"type": "Feature", "geometry": {"type": "Point", "coordinates": [-112.8205, 40.8799]}, "properties": {"NAME": "W7U/TO-052", "TITLE": "Craner Peak", "REGION": "Tooele County", "ASSOCIATION": "USA - Utah", "POINTS": "4", "BONUSPOINTS": "3"}}, {"type": "Feature", "geometry": {"type": "Point", "coordinates": [-112.8121, 40.8629]}, "properties": {"NAME": "W7U/TO-053", "TITLE": "6607", "REGION": "Tooele County", "ASSOCIATION": "USA - Utah", "POINTS": "4", "BONUSPOINTS": "3"}}, {"type": "Feature", "geometry": {"type": "Point", "coordinates": [-112.4545, 40.4652]}, "properties": {"NAME": "W7U/TO-054", "TITLE": "South Mountain West", "REGION": "Tooele County", "ASSOCIATION": "USA - Utah", "POINTS": "4", "BONUSPOINTS": "3"}}, {"type": "Feature", "geometry": {"type": "Point", "coordinates": [-113.0478, 40.9388]}, "properties": {"NAME": "W7U/TO-055", "TITLE": "Grassy Mountains HP", "REGION": "Tooele County", "ASSOCIATION": "USA - Utah", "POINTS": "4", "BONUSPOINTS": "3"}}, {"type": "Feature", "geometry": {"type": "Point", "coordinates": [-112.8836, 40.7396]}, "properties": {"NAME": "W7U/TO-056", "TITLE": "6570", "REGION": "Tooele County", "ASSOCIATION": "USA - Utah", "POINTS": "4", "BONUSPOINTS": "3"}}, {"type": "Feature", "geometry": {"type": "Point", "coordinates": [-112.8306, 40.8986]}, "properties": {"NAME": "W7U/TO-057", "TITLE": "Black Mountain", "REGION": "Tooele County", "ASSOCIATION": "USA - Utah", "POINTS": "4", "BONUSPOINTS": "3"}}, {"type": "Feature", "geometry": {"type": "Point", "coordinates": [-112.4102, 40.4599]}, "properties": {"NAME": "W7U/TO-058", "TITLE": "South Mountain East", "REGION": "Tooele County", "ASSOCIATION": "USA - Utah", "POINTS": "4", "BONUSPOINTS": "3"}}, {"type": "Feature", "geometry": {"type": "Point", "coordinates": [-113.0699, 39.9093]}, "properties": {"NAME": "W7U/TO-059", "TITLE": "Dugway Ridge", "REGION": "Tooele County", "ASSOCIATION": "USA - Utah", "POINTS": "4", "BONUSPOINTS": "3"}}, {"type": "Feature", "geometry": {"type": "Point", "coordinates": [-112.1731, 40.1276]}, "properties": {"NAME": "W7U/TO-060", "TITLE": "Topliff Hill", "REGION": "Tooele County", "ASSOCIATION": "USA - Utah", "POINTS": "4", "BONUSPOINTS": "3"}}, {"type": "Feature", "geometry": {"type": "Point", "coordinates": [-112.7296, 40.1359]}, "properties": {"NAME": "W7U/TO-061", "TITLE": "Round Top", "REGION": "Tooele County", "ASSOCIATION": "USA - Utah", "POINTS": "2", "BONUSPOINTS": "3"}}, {"type": "Feature", "geometry": {"type": "Point", "coordinates": [-113.7707, 40.9353]}, "properties": {"NAME": "W7U/TO-062", "TITLE": "6408", "REGION": "Tooele County", "ASSOCIATION": "USA - Utah", "POINTS": "2", "BONUSPOINTS": "3"}}, {"type": "Feature", "geometry": {"type": "Point", "coordinates": [-112.381, 40.0977]}, "properties": {"NAME": "W7U/TO-063", "TITLE": "Vernon Hills South", "REGION": "Tooele County", "ASSOCIATION": "USA - Utah", "POINTS": "2", "BONUSPOINTS": "3"}}, {"type": "Feature", "geometry": {"type": "Point", "coordinates": [-113.9264, 40.1788]}, "properties": {"NAME": "W7U/TO-064", "TITLE": "6272", "REGION": "Tooele County", "ASSOCIATION": "USA - Utah", "POINTS": "2", "BONUSPOINTS": "3"}}, {"type": "Feature", "geometry": {"type": "Point", "coordinates": [-113.9092, 40.8338]}, "properties": {"NAME": "W7U/TO-065", "TITLE": "Tetzlaff Peak", "REGION": "Tooele County", "ASSOCIATION": "USA - Utah", "POINTS": "2", "BONUSPOINTS": "3"}}, {"type": "Feature", "geometry": {"type": "Point", "coordinates": [-113.9546, 40.8167]}, "properties": {"NAME": "W7U/TO-066", "TITLE": "Rishel Peak", "REGION": "Tooele County", "ASSOCIATION": "USA - Utah", "POINTS": "2", "BONUSPOINTS": "3"}}, {"type": "Feature", "geometry": {"type": "Point", "coordinates": [-113.8082, 40.8995]}, "properties": {"NAME": "W7U/TO-067", "TITLE": "6162", "REGION": "Tooele County", "ASSOCIATION": "USA - Utah", "POINTS": "2", "BONUSPOINTS": "0"}}, {"type": "Feature", "geometry": {"type": "Point", "coordinates": [-113.9331, 40.2268]}, "properties": {"NAME": "W7U/TO-068", "TITLE": "Twin Peaks North", "REGION": "Tooele County", "ASSOCIATION": "USA - Utah", "POINTS": "2", "BONUSPOINTS": "0"}}, {"type": "Feature", "geometry": {"type": "Point", "coordinates": [-112.7133, 40.5474]}, "properties": {"NAME": "W7U/TO-069", "TITLE": "Salt Mountain", "REGION": "Tooele County", "ASSOCIATION": "USA - Utah", "POINTS": "2", "BONUSPOINTS": "0"}}, {"type": "Feature", "geometry": {"type": "Point", "coordinates": [-112.7775, 40.8329]}, "properties": {"NAME": "W7U/TO-070", "TITLE": "6044", "REGION": "Tooele County", "ASSOCIATION": "USA - Utah", "POINTS": "2", "BONUSPOINTS": "0"}}, {"type": "Feature", "geometry": {"type": "Point", "coordinates": [-113.9772, 40.7955]}, "properties": {"NAME": "W7U/TO-071", "TITLE": "Volcano Peak", "REGION": "Tooele County", "ASSOCIATION": "USA - Utah", "POINTS": "2", "BONUSPOINTS": "0"}}, {"type": "Feature", "geometry": {"type": "Point", "coordinates": [-113.02, 40.8604]}, "properties": {"NAME": "W7U/TO-072", "TITLE": "5948", "REGION": "Tooele County", "ASSOCIATION": "USA - Utah", "POINTS": "2", "BONUSPOINTS": "0"}}, {"type": "Feature", "geometry": {"type": "Point", "coordinates": [-114.0107, 40.236]}, "properties": {"NAME": "W7U/TO-073", "TITLE": "5915", "REGION": "Tooele County", "ASSOCIATION": "USA - Utah", "POINTS": "2", "BONUSPOINTS": "0"}}, {"type": "Feature", "geometry": {"type": "Point", "coordinates": [-112.8668, 40.9809]}, "properties": {"NAME": "W7U/TO-074", "TITLE": "5849", "REGION": "Tooele County", "ASSOCIATION": "USA - Utah", "POINTS": "2", "BONUSPOINTS": "0"}}, {"type": "Feature", "geometry": {"type": "Point", "coordinates": [-112.8786, 40.2698]}, "properties": {"NAME": "W7U/TO-075", "TITLE": "Bare Benchmark", "REGION": "Tooele County", "ASSOCIATION": "USA - Utah", "POINTS": "2", "BONUSPOINTS": "0"}}, {"type": "Feature", "geometry": {"type": "Point", "coordinates": [-112.8894, 39.9391]}, "properties": {"NAME": "W7U/TO-076", "TITLE": "Table Mountain", "REGION": "Tooele County", "ASSOCIATION": "USA - Utah", "POINTS": "2", "BONUSPOINTS": "0"}}, {"type": "Feature", "geometry": {"type": "Point", "coordinates": [-113.083, 39.9683]}, "properties": {"NAME": "W7U/TO-077", "TITLE": "5740", "REGION": "Tooele County", "ASSOCIATION": "USA - Utah", "POINTS": "2", "BONUSPOINTS": "0"}}, {"type": "Feature", "geometry": {"type": "Point", "coordinates": [-113.2137, 39.9872]}, "properties": {"NAME": "W7U/TO-078", "TITLE": "5718", "REGION": "Tooele County", "ASSOCIATION": "USA - Utah", "POINTS": "2", "BONUSPOINTS": "0"}}, {"type": "Feature", "geometry": {"type": "Point", "coordinates": [-112.8771, 40.3413]}, "properties": {"NAME": "W7U/TO-079", "TITLE": "5635", "REGION": "Tooele County", "ASSOCIATION": "USA - Utah", "POINTS": "2", "BONUSPOINTS": "0"}}, {"type": "Feature", "geometry": {"type": "Point", "coordinates": [-113.9275, 40.2778]}, "properties": {"NAME": "W7U/TO-080", "TITLE": "Red Mountain", "REGION": "Tooele County", "ASSOCIATION": "USA - Utah", "POINTS": "2", "BONUSPOINTS": "0"}}, {"type": "Feature", "geometry": {"type": "Point", "coordinates": [-112.9514, 40.1102]}, "properties": {"NAME": "W7U/TO-081", "TITLE": "Camels Back Ridge", "REGION": "Tooele County", "ASSOCIATION": "USA - Utah", "POINTS": "2", "BONUSPOINTS": "0"}}, {"type": "Feature", "geometry": {"type": "Point", "coordinates": [-112.8727, 40.052]}, "properties": {"NAME": "W7U/TO-082", "TITLE": "Simpson Buttes East", "REGION": "Tooele County", "ASSOCIATION": "USA - Utah", "POINTS": "1", "BONUSPOINTS": "0"}}, {"type": "Feature", "geometry": {"type": "Point", "coordinates": [-112.8858, 40.0593]}, "properties": {"NAME": "W7U/TO-083", "TITLE": "Simpson Buttes West", "REGION": "Tooele County", "ASSOCIATION": "USA - Utah", "POINTS": "1", "BONUSPOINTS": "0"}}, {"type": "Feature", "geometry": {"type": "Point", "coordinates": [-112.8704, 40.0749]}, "properties": {"NAME": "W7U/TO-084", "TITLE": "Simpson Buttes North", "REGION": "Tooele County", "ASSOCIATION": "USA - Utah", "POINTS": "1", "BONUSPOINTS": "0"}}, {"type": "Feature", "geometry": {"type": "Point", "coordinates": [-113.6384, 40.9151]}, "properties": {"NAME": "W7U/TO-085", "TITLE": "Floating Island", "REGION": "Tooele County", "ASSOCIATION": "USA - Utah", "POINTS": "1", "BONUSPOINTS": "0"}}, {"type": "Feature", "geometry": {"type": "Point", "coordinates": [-113.3431, 40.5192]}, "properties": {"NAME": "W7U/TO-086", "TITLE": "Kittycat Mountain", "REGION": "Tooele County", "ASSOCIATION": "USA - Utah", "POINTS": "1", "BONUSPOINTS": "0"}}, {"type": "Feature", "geometry": {"type": "Point", "coordinates": [-112.5703, 41.0075]}, "properties": {"NAME": "W7U/TO-087", "TITLE": "Lambournes Rock", "REGION": "Tooele County", "ASSOCIATION": "USA - Utah", "POINTS": "1", "BONUSPOINTS": "0"}}]}