{"type": "FeatureCollection", "name": "W7U/KA SUMMITS", "features": [{"type": "Feature", "geometry": {"type": "Point", "coordinates": [-112.8177, 37.5175]}, "properties": {"NAME": "W7U/KA-001", "TITLE": "Andy Nelson Peak", "REGION": "Kane County", "ASSOCIATION": "USA - Utah", "POINTS": "8", "BONUSPOINTS": "3"}}, {"type": "Feature", "geometry": {"type": "Point", "coordinates": [-112.323, 37.4211]}, "properties": {"NAME": "W7U/KA-002", "TITLE": "9420", "REGION": "Kane County", "ASSOCIATION": "USA - Utah", "POINTS": "8", "BONUSPOINTS": "3"}}, {"type": "Feature", "geometry": {"type": "Point", "coordinates": [-112.3874, 37.4237]}, "properties": {"NAME": "W7U/KA-003", "TITLE": "9301", "REGION": "Kane County", "ASSOCIATION": "USA - Utah", "POINTS": "8", "BONUSPOINTS": "3"}}, {"type": "Feature", "geometry": {"type": "Point", "coordinates": [-112.2865, 37.4452]}, "properties": {"NAME": "W7U/KA-004", "TITLE": "9281", "REGION": "Kane County", "ASSOCIATION": "USA - Utah", "POINTS": "8", "BONUSPOINTS": "3"}}, {"type": "Feature", "geometry": {"type": "Point", "coordinates": [-112.2402, 37.4752]}, "properties": {"NAME": "W7U/KA-005", "TITLE": "Rainbow Point", "REGION": "Kane County", "ASSOCIATION": "USA - Utah", "POINTS": "8", "BONUSPOINTS": "3"}}, {"type": "Feature", "geometry": {"type": "Point", "coordinates": [-112.7132, 37.4357]}, "properties": {"NAME": "W7U/KA-006", "TITLE": "Strawberry Point", "REGION": "Kane County", "ASSOCIATION": "USA - Utah", "POINTS": "8", "BONUSPOINTS": "3"}}, {"type": "Feature", "geometry": {"type": "Point", "coordinates": [-112.5139, 37.4139]}, "properties": {"NAME": "W7U/KA-007", "TITLE": "7841", "REGION": "Kane County", "ASSOCIATION": "USA - Utah", "POINTS": "6", "BONUSPOINTS": "3"}}, {"type": "Feature", "geometry": {"type": "Point", "coordinates": [-112.8296, 37.3607]}, "properties": {"NAME": "W7U/KA-008", "TITLE": "7804", "REGION": "Kane County", "ASSOCIATION": "USA - Utah", "POINTS": "6", "BONUSPOINTS": "3"}}, {"type": "Feature", "geometry": {"type": "Point", "coordinates": [-111.5717, 37.4875]}, "properties": {"NAME": "W7U/KA-009", "TITLE": "Collet Benchmark", "REGION": "Kane County", "ASSOCIATION": "USA - Utah", "POINTS": "6", "BONUSPOINTS": "3"}}, {"type": "Feature", "geometry": {"type": "Point", "coordinates": [-112.234, 37.2214]}, "properties": {"NAME": "W7U/KA-010", "TITLE": "Timber Mountain", "REGION": "Kane County", "ASSOCIATION": "USA - Utah", "POINTS": "4", "BONUSPOINTS": "3"}}, {"type": "Feature", "geometry": {"type": "Point", "coordinates": [-112.0742, 37.3613]}, "properties": {"NAME": "W7U/KA-011", "TITLE": "Deer Range Point", "REGION": "Kane County", "ASSOCIATION": "USA - Utah", "POINTS": "4", "BONUSPOINTS": "3"}}, {"type": "Feature", "geometry": {"type": "Point", "coordinates": [-111.2825, 37.434]}, "properties": {"NAME": "W7U/KA-012", "TITLE": "Wits Benchmark", "REGION": "Kane County", "ASSOCIATION": "USA - Utah", "POINTS": "4", "BONUSPOINTS": "3"}}, {"type": "Feature", "geometry": {"type": "Point", "coordinates": [-112.1667, 37.291]}, "properties": {"NAME": "W7U/KA-013", "TITLE": "Deer Spring Point", "REGION": "Kane County", "ASSOCIATION": "USA - Utah", "POINTS": "4", "BONUSPOINTS": "3"}}, {"type": "Feature", "geometry": {"type": "Point", "coordinates": [-111.5344, 37.4494]}, "properties": {"NAME": "W7U/KA-014", "TITLE": "7300", "REGION": "Kane County", "ASSOCIATION": "USA - Utah", "POINTS": "4", "BONUSPOINTS": "3"}}, {"type": "Feature", "geometry": {"type": "Point", "coordinates": [-112.1118, 37.3008]}, "properties": {"NAME": "W7U/KA-015", "TITLE": "No Mans Mesa", "REGION": "Kane County", "ASSOCIATION": "USA - Utah", "POINTS": "4", "BONUSPOINTS": "3"}}, {"type": "Feature", "geometry": {"type": "Point", "coordinates": [-111.3926, 37.5068]}, "properties": {"NAME": "W7U/KA-016", "TITLE": "Plateau Benchmark", "REGION": "Kane County", "ASSOCIATION": "USA - Utah", "POINTS": "4", "BONUSPOINTS": "3"}}, {"type": "Feature", "geometry": {"type": "Point", "coordinates": [-112.0552, 37.2708]}, "properties": {"NAME": "W7U/KA-017", "TITLE": "Mollies Nipple", "REGION": "Kane County", "ASSOCIATION": "USA - Utah", "POINTS": "4", "BONUSPOINTS": "3"}}, {"type": "Feature", "geometry": {"type": "Point", "coordinates": [-112.6335, 37.2076]}, "properties": {"NAME": "W7U/KA-018", "TITLE": "7174", "REGION": "Kane County", "ASSOCIATION": "USA - Utah", "POINTS": "4", "BONUSPOINTS": "3"}}, {"type": "Feature", "geometry": {"type": "Point", "coordinates": [-111.9728, 37.3979]}, "properties": {"NAME": "W7U/KA-019", "TITLE": "Rock Springs Bench", "REGION": "Kane County", "ASSOCIATION": "USA - Utah", "POINTS": "4", "BONUSPOINTS": "3"}}, {"type": "Feature", "geometry": {"type": "Point", "coordinates": [-112.2221, 37.1123]}, "properties": {"NAME": "W7U/KA-020", "TITLE": "6844", "REGION": "Kane County", "ASSOCIATION": "USA - Utah", "POINTS": "4", "BONUSPOINTS": "3"}}, {"type": "Feature", "geometry": {"type": "Point", "coordinates": [-112.7321, 37.0602]}, "properties": {"NAME": "W7U/KA-021", "TITLE": "6824", "REGION": "Kane County", "ASSOCIATION": "USA - Utah", "POINTS": "4", "BONUSPOINTS": "3"}}, {"type": "Feature", "geometry": {"type": "Point", "coordinates": [-111.838, 37.4235]}, "properties": {"NAME": "W7U/KA-022", "TITLE": "6818", "REGION": "Kane County", "ASSOCIATION": "USA - Utah", "POINTS": "4", "BONUSPOINTS": "3"}}, {"type": "Feature", "geometry": {"type": "Point", "coordinates": [-112.8416, 37.0682]}, "properties": {"NAME": "W7U/KA-023", "TITLE": "Elephant Butte", "REGION": "Kane County", "ASSOCIATION": "USA - Utah", "POINTS": "4", "BONUSPOINTS": "3"}}, {"type": "Feature", "geometry": {"type": "Point", "coordinates": [-112.8889, 37.212]}, "properties": {"NAME": "W7U/KA-024", "TITLE": "6760", "REGION": "Kane County", "ASSOCIATION": "USA - Utah", "POINTS": "4", "BONUSPOINTS": "3"}}, {"type": "Feature", "geometry": {"type": "Point", "coordinates": [-112.88, 37.2156]}, "properties": {"NAME": "W7U/KA-025", "TITLE": "Checkerboard Mesa", "REGION": "Kane County", "ASSOCIATION": "USA - Utah", "POINTS": "4", "BONUSPOINTS": "3"}}, {"type": "Feature", "geometry": {"type": "Point", "coordinates": [-111.9431, 37.3535]}, "properties": {"NAME": "W7U/KA-026", "TITLE": "Cottonwood Benchmark", "REGION": "Kane County", "ASSOCIATION": "USA - Utah", "POINTS": "4", "BONUSPOINTS": "3"}}, {"type": "Feature", "geometry": {"type": "Point", "coordinates": [-112.0823, 37.1915]}, "properties": {"NAME": "W7U/KA-027", "TITLE": "Kimball Benchmark", "REGION": "Kane County", "ASSOCIATION": "USA - Utah", "POINTS": "4", "BONUSPOINTS": "3"}}, {"type": "Feature", "geometry": {"type": "Point", "coordinates": [-111.5813, 37.3191]}, "properties": {"NAME": "W7U/KA-028", "TITLE": "Drip Benchmark", "REGION": "Kane County", "ASSOCIATION": "USA - Utah", "POINTS": "4", "BONUSPOINTS": "3"}}, {"type": "Feature", "geometry": {"type": "Point", "coordinates": [-111.5563, 37.3051]}, "properties": {"NAME": "W7U/KA-029", "TITLE": "Ship Mountain Point", "REGION": "Kane County", "ASSOCIATION": "USA - Utah", "POINTS": "4", "BONUSPOINTS": "3"}}, {"type": "Feature", "geometry": {"type": "Point", "coordinates": [-112.5945, 37.0225]}, "properties": {"NAME": "W7U/KA-030", "TITLE": "Bunting Benchmark", "REGION": "Kane County", "ASSOCIATION": "USA - Utah", "POINTS": "2", "BONUSPOINTS": "3"}}, {"type": "Feature", "geometry": {"type": "Point", "coordinates": [-112.4309, 37.0494]}, "properties": {"NAME": "W7U/KA-031", "TITLE": "Mangard Benchmark", "REGION": "Kane County", "ASSOCIATION": "USA - Utah", "POINTS": "2", "BONUSPOINTS": "3"}}, {"type": "Feature", "geometry": {"type": "Point", "coordinates": [-112.5531, 37.215]}, "properties": {"NAME": "W7U/KA-032", "TITLE": "White Tower", "REGION": "Kane County", "ASSOCIATION": "USA - Utah", "POINTS": "2", "BONUSPOINTS": "3"}}, {"type": "Feature", "geometry": {"type": "Point", "coordinates": [-111.6742, 37.2328]}, "properties": {"NAME": "W7U/KA-033", "TITLE": "6154", "REGION": "Kane County", "ASSOCIATION": "USA - Utah", "POINTS": "2", "BONUSPOINTS": "0"}}, {"type": "Feature", "geometry": {"type": "Point", "coordinates": [-111.9077, 37.2958]}, "properties": {"NAME": "W7U/KA-034", "TITLE": "6070", "REGION": "Kane County", "ASSOCIATION": "USA - Utah", "POINTS": "2", "BONUSPOINTS": "0"}}, {"type": "Feature", "geometry": {"type": "Point", "coordinates": [-112.3259, 37.0523]}, "properties": {"NAME": "W7U/KA-035", "TITLE": "6045", "REGION": "Kane County", "ASSOCIATION": "USA - Utah", "POINTS": "2", "BONUSPOINTS": "0"}}, {"type": "Feature", "geometry": {"type": "Point", "coordinates": [-112.0025, 37.117]}, "properties": {"NAME": "W7U/KA-036", "TITLE": "Fivemile Mountain", "REGION": "Kane County", "ASSOCIATION": "USA - Utah", "POINTS": "2", "BONUSPOINTS": "0"}}, {"type": "Feature", "geometry": {"type": "Point", "coordinates": [-111.894, 37.1566]}, "properties": {"NAME": "W7U/KA-037", "TITLE": "Brigham Plains", "REGION": "Kane County", "ASSOCIATION": "USA - Utah", "POINTS": "2", "BONUSPOINTS": "0"}}, {"type": "Feature", "geometry": {"type": "Point", "coordinates": [-111.9752, 37.2519]}, "properties": {"NAME": "W7U/KA-038", "TITLE": "Calico Peak", "REGION": "Kane County", "ASSOCIATION": "USA - Utah", "POINTS": "2", "BONUSPOINTS": "0"}}, {"type": "Feature", "geometry": {"type": "Point", "coordinates": [-111.6467, 37.2059]}, "properties": {"NAME": "W7U/KA-039", "TITLE": "Nipple Benchmark", "REGION": "Kane County", "ASSOCIATION": "USA - Utah", "POINTS": "2", "BONUSPOINTS": "0"}}, {"type": "Feature", "geometry": {"type": "Point", "coordinates": [-111.9557, 37.1792]}, "properties": {"NAME": "W7U/KA-040", "TITLE": "5791", "REGION": "Kane County", "ASSOCIATION": "USA - Utah", "POINTS": "2", "BONUSPOINTS": "0"}}, {"type": "Feature", "geometry": {"type": "Point", "coordinates": [-111.9881, 37.0233]}, "properties": {"NAME": "W7U/KA-041", "TITLE": "West Clark Bench", "REGION": "Kane County", "ASSOCIATION": "USA - Utah", "POINTS": "2", "BONUSPOINTS": "0"}}, {"type": "Feature", "geometry": {"type": "Point", "coordinates": [-111.9782, 37.0979]}, "properties": {"NAME": "W7U/KA-042", "TITLE": "5691", "REGION": "Kane County", "ASSOCIATION": "USA - Utah", "POINTS": "2", "BONUSPOINTS": "0"}}, {"type": "Feature", "geometry": {"type": "Point", "coordinates": [-110.9817, 37.1383]}, "properties": {"NAME": "W7U/KA-043", "TITLE": "U71 Benchmark", "REGION": "Kane County", "ASSOCIATION": "USA - Utah", "POINTS": "2", "BONUSPOINTS": "0"}}, {"type": "Feature", "geometry": {"type": "Point", "coordinates": [-111.6971, 37.1939]}, "properties": {"NAME": "W7U/KA-044", "TITLE": "Scorpion, The", "REGION": "Kane County", "ASSOCIATION": "USA - Utah", "POINTS": "2", "BONUSPOINTS": "0"}}, {"type": "Feature", "geometry": {"type": "Point", "coordinates": [-111.5233, 37.1255]}, "properties": {"NAME": "W7U/KA-045", "TITLE": "Middle Warm Creek Point", "REGION": "Kane County", "ASSOCIATION": "USA - Utah", "POINTS": "2", "BONUSPOINTS": "0"}}, {"type": "Feature", "geometry": {"type": "Point", "coordinates": [-111.0363, 37.1301]}, "properties": {"NAME": "W7U/KA-046", "TITLE": "U46 Benchmark", "REGION": "Kane County", "ASSOCIATION": "USA - Utah", "POINTS": "1", "BONUSPOINTS": "0"}}, {"type": "Feature", "geometry": {"type": "Point", "coordinates": [-111.0546, 37.1326]}, "properties": {"NAME": "W7U/KA-047", "TITLE": "U45 Benchmark", "REGION": "Kane County", "ASSOCIATION": "USA - Utah", "POINTS": "1", "BONUSPOINTS": "0"}}, {"type": "Feature", "geometry": {"type": "Point", "coordinates": [-111.1736, 37.2357]}, "properties": {"NAME": "W7U/KA-048", "TITLE": "5155", "REGION": "Kane County", "ASSOCIATION": "USA - Utah", "POINTS": "1", "BONUSPOINTS": "0"}}, {"type": "Feature", "geometry": {"type": "Point", "coordinates": [-111.2482, 37.2442]}, "properties": {"NAME": "W7U/KA-049", "TITLE": "5060", "REGION": "Kane County", "ASSOCIATION": "USA - Utah", "POINTS": "1", "BONUSPOINTS": "0"}}, {"type": "Feature", "geometry": {"type": "Point", "coordinates": [-111.139, 37.1597]}, "properties": {"NAME": "W7U/KA-050", "TITLE": "5007", "REGION": "Kane County", "ASSOCIATION": "USA - Utah", "POINTS": "1", "BONUSPOINTS": "0"}}, {"type": "Feature", "geometry": {"type": "Point", "coordinates": [-111.208, 37.1825]}, "properties": {"NAME": "W7U/KA-051", "TITLE": "4900", "REGION": "Kane County", "ASSOCIATION": "USA - Utah", "POINTS": "1", "BONUSPOINTS": "0"}}, {"type": "Feature", "geometry": {"type": "Point", "coordinates": [-111.2571, 37.0601]}, "properties": {"NAME": "W7U/KA-052", "TITLE": "Gooseneck Point", "REGION": "Kane County", "ASSOCIATION": "USA - Utah", "POINTS": "1", "BONUSPOINTS": "0"}}, {"type": "Feature", "geometry": {"type": "Point", "coordinates": [-111.3354, 37.0611]}, "properties": {"NAME": "W7U/KA-053", "TITLE": "Gunsight Butte", "REGION": "Kane County", "ASSOCIATION": "USA - Utah", "POINTS": "1", "BONUSPOINTS": "0"}}, {"type": "Feature", "geometry": {"type": "Point", "coordinates": [-111.084, 37.1106]}, "properties": {"NAME": "W7U/KA-054", "TITLE": "4366", "REGION": "Kane County", "ASSOCIATION": "USA - Utah", "POINTS": "1", "BONUSPOINTS": "0"}}, {"type": "Feature", "geometry": {"type": "Point", "coordinates": [-111.3038, 37.0903]}, "properties": {"NAME": "W7U/KA-055", "TITLE": "Cookie Jar Butte", "REGION": "Kane County", "ASSOCIATION": "USA - Utah", "POINTS": "1", "BONUSPOINTS": "0"}}, {"type": "Feature", "geometry": {"type": "Point", "coordinates": [-111.4557, 37.015]}, "properties": {"NAME": "W7U/KA-056", "TITLE": "Castle Rock", "REGION": "Kane County", "ASSOCIATION": "USA - Utah", "POINTS": "1", "BONUSPOINTS": "0"}}]}