{"type": "FeatureCollection", "name": "W7U/SE SUMMITS", "features": [{"type": "Feature", "geometry": {"type": "Point", "coordinates": [-111.641, 38.6683]}, "properties": {"NAME": "W7U/SE-001", "TITLE": "Marvine, Mount", "REGION": "Sevier County", "ASSOCIATION": "USA - Utah", "POINTS": "10", "BONUSPOINTS": "3"}}, {"type": "Feature", "geometry": {"type": "Point", "coordinates": [-112.0158, 38.6254]}, "properties": {"NAME": "W7U/SE-002", "TITLE": "Glenwood Mountain", "REGION": "Sevier County", "ASSOCIATION": "USA - Utah", "POINTS": "10", "BONUSPOINTS": "3"}}, {"type": "Feature", "geometry": {"type": "Point", "coordinates": [-111.5922, 38.7308]}, "properties": {"NAME": "W7U/SE-003", "TITLE": "11100", "REGION": "Sevier County", "ASSOCIATION": "USA - Utah", "POINTS": "10", "BONUSPOINTS": "3"}}, {"type": "Feature", "geometry": {"type": "Point", "coordinates": [-111.9527, 38.5916]}, "properties": {"NAME": "W7U/SE-004", "TITLE": "Monument Peak", "REGION": "Sevier County", "ASSOCIATION": "USA - Utah", "POINTS": "10", "BONUSPOINTS": "3"}}, {"type": "Feature", "geometry": {"type": "Point", "coordinates": [-111.726, 38.7022]}, "properties": {"NAME": "W7U/SE-005", "TITLE": "Boobe Hole Mountain", "REGION": "Sevier County", "ASSOCIATION": "USA - Utah", "POINTS": "10", "BONUSPOINTS": "3"}}, {"type": "Feature", "geometry": {"type": "Point", "coordinates": [-111.4821, 38.52]}, "properties": {"NAME": "W7U/SE-006", "TITLE": "Geyser Peak", "REGION": "Sevier County", "ASSOCIATION": "USA - Utah", "POINTS": "10", "BONUSPOINTS": "3"}}, {"type": "Feature", "geometry": {"type": "Point", "coordinates": [-111.6346, 38.5868]}, "properties": {"NAME": "W7U/SE-007", "TITLE": "Mytoge Mountains HP", "REGION": "Sevier County", "ASSOCIATION": "USA - Utah", "POINTS": "8", "BONUSPOINTS": "3"}}, {"type": "Feature", "geometry": {"type": "Point", "coordinates": [-111.6015, 38.6113]}, "properties": {"NAME": "W7U/SE-008", "TITLE": "Zedds Mountain", "REGION": "Sevier County", "ASSOCIATION": "USA - Utah", "POINTS": "8", "BONUSPOINTS": "3"}}, {"type": "Feature", "geometry": {"type": "Point", "coordinates": [-111.6692, 38.6043]}, "properties": {"NAME": "W7U/SE-009", "TITLE": "9549", "REGION": "Sevier County", "ASSOCIATION": "USA - Utah", "POINTS": "8", "BONUSPOINTS": "3"}}, {"type": "Feature", "geometry": {"type": "Point", "coordinates": [-111.4496, 38.7005]}, "properties": {"NAME": "W7U/SE-010", "TITLE": "Johns Peak", "REGION": "Sevier County", "ASSOCIATION": "USA - Utah", "POINTS": "8", "BONUSPOINTS": "3"}}, {"type": "Feature", "geometry": {"type": "Point", "coordinates": [-111.5828, 38.5798]}, "properties": {"NAME": "W7U/SE-011", "TITLE": "9470", "REGION": "Sevier County", "ASSOCIATION": "USA - Utah", "POINTS": "8", "BONUSPOINTS": "3"}}, {"type": "Feature", "geometry": {"type": "Point", "coordinates": [-111.626, 38.965]}, "properties": {"NAME": "W7U/SE-012", "TITLE": "Bull Valley Mountain", "REGION": "Sevier County", "ASSOCIATION": "USA - Utah", "POINTS": "8", "BONUSPOINTS": "3"}}, {"type": "Feature", "geometry": {"type": "Point", "coordinates": [-112.3055, 38.6772]}, "properties": {"NAME": "W7U/SE-013", "TITLE": "Joseph Peak", "REGION": "Sevier County", "ASSOCIATION": "USA - Utah", "POINTS": "8", "BONUSPOINTS": "3"}}, {"type": "Feature", "geometry": {"type": "Point", "coordinates": [-111.3449, 38.9635]}, "properties": {"NAME": "W7U/SE-014", "TITLE": "Wildcat Knolls", "REGION": "Sevier County", "ASSOCIATION": "USA - Utah", "POINTS": "8", "BONUSPOINTS": "3"}}, {"type": "Feature", "geometry": {"type": "Point", "coordinates": [-112.0783, 38.9358]}, "properties": {"NAME": "W7U/SE-015", "TITLE": "Beehive Peak", "REGION": "Sevier County", "ASSOCIATION": "USA - Utah", "POINTS": "8", "BONUSPOINTS": "3"}}, {"type": "Feature", "geometry": {"type": "Point", "coordinates": [-111.482, 38.8463]}, "properties": {"NAME": "W7U/SE-016", "TITLE": "8820", "REGION": "Sevier County", "ASSOCIATION": "USA - Utah", "POINTS": "6", "BONUSPOINTS": "3"}}, {"type": "Feature", "geometry": {"type": "Point", "coordinates": [-111.6771, 38.9705]}, "properties": {"NAME": "W7U/SE-017", "TITLE": "Steves Mountain", "REGION": "Sevier County", "ASSOCIATION": "USA - Utah", "POINTS": "6", "BONUSPOINTS": "3"}}, {"type": "Feature", "geometry": {"type": "Point", "coordinates": [-111.4143, 38.6497]}, "properties": {"NAME": "W7U/SE-018", "TITLE": "8594", "REGION": "Sevier County", "ASSOCIATION": "USA - Utah", "POINTS": "6", "BONUSPOINTS": "3"}}, {"type": "Feature", "geometry": {"type": "Point", "coordinates": [-111.3805, 38.6933]}, "properties": {"NAME": "W7U/SE-019", "TITLE": "Deer Peak", "REGION": "Sevier County", "ASSOCIATION": "USA - Utah", "POINTS": "6", "BONUSPOINTS": "3"}}, {"type": "Feature", "geometry": {"type": "Point", "coordinates": [-112.4117, 38.6207]}, "properties": {"NAME": "W7U/SE-020", "TITLE": "East Mountain", "REGION": "Sevier County", "ASSOCIATION": "USA - Utah", "POINTS": "6", "BONUSPOINTS": "3"}}, {"type": "Feature", "geometry": {"type": "Point", "coordinates": [-112.4455, 38.6165]}, "properties": {"NAME": "W7U/SE-021", "TITLE": "Trail Mountain", "REGION": "Sevier County", "ASSOCIATION": "USA - Utah", "POINTS": "6", "BONUSPOINTS": "3"}}, {"type": "Feature", "geometry": {"type": "Point", "coordinates": [-112.458, 38.5999]}, "properties": {"NAME": "W7U/SE-022", "TITLE": "7802", "REGION": "Sevier County", "ASSOCIATION": "USA - Utah", "POINTS": "6", "BONUSPOINTS": "3"}}, {"type": "Feature", "geometry": {"type": "Point", "coordinates": [-112.2174, 38.5339]}, "properties": {"NAME": "W7U/SE-023", "TITLE": "7507", "REGION": "Sevier County", "ASSOCIATION": "USA - Utah", "POINTS": "6", "BONUSPOINTS": "3"}}, {"type": "Feature", "geometry": {"type": "Point", "coordinates": [-111.7011, 39.0291]}, "properties": {"NAME": "W7U/SE-024", "TITLE": "7389", "REGION": "Sevier County", "ASSOCIATION": "USA - Utah", "POINTS": "4", "BONUSPOINTS": "3"}}, {"type": "Feature", "geometry": {"type": "Point", "coordinates": [-111.3731, 38.7783]}, "properties": {"NAME": "W7U/SE-025", "TITLE": "7380", "REGION": "Sevier County", "ASSOCIATION": "USA - Utah", "POINTS": "4", "BONUSPOINTS": "3"}}, {"type": "Feature", "geometry": {"type": "Point", "coordinates": [-111.876, 38.8769]}, "properties": {"NAME": "W7U/SE-026", "TITLE": "Carter Peak", "REGION": "Sevier County", "ASSOCIATION": "USA - Utah", "POINTS": "4", "BONUSPOINTS": "3"}}, {"type": "Feature", "geometry": {"type": "Point", "coordinates": [-111.9047, 38.8543]}, "properties": {"NAME": "W7U/SE-027", "TITLE": "6551", "REGION": "Sevier County", "ASSOCIATION": "USA - Utah", "POINTS": "4", "BONUSPOINTS": "3"}}, {"type": "Feature", "geometry": {"type": "Point", "coordinates": [-111.9658, 38.805]}, "properties": {"NAME": "W7U/SE-028", "TITLE": "6432", "REGION": "Sevier County", "ASSOCIATION": "USA - Utah", "POINTS": "2", "BONUSPOINTS": "3"}}, {"type": "Feature", "geometry": {"type": "Point", "coordinates": [-111.7856, 39.0299]}, "properties": {"NAME": "W7U/SE-029", "TITLE": "6110", "REGION": "Sevier County", "ASSOCIATION": "USA - Utah", "POINTS": "2", "BONUSPOINTS": "0"}}]}