{"type": "FeatureCollection", "name": "W7U/WY SUMMITS", "features": [{"type": "Feature", "geometry": {"type": "Point", "coordinates": [-111.4752, 38.4869]}, "properties": {"NAME": "W7U/WY-001", "TITLE": "Hens Hole Peak", "REGION": "Wayne County", "ASSOCIATION": "USA - Utah", "POINTS": "10", "BONUSPOINTS": "3"}}, {"type": "Feature", "geometry": {"type": "Point", "coordinates": [-111.7329, 38.5101]}, "properties": {"NAME": "W7U/WY-002", "TITLE": "9931", "REGION": "Wayne County", "ASSOCIATION": "USA - Utah", "POINTS": "8", "BONUSPOINTS": "3"}}, {"type": "Feature", "geometry": {"type": "Point", "coordinates": [-111.4905, 38.3484]}, "properties": {"NAME": "W7U/WY-003", "TITLE": "Ant Hill, The", "REGION": "Wayne County", "ASSOCIATION": "USA - Utah", "POINTS": "8", "BONUSPOINTS": "3"}}, {"type": "Feature", "geometry": {"type": "Point", "coordinates": [-111.4138, 38.3738]}, "properties": {"NAME": "W7U/WY-004", "TITLE": "Brown Benchmark", "REGION": "Wayne County", "ASSOCIATION": "USA - Utah", "POINTS": "6", "BONUSPOINTS": "3"}}, {"type": "Feature", "geometry": {"type": "Point", "coordinates": [-111.4574, 38.3646]}, "properties": {"NAME": "W7U/WY-005", "TITLE": "8908", "REGION": "Wayne County", "ASSOCIATION": "USA - Utah", "POINTS": "6", "BONUSPOINTS": "3"}}, {"type": "Feature", "geometry": {"type": "Point", "coordinates": [-111.3374, 38.1783]}, "properties": {"NAME": "W7U/WY-006", "TITLE": "Lion Mountain", "REGION": "Wayne County", "ASSOCIATION": "USA - Utah", "POINTS": "6", "BONUSPOINTS": "3"}}, {"type": "Feature", "geometry": {"type": "Point", "coordinates": [-110.8363, 38.1622]}, "properties": {"NAME": "W7U/WY-007", "TITLE": "Table Mountain", "REGION": "Wayne County", "ASSOCIATION": "USA - Utah", "POINTS": "6", "BONUSPOINTS": "3"}}, {"type": "Feature", "geometry": {"type": "Point", "coordinates": [-111.5108, 38.2834]}, "properties": {"NAME": "W7U/WY-008", "TITLE": "Black Ridge", "REGION": "Wayne County", "ASSOCIATION": "USA - Utah", "POINTS": "6", "BONUSPOINTS": "3"}}, {"type": "Feature", "geometry": {"type": "Point", "coordinates": [-111.3907, 38.4266]}, "properties": {"NAME": "W7U/WY-009", "TITLE": "8140", "REGION": "Wayne County", "ASSOCIATION": "USA - Utah", "POINTS": "6", "BONUSPOINTS": "3"}}, {"type": "Feature", "geometry": {"type": "Point", "coordinates": [-111.302, 38.1572]}, "properties": {"NAME": "W7U/WY-010", "TITLE": "8126", "REGION": "Wayne County", "ASSOCIATION": "USA - Utah", "POINTS": "6", "BONUSPOINTS": "3"}}, {"type": "Feature", "geometry": {"type": "Point", "coordinates": [-111.4053, 38.2478]}, "properties": {"NAME": "W7U/WY-011", "TITLE": "Cocks Comb", "REGION": "Wayne County", "ASSOCIATION": "USA - Utah", "POINTS": "6", "BONUSPOINTS": "3"}}, {"type": "Feature", "geometry": {"type": "Point", "coordinates": [-111.2876, 38.3607]}, "properties": {"NAME": "W7U/WY-012", "TITLE": "Capitol Benchmark", "REGION": "Wayne County", "ASSOCIATION": "USA - Utah", "POINTS": "6", "BONUSPOINTS": "3"}}, {"type": "Feature", "geometry": {"type": "Point", "coordinates": [-111.3648, 38.4247]}, "properties": {"NAME": "W7U/WY-013", "TITLE": "7568", "REGION": "Wayne County", "ASSOCIATION": "USA - Utah", "POINTS": "6", "BONUSPOINTS": "3"}}, {"type": "Feature", "geometry": {"type": "Point", "coordinates": [-111.2098, 38.1573]}, "properties": {"NAME": "W7U/WY-014", "TITLE": "7430", "REGION": "Wayne County", "ASSOCIATION": "USA - Utah", "POINTS": "4", "BONUSPOINTS": "3"}}, {"type": "Feature", "geometry": {"type": "Point", "coordinates": [-111.1994, 38.2282]}, "properties": {"NAME": "W7U/WY-015", "TITLE": "George Benchmark", "REGION": "Wayne County", "ASSOCIATION": "USA - Utah", "POINTS": "4", "BONUSPOINTS": "3"}}, {"type": "Feature", "geometry": {"type": "Point", "coordinates": [-111.1912, 38.2271]}, "properties": {"NAME": "W7U/WY-016", "TITLE": "7100", "REGION": "Wayne County", "ASSOCIATION": "USA - Utah", "POINTS": "4", "BONUSPOINTS": "3"}}, {"type": "Feature", "geometry": {"type": "Point", "coordinates": [-111.2658, 38.3066]}, "properties": {"NAME": "W7U/WY-017", "TITLE": "7020", "REGION": "Wayne County", "ASSOCIATION": "USA - Utah", "POINTS": "4", "BONUSPOINTS": "3"}}, {"type": "Feature", "geometry": {"type": "Point", "coordinates": [-111.1496, 38.1546]}, "properties": {"NAME": "W7U/WY-018", "TITLE": "6980", "REGION": "Wayne County", "ASSOCIATION": "USA - Utah", "POINTS": "4", "BONUSPOINTS": "3"}}, {"type": "Feature", "geometry": {"type": "Point", "coordinates": [-111.1902, 38.1938]}, "properties": {"NAME": "W7U/WY-019", "TITLE": "6945", "REGION": "Wayne County", "ASSOCIATION": "USA - Utah", "POINTS": "4", "BONUSPOINTS": "3"}}, {"type": "Feature", "geometry": {"type": "Point", "coordinates": [-111.2708, 38.3181]}, "properties": {"NAME": "W7U/WY-020", "TITLE": "6820", "REGION": "Wayne County", "ASSOCIATION": "USA - Utah", "POINTS": "4", "BONUSPOINTS": "3"}}, {"type": "Feature", "geometry": {"type": "Point", "coordinates": [-110.1124, 38.1562]}, "properties": {"NAME": "W7U/WY-021", "TITLE": "Bagpipe Butte", "REGION": "Wayne County", "ASSOCIATION": "USA - Utah", "POINTS": "4", "BONUSPOINTS": "3"}}, {"type": "Feature", "geometry": {"type": "Point", "coordinates": [-110.0376, 38.2172]}, "properties": {"NAME": "W7U/WY-022", "TITLE": "Elaterite Butte", "REGION": "Wayne County", "ASSOCIATION": "USA - Utah", "POINTS": "4", "BONUSPOINTS": "3"}}, {"type": "Feature", "geometry": {"type": "Point", "coordinates": [-110.0795, 38.3031]}, "properties": {"NAME": "W7U/WY-023", "TITLE": "Cleopatras Chair", "REGION": "Wayne County", "ASSOCIATION": "USA - Utah", "POINTS": "4", "BONUSPOINTS": "3"}}, {"type": "Feature", "geometry": {"type": "Point", "coordinates": [-111.2424, 38.2724]}, "properties": {"NAME": "W7U/WY-024", "TITLE": "6500", "REGION": "Wayne County", "ASSOCIATION": "USA - Utah", "POINTS": "2", "BONUSPOINTS": "3"}}, {"type": "Feature", "geometry": {"type": "Point", "coordinates": [-111.2277, 38.2985]}, "properties": {"NAME": "W7U/WY-025", "TITLE": "6485", "REGION": "Wayne County", "ASSOCIATION": "USA - Utah", "POINTS": "2", "BONUSPOINTS": "3"}}, {"type": "Feature", "geometry": {"type": "Point", "coordinates": [-110.9141, 38.4377]}, "properties": {"NAME": "W7U/WY-026", "TITLE": "Factory Butte", "REGION": "Wayne County", "ASSOCIATION": "USA - Utah", "POINTS": "2", "BONUSPOINTS": "3"}}, {"type": "Feature", "geometry": {"type": "Point", "coordinates": [-111.1137, 38.4685]}, "properties": {"NAME": "W7U/WY-027", "TITLE": "Black Mountain", "REGION": "Wayne County", "ASSOCIATION": "USA - Utah", "POINTS": "2", "BONUSPOINTS": "3"}}, {"type": "Feature", "geometry": {"type": "Point", "coordinates": [-110.0209, 38.2825]}, "properties": {"NAME": "W7U/WY-028", "TITLE": "6227", "REGION": "Wayne County", "ASSOCIATION": "USA - Utah", "POINTS": "2", "BONUSPOINTS": "3"}}, {"type": "Feature", "geometry": {"type": "Point", "coordinates": [-109.9838, 38.2864]}, "properties": {"NAME": "W7U/WY-029", "TITLE": "Ekker Butte", "REGION": "Wayne County", "ASSOCIATION": "USA - Utah", "POINTS": "2", "BONUSPOINTS": "3"}}, {"type": "Feature", "geometry": {"type": "Point", "coordinates": [-111.2193, 38.4019]}, "properties": {"NAME": "W7U/WY-030", "TITLE": "Jailhouse Rock", "REGION": "Wayne County", "ASSOCIATION": "USA - Utah", "POINTS": "2", "BONUSPOINTS": "0"}}, {"type": "Feature", "geometry": {"type": "Point", "coordinates": [-110.9625, 38.4044]}, "properties": {"NAME": "W7U/WY-031", "TITLE": "North Caineville Mesa", "REGION": "Wayne County", "ASSOCIATION": "USA - Utah", "POINTS": "2", "BONUSPOINTS": "0"}}, {"type": "Feature", "geometry": {"type": "Point", "coordinates": [-111.025, 38.2146]}, "properties": {"NAME": "W7U/WY-032", "TITLE": "Thompson Mesa", "REGION": "Wayne County", "ASSOCIATION": "USA - Utah", "POINTS": "2", "BONUSPOINTS": "0"}}, {"type": "Feature", "geometry": {"type": "Point", "coordinates": [-110.941, 38.3314]}, "properties": {"NAME": "W7U/WY-033", "TITLE": "South Caineville Mesa", "REGION": "Wayne County", "ASSOCIATION": "USA - Utah", "POINTS": "2", "BONUSPOINTS": "0"}}, {"type": "Feature", "geometry": {"type": "Point", "coordinates": [-111.0918, 38.3508]}, "properties": {"NAME": "W7U/WY-034", "TITLE": "Black Benchmark", "REGION": "Wayne County", "ASSOCIATION": "USA - Utah", "POINTS": "2", "BONUSPOINTS": "0"}}, {"type": "Feature", "geometry": {"type": "Point", "coordinates": [-110.0519, 38.3403]}, "properties": {"NAME": "W7U/WY-035", "TITLE": "5820", "REGION": "Wayne County", "ASSOCIATION": "USA - Utah", "POINTS": "2", "BONUSPOINTS": "0"}}, {"type": "Feature", "geometry": {"type": "Point", "coordinates": [-110.054, 38.363]}, "properties": {"NAME": "W7U/WY-036", "TITLE": "Buttes of The Cross South", "REGION": "Wayne County", "ASSOCIATION": "USA - Utah", "POINTS": "2", "BONUSPOINTS": "0"}}, {"type": "Feature", "geometry": {"type": "Point", "coordinates": [-110.4607, 38.1627]}, "properties": {"NAME": "W7U/WY-037", "TITLE": "Burr Point", "REGION": "Wayne County", "ASSOCIATION": "USA - Utah", "POINTS": "2", "BONUSPOINTS": "0"}}, {"type": "Feature", "geometry": {"type": "Point", "coordinates": [-110.0483, 38.3703]}, "properties": {"NAME": "W7U/WY-038", "TITLE": "Buttes of The Cross North", "REGION": "Wayne County", "ASSOCIATION": "USA - Utah", "POINTS": "2", "BONUSPOINTS": "0"}}, {"type": "Feature", "geometry": {"type": "Point", "coordinates": [-110.4869, 38.2762]}, "properties": {"NAME": "W7U/WY-039", "TITLE": "5180", "REGION": "Wayne County", "ASSOCIATION": "USA - Utah", "POINTS": "1", "BONUSPOINTS": "0"}}]}