{"type": "FeatureCollection", "name": "W7U/CA SUMMITS", "features": [{"type": "Feature", "geometry": {"type": "Point", "coordinates": [-111.6962, 41.9232]}, "properties": {"NAME": "W7U/CA-001", "TITLE": "Cherry Peak", "REGION": "Cache County", "ASSOCIATION": "USA - Utah", "POINTS": "8", "BONUSPOINTS": "3"}}, {"type": "Feature", "geometry": {"type": "Point", "coordinates": [-111.655, 41.9311]}, "properties": {"NAME": "W7U/CA-002", "TITLE": "Gog, Mount", "REGION": "Cache County", "ASSOCIATION": "USA - Utah", "POINTS": "8", "BONUSPOINTS": "3"}}, {"type": "Feature", "geometry": {"type": "Point", "coordinates": [-111.688, 41.8532]}, "properties": {"NAME": "W7U/CA-003", "TITLE": "Elmer, Mount", "REGION": "Cache County", "ASSOCIATION": "USA - Utah", "POINTS": "8", "BONUSPOINTS": "3"}}, {"type": "Feature", "geometry": {"type": "Point", "coordinates": [-111.7168, 41.8492]}, "properties": {"NAME": "W7U/CA-004", "TITLE": "9539", "REGION": "Cache County", "ASSOCIATION": "USA - Utah", "POINTS": "8", "BONUSPOINTS": "3"}}, {"type": "Feature", "geometry": {"type": "Point", "coordinates": [-111.7165, 41.6766]}, "properties": {"NAME": "W7U/CA-005", "TITLE": "Millville Peak", "REGION": "Cache County", "ASSOCIATION": "USA - Utah", "POINTS": "8", "BONUSPOINTS": "3"}}, {"type": "Feature", "geometry": {"type": "Point", "coordinates": [-111.5083, 41.9942]}, "properties": {"NAME": "W7U/CA-006", "TITLE": "9161", "REGION": "Cache County", "ASSOCIATION": "USA - Utah", "POINTS": "8", "BONUSPOINTS": "3"}}, {"type": "Feature", "geometry": {"type": "Point", "coordinates": [-111.764, 41.3695]}, "properties": {"NAME": "W7U/CA-007", "TITLE": "8900", "REGION": "Cache County", "ASSOCIATION": "USA - Utah", "POINTS": "6", "BONUSPOINTS": "3"}}, {"type": "Feature", "geometry": {"type": "Point", "coordinates": [-111.5579, 41.964]}, "properties": {"NAME": "W7U/CA-008", "TITLE": "Beaver Mountain", "REGION": "Cache County", "ASSOCIATION": "USA - Utah", "POINTS": "6", "BONUSPOINTS": "3"}}, {"type": "Feature", "geometry": {"type": "Point", "coordinates": [-111.5319, 41.9186]}, "properties": {"NAME": "W7U/CA-009", "TITLE": "8815", "REGION": "Cache County", "ASSOCIATION": "USA - Utah", "POINTS": "6", "BONUSPOINTS": "3"}}, {"type": "Feature", "geometry": {"type": "Point", "coordinates": [-111.6972, 41.5431]}, "properties": {"NAME": "W7U/CA-010", "TITLE": "8529", "REGION": "Cache County", "ASSOCIATION": "USA - Utah", "POINTS": "6", "BONUSPOINTS": "3"}}, {"type": "Feature", "geometry": {"type": "Point", "coordinates": [-111.7588, 41.6382]}, "properties": {"NAME": "W7U/CA-011", "TITLE": "8455", "REGION": "Cache County", "ASSOCIATION": "USA - Utah", "POINTS": "6", "BONUSPOINTS": "3"}}, {"type": "Feature", "geometry": {"type": "Point", "coordinates": [-111.7264, 41.6011]}, "properties": {"NAME": "W7U/CA-012", "TITLE": "8258", "REGION": "Cache County", "ASSOCIATION": "USA - Utah", "POINTS": "6", "BONUSPOINTS": "3"}}, {"type": "Feature", "geometry": {"type": "Point", "coordinates": [-111.7583, 41.5677]}, "properties": {"NAME": "W7U/CA-013", "TITLE": "7925", "REGION": "Cache County", "ASSOCIATION": "USA - Utah", "POINTS": "6", "BONUSPOINTS": "3"}}, {"type": "Feature", "geometry": {"type": "Point", "coordinates": [-111.7361, 41.5682]}, "properties": {"NAME": "W7U/CA-014", "TITLE": "7775", "REGION": "Cache County", "ASSOCIATION": "USA - Utah", "POINTS": "6", "BONUSPOINTS": "3"}}, {"type": "Feature", "geometry": {"type": "Point", "coordinates": [-111.5026, 41.6977]}, "properties": {"NAME": "W7U/CA-015", "TITLE": "7588", "REGION": "Cache County", "ASSOCIATION": "USA - Utah", "POINTS": "6", "BONUSPOINTS": "3"}}, {"type": "Feature", "geometry": {"type": "Point", "coordinates": [-111.6781, 41.6437]}, "properties": {"NAME": "W7U/CA-016", "TITLE": "Mahogany Range", "REGION": "Cache County", "ASSOCIATION": "USA - Utah", "POINTS": "6", "BONUSPOINTS": "3"}}, {"type": "Feature", "geometry": {"type": "Point", "coordinates": [-111.8718, 41.4398]}, "properties": {"NAME": "W7U/CA-017", "TITLE": "7536", "REGION": "Cache County", "ASSOCIATION": "USA - Utah", "POINTS": "6", "BONUSPOINTS": "3"}}, {"type": "Feature", "geometry": {"type": "Point", "coordinates": [-111.7604, 41.7601]}, "properties": {"NAME": "W7U/CA-018", "TITLE": "7475", "REGION": "Cache County", "ASSOCIATION": "USA - Utah", "POINTS": "4", "BONUSPOINTS": "3"}}, {"type": "Feature", "geometry": {"type": "Point", "coordinates": [-111.637, 41.8155]}, "properties": {"NAME": "W7U/CA-019", "TITLE": "7427", "REGION": "Cache County", "ASSOCIATION": "USA - Utah", "POINTS": "4", "BONUSPOINTS": "3"}}, {"type": "Feature", "geometry": {"type": "Point", "coordinates": [-111.8767, 41.4637]}, "properties": {"NAME": "W7U/CA-020", "TITLE": "Alex Beard Hill", "REGION": "Cache County", "ASSOCIATION": "USA - Utah", "POINTS": "4", "BONUSPOINTS": "3"}}, {"type": "Feature", "geometry": {"type": "Point", "coordinates": [-111.7642, 41.5398]}, "properties": {"NAME": "W7U/CA-021", "TITLE": "7147", "REGION": "Cache County", "ASSOCIATION": "USA - Utah", "POINTS": "4", "BONUSPOINTS": "3"}}, {"type": "Feature", "geometry": {"type": "Point", "coordinates": [-111.8102, 41.4459]}, "properties": {"NAME": "W7U/CA-022", "TITLE": "Middle Mountain", "REGION": "Cache County", "ASSOCIATION": "USA - Utah", "POINTS": "4", "BONUSPOINTS": "3"}}, {"type": "Feature", "geometry": {"type": "Point", "coordinates": [-111.7667, 41.4898]}, "properties": {"NAME": "W7U/CA-023", "TITLE": "McKenzie Mountain", "REGION": "Cache County", "ASSOCIATION": "USA - Utah", "POINTS": "4", "BONUSPOINTS": "3"}}, {"type": "Feature", "geometry": {"type": "Point", "coordinates": [-111.6344, 41.7916]}, "properties": {"NAME": "W7U/CA-024", "TITLE": "6992", "REGION": "Cache County", "ASSOCIATION": "USA - Utah", "POINTS": "4", "BONUSPOINTS": "3"}}, {"type": "Feature", "geometry": {"type": "Point", "coordinates": [-111.9144, 41.5361]}, "properties": {"NAME": "W7U/CA-025", "TITLE": "6941", "REGION": "Cache County", "ASSOCIATION": "USA - Utah", "POINTS": "4", "BONUSPOINTS": "3"}}, {"type": "Feature", "geometry": {"type": "Point", "coordinates": [-111.8818, 41.5027]}, "properties": {"NAME": "W7U/CA-026", "TITLE": "Rattler Benchmark", "REGION": "Cache County", "ASSOCIATION": "USA - Utah", "POINTS": "4", "BONUSPOINTS": "3"}}, {"type": "Feature", "geometry": {"type": "Point", "coordinates": [-111.9048, 41.5151]}, "properties": {"NAME": "W7U/CA-027", "TITLE": "6873", "REGION": "Cache County", "ASSOCIATION": "USA - Utah", "POINTS": "4", "BONUSPOINTS": "3"}}, {"type": "Feature", "geometry": {"type": "Point", "coordinates": [-111.9631, 41.5817]}, "properties": {"NAME": "W7U/CA-028", "TITLE": "Babbit Shanty Hill", "REGION": "Cache County", "ASSOCIATION": "USA - Utah", "POINTS": "2", "BONUSPOINTS": "3"}}, {"type": "Feature", "geometry": {"type": "Point", "coordinates": [-112.0003, 41.9938]}, "properties": {"NAME": "W7U/CA-029", "TITLE": "Bergeson Hill", "REGION": "Cache County", "ASSOCIATION": "USA - Utah", "POINTS": "2", "BONUSPOINTS": "0"}}, {"type": "Feature", "geometry": {"type": "Point", "coordinates": [-111.9616, 41.8972]}, "properties": {"NAME": "W7U/CA-030", "TITLE": "Little Mountain", "REGION": "Cache County", "ASSOCIATION": "USA - Utah", "POINTS": "2", "BONUSPOINTS": "0"}}]}