{"type": "FeatureCollection", "name": "W7U/DU SUMMITS", "features": [{"type": "Feature", "geometry": {"type": "Point", "coordinates": [-110.3392, 40.7356]}, "properties": {"NAME": "W7U/DU-001", "TITLE": "Roberts Peak", "REGION": "Duchesne County", "ASSOCIATION": "USA - Utah", "POINTS": "10", "BONUSPOINTS": "3"}}, {"type": "Feature", "geometry": {"type": "Point", "coordinates": [-110.3898, 40.7878]}, "properties": {"NAME": "W7U/DU-002", "TITLE": "Henrys Fork Peak", "REGION": "Duchesne County", "ASSOCIATION": "USA - Utah", "POINTS": "10", "BONUSPOINTS": "3"}}, {"type": "Feature", "geometry": {"type": "Point", "coordinates": [-110.462, 40.7758]}, "properties": {"NAME": "W7U/DU-003", "TITLE": "Wilson Peak", "REGION": "Duchesne County", "ASSOCIATION": "USA - Utah", "POINTS": "10", "BONUSPOINTS": "3"}}, {"type": "Feature", "geometry": {"type": "Point", "coordinates": [-110.5831, 40.7625]}, "properties": {"NAME": "W7U/DU-004", "TITLE": "East Lovenia", "REGION": "Duchesne County", "ASSOCIATION": "USA - Utah", "POINTS": "10", "BONUSPOINTS": "3"}}, {"type": "Feature", "geometry": {"type": "Point", "coordinates": [-110.4735, 40.7617]}, "properties": {"NAME": "W7U/DU-005", "TITLE": "Porcupine Mountain", "REGION": "Duchesne County", "ASSOCIATION": "USA - Utah", "POINTS": "10", "BONUSPOINTS": "3"}}, {"type": "Feature", "geometry": {"type": "Point", "coordinates": [-110.6432, 40.7003]}, "properties": {"NAME": "W7U/DU-006", "TITLE": "Squaw Peak", "REGION": "Duchesne County", "ASSOCIATION": "USA - Utah", "POINTS": "10", "BONUSPOINTS": "3"}}, {"type": "Feature", "geometry": {"type": "Point", "coordinates": [-110.6441, 40.7183]}, "properties": {"NAME": "W7U/DU-007", "TITLE": "Explorer Peak", "REGION": "Duchesne County", "ASSOCIATION": "USA - Utah", "POINTS": "10", "BONUSPOINTS": "3"}}, {"type": "Feature", "geometry": {"type": "Point", "coordinates": [-110.5057, 40.7335]}, "properties": {"NAME": "W7U/DU-008", "TITLE": "Stone Benchmark", "REGION": "Duchesne County", "ASSOCIATION": "USA - Utah", "POINTS": "10", "BONUSPOINTS": "3"}}, {"type": "Feature", "geometry": {"type": "Point", "coordinates": [-110.7131, 40.7526]}, "properties": {"NAME": "W7U/DU-009", "TITLE": "Yard Peak", "REGION": "Duchesne County", "ASSOCIATION": "USA - Utah", "POINTS": "10", "BONUSPOINTS": "3"}}, {"type": "Feature", "geometry": {"type": "Point", "coordinates": [-110.1078, 40.8094]}, "properties": {"NAME": "W7U/DU-010", "TITLE": "East Burnt Fork Peak", "REGION": "Duchesne County", "ASSOCIATION": "USA - Utah", "POINTS": "10", "BONUSPOINTS": "3"}}, {"type": "Feature", "geometry": {"type": "Point", "coordinates": [-110.6925, 40.7433]}, "properties": {"NAME": "W7U/DU-011", "TITLE": "Dead Horse Peak", "REGION": "Duchesne County", "ASSOCIATION": "USA - Utah", "POINTS": "10", "BONUSPOINTS": "3"}}, {"type": "Feature", "geometry": {"type": "Point", "coordinates": [-110.6469, 40.7494]}, "properties": {"NAME": "W7U/DU-012", "TITLE": "Meadow Peak", "REGION": "Duchesne County", "ASSOCIATION": "USA - Utah", "POINTS": "10", "BONUSPOINTS": "3"}}, {"type": "Feature", "geometry": {"type": "Point", "coordinates": [-110.1359, 40.7652]}, "properties": {"NAME": "W7U/DU-013", "TITLE": "Cleave Peak", "REGION": "Duchesne County", "ASSOCIATION": "USA - Utah", "POINTS": "10", "BONUSPOINTS": "3"}}, {"type": "Feature", "geometry": {"type": "Point", "coordinates": [-110.2886, 40.7605]}, "properties": {"NAME": "W7U/DU-014", "TITLE": "Val Benchmark", "REGION": "Duchesne County", "ASSOCIATION": "USA - Utah", "POINTS": "10", "BONUSPOINTS": "3"}}, {"type": "Feature", "geometry": {"type": "Point", "coordinates": [-110.8243, 40.7112]}, "properties": {"NAME": "W7U/DU-015", "TITLE": "Agassiz, Mount", "REGION": "Duchesne County", "ASSOCIATION": "USA - Utah", "POINTS": "10", "BONUSPOINTS": "3"}}, {"type": "Feature", "geometry": {"type": "Point", "coordinates": [-110.1189, 40.7217]}, "properties": {"NAME": "W7U/DU-016", "TITLE": "West Clover Mountain", "REGION": "Duchesne County", "ASSOCIATION": "USA - Utah", "POINTS": "10", "BONUSPOINTS": "3"}}, {"type": "Feature", "geometry": {"type": "Point", "coordinates": [-110.3935, 40.682]}, "properties": {"NAME": "W7U/DU-017", "TITLE": "Paul Benchmark", "REGION": "Duchesne County", "ASSOCIATION": "USA - Utah", "POINTS": "10", "BONUSPOINTS": "3"}}, {"type": "Feature", "geometry": {"type": "Point", "coordinates": [-110.1306, 40.7822]}, "properties": {"NAME": "W7U/DU-018", "TITLE": "Fox Peak", "REGION": "Duchesne County", "ASSOCIATION": "USA - Utah", "POINTS": "10", "BONUSPOINTS": "3"}}, {"type": "Feature", "geometry": {"type": "Point", "coordinates": [-110.9032, 40.699]}, "properties": {"NAME": "W7U/DU-019", "TITLE": "Bald Mountain", "REGION": "Duchesne County", "ASSOCIATION": "USA - Utah", "POINTS": "10", "BONUSPOINTS": "3"}}, {"type": "Feature", "geometry": {"type": "Point", "coordinates": [-110.4372, 40.7313]}, "properties": {"NAME": "W7U/DU-020", "TITLE": "Yellow Benchmark", "REGION": "Duchesne County", "ASSOCIATION": "USA - Utah", "POINTS": "10", "BONUSPOINTS": "3"}}, {"type": "Feature", "geometry": {"type": "Point", "coordinates": [-110.6191, 40.6366]}, "properties": {"NAME": "W7U/DU-021", "TITLE": "Brown Duck Mountain", "REGION": "Duchesne County", "ASSOCIATION": "USA - Utah", "POINTS": "10", "BONUSPOINTS": "3"}}, {"type": "Feature", "geometry": {"type": "Point", "coordinates": [-110.173, 40.7506]}, "properties": {"NAME": "W7U/DU-022", "TITLE": "11839", "REGION": "Duchesne County", "ASSOCIATION": "USA - Utah", "POINTS": "10", "BONUSPOINTS": "3"}}, {"type": "Feature", "geometry": {"type": "Point", "coordinates": [-110.7867, 40.5907]}, "properties": {"NAME": "W7U/DU-023", "TITLE": "East Grandaddy Mountain", "REGION": "Duchesne County", "ASSOCIATION": "USA - Utah", "POINTS": "10", "BONUSPOINTS": "3"}}, {"type": "Feature", "geometry": {"type": "Point", "coordinates": [-110.6384, 40.5963]}, "properties": {"NAME": "W7U/DU-024", "TITLE": "11649", "REGION": "Duchesne County", "ASSOCIATION": "USA - Utah", "POINTS": "10", "BONUSPOINTS": "3"}}, {"type": "Feature", "geometry": {"type": "Point", "coordinates": [-110.3904, 40.6524]}, "properties": {"NAME": "W7U/DU-025", "TITLE": "11611", "REGION": "Duchesne County", "ASSOCIATION": "USA - Utah", "POINTS": "10", "BONUSPOINTS": "3"}}, {"type": "Feature", "geometry": {"type": "Point", "coordinates": [-110.8309, 40.5968]}, "properties": {"NAME": "W7U/DU-026", "TITLE": "West Grandaddy Mountain", "REGION": "Duchesne County", "ASSOCIATION": "USA - Utah", "POINTS": "10", "BONUSPOINTS": "3"}}, {"type": "Feature", "geometry": {"type": "Point", "coordinates": [-110.7295, 40.5237]}, "properties": {"NAME": "W7U/DU-027", "TITLE": "Blind Stream Benchmark", "REGION": "Duchesne County", "ASSOCIATION": "USA - Utah", "POINTS": "10", "BONUSPOINTS": "3"}}, {"type": "Feature", "geometry": {"type": "Point", "coordinates": [-110.8348, 40.6436]}, "properties": {"NAME": "W7U/DU-028", "TITLE": "11140", "REGION": "Duchesne County", "ASSOCIATION": "USA - Utah", "POINTS": "10", "BONUSPOINTS": "3"}}, {"type": "Feature", "geometry": {"type": "Point", "coordinates": [-110.6668, 40.5025]}, "properties": {"NAME": "W7U/DU-029", "TITLE": "Big Ridge", "REGION": "Duchesne County", "ASSOCIATION": "USA - Utah", "POINTS": "10", "BONUSPOINTS": "3"}}, {"type": "Feature", "geometry": {"type": "Point", "coordinates": [-110.4551, 40.5768]}, "properties": {"NAME": "W7U/DU-030", "TITLE": "Lake Fork Mountain", "REGION": "Duchesne County", "ASSOCIATION": "USA - Utah", "POINTS": "10", "BONUSPOINTS": "3"}}, {"type": "Feature", "geometry": {"type": "Point", "coordinates": [-110.6987, 40.5248]}, "properties": {"NAME": "W7U/DU-031", "TITLE": "10906", "REGION": "Duchesne County", "ASSOCIATION": "USA - Utah", "POINTS": "10", "BONUSPOINTS": "3"}}, {"type": "Feature", "geometry": {"type": "Point", "coordinates": [-110.883, 40.4942]}, "properties": {"NAME": "W7U/DU-032", "TITLE": "Lightning Ridge", "REGION": "Duchesne County", "ASSOCIATION": "USA - Utah", "POINTS": "8", "BONUSPOINTS": "3"}}, {"type": "Feature", "geometry": {"type": "Point", "coordinates": [-110.6125, 40.4218]}, "properties": {"NAME": "W7U/DU-033", "TITLE": "Dry Mountain", "REGION": "Duchesne County", "ASSOCIATION": "USA - Utah", "POINTS": "8", "BONUSPOINTS": "3"}}, {"type": "Feature", "geometry": {"type": "Point", "coordinates": [-110.7098, 39.9668]}, "properties": {"NAME": "W7U/DU-034", "TITLE": "Gray Head Benchmark", "REGION": "Duchesne County", "ASSOCIATION": "USA - Utah", "POINTS": "8", "BONUSPOINTS": "3"}}, {"type": "Feature", "geometry": {"type": "Point", "coordinates": [-110.758, 39.9453]}, "properties": {"NAME": "W7U/DU-035", "TITLE": "Gray Head Peak", "REGION": "Duchesne County", "ASSOCIATION": "USA - Utah", "POINTS": "8", "BONUSPOINTS": "3"}}, {"type": "Feature", "geometry": {"type": "Point", "coordinates": [-110.5603, 39.8928]}, "properties": {"NAME": "W7U/DU-036", "TITLE": "9461", "REGION": "Duchesne County", "ASSOCIATION": "USA - Utah", "POINTS": "8", "BONUSPOINTS": "3"}}, {"type": "Feature", "geometry": {"type": "Point", "coordinates": [-110.6648, 39.8647]}, "properties": {"NAME": "W7U/DU-037", "TITLE": "Argyle Ridge", "REGION": "Duchesne County", "ASSOCIATION": "USA - Utah", "POINTS": "8", "BONUSPOINTS": "3"}}, {"type": "Feature", "geometry": {"type": "Point", "coordinates": [-110.8551, 40.0287]}, "properties": {"NAME": "W7U/DU-038", "TITLE": "Long Ridge", "REGION": "Duchesne County", "ASSOCIATION": "USA - Utah", "POINTS": "8", "BONUSPOINTS": "3"}}, {"type": "Feature", "geometry": {"type": "Point", "coordinates": [-110.5906, 39.8399]}, "properties": {"NAME": "W7U/DU-039", "TITLE": "9446", "REGION": "Duchesne County", "ASSOCIATION": "USA - Utah", "POINTS": "8", "BONUSPOINTS": "3"}}, {"type": "Feature", "geometry": {"type": "Point", "coordinates": [-110.6433, 39.9106]}, "properties": {"NAME": "W7U/DU-040", "TITLE": "9445", "REGION": "Duchesne County", "ASSOCIATION": "USA - Utah", "POINTS": "8", "BONUSPOINTS": "3"}}, {"type": "Feature", "geometry": {"type": "Point", "coordinates": [-110.6922, 39.9353]}, "properties": {"NAME": "W7U/DU-041", "TITLE": "9323", "REGION": "Duchesne County", "ASSOCIATION": "USA - Utah", "POINTS": "8", "BONUSPOINTS": "3"}}, {"type": "Feature", "geometry": {"type": "Point", "coordinates": [-110.6573, 39.9666]}, "properties": {"NAME": "W7U/DU-042", "TITLE": "9316", "REGION": "Duchesne County", "ASSOCIATION": "USA - Utah", "POINTS": "8", "BONUSPOINTS": "3"}}, {"type": "Feature", "geometry": {"type": "Point", "coordinates": [-110.5076, 39.8883]}, "properties": {"NAME": "W7U/DU-043", "TITLE": "Badlands Benchmark", "REGION": "Duchesne County", "ASSOCIATION": "USA - Utah", "POINTS": "8", "BONUSPOINTS": "3"}}, {"type": "Feature", "geometry": {"type": "Point", "coordinates": [-110.7547, 39.9941]}, "properties": {"NAME": "W7U/DU-044", "TITLE": "Sams Benchmark", "REGION": "Duchesne County", "ASSOCIATION": "USA - Utah", "POINTS": "8", "BONUSPOINTS": "3"}}, {"type": "Feature", "geometry": {"type": "Point", "coordinates": [-110.5941, 39.9003]}, "properties": {"NAME": "W7U/DU-045", "TITLE": "9154", "REGION": "Duchesne County", "ASSOCIATION": "USA - Utah", "POINTS": "8", "BONUSPOINTS": "3"}}, {"type": "Feature", "geometry": {"type": "Point", "coordinates": [-110.8884, 40.4299]}, "properties": {"NAME": "W7U/DU-046", "TITLE": "8860", "REGION": "Duchesne County", "ASSOCIATION": "USA - Utah", "POINTS": "6", "BONUSPOINTS": "3"}}, {"type": "Feature", "geometry": {"type": "Point", "coordinates": [-110.6409, 39.9489]}, "properties": {"NAME": "W7U/DU-047", "TITLE": "8763", "REGION": "Duchesne County", "ASSOCIATION": "USA - Utah", "POINTS": "6", "BONUSPOINTS": "3"}}, {"type": "Feature", "geometry": {"type": "Point", "coordinates": [-110.7386, 40.0301]}, "properties": {"NAME": "W7U/DU-048", "TITLE": "8717", "REGION": "Duchesne County", "ASSOCIATION": "USA - Utah", "POINTS": "6", "BONUSPOINTS": "3"}}, {"type": "Feature", "geometry": {"type": "Point", "coordinates": [-110.7333, 40.0482]}, "properties": {"NAME": "W7U/DU-049", "TITLE": "8569", "REGION": "Duchesne County", "ASSOCIATION": "USA - Utah", "POINTS": "6", "BONUSPOINTS": "3"}}, {"type": "Feature", "geometry": {"type": "Point", "coordinates": [-110.7003, 40.0499]}, "properties": {"NAME": "W7U/DU-050", "TITLE": "8420", "REGION": "Duchesne County", "ASSOCIATION": "USA - Utah", "POINTS": "6", "BONUSPOINTS": "3"}}, {"type": "Feature", "geometry": {"type": "Point", "coordinates": [-110.7292, 40.4364]}, "properties": {"NAME": "W7U/DU-051", "TITLE": "8303", "REGION": "Duchesne County", "ASSOCIATION": "USA - Utah", "POINTS": "6", "BONUSPOINTS": "3"}}, {"type": "Feature", "geometry": {"type": "Point", "coordinates": [-110.5148, 39.9287]}, "properties": {"NAME": "W7U/DU-052", "TITLE": "8300", "REGION": "Duchesne County", "ASSOCIATION": "USA - Utah", "POINTS": "6", "BONUSPOINTS": "3"}}, {"type": "Feature", "geometry": {"type": "Point", "coordinates": [-110.4343, 40.5215]}, "properties": {"NAME": "W7U/DU-053", "TITLE": "8149", "REGION": "Duchesne County", "ASSOCIATION": "USA - Utah", "POINTS": "6", "BONUSPOINTS": "3"}}, {"type": "Feature", "geometry": {"type": "Point", "coordinates": [-110.6037, 40.2671]}, "properties": {"NAME": "W7U/DU-054", "TITLE": "Blacktail Mountain", "REGION": "Duchesne County", "ASSOCIATION": "USA - Utah", "POINTS": "6", "BONUSPOINTS": "3"}}, {"type": "Feature", "geometry": {"type": "Point", "coordinates": [-110.7302, 40.16]}, "properties": {"NAME": "W7U/DU-055", "TITLE": "Cedar Mountain", "REGION": "Duchesne County", "ASSOCIATION": "USA - Utah", "POINTS": "6", "BONUSPOINTS": "3"}}]}