{"type": "FeatureCollection", "name": "W7U/PI SUMMITS", "features": [{"type": "Feature", "geometry": {"type": "Point", "coordinates": [-112.3356, 38.3852]}, "properties": {"NAME": "W7U/PI-001", "TITLE": "Brigham, Mount", "REGION": "Piute County", "ASSOCIATION": "USA - Utah", "POINTS": "10", "BONUSPOINTS": "3"}}, {"type": "Feature", "geometry": {"type": "Point", "coordinates": [-112.3717, 38.4159]}, "properties": {"NAME": "W7U/PI-002", "TITLE": "11673", "REGION": "Piute County", "ASSOCIATION": "USA - Utah", "POINTS": "10", "BONUSPOINTS": "3"}}, {"type": "Feature", "geometry": {"type": "Point", "coordinates": [-112.3938, 38.4425]}, "properties": {"NAME": "W7U/PI-003", "TITLE": "Gold Mountain", "REGION": "Piute County", "ASSOCIATION": "USA - Utah", "POINTS": "10", "BONUSPOINTS": "3"}}, {"type": "Feature", "geometry": {"type": "Point", "coordinates": [-112.1014, 38.4833]}, "properties": {"NAME": "W7U/PI-004", "TITLE": "10940", "REGION": "Piute County", "ASSOCIATION": "USA - Utah", "POINTS": "10", "BONUSPOINTS": "3"}}, {"type": "Feature", "geometry": {"type": "Point", "coordinates": [-112.3608, 38.4829]}, "properties": {"NAME": "W7U/PI-005", "TITLE": "10320", "REGION": "Piute County", "ASSOCIATION": "USA - Utah", "POINTS": "8", "BONUSPOINTS": "3"}}, {"type": "Feature", "geometry": {"type": "Point", "coordinates": [-112.0766, 38.4011]}, "properties": {"NAME": "W7U/PI-006", "TITLE": "Big Table", "REGION": "Piute County", "ASSOCIATION": "USA - Utah", "POINTS": "8", "BONUSPOINTS": "3"}}, {"type": "Feature", "geometry": {"type": "Point", "coordinates": [-111.8887, 38.3259]}, "properties": {"NAME": "W7U/PI-007", "TITLE": "Parker Mountain", "REGION": "Piute County", "ASSOCIATION": "USA - Utah", "POINTS": "8", "BONUSPOINTS": "3"}}, {"type": "Feature", "geometry": {"type": "Point", "coordinates": [-112.0869, 38.2533]}, "properties": {"NAME": "W7U/PI-008", "TITLE": "Forshea Mountain", "REGION": "Piute County", "ASSOCIATION": "USA - Utah", "POINTS": "8", "BONUSPOINTS": "3"}}, {"type": "Feature", "geometry": {"type": "Point", "coordinates": [-112.0554, 38.333]}, "properties": {"NAME": "W7U/PI-009", "TITLE": "9755", "REGION": "Piute County", "ASSOCIATION": "USA - Utah", "POINTS": "8", "BONUSPOINTS": "3"}}, {"type": "Feature", "geometry": {"type": "Point", "coordinates": [-112.3288, 38.5003]}, "properties": {"NAME": "W7U/PI-010", "TITLE": "9700", "REGION": "Piute County", "ASSOCIATION": "USA - Utah", "POINTS": "8", "BONUSPOINTS": "3"}}, {"type": "Feature", "geometry": {"type": "Point", "coordinates": [-112.3309, 38.4758]}, "properties": {"NAME": "W7U/PI-011", "TITLE": "9432", "REGION": "Piute County", "ASSOCIATION": "USA - Utah", "POINTS": "8", "BONUSPOINTS": "3"}}, {"type": "Feature", "geometry": {"type": "Point", "coordinates": [-112.4441, 38.4719]}, "properties": {"NAME": "W7U/PI-012", "TITLE": "Hogback", "REGION": "Piute County", "ASSOCIATION": "USA - Utah", "POINTS": "8", "BONUSPOINTS": "3"}}, {"type": "Feature", "geometry": {"type": "Point", "coordinates": [-112.2793, 38.2804]}, "properties": {"NAME": "W7U/PI-013", "TITLE": "8750", "REGION": "Piute County", "ASSOCIATION": "USA - Utah", "POINTS": "6", "BONUSPOINTS": "3"}}, {"type": "Feature", "geometry": {"type": "Point", "coordinates": [-112.1548, 38.2737]}, "properties": {"NAME": "W7U/PI-014", "TITLE": "8582", "REGION": "Piute County", "ASSOCIATION": "USA - Utah", "POINTS": "6", "BONUSPOINTS": "3"}}, {"type": "Feature", "geometry": {"type": "Point", "coordinates": [-112.0841, 38.1953]}, "properties": {"NAME": "W7U/PI-015", "TITLE": "Phonolite Hill", "REGION": "Piute County", "ASSOCIATION": "USA - Utah", "POINTS": "6", "BONUSPOINTS": "3"}}, {"type": "Feature", "geometry": {"type": "Point", "coordinates": [-112.1976, 38.5073]}, "properties": {"NAME": "W7U/PI-016", "TITLE": "Flattop Benchmark", "REGION": "Piute County", "ASSOCIATION": "USA - Utah", "POINTS": "6", "BONUSPOINTS": "3"}}, {"type": "Feature", "geometry": {"type": "Point", "coordinates": [-112.2532, 38.2365]}, "properties": {"NAME": "W7U/PI-017", "TITLE": "Junction Benchmark", "REGION": "Piute County", "ASSOCIATION": "USA - Utah", "POINTS": "6", "BONUSPOINTS": "3"}}, {"type": "Feature", "geometry": {"type": "Point", "coordinates": [-112.137, 38.2026]}, "properties": {"NAME": "W7U/PI-018", "TITLE": "7381", "REGION": "Piute County", "ASSOCIATION": "USA - Utah", "POINTS": "4", "BONUSPOINTS": "3"}}]}