{"type": "FeatureCollection", "name": "W7U/SM SUMMITS", "features": [{"type": "Feature", "geometry": {"type": "Point", "coordinates": [-110.624, 40.8099]}, "properties": {"NAME": "W7U/SM-001", "TITLE": "Tokewanna Peak", "REGION": "Summit County", "ASSOCIATION": "USA - Utah", "POINTS": "10", "BONUSPOINTS": "3"}}, {"type": "Feature", "geometry": {"type": "Point", "coordinates": [-110.6238, 40.7832]}, "properties": {"NAME": "W7U/SM-002", "TITLE": "Wasatch Benchmark", "REGION": "Summit County", "ASSOCIATION": "USA - Utah", "POINTS": "10", "BONUSPOINTS": "3"}}, {"type": "Feature", "geometry": {"type": "Point", "coordinates": [-110.4904, 40.7857]}, "properties": {"NAME": "W7U/SM-003", "TITLE": "Squaw Benchmark", "REGION": "Summit County", "ASSOCIATION": "USA - Utah", "POINTS": "10", "BONUSPOINTS": "3"}}, {"type": "Feature", "geometry": {"type": "Point", "coordinates": [-110.5491, 40.7799]}, "properties": {"NAME": "W7U/SM-004", "TITLE": "Central Blacks Fork Peak", "REGION": "Summit County", "ASSOCIATION": "USA - Utah", "POINTS": "10", "BONUSPOINTS": "3"}}, {"type": "Feature", "geometry": {"type": "Point", "coordinates": [-110.1827, 40.8318]}, "properties": {"NAME": "W7U/SM-005", "TITLE": "South Burro Peak", "REGION": "Summit County", "ASSOCIATION": "USA - Utah", "POINTS": "10", "BONUSPOINTS": "3"}}, {"type": "Feature", "geometry": {"type": "Point", "coordinates": [-110.752, 40.7737]}, "properties": {"NAME": "W7U/SM-006", "TITLE": "Lamotte Peak", "REGION": "Summit County", "ASSOCIATION": "USA - Utah", "POINTS": "10", "BONUSPOINTS": "3"}}, {"type": "Feature", "geometry": {"type": "Point", "coordinates": [-110.7688, 40.7467]}, "properties": {"NAME": "W7U/SM-007", "TITLE": "Ostler Peak", "REGION": "Summit County", "ASSOCIATION": "USA - Utah", "POINTS": "10", "BONUSPOINTS": "3"}}, {"type": "Feature", "geometry": {"type": "Point", "coordinates": [-110.6828, 40.7733]}, "properties": {"NAME": "W7U/SM-008", "TITLE": "North Allsop Peak", "REGION": "Summit County", "ASSOCIATION": "USA - Utah", "POINTS": "10", "BONUSPOINTS": "3"}}, {"type": "Feature", "geometry": {"type": "Point", "coordinates": [-110.682, 40.7937]}, "properties": {"NAME": "W7U/SM-009", "TITLE": "Beulah, Mount", "REGION": "Summit County", "ASSOCIATION": "USA - Utah", "POINTS": "10", "BONUSPOINTS": "3"}}, {"type": "Feature", "geometry": {"type": "Point", "coordinates": [-110.8441, 40.7356]}, "properties": {"NAME": "W7U/SM-010", "TITLE": "Hayden Peak", "REGION": "Summit County", "ASSOCIATION": "USA - Utah", "POINTS": "10", "BONUSPOINTS": "3"}}, {"type": "Feature", "geometry": {"type": "Point", "coordinates": [-110.8332, 40.7681]}, "properties": {"NAME": "W7U/SM-011", "TITLE": "A-1 Peak", "REGION": "Summit County", "ASSOCIATION": "USA - Utah", "POINTS": "10", "BONUSPOINTS": "3"}}, {"type": "Feature", "geometry": {"type": "Point", "coordinates": [-110.8197, 40.744]}, "properties": {"NAME": "W7U/SM-012", "TITLE": "East Hayden Peak", "REGION": "Summit County", "ASSOCIATION": "USA - Utah", "POINTS": "10", "BONUSPOINTS": "3"}}, {"type": "Feature", "geometry": {"type": "Point", "coordinates": [-110.7144, 40.7853]}, "properties": {"NAME": "W7U/SM-013", "TITLE": "North Cathedral", "REGION": "Summit County", "ASSOCIATION": "USA - Utah", "POINTS": "10", "BONUSPOINTS": "3"}}, {"type": "Feature", "geometry": {"type": "Point", "coordinates": [-110.8567, 40.7624]}, "properties": {"NAME": "W7U/SM-014", "TITLE": "Kletting Peak", "REGION": "Summit County", "ASSOCIATION": "USA - Utah", "POINTS": "10", "BONUSPOINTS": "3"}}, {"type": "Feature", "geometry": {"type": "Point", "coordinates": [-110.9125, 40.7066]}, "properties": {"NAME": "W7U/SM-015", "TITLE": "Reids Peak", "REGION": "Summit County", "ASSOCIATION": "USA - Utah", "POINTS": "10", "BONUSPOINTS": "3"}}, {"type": "Feature", "geometry": {"type": "Point", "coordinates": [-110.9799, 40.6984]}, "properties": {"NAME": "W7U/SM-016", "TITLE": "Watson, Mount", "REGION": "Summit County", "ASSOCIATION": "USA - Utah", "POINTS": "10", "BONUSPOINTS": "3"}}, {"type": "Feature", "geometry": {"type": "Point", "coordinates": [-111.0181, 40.6951]}, "properties": {"NAME": "W7U/SM-017", "TITLE": "Long Benchmark", "REGION": "Summit County", "ASSOCIATION": "USA - Utah", "POINTS": "10", "BONUSPOINTS": "3"}}, {"type": "Feature", "geometry": {"type": "Point", "coordinates": [-111.0257, 40.7094]}, "properties": {"NAME": "W7U/SM-018", "TITLE": "11340", "REGION": "Summit County", "ASSOCIATION": "USA - Utah", "POINTS": "10", "BONUSPOINTS": "3"}}, {"type": "Feature", "geometry": {"type": "Point", "coordinates": [-110.9082, 40.7312]}, "properties": {"NAME": "W7U/SM-019", "TITLE": "Marsell, Mount", "REGION": "Summit County", "ASSOCIATION": "USA - Utah", "POINTS": "10", "BONUSPOINTS": "3"}}, {"type": "Feature", "geometry": {"type": "Point", "coordinates": [-110.9482, 40.707]}, "properties": {"NAME": "W7U/SM-020", "TITLE": "Notch Mountain", "REGION": "Summit County", "ASSOCIATION": "USA - Utah", "POINTS": "10", "BONUSPOINTS": "3"}}, {"type": "Feature", "geometry": {"type": "Point", "coordinates": [-111.0301, 40.6844]}, "properties": {"NAME": "W7U/SM-021", "TITLE": "11260", "REGION": "Summit County", "ASSOCIATION": "USA - Utah", "POINTS": "10", "BONUSPOINTS": "3"}}, {"type": "Feature", "geometry": {"type": "Point", "coordinates": [-110.9781, 40.7159]}, "properties": {"NAME": "W7U/SM-022", "TITLE": "11258", "REGION": "Summit County", "ASSOCIATION": "USA - Utah", "POINTS": "10", "BONUSPOINTS": "3"}}, {"type": "Feature", "geometry": {"type": "Point", "coordinates": [-110.7062, 40.87]}, "properties": {"NAME": "W7U/SM-023", "TITLE": "11045", "REGION": "Summit County", "ASSOCIATION": "USA - Utah", "POINTS": "10", "BONUSPOINTS": "3"}}, {"type": "Feature", "geometry": {"type": "Point", "coordinates": [-110.967, 40.7273]}, "properties": {"NAME": "W7U/SM-024", "TITLE": "11027", "REGION": "Summit County", "ASSOCIATION": "USA - Utah", "POINTS": "10", "BONUSPOINTS": "3"}}, {"type": "Feature", "geometry": {"type": "Point", "coordinates": [-110.9545, 40.8098]}, "properties": {"NAME": "W7U/SM-025", "TITLE": "Moffit Peak", "REGION": "Summit County", "ASSOCIATION": "USA - Utah", "POINTS": "10", "BONUSPOINTS": "3"}}, {"type": "Feature", "geometry": {"type": "Point", "coordinates": [-110.9858, 40.6597]}, "properties": {"NAME": "W7U/SM-026", "TITLE": "Haystack Mountain", "REGION": "Summit County", "ASSOCIATION": "USA - Utah", "POINTS": "10", "BONUSPOINTS": "3"}}, {"type": "Feature", "geometry": {"type": "Point", "coordinates": [-110.7677, 40.8394]}, "properties": {"NAME": "W7U/SM-027", "TITLE": "10959", "REGION": "Summit County", "ASSOCIATION": "USA - Utah", "POINTS": "10", "BONUSPOINTS": "3"}}, {"type": "Feature", "geometry": {"type": "Point", "coordinates": [-111.0612, 40.6779]}, "properties": {"NAME": "W7U/SM-028", "TITLE": "Wall Benchmark", "REGION": "Summit County", "ASSOCIATION": "USA - Utah", "POINTS": "10", "BONUSPOINTS": "3"}}, {"type": "Feature", "geometry": {"type": "Point", "coordinates": [-111.0004, 40.87]}, "properties": {"NAME": "W7U/SM-029", "TITLE": "Humpy Peak", "REGION": "Summit County", "ASSOCIATION": "USA - Utah", "POINTS": "10", "BONUSPOINTS": "3"}}, {"type": "Feature", "geometry": {"type": "Point", "coordinates": [-111.0212, 40.844]}, "properties": {"NAME": "W7U/SM-030", "TITLE": "Windy Ridge", "REGION": "Summit County", "ASSOCIATION": "USA - Utah", "POINTS": "10", "BONUSPOINTS": "3"}}, {"type": "Feature", "geometry": {"type": "Point", "coordinates": [-111.0888, 40.8331]}, "properties": {"NAME": "W7U/SM-031", "TITLE": "10700", "REGION": "Summit County", "ASSOCIATION": "USA - Utah", "POINTS": "10", "BONUSPOINTS": "3"}}, {"type": "Feature", "geometry": {"type": "Point", "coordinates": [-111.0959, 40.6905]}, "properties": {"NAME": "W7U/SM-032", "TITLE": "10647", "REGION": "Summit County", "ASSOCIATION": "USA - Utah", "POINTS": "10", "BONUSPOINTS": "3"}}, {"type": "Feature", "geometry": {"type": "Point", "coordinates": [-111.1444, 40.6769]}, "properties": {"NAME": "W7U/SM-033", "TITLE": "Duke Benchmark", "REGION": "Summit County", "ASSOCIATION": "USA - Utah", "POINTS": "10", "BONUSPOINTS": "3"}}, {"type": "Feature", "geometry": {"type": "Point", "coordinates": [-110.9137, 40.8116]}, "properties": {"NAME": "W7U/SM-034", "TITLE": "Gold Hill", "REGION": "Summit County", "ASSOCIATION": "USA - Utah", "POINTS": "10", "BONUSPOINTS": "3"}}, {"type": "Feature", "geometry": {"type": "Point", "coordinates": [-111.055, 40.7746]}, "properties": {"NAME": "W7U/SM-035", "TITLE": "Slader Ridge", "REGION": "Summit County", "ASSOCIATION": "USA - Utah", "POINTS": "8", "BONUSPOINTS": "3"}}, {"type": "Feature", "geometry": {"type": "Point", "coordinates": [-111.1979, 40.6922]}, "properties": {"NAME": "W7U/SM-036", "TITLE": "Hoyt Peak", "REGION": "Summit County", "ASSOCIATION": "USA - Utah", "POINTS": "8", "BONUSPOINTS": "3"}}, {"type": "Feature", "geometry": {"type": "Point", "coordinates": [-111.1256, 40.7637]}, "properties": {"NAME": "W7U/SM-037", "TITLE": "10020", "REGION": "Summit County", "ASSOCIATION": "USA - Utah", "POINTS": "8", "BONUSPOINTS": "3"}}, {"type": "Feature", "geometry": {"type": "Point", "coordinates": [-110.0485, 40.919]}, "properties": {"NAME": "W7U/SM-038", "TITLE": "10014", "REGION": "Summit County", "ASSOCIATION": "USA - Utah", "POINTS": "8", "BONUSPOINTS": "3"}}, {"type": "Feature", "geometry": {"type": "Point", "coordinates": [-110.1278, 40.9376]}, "properties": {"NAME": "W7U/SM-039", "TITLE": "9909", "REGION": "Summit County", "ASSOCIATION": "USA - Utah", "POINTS": "8", "BONUSPOINTS": "3"}}, {"type": "Feature", "geometry": {"type": "Point", "coordinates": [-111.1435, 40.7124]}, "properties": {"NAME": "W7U/SM-040", "TITLE": "9865", "REGION": "Summit County", "ASSOCIATION": "USA - Utah", "POINTS": "8", "BONUSPOINTS": "3"}}, {"type": "Feature", "geometry": {"type": "Point", "coordinates": [-110.1709, 40.9421]}, "properties": {"NAME": "W7U/SM-041", "TITLE": "9398", "REGION": "Summit County", "ASSOCIATION": "USA - Utah", "POINTS": "8", "BONUSPOINTS": "3"}}, {"type": "Feature", "geometry": {"type": "Point", "coordinates": [-111.4865, 40.6013]}, "properties": {"NAME": "W7U/SM-042", "TITLE": "Park Benchmark", "REGION": "Summit County", "ASSOCIATION": "USA - Utah", "POINTS": "8", "BONUSPOINTS": "3"}}, {"type": "Feature", "geometry": {"type": "Point", "coordinates": [-111.1104, 41.018]}, "properties": {"NAME": "W7U/SM-043", "TITLE": "Porcupine Mountain", "REGION": "Summit County", "ASSOCIATION": "USA - Utah", "POINTS": "8", "BONUSPOINTS": "3"}}, {"type": "Feature", "geometry": {"type": "Point", "coordinates": [-111.1729, 40.6104]}, "properties": {"NAME": "W7U/SM-044", "TITLE": "8829", "REGION": "Summit County", "ASSOCIATION": "USA - Utah", "POINTS": "6", "BONUSPOINTS": "3"}}, {"type": "Feature", "geometry": {"type": "Point", "coordinates": [-111.2813, 40.7783]}, "properties": {"NAME": "W7U/SM-045", "TITLE": "Big Piney Mountain", "REGION": "Summit County", "ASSOCIATION": "USA - Utah", "POINTS": "6", "BONUSPOINTS": "3"}}, {"type": "Feature", "geometry": {"type": "Point", "coordinates": [-111.2521, 40.8767]}, "properties": {"NAME": "W7U/SM-046", "TITLE": "Blonquist Benchmark", "REGION": "Summit County", "ASSOCIATION": "USA - Utah", "POINTS": "6", "BONUSPOINTS": "3"}}, {"type": "Feature", "geometry": {"type": "Point", "coordinates": [-111.3744, 40.668]}, "properties": {"NAME": "W7U/SM-047", "TITLE": "7961", "REGION": "Summit County", "ASSOCIATION": "USA - Utah", "POINTS": "6", "BONUSPOINTS": "3"}}, {"type": "Feature", "geometry": {"type": "Point", "coordinates": [-111.3057, 40.9659]}, "properties": {"NAME": "W7U/SM-048", "TITLE": "7930", "REGION": "Summit County", "ASSOCIATION": "USA - Utah", "POINTS": "6", "BONUSPOINTS": "3"}}, {"type": "Feature", "geometry": {"type": "Point", "coordinates": [-111.2671, 41.0169]}, "properties": {"NAME": "W7U/SM-049", "TITLE": "7900", "REGION": "Summit County", "ASSOCIATION": "USA - Utah", "POINTS": "6", "BONUSPOINTS": "3"}}, {"type": "Feature", "geometry": {"type": "Point", "coordinates": [-111.4448, 40.7707]}, "properties": {"NAME": "W7U/SM-050", "TITLE": "7396", "REGION": "Summit County", "ASSOCIATION": "USA - Utah", "POINTS": "4", "BONUSPOINTS": "3"}}, {"type": "Feature", "geometry": {"type": "Point", "coordinates": [-111.4364, 40.6606]}, "properties": {"NAME": "W7U/SM-051", "TITLE": "7384", "REGION": "Summit County", "ASSOCIATION": "USA - Utah", "POINTS": "4", "BONUSPOINTS": "3"}}, {"type": "Feature", "geometry": {"type": "Point", "coordinates": [-111.5112, 40.9978]}, "properties": {"NAME": "W7U/SM-052", "TITLE": "6516", "REGION": "Summit County", "ASSOCIATION": "USA - Utah", "POINTS": "4", "BONUSPOINTS": "3"}}, {"type": "Feature", "geometry": {"type": "Point", "coordinates": [-111.5233, 41.0537]}, "properties": {"NAME": "W7U/SM-053", "TITLE": "6300", "REGION": "Summit County", "ASSOCIATION": "USA - Utah", "POINTS": "2", "BONUSPOINTS": "3"}}]}