{"type": "FeatureCollection", "name": "W7U/CR SUMMITS", "features": [{"type": "Feature", "geometry": {"type": "Point", "coordinates": [-111.176, 39.6144]}, "properties": {"NAME": "W7U/CR-001", "TITLE": "Monument Peak", "REGION": "Carbon County", "ASSOCIATION": "USA - Utah", "POINTS": "8", "BONUSPOINTS": "3"}}, {"type": "Feature", "geometry": {"type": "Point", "coordinates": [-110.3481, 39.6442]}, "properties": {"NAME": "W7U/CR-002", "TITLE": "Bruin Point", "REGION": "Carbon County", "ASSOCIATION": "USA - Utah", "POINTS": "8", "BONUSPOINTS": "3"}}, {"type": "Feature", "geometry": {"type": "Point", "coordinates": [-111.0912, 39.5288]}, "properties": {"NAME": "W7U/CR-003", "TITLE": "Gentry Mountain", "REGION": "Carbon County", "ASSOCIATION": "USA - Utah", "POINTS": "8", "BONUSPOINTS": "3"}}, {"type": "Feature", "geometry": {"type": "Point", "coordinates": [-110.3882, 39.6926]}, "properties": {"NAME": "W7U/CR-004", "TITLE": "9980", "REGION": "Carbon County", "ASSOCIATION": "USA - Utah", "POINTS": "8", "BONUSPOINTS": "3"}}, {"type": "Feature", "geometry": {"type": "Point", "coordinates": [-110.3201, 39.5158]}, "properties": {"NAME": "W7U/CR-005", "TITLE": "Patmos Logical Benchmark", "REGION": "Carbon County", "ASSOCIATION": "USA - Utah", "POINTS": "8", "BONUSPOINTS": "3"}}, {"type": "Feature", "geometry": {"type": "Point", "coordinates": [-111.0258, 39.7181]}, "properties": {"NAME": "W7U/CR-006", "TITLE": "9320", "REGION": "Carbon County", "ASSOCIATION": "USA - Utah", "POINTS": "8", "BONUSPOINTS": "3"}}, {"type": "Feature", "geometry": {"type": "Point", "coordinates": [-110.279, 39.5005]}, "properties": {"NAME": "W7U/CR-007", "TITLE": "9109", "REGION": "Carbon County", "ASSOCIATION": "USA - Utah", "POINTS": "8", "BONUSPOINTS": "3"}}, {"type": "Feature", "geometry": {"type": "Point", "coordinates": [-111.0922, 39.7998]}, "properties": {"NAME": "W7U/CR-008", "TITLE": "9100", "REGION": "Carbon County", "ASSOCIATION": "USA - Utah", "POINTS": "8", "BONUSPOINTS": "3"}}, {"type": "Feature", "geometry": {"type": "Point", "coordinates": [-110.7845, 39.7317]}, "properties": {"NAME": "W7U/CR-009", "TITLE": "8900", "REGION": "Carbon County", "ASSOCIATION": "USA - Utah", "POINTS": "6", "BONUSPOINTS": "3"}}, {"type": "Feature", "geometry": {"type": "Point", "coordinates": [-110.1211, 39.5133]}, "properties": {"NAME": "W7U/CR-010", "TITLE": "Flat Top", "REGION": "Carbon County", "ASSOCIATION": "USA - Utah", "POINTS": "6", "BONUSPOINTS": "3"}}, {"type": "Feature", "geometry": {"type": "Point", "coordinates": [-110.8651, 39.7663]}, "properties": {"NAME": "W7U/CR-011", "TITLE": "8455", "REGION": "Carbon County", "ASSOCIATION": "USA - Utah", "POINTS": "6", "BONUSPOINTS": "3"}}, {"type": "Feature", "geometry": {"type": "Point", "coordinates": [-110.6483, 39.7193]}, "properties": {"NAME": "W7U/CR-012", "TITLE": "8383", "REGION": "Carbon County", "ASSOCIATION": "USA - Utah", "POINTS": "6", "BONUSPOINTS": "3"}}, {"type": "Feature", "geometry": {"type": "Point", "coordinates": [-110.8929, 39.7788]}, "properties": {"NAME": "W7U/CR-013", "TITLE": "8261", "REGION": "Carbon County", "ASSOCIATION": "USA - Utah", "POINTS": "6", "BONUSPOINTS": "3"}}, {"type": "Feature", "geometry": {"type": "Point", "coordinates": [-110.3678, 39.8064]}, "properties": {"NAME": "W7U/CR-014", "TITLE": "7262", "REGION": "Carbon County", "ASSOCIATION": "USA - Utah", "POINTS": "4", "BONUSPOINTS": "3"}}, {"type": "Feature", "geometry": {"type": "Point", "coordinates": [-110.921, 39.6756]}, "properties": {"NAME": "W7U/CR-015", "TITLE": "7206", "REGION": "Carbon County", "ASSOCIATION": "USA - Utah", "POINTS": "4", "BONUSPOINTS": "3"}}, {"type": "Feature", "geometry": {"type": "Point", "coordinates": [-110.0338, 39.5846]}, "properties": {"NAME": "W7U/CR-016", "TITLE": "6261", "REGION": "Carbon County", "ASSOCIATION": "USA - Utah", "POINTS": "2", "BONUSPOINTS": "3"}}, {"type": "Feature", "geometry": {"type": "Point", "coordinates": [-110.0332, 39.5019]}, "properties": {"NAME": "W7U/CR-017", "TITLE": "5442", "REGION": "Carbon County", "ASSOCIATION": "USA - Utah", "POINTS": "1", "BONUSPOINTS": "0"}}]}