{"type": "FeatureCollection", "name": "W7U/IR SUMMITS", "features": [{"type": "Feature", "geometry": {"type": "Point", "coordinates": [-112.7074, 37.79]}, "properties": {"NAME": "W7U/IR-001", "TITLE": "Horse Valley Peak", "REGION": "Iron County", "ASSOCIATION": "USA - Utah", "POINTS": "10", "BONUSPOINTS": "3"}}, {"type": "Feature", "geometry": {"type": "Point", "coordinates": [-112.8655, 37.6864]}, "properties": {"NAME": "W7U/IR-002", "TITLE": "Navajo Point", "REGION": "Iron County", "ASSOCIATION": "USA - Utah", "POINTS": "10", "BONUSPOINTS": "3"}}, {"type": "Feature", "geometry": {"type": "Point", "coordinates": [-112.9374, 37.5688]}, "properties": {"NAME": "W7U/IR-003", "TITLE": "Black Mountain", "REGION": "Iron County", "ASSOCIATION": "USA - Utah", "POINTS": "8", "BONUSPOINTS": "3"}}, {"type": "Feature", "geometry": {"type": "Point", "coordinates": [-112.6119, 37.8811]}, "properties": {"NAME": "W7U/IR-004", "TITLE": "Little Creek Peak", "REGION": "Iron County", "ASSOCIATION": "USA - Utah", "POINTS": "8", "BONUSPOINTS": "3"}}, {"type": "Feature", "geometry": {"type": "Point", "coordinates": [-112.9432, 37.6912]}, "properties": {"NAME": "W7U/IR-005", "TITLE": "Eagle Peak", "REGION": "Iron County", "ASSOCIATION": "USA - Utah", "POINTS": "8", "BONUSPOINTS": "3"}}, {"type": "Feature", "geometry": {"type": "Point", "coordinates": [-112.5459, 37.9251]}, "properties": {"NAME": "W7U/IR-006", "TITLE": "Sandy Peak", "REGION": "Iron County", "ASSOCIATION": "USA - Utah", "POINTS": "8", "BONUSPOINTS": "3"}}, {"type": "Feature", "geometry": {"type": "Point", "coordinates": [-112.743, 37.8141]}, "properties": {"NAME": "W7U/IR-007", "TITLE": "Hoosier Benchmark", "REGION": "Iron County", "ASSOCIATION": "USA - Utah", "POINTS": "8", "BONUSPOINTS": "3"}}, {"type": "Feature", "geometry": {"type": "Point", "coordinates": [-112.6436, 37.9447]}, "properties": {"NAME": "W7U/IR-008", "TITLE": "Cottonwood Mountain", "REGION": "Iron County", "ASSOCIATION": "USA - Utah", "POINTS": "8", "BONUSPOINTS": "3"}}, {"type": "Feature", "geometry": {"type": "Point", "coordinates": [-112.8652, 37.7774]}, "properties": {"NAME": "W7U/IR-009", "TITLE": "8953", "REGION": "Iron County", "ASSOCIATION": "USA - Utah", "POINTS": "6", "BONUSPOINTS": "3"}}, {"type": "Feature", "geometry": {"type": "Point", "coordinates": [-112.5954, 37.9696]}, "properties": {"NAME": "W7U/IR-010", "TITLE": "8875", "REGION": "Iron County", "ASSOCIATION": "USA - Utah", "POINTS": "6", "BONUSPOINTS": "3"}}, {"type": "Feature", "geometry": {"type": "Point", "coordinates": [-112.5338, 38.0505]}, "properties": {"NAME": "W7U/IR-011", "TITLE": "Burnt Peak", "REGION": "Iron County", "ASSOCIATION": "USA - Utah", "POINTS": "6", "BONUSPOINTS": "3"}}, {"type": "Feature", "geometry": {"type": "Point", "coordinates": [-112.6447, 38.0075]}, "properties": {"NAME": "W7U/IR-012", "TITLE": "8744", "REGION": "Iron County", "ASSOCIATION": "USA - Utah", "POINTS": "6", "BONUSPOINTS": "3"}}, {"type": "Feature", "geometry": {"type": "Point", "coordinates": [-112.761, 38.0791]}, "properties": {"NAME": "W7U/IR-013", "TITLE": "Black Mountains HP", "REGION": "Iron County", "ASSOCIATION": "USA - Utah", "POINTS": "6", "BONUSPOINTS": "3"}}, {"type": "Feature", "geometry": {"type": "Point", "coordinates": [-114.0197, 37.9447]}, "properties": {"NAME": "W7U/IR-014", "TITLE": "8592", "REGION": "Iron County", "ASSOCIATION": "USA - Utah", "POINTS": "6", "BONUSPOINTS": "3"}}, {"type": "Feature", "geometry": {"type": "Point", "coordinates": [-113.7633, 38.0664]}, "properties": {"NAME": "W7U/IR-015", "TITLE": "Steamboat Mountain", "REGION": "Iron County", "ASSOCIATION": "USA - Utah", "POINTS": "6", "BONUSPOINTS": "3"}}, {"type": "Feature", "geometry": {"type": "Point", "coordinates": [-114.0474, 38.0516]}, "properties": {"NAME": "W7U/IR-016", "TITLE": "8535", "REGION": "Iron County", "ASSOCIATION": "USA - Utah", "POINTS": "6", "BONUSPOINTS": "3"}}, {"type": "Feature", "geometry": {"type": "Point", "coordinates": [-113.8084, 38.0795]}, "properties": {"NAME": "W7U/IR-017", "TITLE": "8461", "REGION": "Iron County", "ASSOCIATION": "USA - Utah", "POINTS": "6", "BONUSPOINTS": "3"}}, {"type": "Feature", "geometry": {"type": "Point", "coordinates": [-114.0297, 38.0205]}, "properties": {"NAME": "W7U/IR-018", "TITLE": "Rice Mountain", "REGION": "Iron County", "ASSOCIATION": "USA - Utah", "POINTS": "6", "BONUSPOINTS": "3"}}, {"type": "Feature", "geometry": {"type": "Point", "coordinates": [-113.3026, 37.5615]}, "properties": {"NAME": "W7U/IR-019", "TITLE": "Harmony Mountains HP", "REGION": "Iron County", "ASSOCIATION": "USA - Utah", "POINTS": "6", "BONUSPOINTS": "3"}}, {"type": "Feature", "geometry": {"type": "Point", "coordinates": [-113.7763, 38.0846]}, "properties": {"NAME": "W7U/IR-020", "TITLE": "8388", "REGION": "Iron County", "ASSOCIATION": "USA - Utah", "POINTS": "6", "BONUSPOINTS": "3"}}, {"type": "Feature", "geometry": {"type": "Point", "coordinates": [-113.3597, 37.5764]}, "properties": {"NAME": "W7U/IR-021", "TITLE": "Stoddard Mountain", "REGION": "Iron County", "ASSOCIATION": "USA - Utah", "POINTS": "6", "BONUSPOINTS": "3"}}, {"type": "Feature", "geometry": {"type": "Point", "coordinates": [-112.4849, 38.0119]}, "properties": {"NAME": "W7U/IR-022", "TITLE": "Bear Benchmark", "REGION": "Iron County", "ASSOCIATION": "USA - Utah", "POINTS": "6", "BONUSPOINTS": "3"}}, {"type": "Feature", "geometry": {"type": "Point", "coordinates": [-113.8128, 38.1078]}, "properties": {"NAME": "W7U/IR-023", "TITLE": "Bob Leroy Peak North", "REGION": "Iron County", "ASSOCIATION": "USA - Utah", "POINTS": "6", "BONUSPOINTS": "3"}}, {"type": "Feature", "geometry": {"type": "Point", "coordinates": [-113.8441, 37.9816]}, "properties": {"NAME": "W7U/IR-024", "TITLE": "8170", "REGION": "Iron County", "ASSOCIATION": "USA - Utah", "POINTS": "6", "BONUSPOINTS": "3"}}, {"type": "Feature", "geometry": {"type": "Point", "coordinates": [-112.6188, 38.0819]}, "properties": {"NAME": "W7U/IR-025", "TITLE": "Anderson Mountain", "REGION": "Iron County", "ASSOCIATION": "USA - Utah", "POINTS": "6", "BONUSPOINTS": "3"}}, {"type": "Feature", "geometry": {"type": "Point", "coordinates": [-114.0337, 38.0716]}, "properties": {"NAME": "W7U/IR-026", "TITLE": "8032", "REGION": "Iron County", "ASSOCIATION": "USA - Utah", "POINTS": "6", "BONUSPOINTS": "3"}}, {"type": "Feature", "geometry": {"type": "Point", "coordinates": [-113.8812, 37.9652]}, "properties": {"NAME": "W7U/IR-027", "TITLE": "7860", "REGION": "Iron County", "ASSOCIATION": "USA - Utah", "POINTS": "6", "BONUSPOINTS": "3"}}, {"type": "Feature", "geometry": {"type": "Point", "coordinates": [-113.3741, 37.6444]}, "properties": {"NAME": "W7U/IR-028", "TITLE": "Iron Mountain", "REGION": "Iron County", "ASSOCIATION": "USA - Utah", "POINTS": "6", "BONUSPOINTS": "3"}}, {"type": "Feature", "geometry": {"type": "Point", "coordinates": [-113.9972, 37.9069]}, "properties": {"NAME": "W7U/IR-029", "TITLE": "7822", "REGION": "Iron County", "ASSOCIATION": "USA - Utah", "POINTS": "6", "BONUSPOINTS": "3"}}, {"type": "Feature", "geometry": {"type": "Point", "coordinates": [-113.9875, 37.8366]}, "properties": {"NAME": "W7U/IR-030", "TITLE": "Elenore, Mount", "REGION": "Iron County", "ASSOCIATION": "USA - Utah", "POINTS": "6", "BONUSPOINTS": "3"}}, {"type": "Feature", "geometry": {"type": "Point", "coordinates": [-112.6653, 38.1479]}, "properties": {"NAME": "W7U/IR-031", "TITLE": "7728", "REGION": "Iron County", "ASSOCIATION": "USA - Utah", "POINTS": "6", "BONUSPOINTS": "3"}}, {"type": "Feature", "geometry": {"type": "Point", "coordinates": [-113.8194, 38.0246]}, "properties": {"NAME": "W7U/IR-032", "TITLE": "7612", "REGION": "Iron County", "ASSOCIATION": "USA - Utah", "POINTS": "6", "BONUSPOINTS": "3"}}, {"type": "Feature", "geometry": {"type": "Point", "coordinates": [-112.8772, 37.9769]}, "properties": {"NAME": "W7U/IR-033", "TITLE": "7577", "REGION": "Iron County", "ASSOCIATION": "USA - Utah", "POINTS": "6", "BONUSPOINTS": "3"}}, {"type": "Feature", "geometry": {"type": "Point", "coordinates": [-113.383, 37.5841]}, "properties": {"NAME": "W7U/IR-034", "TITLE": "7538", "REGION": "Iron County", "ASSOCIATION": "USA - Utah", "POINTS": "6", "BONUSPOINTS": "3"}}, {"type": "Feature", "geometry": {"type": "Point", "coordinates": [-113.468, 37.7038]}, "properties": {"NAME": "W7U/IR-035", "TITLE": "7450", "REGION": "Iron County", "ASSOCIATION": "USA - Utah", "POINTS": "4", "BONUSPOINTS": "3"}}, {"type": "Feature", "geometry": {"type": "Point", "coordinates": [-113.7039, 38.0025]}, "properties": {"NAME": "W7U/IR-036", "TITLE": "North Peaks HP", "REGION": "Iron County", "ASSOCIATION": "USA - Utah", "POINTS": "4", "BONUSPOINTS": "3"}}, {"type": "Feature", "geometry": {"type": "Point", "coordinates": [-113.0417, 38.0426]}, "properties": {"NAME": "W7U/IR-037", "TITLE": "Ladybug Benchmark", "REGION": "Iron County", "ASSOCIATION": "USA - Utah", "POINTS": "4", "BONUSPOINTS": "3"}}, {"type": "Feature", "geometry": {"type": "Point", "coordinates": [-113.5306, 38.1142]}, "properties": {"NAME": "W7U/IR-038", "TITLE": "7083", "REGION": "Iron County", "ASSOCIATION": "USA - Utah", "POINTS": "4", "BONUSPOINTS": "3"}}, {"type": "Feature", "geometry": {"type": "Point", "coordinates": [-113.4854, 38.0768]}, "properties": {"NAME": "W7U/IR-039", "TITLE": "7030", "REGION": "Iron County", "ASSOCIATION": "USA - Utah", "POINTS": "4", "BONUSPOINTS": "3"}}, {"type": "Feature", "geometry": {"type": "Point", "coordinates": [-113.3036, 37.656]}, "properties": {"NAME": "W7U/IR-040", "TITLE": "Swett Hills", "REGION": "Iron County", "ASSOCIATION": "USA - Utah", "POINTS": "4", "BONUSPOINTS": "3"}}, {"type": "Feature", "geometry": {"type": "Point", "coordinates": [-113.9791, 37.6839]}, "properties": {"NAME": "W7U/IR-041", "TITLE": "Escalante, Mount", "REGION": "Iron County", "ASSOCIATION": "USA - Utah", "POINTS": "4", "BONUSPOINTS": "3"}}, {"type": "Feature", "geometry": {"type": "Point", "coordinates": [-113.9211, 37.8711]}, "properties": {"NAME": "W7U/IR-042", "TITLE": "6990", "REGION": "Iron County", "ASSOCIATION": "USA - Utah", "POINTS": "4", "BONUSPOINTS": "3"}}, {"type": "Feature", "geometry": {"type": "Point", "coordinates": [-113.6129, 38.0898]}, "properties": {"NAME": "W7U/IR-043", "TITLE": "Broken Ridge", "REGION": "Iron County", "ASSOCIATION": "USA - Utah", "POINTS": "4", "BONUSPOINTS": "3"}}, {"type": "Feature", "geometry": {"type": "Point", "coordinates": [-113.9273, 37.6679]}, "properties": {"NAME": "W7U/IR-044", "TITLE": "6890", "REGION": "Iron County", "ASSOCIATION": "USA - Utah", "POINTS": "4", "BONUSPOINTS": "3"}}, {"type": "Feature", "geometry": {"type": "Point", "coordinates": [-113.1775, 38.0669]}, "properties": {"NAME": "W7U/IR-045", "TITLE": "Monument Peak", "REGION": "Iron County", "ASSOCIATION": "USA - Utah", "POINTS": "4", "BONUSPOINTS": "3"}}, {"type": "Feature", "geometry": {"type": "Point", "coordinates": [-112.9634, 37.857]}, "properties": {"NAME": "W7U/IR-046", "TITLE": "Red Hills South", "REGION": "Iron County", "ASSOCIATION": "USA - Utah", "POINTS": "4", "BONUSPOINTS": "3"}}, {"type": "Feature", "geometry": {"type": "Point", "coordinates": [-113.8723, 37.923]}, "properties": {"NAME": "W7U/IR-047", "TITLE": "6731", "REGION": "Iron County", "ASSOCIATION": "USA - Utah", "POINTS": "4", "BONUSPOINTS": "3"}}, {"type": "Feature", "geometry": {"type": "Point", "coordinates": [-113.2444, 37.717]}, "properties": {"NAME": "W7U/IR-048", "TITLE": "Granite Mountain", "REGION": "Iron County", "ASSOCIATION": "USA - Utah", "POINTS": "4", "BONUSPOINTS": "3"}}, {"type": "Feature", "geometry": {"type": "Point", "coordinates": [-113.2344, 37.6997]}, "properties": {"NAME": "W7U/IR-049", "TITLE": "Eightmile Hills", "REGION": "Iron County", "ASSOCIATION": "USA - Utah", "POINTS": "4", "BONUSPOINTS": "3"}}, {"type": "Feature", "geometry": {"type": "Point", "coordinates": [-113.4697, 38.044]}, "properties": {"NAME": "W7U/IR-050", "TITLE": "6535", "REGION": "Iron County", "ASSOCIATION": "USA - Utah", "POINTS": "4", "BONUSPOINTS": "3"}}, {"type": "Feature", "geometry": {"type": "Point", "coordinates": [-113.9253, 37.7635]}, "properties": {"NAME": "W7U/IR-051", "TITLE": "6446", "REGION": "Iron County", "ASSOCIATION": "USA - Utah", "POINTS": "2", "BONUSPOINTS": "3"}}, {"type": "Feature", "geometry": {"type": "Point", "coordinates": [-113.7548, 37.6314]}, "properties": {"NAME": "W7U/IR-052", "TITLE": "6422", "REGION": "Iron County", "ASSOCIATION": "USA - Utah", "POINTS": "2", "BONUSPOINTS": "3"}}, {"type": "Feature", "geometry": {"type": "Point", "coordinates": [-113.2026, 37.7614]}, "properties": {"NAME": "W7U/IR-053", "TITLE": "Three Peaks Middle, The", "REGION": "Iron County", "ASSOCIATION": "USA - Utah", "POINTS": "2", "BONUSPOINTS": "3"}}, {"type": "Feature", "geometry": {"type": "Point", "coordinates": [-113.4403, 37.8651]}, "properties": {"NAME": "W7U/IR-054", "TITLE": "Table Butte", "REGION": "Iron County", "ASSOCIATION": "USA - Utah", "POINTS": "2", "BONUSPOINTS": "0"}}, {"type": "Feature", "geometry": {"type": "Point", "coordinates": [-113.2516, 38.0975]}, "properties": {"NAME": "W7U/IR-055", "TITLE": "Blue Knoll", "REGION": "Iron County", "ASSOCIATION": "USA - Utah", "POINTS": "2", "BONUSPOINTS": "0"}}]}