{"type": "FeatureCollection", "name": "W7U/GR SUMMITS", "features": [{"type": "Feature", "geometry": {"type": "Point", "coordinates": [-109.77, 39.2217]}, "properties": {"NAME": "W7U/GR-001", "TITLE": "Wagon Road Ridge", "REGION": "Grand County", "ASSOCIATION": "USA - Utah", "POINTS": "8", "BONUSPOINTS": "3"}}, {"type": "Feature", "geometry": {"type": "Point", "coordinates": [-109.8038, 39.2414]}, "properties": {"NAME": "W7U/GR-002", "TITLE": "Steer Ridge", "REGION": "Grand County", "ASSOCIATION": "USA - Utah", "POINTS": "8", "BONUSPOINTS": "3"}}, {"type": "Feature", "geometry": {"type": "Point", "coordinates": [-109.8531, 39.2746]}, "properties": {"NAME": "W7U/GR-003", "TITLE": "Hill Benchmark", "REGION": "Grand County", "ASSOCIATION": "USA - Utah", "POINTS": "8", "BONUSPOINTS": "3"}}, {"type": "Feature", "geometry": {"type": "Point", "coordinates": [-109.6929, 39.2013]}, "properties": {"NAME": "W7U/GR-004", "TITLE": "Went Ridge", "REGION": "Grand County", "ASSOCIATION": "USA - Utah", "POINTS": "8", "BONUSPOINTS": "3"}}, {"type": "Feature", "geometry": {"type": "Point", "coordinates": [-109.6372, 39.1928]}, "properties": {"NAME": "W7U/GR-005", "TITLE": "Nash Benchmark", "REGION": "Grand County", "ASSOCIATION": "USA - Utah", "POINTS": "8", "BONUSPOINTS": "3"}}, {"type": "Feature", "geometry": {"type": "Point", "coordinates": [-109.0771, 38.5422]}, "properties": {"NAME": "W7U/GR-006", "TITLE": "Pace Benchmark", "REGION": "Grand County", "ASSOCIATION": "USA - Utah", "POINTS": "8", "BONUSPOINTS": "3"}}, {"type": "Feature", "geometry": {"type": "Point", "coordinates": [-109.8239, 39.2519]}, "properties": {"NAME": "W7U/GR-007", "TITLE": "9121", "REGION": "Grand County", "ASSOCIATION": "USA - Utah", "POINTS": "8", "BONUSPOINTS": "3"}}, {"type": "Feature", "geometry": {"type": "Point", "coordinates": [-109.6906, 39.1661]}, "properties": {"NAME": "W7U/GR-008", "TITLE": "9100", "REGION": "Grand County", "ASSOCIATION": "USA - Utah", "POINTS": "8", "BONUSPOINTS": "3"}}, {"type": "Feature", "geometry": {"type": "Point", "coordinates": [-109.9605, 39.3098]}, "properties": {"NAME": "W7U/GR-009", "TITLE": "8938", "REGION": "Grand County", "ASSOCIATION": "USA - Utah", "POINTS": "6", "BONUSPOINTS": "3"}}, {"type": "Feature", "geometry": {"type": "Point", "coordinates": [-109.575, 39.2295]}, "properties": {"NAME": "W7U/GR-010", "TITLE": "8917", "REGION": "Grand County", "ASSOCIATION": "USA - Utah", "POINTS": "6", "BONUSPOINTS": "3"}}, {"type": "Feature", "geometry": {"type": "Point", "coordinates": [-109.5574, 39.2459]}, "properties": {"NAME": "W7U/GR-011", "TITLE": "Diamond Ridge", "REGION": "Grand County", "ASSOCIATION": "USA - Utah", "POINTS": "6", "BONUSPOINTS": "3"}}, {"type": "Feature", "geometry": {"type": "Point", "coordinates": [-109.1753, 39.4317]}, "properties": {"NAME": "W7U/GR-012", "TITLE": "8496", "REGION": "Grand County", "ASSOCIATION": "USA - Utah", "POINTS": "6", "BONUSPOINTS": "3"}}, {"type": "Feature", "geometry": {"type": "Point", "coordinates": [-109.1859, 38.6314]}, "properties": {"NAME": "W7U/GR-013", "TITLE": "North Beaver Mesa", "REGION": "Grand County", "ASSOCIATION": "USA - Utah", "POINTS": "6", "BONUSPOINTS": "3"}}, {"type": "Feature", "geometry": {"type": "Point", "coordinates": [-109.1456, 38.6574]}, "properties": {"NAME": "W7U/GR-014", "TITLE": "Polar Mesa", "REGION": "Grand County", "ASSOCIATION": "USA - Utah", "POINTS": "6", "BONUSPOINTS": "3"}}, {"type": "Feature", "geometry": {"type": "Point", "coordinates": [-109.8833, 39.1827]}, "properties": {"NAME": "W7U/GR-015", "TITLE": "7579", "REGION": "Grand County", "ASSOCIATION": "USA - Utah", "POINTS": "6", "BONUSPOINTS": "3"}}, {"type": "Feature", "geometry": {"type": "Point", "coordinates": [-109.3416, 39.3359]}, "properties": {"NAME": "W7U/GR-016", "TITLE": "7466", "REGION": "Grand County", "ASSOCIATION": "USA - Utah", "POINTS": "4", "BONUSPOINTS": "3"}}, {"type": "Feature", "geometry": {"type": "Point", "coordinates": [-109.2372, 38.7144]}, "properties": {"NAME": "W7U/GR-017", "TITLE": "7186", "REGION": "Grand County", "ASSOCIATION": "USA - Utah", "POINTS": "4", "BONUSPOINTS": "3"}}, {"type": "Feature", "geometry": {"type": "Point", "coordinates": [-109.7618, 39.0098]}, "properties": {"NAME": "W7U/GR-018", "TITLE": "7128", "REGION": "Grand County", "ASSOCIATION": "USA - Utah", "POINTS": "4", "BONUSPOINTS": "3"}}, {"type": "Feature", "geometry": {"type": "Point", "coordinates": [-109.2639, 38.7207]}, "properties": {"NAME": "W7U/GR-019", "TITLE": "7100", "REGION": "Grand County", "ASSOCIATION": "USA - Utah", "POINTS": "4", "BONUSPOINTS": "3"}}, {"type": "Feature", "geometry": {"type": "Point", "coordinates": [-109.9488, 39.2166]}, "properties": {"NAME": "W7U/GR-020", "TITLE": "7077", "REGION": "Grand County", "ASSOCIATION": "USA - Utah", "POINTS": "4", "BONUSPOINTS": "3"}}, {"type": "Feature", "geometry": {"type": "Point", "coordinates": [-109.905, 39.1112]}, "properties": {"NAME": "W7U/GR-021", "TITLE": "7065", "REGION": "Grand County", "ASSOCIATION": "USA - Utah", "POINTS": "4", "BONUSPOINTS": "3"}}, {"type": "Feature", "geometry": {"type": "Point", "coordinates": [-109.4782, 39.1161]}, "properties": {"NAME": "W7U/GR-022", "TITLE": "6920", "REGION": "Grand County", "ASSOCIATION": "USA - Utah", "POINTS": "4", "BONUSPOINTS": "3"}}, {"type": "Feature", "geometry": {"type": "Point", "coordinates": [-109.9219, 39.1012]}, "properties": {"NAME": "W7U/GR-023", "TITLE": "6916", "REGION": "Grand County", "ASSOCIATION": "USA - Utah", "POINTS": "4", "BONUSPOINTS": "3"}}, {"type": "Feature", "geometry": {"type": "Point", "coordinates": [-109.5231, 39.0971]}, "properties": {"NAME": "W7U/GR-024", "TITLE": "6881", "REGION": "Grand County", "ASSOCIATION": "USA - Utah", "POINTS": "4", "BONUSPOINTS": "3"}}, {"type": "Feature", "geometry": {"type": "Point", "coordinates": [-109.9863, 39.1516]}, "properties": {"NAME": "W7U/GR-025", "TITLE": "Can Benchmark", "REGION": "Grand County", "ASSOCIATION": "USA - Utah", "POINTS": "4", "BONUSPOINTS": "3"}}, {"type": "Feature", "geometry": {"type": "Point", "coordinates": [-109.2949, 38.7243]}, "properties": {"NAME": "W7U/GR-026", "TITLE": "6825", "REGION": "Grand County", "ASSOCIATION": "USA - Utah", "POINTS": "4", "BONUSPOINTS": "3"}}, {"type": "Feature", "geometry": {"type": "Point", "coordinates": [-109.9727, 39.1573]}, "properties": {"NAME": "W7U/GR-027", "TITLE": "6761", "REGION": "Grand County", "ASSOCIATION": "USA - Utah", "POINTS": "4", "BONUSPOINTS": "3"}}, {"type": "Feature", "geometry": {"type": "Point", "coordinates": [-109.3678, 38.6511]}, "properties": {"NAME": "W7U/GR-028", "TITLE": "Castleton Tower", "REGION": "Grand County", "ASSOCIATION": "USA - Utah", "POINTS": "4", "BONUSPOINTS": "3"}}, {"type": "Feature", "geometry": {"type": "Point", "coordinates": [-109.2129, 38.6848]}, "properties": {"NAME": "W7U/GR-029", "TITLE": "6475", "REGION": "Grand County", "ASSOCIATION": "USA - Utah", "POINTS": "2", "BONUSPOINTS": "3"}}, {"type": "Feature", "geometry": {"type": "Point", "coordinates": [-110.0264, 39.0682]}, "properties": {"NAME": "W7U/GR-030", "TITLE": "6360", "REGION": "Grand County", "ASSOCIATION": "USA - Utah", "POINTS": "2", "BONUSPOINTS": "3"}}, {"type": "Feature", "geometry": {"type": "Point", "coordinates": [-109.7874, 38.5542]}, "properties": {"NAME": "W7U/GR-031", "TITLE": "Knoll, The", "REGION": "Grand County", "ASSOCIATION": "USA - Utah", "POINTS": "2", "BONUSPOINTS": "3"}}, {"type": "Feature", "geometry": {"type": "Point", "coordinates": [-109.2994, 38.7174]}, "properties": {"NAME": "W7U/GR-032", "TITLE": "Titan, The", "REGION": "Grand County", "ASSOCIATION": "USA - Utah", "POINTS": "2", "BONUSPOINTS": "3"}}, {"type": "Feature", "geometry": {"type": "Point", "coordinates": [-109.3618, 38.6131]}, "properties": {"NAME": "W7U/GR-033", "TITLE": "Round Mountain", "REGION": "Grand County", "ASSOCIATION": "USA - Utah", "POINTS": "2", "BONUSPOINTS": "0"}}, {"type": "Feature", "geometry": {"type": "Point", "coordinates": [-109.4015, 38.66]}, "properties": {"NAME": "W7U/GR-034", "TITLE": "Parriott Mesa", "REGION": "Grand County", "ASSOCIATION": "USA - Utah", "POINTS": "2", "BONUSPOINTS": "0"}}, {"type": "Feature", "geometry": {"type": "Point", "coordinates": [-109.9242, 38.9988]}, "properties": {"NAME": "W7U/GR-035", "TITLE": "6091", "REGION": "Grand County", "ASSOCIATION": "USA - Utah", "POINTS": "2", "BONUSPOINTS": "0"}}, {"type": "Feature", "geometry": {"type": "Point", "coordinates": [-109.403, 38.7229]}, "properties": {"NAME": "W7U/GR-036", "TITLE": "Dome Plateau", "REGION": "Grand County", "ASSOCIATION": "USA - Utah", "POINTS": "2", "BONUSPOINTS": "0"}}, {"type": "Feature", "geometry": {"type": "Point", "coordinates": [-109.3011, 38.723]}, "properties": {"NAME": "W7U/GR-037", "TITLE": "Kingfisher, The", "REGION": "Grand County", "ASSOCIATION": "USA - Utah", "POINTS": "2", "BONUSPOINTS": "0"}}, {"type": "Feature", "geometry": {"type": "Point", "coordinates": [-109.7914, 38.6513]}, "properties": {"NAME": "W7U/GR-038", "TITLE": "5889", "REGION": "Grand County", "ASSOCIATION": "USA - Utah", "POINTS": "2", "BONUSPOINTS": "0"}}, {"type": "Feature", "geometry": {"type": "Point", "coordinates": [-109.8577, 38.9785]}, "properties": {"NAME": "W7U/GR-039", "TITLE": "Christmas Ridge", "REGION": "Grand County", "ASSOCIATION": "USA - Utah", "POINTS": "2", "BONUSPOINTS": "0"}}, {"type": "Feature", "geometry": {"type": "Point", "coordinates": [-109.4283, 38.7009]}, "properties": {"NAME": "W7U/GR-040", "TITLE": "Dry Mesa", "REGION": "Grand County", "ASSOCIATION": "USA - Utah", "POINTS": "2", "BONUSPOINTS": "0"}}, {"type": "Feature", "geometry": {"type": "Point", "coordinates": [-109.6763, 38.6376]}, "properties": {"NAME": "W7U/GR-041", "TITLE": "5735", "REGION": "Grand County", "ASSOCIATION": "USA - Utah", "POINTS": "2", "BONUSPOINTS": "0"}}, {"type": "Feature", "geometry": {"type": "Point", "coordinates": [-109.7429, 38.6632]}, "properties": {"NAME": "W7U/GR-042", "TITLE": "Merrimac Butte", "REGION": "Grand County", "ASSOCIATION": "USA - Utah", "POINTS": "2", "BONUSPOINTS": "0"}}, {"type": "Feature", "geometry": {"type": "Point", "coordinates": [-109.9527, 38.9506]}, "properties": {"NAME": "W7U/GR-043", "TITLE": "Hatch Mesa", "REGION": "Grand County", "ASSOCIATION": "USA - Utah", "POINTS": "2", "BONUSPOINTS": "0"}}, {"type": "Feature", "geometry": {"type": "Point", "coordinates": [-109.6208, 38.7985]}, "properties": {"NAME": "W7U/GR-044", "TITLE": "5580", "REGION": "Grand County", "ASSOCIATION": "USA - Utah", "POINTS": "2", "BONUSPOINTS": "0"}}, {"type": "Feature", "geometry": {"type": "Point", "coordinates": [-109.6517, 38.6198]}, "properties": {"NAME": "W7U/GR-045", "TITLE": "5580", "REGION": "Grand County", "ASSOCIATION": "USA - Utah", "POINTS": "2", "BONUSPOINTS": "0"}}, {"type": "Feature", "geometry": {"type": "Point", "coordinates": [-109.6842, 38.7946]}, "properties": {"NAME": "W7U/GR-046", "TITLE": "Klondike Bluffs", "REGION": "Grand County", "ASSOCIATION": "USA - Utah", "POINTS": "2", "BONUSPOINTS": "0"}}, {"type": "Feature", "geometry": {"type": "Point", "coordinates": [-109.1859, 38.8656]}, "properties": {"NAME": "W7U/GR-047", "TITLE": "Buckhorn Mesa", "REGION": "Grand County", "ASSOCIATION": "USA - Utah", "POINTS": "2", "BONUSPOINTS": "0"}}, {"type": "Feature", "geometry": {"type": "Point", "coordinates": [-109.0656, 39.1472]}, "properties": {"NAME": "W7U/GR-048", "TITLE": "5482", "REGION": "Grand County", "ASSOCIATION": "USA - Utah", "POINTS": "1", "BONUSPOINTS": "0"}}, {"type": "Feature", "geometry": {"type": "Point", "coordinates": [-109.4329, 38.6693]}, "properties": {"NAME": "W7U/GR-049", "TITLE": "The Red Hills", "REGION": "Grand County", "ASSOCIATION": "USA - Utah", "POINTS": "1", "BONUSPOINTS": "0"}}, {"type": "Feature", "geometry": {"type": "Point", "coordinates": [-109.1462, 39.0007]}, "properties": {"NAME": "W7U/GR-050", "TITLE": "5140", "REGION": "Grand County", "ASSOCIATION": "USA - Utah", "POINTS": "1", "BONUSPOINTS": "0"}}, {"type": "Feature", "geometry": {"type": "Point", "coordinates": [-109.6475, 38.5281]}, "properties": {"NAME": "W7U/GR-051", "TITLE": "5100", "REGION": "Grand County", "ASSOCIATION": "USA - Utah", "POINTS": "1", "BONUSPOINTS": "0"}}, {"type": "Feature", "geometry": {"type": "Point", "coordinates": [-109.6346, 38.5189]}, "properties": {"NAME": "W7U/GR-052", "TITLE": "4980", "REGION": "Grand County", "ASSOCIATION": "USA - Utah", "POINTS": "1", "BONUSPOINTS": "0"}}]}