{"type": "FeatureCollection", "name": "W7U/UI SUMMITS", "features": [{"type": "Feature", "geometry": {"type": "Point", "coordinates": [-109.8286, 40.711]}, "properties": {"NAME": "W7U/UI-001", "TITLE": "Marsh Peak", "REGION": "Uintah County", "ASSOCIATION": "USA - Utah", "POINTS": "10", "BONUSPOINTS": "3"}}, {"type": "Feature", "geometry": {"type": "Point", "coordinates": [-109.955, 40.7416]}, "properties": {"NAME": "W7U/UI-002", "TITLE": "Wooley Peak", "REGION": "Uintah County", "ASSOCIATION": "USA - Utah", "POINTS": "10", "BONUSPOINTS": "3"}}, {"type": "Feature", "geometry": {"type": "Point", "coordinates": [-109.574, 40.7376]}, "properties": {"NAME": "W7U/UI-003", "TITLE": "Dyer Mountain", "REGION": "Uintah County", "ASSOCIATION": "USA - Utah", "POINTS": "8", "BONUSPOINTS": "3"}}, {"type": "Feature", "geometry": {"type": "Point", "coordinates": [-109.6416, 40.7202]}, "properties": {"NAME": "W7U/UI-004", "TITLE": "Taylor Mountain", "REGION": "Uintah County", "ASSOCIATION": "USA - Utah", "POINTS": "8", "BONUSPOINTS": "3"}}, {"type": "Feature", "geometry": {"type": "Point", "coordinates": [-109.3929, 40.7495]}, "properties": {"NAME": "W7U/UI-005", "TITLE": "Limestone Mountain", "REGION": "Uintah County", "ASSOCIATION": "USA - Utah", "POINTS": "8", "BONUSPOINTS": "3"}}, {"type": "Feature", "geometry": {"type": "Point", "coordinates": [-109.3162, 40.847]}, "properties": {"NAME": "W7U/UI-006", "TITLE": "9100", "REGION": "Uintah County", "ASSOCIATION": "USA - Utah", "POINTS": "8", "BONUSPOINTS": "3"}}, {"type": "Feature", "geometry": {"type": "Point", "coordinates": [-109.3158, 40.801]}, "properties": {"NAME": "W7U/UI-007", "TITLE": "8959", "REGION": "Uintah County", "ASSOCIATION": "USA - Utah", "POINTS": "6", "BONUSPOINTS": "3"}}, {"type": "Feature", "geometry": {"type": "Point", "coordinates": [-109.2419, 40.7879]}, "properties": {"NAME": "W7U/UI-008", "TITLE": "8941", "REGION": "Uintah County", "ASSOCIATION": "USA - Utah", "POINTS": "6", "BONUSPOINTS": "3"}}, {"type": "Feature", "geometry": {"type": "Point", "coordinates": [-109.2903, 40.7275]}, "properties": {"NAME": "W7U/UI-009", "TITLE": "Calder Benchmark", "REGION": "Uintah County", "ASSOCIATION": "USA - Utah", "POINTS": "6", "BONUSPOINTS": "3"}}, {"type": "Feature", "geometry": {"type": "Point", "coordinates": [-109.2019, 40.7672]}, "properties": {"NAME": "W7U/UI-010", "TITLE": "8558", "REGION": "Uintah County", "ASSOCIATION": "USA - Utah", "POINTS": "6", "BONUSPOINTS": "3"}}, {"type": "Feature", "geometry": {"type": "Point", "coordinates": [-109.2057, 40.7546]}, "properties": {"NAME": "W7U/UI-011", "TITLE": "8526", "REGION": "Uintah County", "ASSOCIATION": "USA - Utah", "POINTS": "6", "BONUSPOINTS": "3"}}, {"type": "Feature", "geometry": {"type": "Point", "coordinates": [-109.2548, 40.7083]}, "properties": {"NAME": "W7U/UI-012", "TITLE": "Lanson Benchmark", "REGION": "Uintah County", "ASSOCIATION": "USA - Utah", "POINTS": "6", "BONUSPOINTS": "3"}}, {"type": "Feature", "geometry": {"type": "Point", "coordinates": [-109.1436, 40.6714]}, "properties": {"NAME": "W7U/UI-013", "TITLE": "8472", "REGION": "Uintah County", "ASSOCIATION": "USA - Utah", "POINTS": "6", "BONUSPOINTS": "3"}}, {"type": "Feature", "geometry": {"type": "Point", "coordinates": [-109.1945, 40.7813]}, "properties": {"NAME": "W7U/UI-014", "TITLE": "8420", "REGION": "Uintah County", "ASSOCIATION": "USA - Utah", "POINTS": "6", "BONUSPOINTS": "3"}}, {"type": "Feature", "geometry": {"type": "Point", "coordinates": [-109.2185, 40.7235]}, "properties": {"NAME": "W7U/UI-015", "TITLE": "8285", "REGION": "Uintah County", "ASSOCIATION": "USA - Utah", "POINTS": "6", "BONUSPOINTS": "3"}}, {"type": "Feature", "geometry": {"type": "Point", "coordinates": [-109.181, 40.7061]}, "properties": {"NAME": "W7U/UI-016", "TITLE": "8161", "REGION": "Uintah County", "ASSOCIATION": "USA - Utah", "POINTS": "6", "BONUSPOINTS": "3"}}, {"type": "Feature", "geometry": {"type": "Point", "coordinates": [-109.5547, 40.594]}, "properties": {"NAME": "W7U/UI-017", "TITLE": "Red Mountain", "REGION": "Uintah County", "ASSOCIATION": "USA - Utah", "POINTS": "6", "BONUSPOINTS": "3"}}, {"type": "Feature", "geometry": {"type": "Point", "coordinates": [-109.2398, 40.4769]}, "properties": {"NAME": "W7U/UI-018", "TITLE": "Split Mountain West", "REGION": "Uintah County", "ASSOCIATION": "USA - Utah", "POINTS": "6", "BONUSPOINTS": "3"}}, {"type": "Feature", "geometry": {"type": "Point", "coordinates": [-109.2202, 40.4834]}, "properties": {"NAME": "W7U/UI-019", "TITLE": "Split Mountain East", "REGION": "Uintah County", "ASSOCIATION": "USA - Utah", "POINTS": "6", "BONUSPOINTS": "3"}}, {"type": "Feature", "geometry": {"type": "Point", "coordinates": [-109.0688, 40.5504]}, "properties": {"NAME": "W7U/UI-020", "TITLE": "Hardscrabble Mountain", "REGION": "Uintah County", "ASSOCIATION": "USA - Utah", "POINTS": "4", "BONUSPOINTS": "3"}}, {"type": "Feature", "geometry": {"type": "Point", "coordinates": [-109.0964, 40.527]}, "properties": {"NAME": "W7U/UI-021", "TITLE": "6917", "REGION": "Uintah County", "ASSOCIATION": "USA - Utah", "POINTS": "4", "BONUSPOINTS": "3"}}, {"type": "Feature", "geometry": {"type": "Point", "coordinates": [-109.4554, 40.5347]}, "properties": {"NAME": "W7U/UI-022", "TITLE": "Buckskin Hills", "REGION": "Uintah County", "ASSOCIATION": "USA - Utah", "POINTS": "4", "BONUSPOINTS": "3"}}, {"type": "Feature", "geometry": {"type": "Point", "coordinates": [-109.464, 40.5565]}, "properties": {"NAME": "W7U/UI-023", "TITLE": "6723", "REGION": "Uintah County", "ASSOCIATION": "USA - Utah", "POINTS": "4", "BONUSPOINTS": "3"}}, {"type": "Feature", "geometry": {"type": "Point", "coordinates": [-109.609, 40.4424]}, "properties": {"NAME": "W7U/UI-024", "TITLE": "6687", "REGION": "Uintah County", "ASSOCIATION": "USA - Utah", "POINTS": "4", "BONUSPOINTS": "3"}}, {"type": "Feature", "geometry": {"type": "Point", "coordinates": [-109.6764, 39.7542]}, "properties": {"NAME": "W7U/UI-025", "TITLE": "Big Pack Mountain", "REGION": "Uintah County", "ASSOCIATION": "USA - Utah", "POINTS": "4", "BONUSPOINTS": "3"}}, {"type": "Feature", "geometry": {"type": "Point", "coordinates": [-109.196, 40.384]}, "properties": {"NAME": "W7U/UI-026", "TITLE": "6500", "REGION": "Uintah County", "ASSOCIATION": "USA - Utah", "POINTS": "2", "BONUSPOINTS": "3"}}, {"type": "Feature", "geometry": {"type": "Point", "coordinates": [-109.0999, 40.2098]}, "properties": {"NAME": "W7U/UI-027", "TITLE": "Squaw Ridge", "REGION": "Uintah County", "ASSOCIATION": "USA - Utah", "POINTS": "2", "BONUSPOINTS": "3"}}, {"type": "Feature", "geometry": {"type": "Point", "coordinates": [-109.548, 40.379]}, "properties": {"NAME": "W7U/UI-028", "TITLE": "Asphalt Ridge", "REGION": "Uintah County", "ASSOCIATION": "USA - Utah", "POINTS": "2", "BONUSPOINTS": "3"}}, {"type": "Feature", "geometry": {"type": "Point", "coordinates": [-109.0676, 40.5674]}, "properties": {"NAME": "W7U/UI-029", "TITLE": "6235", "REGION": "Uintah County", "ASSOCIATION": "USA - Utah", "POINTS": "2", "BONUSPOINTS": "3"}}, {"type": "Feature", "geometry": {"type": "Point", "coordinates": [-110.0202, 39.574]}, "properties": {"NAME": "W7U/UI-030", "TITLE": "6178", "REGION": "Uintah County", "ASSOCIATION": "USA - Utah", "POINTS": "2", "BONUSPOINTS": "0"}}, {"type": "Feature", "geometry": {"type": "Point", "coordinates": [-110.0194, 39.6028]}, "properties": {"NAME": "W7U/UI-031", "TITLE": "5979", "REGION": "Uintah County", "ASSOCIATION": "USA - Utah", "POINTS": "2", "BONUSPOINTS": "0"}}]}