{"type": "FeatureCollection", "name": "W7U/WA SUMMITS", "features": [{"type": "Feature", "geometry": {"type": "Point", "coordinates": [-111.0083, 40.4082]}, "properties": {"NAME": "W7U/WA-001", "TITLE": "Red Creek Mountain", "REGION": "Wasatch County", "ASSOCIATION": "USA - Utah", "POINTS": "10", "BONUSPOINTS": "3"}}, {"type": "Feature", "geometry": {"type": "Point", "coordinates": [-111.1749, 40.3782]}, "properties": {"NAME": "W7U/WA-002", "TITLE": "Currant Creek Peak", "REGION": "Wasatch County", "ASSOCIATION": "USA - Utah", "POINTS": "10", "BONUSPOINTS": "3"}}, {"type": "Feature", "geometry": {"type": "Point", "coordinates": [-110.9133, 40.6176]}, "properties": {"NAME": "W7U/WA-003", "TITLE": "10541", "REGION": "Wasatch County", "ASSOCIATION": "USA - Utah", "POINTS": "10", "BONUSPOINTS": "3"}}, {"type": "Feature", "geometry": {"type": "Point", "coordinates": [-110.9765, 40.576]}, "properties": {"NAME": "W7U/WA-004", "TITLE": "Iron Mine Mountain", "REGION": "Wasatch County", "ASSOCIATION": "USA - Utah", "POINTS": "8", "BONUSPOINTS": "3"}}, {"type": "Feature", "geometry": {"type": "Point", "coordinates": [-111.1305, 40.3094]}, "properties": {"NAME": "W7U/WA-005", "TITLE": "Racetrack Benchmark", "REGION": "Wasatch County", "ASSOCIATION": "USA - Utah", "POINTS": "8", "BONUSPOINTS": "3"}}, {"type": "Feature", "geometry": {"type": "Point", "coordinates": [-110.9233, 40.5096]}, "properties": {"NAME": "W7U/WA-006", "TITLE": "10159", "REGION": "Wasatch County", "ASSOCIATION": "USA - Utah", "POINTS": "8", "BONUSPOINTS": "3"}}, {"type": "Feature", "geometry": {"type": "Point", "coordinates": [-110.9632, 40.3556]}, "properties": {"NAME": "W7U/WA-007", "TITLE": "Raspberry Knoll", "REGION": "Wasatch County", "ASSOCIATION": "USA - Utah", "POINTS": "8", "BONUSPOINTS": "3"}}, {"type": "Feature", "geometry": {"type": "Point", "coordinates": [-111.0873, 40.0788]}, "properties": {"NAME": "W7U/WA-008", "TITLE": "9716", "REGION": "Wasatch County", "ASSOCIATION": "USA - Utah", "POINTS": "8", "BONUSPOINTS": "3"}}, {"type": "Feature", "geometry": {"type": "Point", "coordinates": [-111.1222, 40.0681]}, "properties": {"NAME": "W7U/WA-009", "TITLE": "9620", "REGION": "Wasatch County", "ASSOCIATION": "USA - Utah", "POINTS": "8", "BONUSPOINTS": "3"}}, {"type": "Feature", "geometry": {"type": "Point", "coordinates": [-111.1822, 40.3392]}, "properties": {"NAME": "W7U/WA-010", "TITLE": "9563", "REGION": "Wasatch County", "ASSOCIATION": "USA - Utah", "POINTS": "8", "BONUSPOINTS": "3"}}, {"type": "Feature", "geometry": {"type": "Point", "coordinates": [-111.081, 40.0177]}, "properties": {"NAME": "W7U/WA-011", "TITLE": "9540", "REGION": "Wasatch County", "ASSOCIATION": "USA - Utah", "POINTS": "8", "BONUSPOINTS": "3"}}, {"type": "Feature", "geometry": {"type": "Point", "coordinates": [-110.894, 40.0254]}, "properties": {"NAME": "W7U/WA-012", "TITLE": "9418", "REGION": "Wasatch County", "ASSOCIATION": "USA - Utah", "POINTS": "8", "BONUSPOINTS": "3"}}, {"type": "Feature", "geometry": {"type": "Point", "coordinates": [-111.0277, 40.2698]}, "properties": {"NAME": "W7U/WA-013", "TITLE": "Buckhorn Knoll", "REGION": "Wasatch County", "ASSOCIATION": "USA - Utah", "POINTS": "8", "BONUSPOINTS": "3"}}, {"type": "Feature", "geometry": {"type": "Point", "coordinates": [-111.0511, 39.9912]}, "properties": {"NAME": "W7U/WA-014", "TITLE": "Gremo Hill", "REGION": "Wasatch County", "ASSOCIATION": "USA - Utah", "POINTS": "8", "BONUSPOINTS": "3"}}, {"type": "Feature", "geometry": {"type": "Point", "coordinates": [-111.2094, 40.3347]}, "properties": {"NAME": "W7U/WA-015", "TITLE": "8978", "REGION": "Wasatch County", "ASSOCIATION": "USA - Utah", "POINTS": "6", "BONUSPOINTS": "3"}}, {"type": "Feature", "geometry": {"type": "Point", "coordinates": [-111.101, 39.9751]}, "properties": {"NAME": "W7U/WA-016", "TITLE": "8775", "REGION": "Wasatch County", "ASSOCIATION": "USA - Utah", "POINTS": "6", "BONUSPOINTS": "3"}}, {"type": "Feature", "geometry": {"type": "Point", "coordinates": [-110.9413, 40.1423]}, "properties": {"NAME": "W7U/WA-017", "TITLE": "8550", "REGION": "Wasatch County", "ASSOCIATION": "USA - Utah", "POINTS": "6", "BONUSPOINTS": "3"}}, {"type": "Feature", "geometry": {"type": "Point", "coordinates": [-111.3908, 40.4242]}, "properties": {"NAME": "W7U/WA-018", "TITLE": "8193", "REGION": "Wasatch County", "ASSOCIATION": "USA - Utah", "POINTS": "6", "BONUSPOINTS": "3"}}, {"type": "Feature", "geometry": {"type": "Point", "coordinates": [-111.1101, 40.1409]}, "properties": {"NAME": "W7U/WA-019", "TITLE": "Island Mountain", "REGION": "Wasatch County", "ASSOCIATION": "USA - Utah", "POINTS": "6", "BONUSPOINTS": "3"}}, {"type": "Feature", "geometry": {"type": "Point", "coordinates": [-111.4064, 40.3189]}, "properties": {"NAME": "W7U/WA-020", "TITLE": "7842", "REGION": "Wasatch County", "ASSOCIATION": "USA - Utah", "POINTS": "6", "BONUSPOINTS": "3"}}, {"type": "Feature", "geometry": {"type": "Point", "coordinates": [-111.4956, 40.4161]}, "properties": {"NAME": "W7U/WA-021", "TITLE": "6194", "REGION": "Wasatch County", "ASSOCIATION": "USA - Utah", "POINTS": "2", "BONUSPOINTS": "0"}}]}