{"type": "FeatureCollection", "name": "W7U/SJ SUMMITS", "features": [{"type": "Feature", "geometry": {"type": "Point", "coordinates": [-109.2612, 38.4011]}, "properties": {"NAME": "W7U/SJ-001", "TITLE": "South Mountain", "REGION": "San Juan County", "ASSOCIATION": "USA - Utah", "POINTS": "10", "BONUSPOINTS": "3"}}, {"type": "Feature", "geometry": {"type": "Point", "coordinates": [-109.4723, 37.8557]}, "properties": {"NAME": "W7U/SJ-002", "TITLE": "11209", "REGION": "San Juan County", "ASSOCIATION": "USA - Utah", "POINTS": "10", "BONUSPOINTS": "3"}}, {"type": "Feature", "geometry": {"type": "Point", "coordinates": [-109.457, 37.8112]}, "properties": {"NAME": "W7U/SJ-003", "TITLE": "South Peak", "REGION": "San Juan County", "ASSOCIATION": "USA - Utah", "POINTS": "10", "BONUSPOINTS": "3"}}, {"type": "Feature", "geometry": {"type": "Point", "coordinates": [-109.5415, 37.8289]}, "properties": {"NAME": "W7U/SJ-004", "TITLE": "West Mountain", "REGION": "San Juan County", "ASSOCIATION": "USA - Utah", "POINTS": "10", "BONUSPOINTS": "3"}}, {"type": "Feature", "geometry": {"type": "Point", "coordinates": [-109.4949, 37.8567]}, "properties": {"NAME": "W7U/SJ-005", "TITLE": "Twin Peaks East", "REGION": "San Juan County", "ASSOCIATION": "USA - Utah", "POINTS": "10", "BONUSPOINTS": "3"}}, {"type": "Feature", "geometry": {"type": "Point", "coordinates": [-109.549, 37.9358]}, "properties": {"NAME": "W7U/SJ-006", "TITLE": "Shay Mountain", "REGION": "San Juan County", "ASSOCIATION": "USA - Utah", "POINTS": "8", "BONUSPOINTS": "3"}}, {"type": "Feature", "geometry": {"type": "Point", "coordinates": [-109.7815, 37.8771]}, "properties": {"NAME": "W7U/SJ-007", "TITLE": "Horse Mountain", "REGION": "San Juan County", "ASSOCIATION": "USA - Utah", "POINTS": "8", "BONUSPOINTS": "3"}}, {"type": "Feature", "geometry": {"type": "Point", "coordinates": [-109.8557, 37.6269]}, "properties": {"NAME": "W7U/SJ-008", "TITLE": "Bears Ears East", "REGION": "San Juan County", "ASSOCIATION": "USA - Utah", "POINTS": "8", "BONUSPOINTS": "3"}}, {"type": "Feature", "geometry": {"type": "Point", "coordinates": [-109.8787, 37.7097]}, "properties": {"NAME": "W7U/SJ-009", "TITLE": "Brushy Knoll", "REGION": "San Juan County", "ASSOCIATION": "USA - Utah", "POINTS": "6", "BONUSPOINTS": "3"}}, {"type": "Feature", "geometry": {"type": "Point", "coordinates": [-109.9615, 37.7053]}, "properties": {"NAME": "W7U/SJ-010", "TITLE": "Heel, The", "REGION": "San Juan County", "ASSOCIATION": "USA - Utah", "POINTS": "6", "BONUSPOINTS": "3"}}, {"type": "Feature", "geometry": {"type": "Point", "coordinates": [-109.949, 37.6817]}, "properties": {"NAME": "W7U/SJ-011", "TITLE": "Toe, The", "REGION": "San Juan County", "ASSOCIATION": "USA - Utah", "POINTS": "6", "BONUSPOINTS": "3"}}, {"type": "Feature", "geometry": {"type": "Point", "coordinates": [-109.9101, 37.7582]}, "properties": {"NAME": "W7U/SJ-012", "TITLE": "Dry Mesa South", "REGION": "San Juan County", "ASSOCIATION": "USA - Utah", "POINTS": "6", "BONUSPOINTS": "3"}}, {"type": "Feature", "geometry": {"type": "Point", "coordinates": [-109.9322, 37.7871]}, "properties": {"NAME": "W7U/SJ-013", "TITLE": "Dry Mesa North", "REGION": "San Juan County", "ASSOCIATION": "USA - Utah", "POINTS": "6", "BONUSPOINTS": "3"}}, {"type": "Feature", "geometry": {"type": "Point", "coordinates": [-109.7495, 37.8987]}, "properties": {"NAME": "W7U/SJ-014", "TITLE": "8808", "REGION": "San Juan County", "ASSOCIATION": "USA - Utah", "POINTS": "6", "BONUSPOINTS": "3"}}, {"type": "Feature", "geometry": {"type": "Point", "coordinates": [-109.7424, 37.8456]}, "properties": {"NAME": "W7U/SJ-015", "TITLE": "Round Mountain", "REGION": "San Juan County", "ASSOCIATION": "USA - Utah", "POINTS": "6", "BONUSPOINTS": "3"}}, {"type": "Feature", "geometry": {"type": "Point", "coordinates": [-109.7363, 37.8666]}, "properties": {"NAME": "W7U/SJ-016", "TITLE": "Seven Sisters Buttes South", "REGION": "San Juan County", "ASSOCIATION": "USA - Utah", "POINTS": "6", "BONUSPOINTS": "3"}}, {"type": "Feature", "geometry": {"type": "Point", "coordinates": [-109.9099, 37.8746]}, "properties": {"NAME": "W7U/SJ-017", "TITLE": "Sweet Alice Hills", "REGION": "San Juan County", "ASSOCIATION": "USA - Utah", "POINTS": "6", "BONUSPOINTS": "3"}}, {"type": "Feature", "geometry": {"type": "Point", "coordinates": [-109.7496, 37.92]}, "properties": {"NAME": "W7U/SJ-018", "TITLE": "Boundary Butte", "REGION": "San Juan County", "ASSOCIATION": "USA - Utah", "POINTS": "6", "BONUSPOINTS": "3"}}, {"type": "Feature", "geometry": {"type": "Point", "coordinates": [-109.8068, 37.629]}, "properties": {"NAME": "W7U/SJ-019", "TITLE": "8178", "REGION": "San Juan County", "ASSOCIATION": "USA - Utah", "POINTS": "6", "BONUSPOINTS": "3"}}, {"type": "Feature", "geometry": {"type": "Point", "coordinates": [-109.7168, 37.9137]}, "properties": {"NAME": "W7U/SJ-020", "TITLE": "Seven Sisters Buttes North", "REGION": "San Juan County", "ASSOCIATION": "USA - Utah", "POINTS": "6", "BONUSPOINTS": "3"}}, {"type": "Feature", "geometry": {"type": "Point", "coordinates": [-109.6985, 37.9528]}, "properties": {"NAME": "W7U/SJ-021", "TITLE": "Cathedral Butte", "REGION": "San Juan County", "ASSOCIATION": "USA - Utah", "POINTS": "6", "BONUSPOINTS": "3"}}, {"type": "Feature", "geometry": {"type": "Point", "coordinates": [-109.9663, 37.8283]}, "properties": {"NAME": "W7U/SJ-022", "TITLE": "7844", "REGION": "San Juan County", "ASSOCIATION": "USA - Utah", "POINTS": "6", "BONUSPOINTS": "3"}}, {"type": "Feature", "geometry": {"type": "Point", "coordinates": [-109.7993, 37.9628]}, "properties": {"NAME": "W7U/SJ-023", "TITLE": "7748", "REGION": "San Juan County", "ASSOCIATION": "USA - Utah", "POINTS": "6", "BONUSPOINTS": "3"}}, {"type": "Feature", "geometry": {"type": "Point", "coordinates": [-110.0657, 37.5489]}, "properties": {"NAME": "W7U/SJ-024", "TITLE": "Moss Back Butte", "REGION": "San Juan County", "ASSOCIATION": "USA - Utah", "POINTS": "6", "BONUSPOINTS": "3"}}, {"type": "Feature", "geometry": {"type": "Point", "coordinates": [-109.6651, 37.9644]}, "properties": {"NAME": "W7U/SJ-025", "TITLE": "Bridger Jack Mesa", "REGION": "San Juan County", "ASSOCIATION": "USA - Utah", "POINTS": "6", "BONUSPOINTS": "3"}}, {"type": "Feature", "geometry": {"type": "Point", "coordinates": [-110.1028, 37.5428]}, "properties": {"NAME": "W7U/SJ-026", "TITLE": "Tables of The Sun South", "REGION": "San Juan County", "ASSOCIATION": "USA - Utah", "POINTS": "4", "BONUSPOINTS": "3"}}, {"type": "Feature", "geometry": {"type": "Point", "coordinates": [-109.8725, 37.8989]}, "properties": {"NAME": "W7U/SJ-027", "TITLE": "7416", "REGION": "San Juan County", "ASSOCIATION": "USA - Utah", "POINTS": "4", "BONUSPOINTS": "3"}}, {"type": "Feature", "geometry": {"type": "Point", "coordinates": [-109.8469, 37.9859]}, "properties": {"NAME": "W7U/SJ-028", "TITLE": "7414", "REGION": "San Juan County", "ASSOCIATION": "USA - Utah", "POINTS": "4", "BONUSPOINTS": "3"}}, {"type": "Feature", "geometry": {"type": "Point", "coordinates": [-109.8602, 37.9655]}, "properties": {"NAME": "W7U/SJ-029", "TITLE": "House Park Butte", "REGION": "San Juan County", "ASSOCIATION": "USA - Utah", "POINTS": "4", "BONUSPOINTS": "3"}}, {"type": "Feature", "geometry": {"type": "Point", "coordinates": [-110.1198, 37.5617]}, "properties": {"NAME": "W7U/SJ-030", "TITLE": "Tables of The Sun, Middle", "REGION": "San Juan County", "ASSOCIATION": "USA - Utah", "POINTS": "4", "BONUSPOINTS": "3"}}, {"type": "Feature", "geometry": {"type": "Point", "coordinates": [-109.8471, 37.9975]}, "properties": {"NAME": "W7U/SJ-031", "TITLE": "7259", "REGION": "San Juan County", "ASSOCIATION": "USA - Utah", "POINTS": "4", "BONUSPOINTS": "3"}}, {"type": "Feature", "geometry": {"type": "Point", "coordinates": [-109.2731, 38.238]}, "properties": {"NAME": "W7U/SJ-032", "TITLE": "La Sal Benchmark", "REGION": "San Juan County", "ASSOCIATION": "USA - Utah", "POINTS": "4", "BONUSPOINTS": "3"}}, {"type": "Feature", "geometry": {"type": "Point", "coordinates": [-110.809, 37.0649]}, "properties": {"NAME": "W7U/SJ-033", "TITLE": "Navajo Begay", "REGION": "San Juan County", "ASSOCIATION": "USA - Utah", "POINTS": "4", "BONUSPOINTS": "3"}}, {"type": "Feature", "geometry": {"type": "Point", "coordinates": [-110.1355, 37.5775]}, "properties": {"NAME": "W7U/SJ-034", "TITLE": "Tables of The Sun North", "REGION": "San Juan County", "ASSOCIATION": "USA - Utah", "POINTS": "4", "BONUSPOINTS": "3"}}, {"type": "Feature", "geometry": {"type": "Point", "coordinates": [-109.8875, 38.0125]}, "properties": {"NAME": "W7U/SJ-035", "TITLE": "7125", "REGION": "San Juan County", "ASSOCIATION": "USA - Utah", "POINTS": "4", "BONUSPOINTS": "3"}}, {"type": "Feature", "geometry": {"type": "Point", "coordinates": [-110.1601, 37.6087]}, "properties": {"NAME": "W7U/SJ-036", "TITLE": "Wingate Mesa", "REGION": "San Juan County", "ASSOCIATION": "USA - Utah", "POINTS": "4", "BONUSPOINTS": "3"}}, {"type": "Feature", "geometry": {"type": "Point", "coordinates": [-109.6485, 38.0763]}, "properties": {"NAME": "W7U/SJ-037", "TITLE": "Lavender Benchmark", "REGION": "San Juan County", "ASSOCIATION": "USA - Utah", "POINTS": "4", "BONUSPOINTS": "3"}}, {"type": "Feature", "geometry": {"type": "Point", "coordinates": [-109.8565, 38.0227]}, "properties": {"NAME": "W7U/SJ-038", "TITLE": "6912", "REGION": "San Juan County", "ASSOCIATION": "USA - Utah", "POINTS": "4", "BONUSPOINTS": "3"}}, {"type": "Feature", "geometry": {"type": "Point", "coordinates": [-110.19, 37.5274]}, "properties": {"NAME": "W7U/SJ-039", "TITLE": "6838", "REGION": "San Juan County", "ASSOCIATION": "USA - Utah", "POINTS": "4", "BONUSPOINTS": "3"}}, {"type": "Feature", "geometry": {"type": "Point", "coordinates": [-110.1963, 37.7311]}, "properties": {"NAME": "W7U/SJ-040", "TITLE": "Jacobs Chair", "REGION": "San Juan County", "ASSOCIATION": "USA - Utah", "POINTS": "4", "BONUSPOINTS": "3"}}, {"type": "Feature", "geometry": {"type": "Point", "coordinates": [-109.6687, 38.047]}, "properties": {"NAME": "W7U/SJ-041", "TITLE": "6787", "REGION": "San Juan County", "ASSOCIATION": "USA - Utah", "POINTS": "4", "BONUSPOINTS": "3"}}, {"type": "Feature", "geometry": {"type": "Point", "coordinates": [-109.5955, 38.0586]}, "properties": {"NAME": "W7U/SJ-042", "TITLE": "Cotton Benchmark", "REGION": "San Juan County", "ASSOCIATION": "USA - Utah", "POINTS": "4", "BONUSPOINTS": "3"}}, {"type": "Feature", "geometry": {"type": "Point", "coordinates": [-110.0847, 37.0461]}, "properties": {"NAME": "W7U/SJ-043", "TITLE": "Brighams Tomb", "REGION": "San Juan County", "ASSOCIATION": "USA - Utah", "POINTS": "4", "BONUSPOINTS": "3"}}, {"type": "Feature", "geometry": {"type": "Point", "coordinates": [-110.2263, 37.4624]}, "properties": {"NAME": "W7U/SJ-044", "TITLE": "Clay Hills", "REGION": "San Juan County", "ASSOCIATION": "USA - Utah", "POINTS": "4", "BONUSPOINTS": "3"}}, {"type": "Feature", "geometry": {"type": "Point", "coordinates": [-110.1217, 37.0477]}, "properties": {"NAME": "W7U/SJ-045", "TITLE": "Eagle Mesa", "REGION": "San Juan County", "ASSOCIATION": "USA - Utah", "POINTS": "4", "BONUSPOINTS": "3"}}, {"type": "Feature", "geometry": {"type": "Point", "coordinates": [-110.3259, 37.4076]}, "properties": {"NAME": "W7U/SJ-046", "TITLE": "6580", "REGION": "San Juan County", "ASSOCIATION": "USA - Utah", "POINTS": "4", "BONUSPOINTS": "3"}}, {"type": "Feature", "geometry": {"type": "Point", "coordinates": [-109.4716, 38.4767]}, "properties": {"NAME": "W7U/SJ-047", "TITLE": "6580", "REGION": "San Juan County", "ASSOCIATION": "USA - Utah", "POINTS": "4", "BONUSPOINTS": "3"}}, {"type": "Feature", "geometry": {"type": "Point", "coordinates": [-110.5066, 37.0808]}, "properties": {"NAME": "W7U/SJ-048", "TITLE": "No Mans Mesa", "REGION": "San Juan County", "ASSOCIATION": "USA - Utah", "POINTS": "4", "BONUSPOINTS": "3"}}, {"type": "Feature", "geometry": {"type": "Point", "coordinates": [-110.1046, 37.0114]}, "properties": {"NAME": "W7U/SJ-049", "TITLE": "Sentinel Mesa", "REGION": "San Juan County", "ASSOCIATION": "USA - Utah", "POINTS": "2", "BONUSPOINTS": "3"}}, {"type": "Feature", "geometry": {"type": "Point", "coordinates": [-110.3436, 37.5676]}, "properties": {"NAME": "W7U/SJ-050", "TITLE": "Uranium Benchmark", "REGION": "San Juan County", "ASSOCIATION": "USA - Utah", "POINTS": "2", "BONUSPOINTS": "3"}}, {"type": "Feature", "geometry": {"type": "Point", "coordinates": [-109.8729, 38.2867]}, "properties": {"NAME": "W7U/SJ-051", "TITLE": "Junction Butte", "REGION": "San Juan County", "ASSOCIATION": "USA - Utah", "POINTS": "2", "BONUSPOINTS": "3"}}, {"type": "Feature", "geometry": {"type": "Point", "coordinates": [-109.668, 38.1376]}, "properties": {"NAME": "W7U/SJ-052", "TITLE": "North Six-Shooter Peak", "REGION": "San Juan County", "ASSOCIATION": "USA - Utah", "POINTS": "2", "BONUSPOINTS": "3"}}, {"type": "Feature", "geometry": {"type": "Point", "coordinates": [-110.3157, 37.7786]}, "properties": {"NAME": "W7U/SJ-053", "TITLE": "White Benchmark", "REGION": "San Juan County", "ASSOCIATION": "USA - Utah", "POINTS": "2", "BONUSPOINTS": "3"}}, {"type": "Feature", "geometry": {"type": "Point", "coordinates": [-109.6507, 38.1208]}, "properties": {"NAME": "W7U/SJ-054", "TITLE": "South Six-Shooter Peak", "REGION": "San Juan County", "ASSOCIATION": "USA - Utah", "POINTS": "2", "BONUSPOINTS": "0"}}, {"type": "Feature", "geometry": {"type": "Point", "coordinates": [-110.9004, 37.0871]}, "properties": {"NAME": "W7U/SJ-055", "TITLE": "6140", "REGION": "San Juan County", "ASSOCIATION": "USA - Utah", "POINTS": "2", "BONUSPOINTS": "0"}}, {"type": "Feature", "geometry": {"type": "Point", "coordinates": [-110.0921, 37.0204]}, "properties": {"NAME": "W7U/SJ-056", "TITLE": "Big Indian", "REGION": "San Juan County", "ASSOCIATION": "USA - Utah", "POINTS": "2", "BONUSPOINTS": "0"}}, {"type": "Feature", "geometry": {"type": "Point", "coordinates": [-110.4638, 37.2172]}, "properties": {"NAME": "W7U/SJ-057", "TITLE": "Monitor Butte", "REGION": "San Juan County", "ASSOCIATION": "USA - Utah", "POINTS": "2", "BONUSPOINTS": "0"}}, {"type": "Feature", "geometry": {"type": "Point", "coordinates": [-110.5705, 37.262]}, "properties": {"NAME": "W7U/SJ-058", "TITLE": "Nokai Dome", "REGION": "San Juan County", "ASSOCIATION": "USA - Utah", "POINTS": "2", "BONUSPOINTS": "0"}}, {"type": "Feature", "geometry": {"type": "Point", "coordinates": [-110.037, 37.1819]}, "properties": {"NAME": "W7U/SJ-059", "TITLE": "Douglas Mesa", "REGION": "San Juan County", "ASSOCIATION": "USA - Utah", "POINTS": "2", "BONUSPOINTS": "0"}}, {"type": "Feature", "geometry": {"type": "Point", "coordinates": [-109.6096, 37.5252]}, "properties": {"NAME": "W7U/SJ-060", "TITLE": "Black Mesa", "REGION": "San Juan County", "ASSOCIATION": "USA - Utah", "POINTS": "2", "BONUSPOINTS": "0"}}, {"type": "Feature", "geometry": {"type": "Point", "coordinates": [-109.7928, 38.4138]}, "properties": {"NAME": "W7U/SJ-061", "TITLE": "5983", "REGION": "San Juan County", "ASSOCIATION": "USA - Utah", "POINTS": "2", "BONUSPOINTS": "0"}}, {"type": "Feature", "geometry": {"type": "Point", "coordinates": [-110.1962, 37.0045]}, "properties": {"NAME": "W7U/SJ-062", "TITLE": "Rock Door Mesa", "REGION": "San Juan County", "ASSOCIATION": "USA - Utah", "POINTS": "2", "BONUSPOINTS": "0"}}, {"type": "Feature", "geometry": {"type": "Point", "coordinates": [-110.4003, 37.0767]}, "properties": {"NAME": "W7U/SJ-063", "TITLE": "5965", "REGION": "San Juan County", "ASSOCIATION": "USA - Utah", "POINTS": "2", "BONUSPOINTS": "0"}}, {"type": "Feature", "geometry": {"type": "Point", "coordinates": [-110.2113, 37.0115]}, "properties": {"NAME": "W7U/SJ-064", "TITLE": "Goulding Benchmark", "REGION": "San Juan County", "ASSOCIATION": "USA - Utah", "POINTS": "2", "BONUSPOINTS": "0"}}, {"type": "Feature", "geometry": {"type": "Point", "coordinates": [-109.9317, 38.3807]}, "properties": {"NAME": "W7U/SJ-065", "TITLE": "Candlestick Tower", "REGION": "San Juan County", "ASSOCIATION": "USA - Utah", "POINTS": "2", "BONUSPOINTS": "0"}}, {"type": "Feature", "geometry": {"type": "Point", "coordinates": [-110.4389, 37.0628]}, "properties": {"NAME": "W7U/SJ-066", "TITLE": "Tse-Dahascani", "REGION": "San Juan County", "ASSOCIATION": "USA - Utah", "POINTS": "2", "BONUSPOINTS": "0"}}, {"type": "Feature", "geometry": {"type": "Point", "coordinates": [-109.3031, 37.0793]}, "properties": {"NAME": "W7U/SJ-067", "TITLE": "White Mesa", "REGION": "San Juan County", "ASSOCIATION": "USA - Utah", "POINTS": "2", "BONUSPOINTS": "0"}}, {"type": "Feature", "geometry": {"type": "Point", "coordinates": [-110.4136, 37.3064]}, "properties": {"NAME": "W7U/SJ-068", "TITLE": "Mikes Mesa", "REGION": "San Juan County", "ASSOCIATION": "USA - Utah", "POINTS": "2", "BONUSPOINTS": "0"}}, {"type": "Feature", "geometry": {"type": "Point", "coordinates": [-109.7729, 38.4884]}, "properties": {"NAME": "W7U/SJ-069", "TITLE": "5843", "REGION": "San Juan County", "ASSOCIATION": "USA - Utah", "POINTS": "2", "BONUSPOINTS": "0"}}, {"type": "Feature", "geometry": {"type": "Point", "coordinates": [-110.2574, 37.0903]}, "properties": {"NAME": "W7U/SJ-070", "TITLE": "Train Rock", "REGION": "San Juan County", "ASSOCIATION": "USA - Utah", "POINTS": "2", "BONUSPOINTS": "0"}}, {"type": "Feature", "geometry": {"type": "Point", "coordinates": [-109.9333, 38.4121]}, "properties": {"NAME": "W7U/SJ-071", "TITLE": "5826", "REGION": "San Juan County", "ASSOCIATION": "USA - Utah", "POINTS": "2", "BONUSPOINTS": "0"}}, {"type": "Feature", "geometry": {"type": "Point", "coordinates": [-109.7107, 38.395]}, "properties": {"NAME": "W7U/SJ-072", "TITLE": "United Nations Tablet", "REGION": "San Juan County", "ASSOCIATION": "USA - Utah", "POINTS": "2", "BONUSPOINTS": "0"}}, {"type": "Feature", "geometry": {"type": "Point", "coordinates": [-109.8081, 38.3932]}, "properties": {"NAME": "W7U/SJ-073", "TITLE": "Airport Tower", "REGION": "San Juan County", "ASSOCIATION": "USA - Utah", "POINTS": "2", "BONUSPOINTS": "0"}}, {"type": "Feature", "geometry": {"type": "Point", "coordinates": [-110.4291, 37.0086]}, "properties": {"NAME": "W7U/SJ-074", "TITLE": "5761", "REGION": "San Juan County", "ASSOCIATION": "USA - Utah", "POINTS": "2", "BONUSPOINTS": "0"}}, {"type": "Feature", "geometry": {"type": "Point", "coordinates": [-110.4218, 37.6638]}, "properties": {"NAME": "W7U/SJ-075", "TITLE": "5700", "REGION": "San Juan County", "ASSOCIATION": "USA - Utah", "POINTS": "2", "BONUSPOINTS": "0"}}, {"type": "Feature", "geometry": {"type": "Point", "coordinates": [-109.4468, 37.1897]}, "properties": {"NAME": "W7U/SJ-076", "TITLE": "Hogan Mesa", "REGION": "San Juan County", "ASSOCIATION": "USA - Utah", "POINTS": "2", "BONUSPOINTS": "0"}}, {"type": "Feature", "geometry": {"type": "Point", "coordinates": [-109.8112, 37.166]}, "properties": {"NAME": "W7U/SJ-077", "TITLE": "Raplee Ridge South", "REGION": "San Juan County", "ASSOCIATION": "USA - Utah", "POINTS": "2", "BONUSPOINTS": "0"}}, {"type": "Feature", "geometry": {"type": "Point", "coordinates": [-109.4077, 37.1718]}, "properties": {"NAME": "W7U/SJ-078", "TITLE": "Standing Rock", "REGION": "San Juan County", "ASSOCIATION": "USA - Utah", "POINTS": "2", "BONUSPOINTS": "0"}}, {"type": "Feature", "geometry": {"type": "Point", "coordinates": [-110.4347, 37.0786]}, "properties": {"NAME": "W7U/SJ-079", "TITLE": "5573", "REGION": "San Juan County", "ASSOCIATION": "USA - Utah", "POINTS": "2", "BONUSPOINTS": "0"}}, {"type": "Feature", "geometry": {"type": "Point", "coordinates": [-109.6539, 38.432]}, "properties": {"NAME": "W7U/SJ-080", "TITLE": "5569", "REGION": "San Juan County", "ASSOCIATION": "USA - Utah", "POINTS": "2", "BONUSPOINTS": "0"}}, {"type": "Feature", "geometry": {"type": "Point", "coordinates": [-109.794, 37.2142]}, "properties": {"NAME": "W7U/SJ-081", "TITLE": "Sugarloaf", "REGION": "San Juan County", "ASSOCIATION": "USA - Utah", "POINTS": "2", "BONUSPOINTS": "0"}}, {"type": "Feature", "geometry": {"type": "Point", "coordinates": [-110.3494, 37.0487]}, "properties": {"NAME": "W7U/SJ-082", "TITLE": "Holiday Mesa", "REGION": "San Juan County", "ASSOCIATION": "USA - Utah", "POINTS": "2", "BONUSPOINTS": "0"}}, {"type": "Feature", "geometry": {"type": "Point", "coordinates": [-109.6263, 38.4964]}, "properties": {"NAME": "W7U/SJ-083", "TITLE": "5500", "REGION": "San Juan County", "ASSOCIATION": "USA - Utah", "POINTS": "2", "BONUSPOINTS": "0"}}, {"type": "Feature", "geometry": {"type": "Point", "coordinates": [-109.4182, 37.2128]}, "properties": {"NAME": "W7U/SJ-084", "TITLE": "5479", "REGION": "San Juan County", "ASSOCIATION": "USA - Utah", "POINTS": "1", "BONUSPOINTS": "0"}}, {"type": "Feature", "geometry": {"type": "Point", "coordinates": [-110.8463, 37.1154]}, "properties": {"NAME": "W7U/SJ-085", "TITLE": "Cha Butte", "REGION": "San Juan County", "ASSOCIATION": "USA - Utah", "POINTS": "1", "BONUSPOINTS": "0"}}, {"type": "Feature", "geometry": {"type": "Point", "coordinates": [-109.8373, 37.2925]}, "properties": {"NAME": "W7U/SJ-086", "TITLE": "Battleship Rock", "REGION": "San Juan County", "ASSOCIATION": "USA - Utah", "POINTS": "1", "BONUSPOINTS": "0"}}, {"type": "Feature", "geometry": {"type": "Point", "coordinates": [-110.3207, 37.8622]}, "properties": {"NAME": "W7U/SJ-087", "TITLE": "Browns Rim", "REGION": "San Juan County", "ASSOCIATION": "USA - Utah", "POINTS": "1", "BONUSPOINTS": "0"}}, {"type": "Feature", "geometry": {"type": "Point", "coordinates": [-109.9902, 38.4198]}, "properties": {"NAME": "W7U/SJ-088", "TITLE": "5350", "REGION": "San Juan County", "ASSOCIATION": "USA - Utah", "POINTS": "1", "BONUSPOINTS": "0"}}, {"type": "Feature", "geometry": {"type": "Point", "coordinates": [-110.9284, 37.0768]}, "properties": {"NAME": "W7U/SJ-089", "TITLE": "5301", "REGION": "San Juan County", "ASSOCIATION": "USA - Utah", "POINTS": "1", "BONUSPOINTS": "0"}}, {"type": "Feature", "geometry": {"type": "Point", "coordinates": [-110.878, 37.1031]}, "properties": {"NAME": "W7U/SJ-090", "TITLE": "5300", "REGION": "San Juan County", "ASSOCIATION": "USA - Utah", "POINTS": "1", "BONUSPOINTS": "0"}}, {"type": "Feature", "geometry": {"type": "Point", "coordinates": [-109.8154, 37.1883]}, "properties": {"NAME": "W7U/SJ-091", "TITLE": "Raplee Ridge, Middle", "REGION": "San Juan County", "ASSOCIATION": "USA - Utah", "POINTS": "1", "BONUSPOINTS": "0"}}, {"type": "Feature", "geometry": {"type": "Point", "coordinates": [-109.6739, 38.3083]}, "properties": {"NAME": "W7U/SJ-092", "TITLE": "5201", "REGION": "San Juan County", "ASSOCIATION": "USA - Utah", "POINTS": "1", "BONUSPOINTS": "0"}}, {"type": "Feature", "geometry": {"type": "Point", "coordinates": [-110.3916, 37.7563]}, "properties": {"NAME": "W7U/SJ-093", "TITLE": "5190", "REGION": "San Juan County", "ASSOCIATION": "USA - Utah", "POINTS": "1", "BONUSPOINTS": "0"}}, {"type": "Feature", "geometry": {"type": "Point", "coordinates": [-110.3347, 37.6095]}, "properties": {"NAME": "W7U/SJ-094", "TITLE": "Chocolate Drop", "REGION": "San Juan County", "ASSOCIATION": "USA - Utah", "POINTS": "1", "BONUSPOINTS": "0"}}, {"type": "Feature", "geometry": {"type": "Point", "coordinates": [-109.691, 38.4547]}, "properties": {"NAME": "W7U/SJ-095", "TITLE": "Pyramid Butte", "REGION": "San Juan County", "ASSOCIATION": "USA - Utah", "POINTS": "1", "BONUSPOINTS": "0"}}, {"type": "Feature", "geometry": {"type": "Point", "coordinates": [-109.9446, 38.1299]}, "properties": {"NAME": "W7U/SJ-096", "TITLE": "5161", "REGION": "San Juan County", "ASSOCIATION": "USA - Utah", "POINTS": "1", "BONUSPOINTS": "0"}}, {"type": "Feature", "geometry": {"type": "Point", "coordinates": [-110.432, 37.1528]}, "properties": {"NAME": "W7U/SJ-097", "TITLE": "Monitor Mesa", "REGION": "San Juan County", "ASSOCIATION": "USA - Utah", "POINTS": "1", "BONUSPOINTS": "0"}}, {"type": "Feature", "geometry": {"type": "Point", "coordinates": [-110.9659, 37.0682]}, "properties": {"NAME": "W7U/SJ-098", "TITLE": "5118", "REGION": "San Juan County", "ASSOCIATION": "USA - Utah", "POINTS": "1", "BONUSPOINTS": "0"}}, {"type": "Feature", "geometry": {"type": "Point", "coordinates": [-110.3973, 37.7707]}, "properties": {"NAME": "W7U/SJ-099", "TITLE": "5117", "REGION": "San Juan County", "ASSOCIATION": "USA - Utah", "POINTS": "1", "BONUSPOINTS": "0"}}, {"type": "Feature", "geometry": {"type": "Point", "coordinates": [-109.7218, 37.1783]}, "properties": {"NAME": "W7U/SJ-100", "TITLE": "Mule Ear", "REGION": "San Juan County", "ASSOCIATION": "USA - Utah", "POINTS": "1", "BONUSPOINTS": "0"}}, {"type": "Feature", "geometry": {"type": "Point", "coordinates": [-109.7349, 37.106]}, "properties": {"NAME": "W7U/SJ-101", "TITLE": "5077", "REGION": "San Juan County", "ASSOCIATION": "USA - Utah", "POINTS": "1", "BONUSPOINTS": "0"}}, {"type": "Feature", "geometry": {"type": "Point", "coordinates": [-109.6511, 38.321]}, "properties": {"NAME": "W7U/SJ-102", "TITLE": "5068", "REGION": "San Juan County", "ASSOCIATION": "USA - Utah", "POINTS": "1", "BONUSPOINTS": "0"}}, {"type": "Feature", "geometry": {"type": "Point", "coordinates": [-109.7392, 37.2179]}, "properties": {"NAME": "W7U/SJ-103", "TITLE": "5031", "REGION": "San Juan County", "ASSOCIATION": "USA - Utah", "POINTS": "1", "BONUSPOINTS": "0"}}, {"type": "Feature", "geometry": {"type": "Point", "coordinates": [-110.9405, 37.0974]}, "properties": {"NAME": "W7U/SJ-104", "TITLE": "Dougi Butte", "REGION": "San Juan County", "ASSOCIATION": "USA - Utah", "POINTS": "1", "BONUSPOINTS": "0"}}, {"type": "Feature", "geometry": {"type": "Point", "coordinates": [-111.2868, 37.0018]}, "properties": {"NAME": "W7U/SJ-105", "TITLE": "Boundary Butte", "REGION": "San Juan County", "ASSOCIATION": "USA - Utah", "POINTS": "1", "BONUSPOINTS": "0"}}, {"type": "Feature", "geometry": {"type": "Point", "coordinates": [-111.2802, 37.0134]}, "properties": {"NAME": "W7U/SJ-106", "TITLE": "Meskin Benchmark", "REGION": "San Juan County", "ASSOCIATION": "USA - Utah", "POINTS": "1", "BONUSPOINTS": "0"}}, {"type": "Feature", "geometry": {"type": "Point", "coordinates": [-110.442, 37.7989]}, "properties": {"NAME": "W7U/SJ-107", "TITLE": "U169 Benchmark", "REGION": "San Juan County", "ASSOCIATION": "USA - Utah", "POINTS": "1", "BONUSPOINTS": "0"}}, {"type": "Feature", "geometry": {"type": "Point", "coordinates": [-109.8298, 38.2413]}, "properties": {"NAME": "W7U/SJ-108", "TITLE": "The Loop West", "REGION": "San Juan County", "ASSOCIATION": "USA - Utah", "POINTS": "1", "BONUSPOINTS": "0"}}, {"type": "Feature", "geometry": {"type": "Point", "coordinates": [-110.944, 37.064]}, "properties": {"NAME": "W7U/SJ-109", "TITLE": "4900", "REGION": "San Juan County", "ASSOCIATION": "USA - Utah", "POINTS": "1", "BONUSPOINTS": "0"}}, {"type": "Feature", "geometry": {"type": "Point", "coordinates": [-110.7936, 37.3047]}, "properties": {"NAME": "W7U/SJ-110", "TITLE": "Rincon, The", "REGION": "San Juan County", "ASSOCIATION": "USA - Utah", "POINTS": "1", "BONUSPOINTS": "0"}}, {"type": "Feature", "geometry": {"type": "Point", "coordinates": [-111.1723, 37.0088]}, "properties": {"NAME": "W7U/SJ-111", "TITLE": "U 23 Benchmark", "REGION": "San Juan County", "ASSOCIATION": "USA - Utah", "POINTS": "1", "BONUSPOINTS": "0"}}, {"type": "Feature", "geometry": {"type": "Point", "coordinates": [-109.755, 38.4509]}, "properties": {"NAME": "W7U/SJ-112", "TITLE": "Goose Neck", "REGION": "San Juan County", "ASSOCIATION": "USA - Utah", "POINTS": "1", "BONUSPOINTS": "0"}}, {"type": "Feature", "geometry": {"type": "Point", "coordinates": [-109.8083, 38.2366]}, "properties": {"NAME": "W7U/SJ-113", "TITLE": "The Loop East", "REGION": "San Juan County", "ASSOCIATION": "USA - Utah", "POINTS": "1", "BONUSPOINTS": "0"}}, {"type": "Feature", "geometry": {"type": "Point", "coordinates": [-111.2299, 37.0544]}, "properties": {"NAME": "W7U/SJ-114", "TITLE": "Gregory Butte", "REGION": "San Juan County", "ASSOCIATION": "USA - Utah", "POINTS": "1", "BONUSPOINTS": "0"}}, {"type": "Feature", "geometry": {"type": "Point", "coordinates": [-110.4452, 37.7307]}, "properties": {"NAME": "W7U/SJ-115", "TITLE": "Castle Butte", "REGION": "San Juan County", "ASSOCIATION": "USA - Utah", "POINTS": "1", "BONUSPOINTS": "0"}}, {"type": "Feature", "geometry": {"type": "Point", "coordinates": [-111.2785, 37.0308]}, "properties": {"NAME": "W7U/SJ-116", "TITLE": "Dominguez Butte", "REGION": "San Juan County", "ASSOCIATION": "USA - Utah", "POINTS": "1", "BONUSPOINTS": "0"}}]}