{"type": "FeatureCollection", "name": "W7U/MO SUMMITS", "features": [{"type": "Feature", "geometry": {"type": "Point", "coordinates": [-111.6729, 41.1391]}, "properties": {"NAME": "W7U/MO-001", "TITLE": "Durst Mountain", "REGION": "Morgan County", "ASSOCIATION": "USA - Utah", "POINTS": "8", "BONUSPOINTS": "3"}}, {"type": "Feature", "geometry": {"type": "Point", "coordinates": [-111.65, 41.1109]}, "properties": {"NAME": "W7U/MO-002", "TITLE": "8830", "REGION": "Morgan County", "ASSOCIATION": "USA - Utah", "POINTS": "6", "BONUSPOINTS": "3"}}, {"type": "Feature", "geometry": {"type": "Point", "coordinates": [-111.5639, 41.186]}, "properties": {"NAME": "W7U/MO-003", "TITLE": "Bybee Knoll", "REGION": "Morgan County", "ASSOCIATION": "USA - Utah", "POINTS": "6", "BONUSPOINTS": "3"}}, {"type": "Feature", "geometry": {"type": "Point", "coordinates": [-111.639, 40.8722]}, "properties": {"NAME": "W7U/MO-004", "TITLE": "Deadox Benchmark", "REGION": "Morgan County", "ASSOCIATION": "USA - Utah", "POINTS": "6", "BONUSPOINTS": "3"}}, {"type": "Feature", "geometry": {"type": "Point", "coordinates": [-111.377, 41.1055]}, "properties": {"NAME": "W7U/MO-005", "TITLE": "8220", "REGION": "Morgan County", "ASSOCIATION": "USA - Utah", "POINTS": "6", "BONUSPOINTS": "3"}}, {"type": "Feature", "geometry": {"type": "Point", "coordinates": [-111.5874, 40.9679]}, "properties": {"NAME": "W7U/MO-006", "TITLE": "Redrock Peak", "REGION": "Morgan County", "ASSOCIATION": "USA - Utah", "POINTS": "6", "BONUSPOINTS": "3"}}, {"type": "Feature", "geometry": {"type": "Point", "coordinates": [-111.7878, 41.0024]}, "properties": {"NAME": "W7U/MO-007", "TITLE": "The Hogsback", "REGION": "Morgan County", "ASSOCIATION": "USA - Utah", "POINTS": "6", "BONUSPOINTS": "3"}}, {"type": "Feature", "geometry": {"type": "Point", "coordinates": [-111.3245, 41.2192]}, "properties": {"NAME": "W7U/MO-008", "TITLE": "Trail Ridge", "REGION": "Morgan County", "ASSOCIATION": "USA - Utah", "POINTS": "6", "BONUSPOINTS": "3"}}, {"type": "Feature", "geometry": {"type": "Point", "coordinates": [-111.704, 41.1307]}, "properties": {"NAME": "W7U/MO-009", "TITLE": "Big Mahogany Mountain", "REGION": "Morgan County", "ASSOCIATION": "USA - Utah", "POINTS": "6", "BONUSPOINTS": "3"}}, {"type": "Feature", "geometry": {"type": "Point", "coordinates": [-111.3258, 41.2502]}, "properties": {"NAME": "W7U/MO-010", "TITLE": "7700", "REGION": "Morgan County", "ASSOCIATION": "USA - Utah", "POINTS": "6", "BONUSPOINTS": "3"}}, {"type": "Feature", "geometry": {"type": "Point", "coordinates": [-111.6857, 41.1806]}, "properties": {"NAME": "W7U/MO-011", "TITLE": "Elk Mountain", "REGION": "Morgan County", "ASSOCIATION": "USA - Utah", "POINTS": "4", "BONUSPOINTS": "3"}}, {"type": "Feature", "geometry": {"type": "Point", "coordinates": [-111.6215, 41.0136]}, "properties": {"NAME": "W7U/MO-012", "TITLE": "7288", "REGION": "Morgan County", "ASSOCIATION": "USA - Utah", "POINTS": "4", "BONUSPOINTS": "3"}}]}