{"type": "FeatureCollection", "name": "W7U/WS SUMMITS", "features": [{"type": "Feature", "geometry": {"type": "Point", "coordinates": [-113.3809, 37.4141]}, "properties": {"NAME": "W7U/WS-001", "TITLE": "Big Point", "REGION": "Washington County", "ASSOCIATION": "USA - Utah", "POINTS": "8", "BONUSPOINTS": "3"}}, {"type": "Feature", "geometry": {"type": "Point", "coordinates": [-113.401, 37.3732]}, "properties": {"NAME": "W7U/WS-002", "TITLE": "9980", "REGION": "Washington County", "ASSOCIATION": "USA - Utah", "POINTS": "8", "BONUSPOINTS": "3"}}, {"type": "Feature", "geometry": {"type": "Point", "coordinates": [-113.5322, 37.3514]}, "properties": {"NAME": "W7U/WS-003", "TITLE": "9747", "REGION": "Washington County", "ASSOCIATION": "USA - Utah", "POINTS": "8", "BONUSPOINTS": "3"}}, {"type": "Feature", "geometry": {"type": "Point", "coordinates": [-113.403, 37.4666]}, "properties": {"NAME": "W7U/WS-004", "TITLE": "Timber Mountain", "REGION": "Washington County", "ASSOCIATION": "USA - Utah", "POINTS": "8", "BONUSPOINTS": "3"}}, {"type": "Feature", "geometry": {"type": "Point", "coordinates": [-113.0683, 37.4208]}, "properties": {"NAME": "W7U/WS-005", "TITLE": "Kolob Peak", "REGION": "Washington County", "ASSOCIATION": "USA - Utah", "POINTS": "6", "BONUSPOINTS": "3"}}, {"type": "Feature", "geometry": {"type": "Point", "coordinates": [-113.4114, 37.5016]}, "properties": {"NAME": "W7U/WS-006", "TITLE": "Rencher Peak", "REGION": "Washington County", "ASSOCIATION": "USA - Utah", "POINTS": "6", "BONUSPOINTS": "3"}}, {"type": "Feature", "geometry": {"type": "Point", "coordinates": [-113.1596, 37.4783]}, "properties": {"NAME": "W7U/WS-007", "TITLE": "Horse Ranch Mountain", "REGION": "Washington County", "ASSOCIATION": "USA - Utah", "POINTS": "6", "BONUSPOINTS": "3"}}, {"type": "Feature", "geometry": {"type": "Point", "coordinates": [-113.1791, 37.424]}, "properties": {"NAME": "W7U/WS-008", "TITLE": "Timber Top Mountain", "REGION": "Washington County", "ASSOCIATION": "USA - Utah", "POINTS": "6", "BONUSPOINTS": "3"}}, {"type": "Feature", "geometry": {"type": "Point", "coordinates": [-113.1538, 37.4491]}, "properties": {"NAME": "W7U/WS-009", "TITLE": "Buck Pasture Mountain", "REGION": "Washington County", "ASSOCIATION": "USA - Utah", "POINTS": "6", "BONUSPOINTS": "3"}}, {"type": "Feature", "geometry": {"type": "Point", "coordinates": [-113.5644, 37.4569]}, "properties": {"NAME": "W7U/WS-010", "TITLE": "Atchinson Mountain", "REGION": "Washington County", "ASSOCIATION": "USA - Utah", "POINTS": "6", "BONUSPOINTS": "3"}}, {"type": "Feature", "geometry": {"type": "Point", "coordinates": [-113.0207, 37.2109]}, "properties": {"NAME": "W7U/WS-011", "TITLE": "West Temple, The", "REGION": "Washington County", "ASSOCIATION": "USA - Utah", "POINTS": "6", "BONUSPOINTS": "3"}}, {"type": "Feature", "geometry": {"type": "Point", "coordinates": [-113.1649, 37.4396]}, "properties": {"NAME": "W7U/WS-012", "TITLE": "Nagunt Mesa", "REGION": "Washington County", "ASSOCIATION": "USA - Utah", "POINTS": "6", "BONUSPOINTS": "3"}}, {"type": "Feature", "geometry": {"type": "Point", "coordinates": [-113.1639, 37.4199]}, "properties": {"NAME": "W7U/WS-013", "TITLE": "Gregory Butte", "REGION": "Washington County", "ASSOCIATION": "USA - Utah", "POINTS": "6", "BONUSPOINTS": "3"}}, {"type": "Feature", "geometry": {"type": "Point", "coordinates": [-112.9508, 37.2208]}, "properties": {"NAME": "W7U/WS-014", "TITLE": "East Temple, The", "REGION": "Washington County", "ASSOCIATION": "USA - Utah", "POINTS": "6", "BONUSPOINTS": "3"}}, {"type": "Feature", "geometry": {"type": "Point", "coordinates": [-113.1535, 37.401]}, "properties": {"NAME": "W7U/WS-015", "TITLE": "Burnt Mountain", "REGION": "Washington County", "ASSOCIATION": "USA - Utah", "POINTS": "6", "BONUSPOINTS": "3"}}, {"type": "Feature", "geometry": {"type": "Point", "coordinates": [-113.5007, 37.4496]}, "properties": {"NAME": "W7U/WS-016", "TITLE": "7660", "REGION": "Washington County", "ASSOCIATION": "USA - Utah", "POINTS": "6", "BONUSPOINTS": "3"}}, {"type": "Feature", "geometry": {"type": "Point", "coordinates": [-113.0243, 37.2156]}, "properties": {"NAME": "W7U/WS-017", "TITLE": "Sundial, The", "REGION": "Washington County", "ASSOCIATION": "USA - Utah", "POINTS": "6", "BONUSPOINTS": "3"}}, {"type": "Feature", "geometry": {"type": "Point", "coordinates": [-113.9116, 37.4753]}, "properties": {"NAME": "W7U/WS-018", "TITLE": "Lost Peak", "REGION": "Washington County", "ASSOCIATION": "USA - Utah", "POINTS": "6", "BONUSPOINTS": "3"}}, {"type": "Feature", "geometry": {"type": "Point", "coordinates": [-113.0197, 37.2257]}, "properties": {"NAME": "W7U/WS-019", "TITLE": "Altar of Sacrifice", "REGION": "Washington County", "ASSOCIATION": "USA - Utah", "POINTS": "6", "BONUSPOINTS": "3"}}, {"type": "Feature", "geometry": {"type": "Point", "coordinates": [-113.12, 37.4203]}, "properties": {"NAME": "W7U/WS-020", "TITLE": "Langston Mountain", "REGION": "Washington County", "ASSOCIATION": "USA - Utah", "POINTS": "4", "BONUSPOINTS": "3"}}, {"type": "Feature", "geometry": {"type": "Point", "coordinates": [-112.9994, 37.236]}, "properties": {"NAME": "W7U/WS-021", "TITLE": "7455", "REGION": "Washington County", "ASSOCIATION": "USA - Utah", "POINTS": "4", "BONUSPOINTS": "3"}}, {"type": "Feature", "geometry": {"type": "Point", "coordinates": [-113.1466, 37.3625]}, "properties": {"NAME": "W7U/WS-022", "TITLE": "Red Butte", "REGION": "Washington County", "ASSOCIATION": "USA - Utah", "POINTS": "4", "BONUSPOINTS": "3"}}, {"type": "Feature", "geometry": {"type": "Point", "coordinates": [-113.078, 37.3356]}, "properties": {"NAME": "W7U/WS-023", "TITLE": "Pine Valley Peak", "REGION": "Washington County", "ASSOCIATION": "USA - Utah", "POINTS": "4", "BONUSPOINTS": "3"}}, {"type": "Feature", "geometry": {"type": "Point", "coordinates": [-113.0251, 37.3088]}, "properties": {"NAME": "W7U/WS-024", "TITLE": "Greatheart Mesa", "REGION": "Washington County", "ASSOCIATION": "USA - Utah", "POINTS": "4", "BONUSPOINTS": "3"}}, {"type": "Feature", "geometry": {"type": "Point", "coordinates": [-113.3475, 37.5286]}, "properties": {"NAME": "W7U/WS-025", "TITLE": "Granite Mountain", "REGION": "Washington County", "ASSOCIATION": "USA - Utah", "POINTS": "4", "BONUSPOINTS": "3"}}, {"type": "Feature", "geometry": {"type": "Point", "coordinates": [-113.0054, 37.2625]}, "properties": {"NAME": "W7U/WS-026", "TITLE": "7400", "REGION": "Washington County", "ASSOCIATION": "USA - Utah", "POINTS": "4", "BONUSPOINTS": "3"}}, {"type": "Feature", "geometry": {"type": "Point", "coordinates": [-113.157, 37.4422]}, "properties": {"NAME": "W7U/WS-027", "TITLE": "7400", "REGION": "Washington County", "ASSOCIATION": "USA - Utah", "POINTS": "4", "BONUSPOINTS": "3"}}, {"type": "Feature", "geometry": {"type": "Point", "coordinates": [-113.0583, 37.3162]}, "properties": {"NAME": "W7U/WS-028", "TITLE": "North Guardian Angel", "REGION": "Washington County", "ASSOCIATION": "USA - Utah", "POINTS": "4", "BONUSPOINTS": "3"}}, {"type": "Feature", "geometry": {"type": "Point", "coordinates": [-112.993, 37.2578]}, "properties": {"NAME": "W7U/WS-029", "TITLE": "Church Mesa", "REGION": "Washington County", "ASSOCIATION": "USA - Utah", "POINTS": "4", "BONUSPOINTS": "3"}}, {"type": "Feature", "geometry": {"type": "Point", "coordinates": [-113.4824, 37.5765]}, "properties": {"NAME": "W7U/WS-030", "TITLE": "Kane Point", "REGION": "Washington County", "ASSOCIATION": "USA - Utah", "POINTS": "4", "BONUSPOINTS": "3"}}, {"type": "Feature", "geometry": {"type": "Point", "coordinates": [-113.9634, 37.5181]}, "properties": {"NAME": "W7U/WS-031", "TITLE": "Water Canyon Peak", "REGION": "Washington County", "ASSOCIATION": "USA - Utah", "POINTS": "4", "BONUSPOINTS": "3"}}, {"type": "Feature", "geometry": {"type": "Point", "coordinates": [-113.9417, 37.5024]}, "properties": {"NAME": "W7U/WS-032", "TITLE": "7340", "REGION": "Washington County", "ASSOCIATION": "USA - Utah", "POINTS": "4", "BONUSPOINTS": "3"}}, {"type": "Feature", "geometry": {"type": "Point", "coordinates": [-113.5625, 37.5686]}, "properties": {"NAME": "W7U/WS-033", "TITLE": "Cove Mountain", "REGION": "Washington County", "ASSOCIATION": "USA - Utah", "POINTS": "4", "BONUSPOINTS": "3"}}, {"type": "Feature", "geometry": {"type": "Point", "coordinates": [-113.9286, 37.4456]}, "properties": {"NAME": "W7U/WS-034", "TITLE": "7321", "REGION": "Washington County", "ASSOCIATION": "USA - Utah", "POINTS": "4", "BONUSPOINTS": "3"}}, {"type": "Feature", "geometry": {"type": "Point", "coordinates": [-113.0161, 37.2555]}, "properties": {"NAME": "W7U/WS-035", "TITLE": "Bishopric East, The", "REGION": "Washington County", "ASSOCIATION": "USA - Utah", "POINTS": "4", "BONUSPOINTS": "3"}}, {"type": "Feature", "geometry": {"type": "Point", "coordinates": [-113.0093, 37.2338]}, "properties": {"NAME": "W7U/WS-036", "TITLE": "7285", "REGION": "Washington County", "ASSOCIATION": "USA - Utah", "POINTS": "4", "BONUSPOINTS": "3"}}, {"type": "Feature", "geometry": {"type": "Point", "coordinates": [-113.0304, 37.1977]}, "properties": {"NAME": "W7U/WS-037", "TITLE": "Kinesava, Mount", "REGION": "Washington County", "ASSOCIATION": "USA - Utah", "POINTS": "4", "BONUSPOINTS": "3"}}, {"type": "Feature", "geometry": {"type": "Point", "coordinates": [-113.4816, 37.5263]}, "properties": {"NAME": "W7U/WS-038", "TITLE": "Pinto Peak", "REGION": "Washington County", "ASSOCIATION": "USA - Utah", "POINTS": "4", "BONUSPOINTS": "3"}}, {"type": "Feature", "geometry": {"type": "Point", "coordinates": [-113.0591, 37.3241]}, "properties": {"NAME": "W7U/WS-039", "TITLE": "Northgate Peaks West", "REGION": "Washington County", "ASSOCIATION": "USA - Utah", "POINTS": "4", "BONUSPOINTS": "3"}}, {"type": "Feature", "geometry": {"type": "Point", "coordinates": [-113.0034, 37.2452]}, "properties": {"NAME": "W7U/WS-040", "TITLE": "7260", "REGION": "Washington County", "ASSOCIATION": "USA - Utah", "POINTS": "4", "BONUSPOINTS": "3"}}, {"type": "Feature", "geometry": {"type": "Point", "coordinates": [-113.0581, 37.0708]}, "properties": {"NAME": "W7U/WS-041", "TITLE": "Zion Butte", "REGION": "Washington County", "ASSOCIATION": "USA - Utah", "POINTS": "4", "BONUSPOINTS": "3"}}, {"type": "Feature", "geometry": {"type": "Point", "coordinates": [-113.0113, 37.3111]}, "properties": {"NAME": "W7U/WS-042", "TITLE": "The Hourglass", "REGION": "Washington County", "ASSOCIATION": "USA - Utah", "POINTS": "4", "BONUSPOINTS": "3"}}, {"type": "Feature", "geometry": {"type": "Point", "coordinates": [-112.9935, 37.0298]}, "properties": {"NAME": "W7U/WS-043", "TITLE": "7180", "REGION": "Washington County", "ASSOCIATION": "USA - Utah", "POINTS": "4", "BONUSPOINTS": "3"}}, {"type": "Feature", "geometry": {"type": "Point", "coordinates": [-112.9817, 37.2546]}, "properties": {"NAME": "W7U/WS-044", "TITLE": "7180", "REGION": "Washington County", "ASSOCIATION": "USA - Utah", "POINTS": "4", "BONUSPOINTS": "3"}}, {"type": "Feature", "geometry": {"type": "Point", "coordinates": [-112.9907, 37.2309]}, "properties": {"NAME": "W7U/WS-045", "TITLE": "7160", "REGION": "Washington County", "ASSOCIATION": "USA - Utah", "POINTS": "4", "BONUSPOINTS": "3"}}, {"type": "Feature", "geometry": {"type": "Point", "coordinates": [-113.0064, 37.2799]}, "properties": {"NAME": "W7U/WS-046", "TITLE": "Inclined Temple", "REGION": "Washington County", "ASSOCIATION": "USA - Utah", "POINTS": "4", "BONUSPOINTS": "3"}}, {"type": "Feature", "geometry": {"type": "Point", "coordinates": [-113.0599, 37.2955]}, "properties": {"NAME": "W7U/WS-047", "TITLE": "South Guardian Angel", "REGION": "Washington County", "ASSOCIATION": "USA - Utah", "POINTS": "4", "BONUSPOINTS": "3"}}, {"type": "Feature", "geometry": {"type": "Point", "coordinates": [-112.9708, 37.2662]}, "properties": {"NAME": "W7U/WS-048", "TITLE": "Castle Dome", "REGION": "Washington County", "ASSOCIATION": "USA - Utah", "POINTS": "4", "BONUSPOINTS": "3"}}, {"type": "Feature", "geometry": {"type": "Point", "coordinates": [-113.8852, 37.343]}, "properties": {"NAME": "W7U/WS-049", "TITLE": "Square Top Mountain", "REGION": "Washington County", "ASSOCIATION": "USA - Utah", "POINTS": "4", "BONUSPOINTS": "3"}}, {"type": "Feature", "geometry": {"type": "Point", "coordinates": [-113.8144, 37.4064]}, "properties": {"NAME": "W7U/WS-050", "TITLE": "Cove Mountain", "REGION": "Washington County", "ASSOCIATION": "USA - Utah", "POINTS": "4", "BONUSPOINTS": "3"}}, {"type": "Feature", "geometry": {"type": "Point", "coordinates": [-113.0057, 37.2871]}, "properties": {"NAME": "W7U/WS-051", "TITLE": "Ivins Mountain", "REGION": "Washington County", "ASSOCIATION": "USA - Utah", "POINTS": "4", "BONUSPOINTS": "3"}}, {"type": "Feature", "geometry": {"type": "Point", "coordinates": [-113.0092, 37.2953]}, "properties": {"NAME": "W7U/WS-052", "TITLE": "7008", "REGION": "Washington County", "ASSOCIATION": "USA - Utah", "POINTS": "4", "BONUSPOINTS": "3"}}, {"type": "Feature", "geometry": {"type": "Point", "coordinates": [-113.9025, 37.1248]}, "properties": {"NAME": "W7U/WS-053", "TITLE": "7008", "REGION": "Washington County", "ASSOCIATION": "USA - Utah", "POINTS": "4", "BONUSPOINTS": "3"}}, {"type": "Feature", "geometry": {"type": "Point", "coordinates": [-113.8651, 37.5367]}, "properties": {"NAME": "W7U/WS-054", "TITLE": "Hogback", "REGION": "Washington County", "ASSOCIATION": "USA - Utah", "POINTS": "4", "BONUSPOINTS": "3"}}, {"type": "Feature", "geometry": {"type": "Point", "coordinates": [-113.84, 37.3946]}, "properties": {"NAME": "W7U/WS-055", "TITLE": "6990", "REGION": "Washington County", "ASSOCIATION": "USA - Utah", "POINTS": "4", "BONUSPOINTS": "3"}}, {"type": "Feature", "geometry": {"type": "Point", "coordinates": [-113.7352, 37.468]}, "properties": {"NAME": "W7U/WS-056", "TITLE": "6980", "REGION": "Washington County", "ASSOCIATION": "USA - Utah", "POINTS": "4", "BONUSPOINTS": "3"}}, {"type": "Feature", "geometry": {"type": "Point", "coordinates": [-113.2038, 37.4441]}, "properties": {"NAME": "W7U/WS-057", "TITLE": "6965", "REGION": "Washington County", "ASSOCIATION": "USA - Utah", "POINTS": "4", "BONUSPOINTS": "3"}}, {"type": "Feature", "geometry": {"type": "Point", "coordinates": [-112.9625, 37.2737]}, "properties": {"NAME": "W7U/WS-058", "TITLE": "Majestic, Mount", "REGION": "Washington County", "ASSOCIATION": "USA - Utah", "POINTS": "4", "BONUSPOINTS": "3"}}, {"type": "Feature", "geometry": {"type": "Point", "coordinates": [-112.9751, 37.2533]}, "properties": {"NAME": "W7U/WS-059", "TITLE": "6945", "REGION": "Washington County", "ASSOCIATION": "USA - Utah", "POINTS": "4", "BONUSPOINTS": "3"}}, {"type": "Feature", "geometry": {"type": "Point", "coordinates": [-112.9802, 37.2699]}, "properties": {"NAME": "W7U/WS-060", "TITLE": "6910", "REGION": "Washington County", "ASSOCIATION": "USA - Utah", "POINTS": "4", "BONUSPOINTS": "3"}}, {"type": "Feature", "geometry": {"type": "Point", "coordinates": [-112.9452, 37.3228]}, "properties": {"NAME": "W7U/WS-061", "TITLE": "Wynopits Mountain", "REGION": "Washington County", "ASSOCIATION": "USA - Utah", "POINTS": "4", "BONUSPOINTS": "3"}}, {"type": "Feature", "geometry": {"type": "Point", "coordinates": [-113.9936, 37.4727]}, "properties": {"NAME": "W7U/WS-062", "TITLE": "6886", "REGION": "Washington County", "ASSOCIATION": "USA - Utah", "POINTS": "4", "BONUSPOINTS": "3"}}, {"type": "Feature", "geometry": {"type": "Point", "coordinates": [-112.9521, 37.2281]}, "properties": {"NAME": "W7U/WS-063", "TITLE": "Twin Brothers", "REGION": "Washington County", "ASSOCIATION": "USA - Utah", "POINTS": "4", "BONUSPOINTS": "3"}}, {"type": "Feature", "geometry": {"type": "Point", "coordinates": [-113.0256, 37.2865]}, "properties": {"NAME": "W7U/WS-064", "TITLE": "6840", "REGION": "Washington County", "ASSOCIATION": "USA - Utah", "POINTS": "4", "BONUSPOINTS": "3"}}, {"type": "Feature", "geometry": {"type": "Point", "coordinates": [-112.9733, 37.2447]}, "properties": {"NAME": "W7U/WS-065", "TITLE": "Isaac Peak", "REGION": "Washington County", "ASSOCIATION": "USA - Utah", "POINTS": "4", "BONUSPOINTS": "3"}}, {"type": "Feature", "geometry": {"type": "Point", "coordinates": [-113.8724, 37.1313]}, "properties": {"NAME": "W7U/WS-066", "TITLE": "6835", "REGION": "Washington County", "ASSOCIATION": "USA - Utah", "POINTS": "4", "BONUSPOINTS": "3"}}, {"type": "Feature", "geometry": {"type": "Point", "coordinates": [-113.8617, 37.3552]}, "properties": {"NAME": "W7U/WS-067", "TITLE": "Jackson Peak", "REGION": "Washington County", "ASSOCIATION": "USA - Utah", "POINTS": "4", "BONUSPOINTS": "3"}}, {"type": "Feature", "geometry": {"type": "Point", "coordinates": [-113.0196, 37.2962]}, "properties": {"NAME": "W7U/WS-068", "TITLE": "6805", "REGION": "Washington County", "ASSOCIATION": "USA - Utah", "POINTS": "4", "BONUSPOINTS": "3"}}, {"type": "Feature", "geometry": {"type": "Point", "coordinates": [-112.9607, 37.3214]}, "properties": {"NAME": "W7U/WS-069", "TITLE": "6805", "REGION": "Washington County", "ASSOCIATION": "USA - Utah", "POINTS": "4", "BONUSPOINTS": "3"}}, {"type": "Feature", "geometry": {"type": "Point", "coordinates": [-112.9661, 37.2062]}, "properties": {"NAME": "W7U/WS-070", "TITLE": "Bridge Mountain", "REGION": "Washington County", "ASSOCIATION": "USA - Utah", "POINTS": "4", "BONUSPOINTS": "3"}}, {"type": "Feature", "geometry": {"type": "Point", "coordinates": [-113.823, 37.0532]}, "properties": {"NAME": "W7U/WS-071", "TITLE": "Scrub Benchmark", "REGION": "Washington County", "ASSOCIATION": "USA - Utah", "POINTS": "4", "BONUSPOINTS": "3"}}, {"type": "Feature", "geometry": {"type": "Point", "coordinates": [-113.1073, 37.429]}, "properties": {"NAME": "W7U/WS-072", "TITLE": "6781", "REGION": "Washington County", "ASSOCIATION": "USA - Utah", "POINTS": "4", "BONUSPOINTS": "3"}}, {"type": "Feature", "geometry": {"type": "Point", "coordinates": [-113.0797, 37.1139]}, "properties": {"NAME": "W7U/WS-073", "TITLE": "Smithsonian Butte", "REGION": "Washington County", "ASSOCIATION": "USA - Utah", "POINTS": "4", "BONUSPOINTS": "3"}}, {"type": "Feature", "geometry": {"type": "Point", "coordinates": [-112.9411, 37.2611]}, "properties": {"NAME": "W7U/WS-074", "TITLE": "Great White Throne, The", "REGION": "Washington County", "ASSOCIATION": "USA - Utah", "POINTS": "4", "BONUSPOINTS": "3"}}, {"type": "Feature", "geometry": {"type": "Point", "coordinates": [-112.9536, 37.2347]}, "properties": {"NAME": "W7U/WS-075", "TITLE": "Mountain of The Sun", "REGION": "Washington County", "ASSOCIATION": "USA - Utah", "POINTS": "4", "BONUSPOINTS": "3"}}, {"type": "Feature", "geometry": {"type": "Point", "coordinates": [-112.9201, 37.0149]}, "properties": {"NAME": "W7U/WS-076", "TITLE": "6718", "REGION": "Washington County", "ASSOCIATION": "USA - Utah", "POINTS": "4", "BONUSPOINTS": "3"}}, {"type": "Feature", "geometry": {"type": "Point", "coordinates": [-112.9022, 37.2107]}, "properties": {"NAME": "W7U/WS-077", "TITLE": "Nippletop", "REGION": "Washington County", "ASSOCIATION": "USA - Utah", "POINTS": "4", "BONUSPOINTS": "3"}}, {"type": "Feature", "geometry": {"type": "Point", "coordinates": [-113.0451, 37.2484]}, "properties": {"NAME": "W7U/WS-078", "TITLE": "6700", "REGION": "Washington County", "ASSOCIATION": "USA - Utah", "POINTS": "4", "BONUSPOINTS": "3"}}, {"type": "Feature", "geometry": {"type": "Point", "coordinates": [-112.9544, 37.3057]}, "properties": {"NAME": "W7U/WS-079", "TITLE": "6680", "REGION": "Washington County", "ASSOCIATION": "USA - Utah", "POINTS": "4", "BONUSPOINTS": "3"}}, {"type": "Feature", "geometry": {"type": "Point", "coordinates": [-112.9616, 37.3073]}, "properties": {"NAME": "W7U/WS-080", "TITLE": "The Bodhisattva", "REGION": "Washington County", "ASSOCIATION": "USA - Utah", "POINTS": "4", "BONUSPOINTS": "3"}}, {"type": "Feature", "geometry": {"type": "Point", "coordinates": [-112.9655, 37.1986]}, "properties": {"NAME": "W7U/WS-081", "TITLE": "G2", "REGION": "Washington County", "ASSOCIATION": "USA - Utah", "POINTS": "4", "BONUSPOINTS": "3"}}, {"type": "Feature", "geometry": {"type": "Point", "coordinates": [-112.9481, 37.1964]}, "properties": {"NAME": "W7U/WS-082", "TITLE": "Gifford Peak", "REGION": "Washington County", "ASSOCIATION": "USA - Utah", "POINTS": "4", "BONUSPOINTS": "3"}}, {"type": "Feature", "geometry": {"type": "Point", "coordinates": [-112.9391, 37.303]}, "properties": {"NAME": "W7U/WS-083", "TITLE": "Mountain of Mystery", "REGION": "Washington County", "ASSOCIATION": "USA - Utah", "POINTS": "4", "BONUSPOINTS": "3"}}, {"type": "Feature", "geometry": {"type": "Point", "coordinates": [-112.9657, 37.1818]}, "properties": {"NAME": "W7U/WS-084", "TITLE": "6555", "REGION": "Washington County", "ASSOCIATION": "USA - Utah", "POINTS": "4", "BONUSPOINTS": "3"}}, {"type": "Feature", "geometry": {"type": "Point", "coordinates": [-112.9566, 37.3013]}, "properties": {"NAME": "W7U/WS-085", "TITLE": "Sneak Peak", "REGION": "Washington County", "ASSOCIATION": "USA - Utah", "POINTS": "4", "BONUSPOINTS": "3"}}, {"type": "Feature", "geometry": {"type": "Point", "coordinates": [-112.9798, 37.1848]}, "properties": {"NAME": "W7U/WS-086", "TITLE": "Watchman, The", "REGION": "Washington County", "ASSOCIATION": "USA - Utah", "POINTS": "4", "BONUSPOINTS": "3"}}, {"type": "Feature", "geometry": {"type": "Point", "coordinates": [-113.7955, 37.0833]}, "properties": {"NAME": "W7U/WS-087", "TITLE": "Jarvis Peak", "REGION": "Washington County", "ASSOCIATION": "USA - Utah", "POINTS": "4", "BONUSPOINTS": "3"}}, {"type": "Feature", "geometry": {"type": "Point", "coordinates": [-113.0834, 37.249]}, "properties": {"NAME": "W7U/WS-088", "TITLE": "Cougar Mountain", "REGION": "Washington County", "ASSOCIATION": "USA - Utah", "POINTS": "4", "BONUSPOINTS": "3"}}, {"type": "Feature", "geometry": {"type": "Point", "coordinates": [-113.827, 37.4348]}, "properties": {"NAME": "W7U/WS-089", "TITLE": "6494", "REGION": "Washington County", "ASSOCIATION": "USA - Utah", "POINTS": "2", "BONUSPOINTS": "3"}}, {"type": "Feature", "geometry": {"type": "Point", "coordinates": [-112.9076, 37.2324]}, "properties": {"NAME": "W7U/WS-090", "TITLE": "Aires Butte", "REGION": "Washington County", "ASSOCIATION": "USA - Utah", "POINTS": "2", "BONUSPOINTS": "3"}}, {"type": "Feature", "geometry": {"type": "Point", "coordinates": [-113.9786, 37.4223]}, "properties": {"NAME": "W7U/WS-091", "TITLE": "6485", "REGION": "Washington County", "ASSOCIATION": "USA - Utah", "POINTS": "2", "BONUSPOINTS": "3"}}, {"type": "Feature", "geometry": {"type": "Point", "coordinates": [-112.9408, 37.0511]}, "properties": {"NAME": "W7U/WS-092", "TITLE": "Beehive, The", "REGION": "Washington County", "ASSOCIATION": "USA - Utah", "POINTS": "2", "BONUSPOINTS": "3"}}, {"type": "Feature", "geometry": {"type": "Point", "coordinates": [-113.7821, 37.6006]}, "properties": {"NAME": "W7U/WS-093", "TITLE": "6468", "REGION": "Washington County", "ASSOCIATION": "USA - Utah", "POINTS": "2", "BONUSPOINTS": "3"}}, {"type": "Feature", "geometry": {"type": "Point", "coordinates": [-112.9168, 37.2051]}, "properties": {"NAME": "W7U/WS-094", "TITLE": "Lost Peak", "REGION": "Washington County", "ASSOCIATION": "USA - Utah", "POINTS": "2", "BONUSPOINTS": "3"}}, {"type": "Feature", "geometry": {"type": "Point", "coordinates": [-113.76, 37.4283]}, "properties": {"NAME": "W7U/WS-095", "TITLE": "Bull Mountain", "REGION": "Washington County", "ASSOCIATION": "USA - Utah", "POINTS": "2", "BONUSPOINTS": "3"}}, {"type": "Feature", "geometry": {"type": "Point", "coordinates": [-113.0932, 37.2999]}, "properties": {"NAME": "W7U/WS-096", "TITLE": "Tabernacle Dome", "REGION": "Washington County", "ASSOCIATION": "USA - Utah", "POINTS": "2", "BONUSPOINTS": "3"}}, {"type": "Feature", "geometry": {"type": "Point", "coordinates": [-112.9204, 37.1503]}, "properties": {"NAME": "W7U/WS-097", "TITLE": "Transview Mountain", "REGION": "Washington County", "ASSOCIATION": "USA - Utah", "POINTS": "2", "BONUSPOINTS": "3"}}, {"type": "Feature", "geometry": {"type": "Point", "coordinates": [-113.7497, 37.552]}, "properties": {"NAME": "W7U/WS-098", "TITLE": "6312", "REGION": "Washington County", "ASSOCIATION": "USA - Utah", "POINTS": "2", "BONUSPOINTS": "3"}}, {"type": "Feature", "geometry": {"type": "Point", "coordinates": [-113.0429, 37.2218]}, "properties": {"NAME": "W7U/WS-099", "TITLE": "6310", "REGION": "Washington County", "ASSOCIATION": "USA - Utah", "POINTS": "2", "BONUSPOINTS": "3"}}, {"type": "Feature", "geometry": {"type": "Point", "coordinates": [-113.9054, 37.2023]}, "properties": {"NAME": "W7U/WS-100", "TITLE": "6300", "REGION": "Washington County", "ASSOCIATION": "USA - Utah", "POINTS": "2", "BONUSPOINTS": "3"}}, {"type": "Feature", "geometry": {"type": "Point", "coordinates": [-112.9862, 37.1729]}, "properties": {"NAME": "W7U/WS-101", "TITLE": "Johnson Mountain", "REGION": "Washington County", "ASSOCIATION": "USA - Utah", "POINTS": "2", "BONUSPOINTS": "0"}}, {"type": "Feature", "geometry": {"type": "Point", "coordinates": [-113.8896, 37.1042]}, "properties": {"NAME": "W7U/WS-102", "TITLE": "5961", "REGION": "Washington County", "ASSOCIATION": "USA - Utah", "POINTS": "2", "BONUSPOINTS": "0"}}, {"type": "Feature", "geometry": {"type": "Point", "coordinates": [-112.9566, 37.1564]}, "properties": {"NAME": "W7U/WS-103", "TITLE": "Shunesburg Mountain", "REGION": "Washington County", "ASSOCIATION": "USA - Utah", "POINTS": "2", "BONUSPOINTS": "0"}}, {"type": "Feature", "geometry": {"type": "Point", "coordinates": [-113.2574, 37.047]}, "properties": {"NAME": "W7U/WS-104", "TITLE": "Little Creek Mountain", "REGION": "Washington County", "ASSOCIATION": "USA - Utah", "POINTS": "2", "BONUSPOINTS": "0"}}, {"type": "Feature", "geometry": {"type": "Point", "coordinates": [-113.8413, 37.1309]}, "properties": {"NAME": "W7U/WS-105", "TITLE": "5885", "REGION": "Washington County", "ASSOCIATION": "USA - Utah", "POINTS": "2", "BONUSPOINTS": "0"}}, {"type": "Feature", "geometry": {"type": "Point", "coordinates": [-112.954, 37.3148]}, "properties": {"NAME": "W7U/WS-106", "TITLE": "5840", "REGION": "Washington County", "ASSOCIATION": "USA - Utah", "POINTS": "2", "BONUSPOINTS": "0"}}, {"type": "Feature", "geometry": {"type": "Point", "coordinates": [-113.6364, 37.3688]}, "properties": {"NAME": "W7U/WS-107", "TITLE": "5672", "REGION": "Washington County", "ASSOCIATION": "USA - Utah", "POINTS": "2", "BONUSPOINTS": "0"}}, {"type": "Feature", "geometry": {"type": "Point", "coordinates": [-114.038, 37.3894]}, "properties": {"NAME": "W7U/WS-108", "TITLE": "Bull Mountain", "REGION": "Washington County", "ASSOCIATION": "USA - Utah", "POINTS": "2", "BONUSPOINTS": "0"}}, {"type": "Feature", "geometry": {"type": "Point", "coordinates": [-113.6829, 37.2516]}, "properties": {"NAME": "W7U/WS-109", "TITLE": "Snow Benchmark", "REGION": "Washington County", "ASSOCIATION": "USA - Utah", "POINTS": "2", "BONUSPOINTS": "0"}}, {"type": "Feature", "geometry": {"type": "Point", "coordinates": [-113.2335, 37.1413]}, "properties": {"NAME": "W7U/WS-110", "TITLE": "Gooseberry Mesa", "REGION": "Washington County", "ASSOCIATION": "USA - Utah", "POINTS": "1", "BONUSPOINTS": "0"}}, {"type": "Feature", "geometry": {"type": "Point", "coordinates": [-113.755, 37.2232]}, "properties": {"NAME": "W7U/WS-111", "TITLE": "Ivins Benchmark", "REGION": "Washington County", "ASSOCIATION": "USA - Utah", "POINTS": "1", "BONUSPOINTS": "0"}}, {"type": "Feature", "geometry": {"type": "Point", "coordinates": [-113.7993, 37.0274]}, "properties": {"NAME": "W7U/WS-112", "TITLE": "5284", "REGION": "Washington County", "ASSOCIATION": "USA - Utah", "POINTS": "1", "BONUSPOINTS": "0"}}, {"type": "Feature", "geometry": {"type": "Point", "coordinates": [-113.6961, 37.3164]}, "properties": {"NAME": "W7U/WS-113", "TITLE": "Veyo Volcano", "REGION": "Washington County", "ASSOCIATION": "USA - Utah", "POINTS": "1", "BONUSPOINTS": "0"}}, {"type": "Feature", "geometry": {"type": "Point", "coordinates": [-113.9702, 37.3568]}, "properties": {"NAME": "W7U/WS-114", "TITLE": "4861", "REGION": "Washington County", "ASSOCIATION": "USA - Utah", "POINTS": "1", "BONUSPOINTS": "0"}}, {"type": "Feature", "geometry": {"type": "Point", "coordinates": [-113.7511, 37.1101]}, "properties": {"NAME": "W7U/WS-115", "TITLE": "White Hills", "REGION": "Washington County", "ASSOCIATION": "USA - Utah", "POINTS": "1", "BONUSPOINTS": "0"}}, {"type": "Feature", "geometry": {"type": "Point", "coordinates": [-113.8726, 37.0123]}, "properties": {"NAME": "W7U/WS-116", "TITLE": "Tabeau Peak", "REGION": "Washington County", "ASSOCIATION": "USA - Utah", "POINTS": "1", "BONUSPOINTS": "0"}}, {"type": "Feature", "geometry": {"type": "Point", "coordinates": [-114.023, 37.2222]}, "properties": {"NAME": "W7U/WS-117", "TITLE": "Scarecrow Peak", "REGION": "Washington County", "ASSOCIATION": "USA - Utah", "POINTS": "1", "BONUSPOINTS": "0"}}, {"type": "Feature", "geometry": {"type": "Point", "coordinates": [-113.272, 37.2567]}, "properties": {"NAME": "W7U/WS-118", "TITLE": "4396", "REGION": "Washington County", "ASSOCIATION": "USA - Utah", "POINTS": "1", "BONUSPOINTS": "0"}}, {"type": "Feature", "geometry": {"type": "Point", "coordinates": [-113.4156, 37.2169]}, "properties": {"NAME": "W7U/WS-119", "TITLE": "Red Reef", "REGION": "Washington County", "ASSOCIATION": "USA - Utah", "POINTS": "1", "BONUSPOINTS": "0"}}, {"type": "Feature", "geometry": {"type": "Point", "coordinates": [-113.713, 37.116]}, "properties": {"NAME": "W7U/WS-120", "TITLE": "South Hills", "REGION": "Washington County", "ASSOCIATION": "USA - Utah", "POINTS": "1", "BONUSPOINTS": "0"}}, {"type": "Feature", "geometry": {"type": "Point", "coordinates": [-113.3338, 37.1628]}, "properties": {"NAME": "W7U/WS-121", "TITLE": "Sullivan Knoll", "REGION": "Washington County", "ASSOCIATION": "USA - Utah", "POINTS": "1", "BONUSPOINTS": "0"}}, {"type": "Feature", "geometry": {"type": "Point", "coordinates": [-113.4719, 37.0783]}, "properties": {"NAME": "W7U/WS-122", "TITLE": "Punchbowl Dome", "REGION": "Washington County", "ASSOCIATION": "USA - Utah", "POINTS": "1", "BONUSPOINTS": "0"}}, {"type": "Feature", "geometry": {"type": "Point", "coordinates": [-113.6491, 37.0708]}, "properties": {"NAME": "W7U/WS-123", "TITLE": "Bloomington Hill", "REGION": "Washington County", "ASSOCIATION": "USA - Utah", "POINTS": "1", "BONUSPOINTS": "0"}}, {"type": "Feature", "geometry": {"type": "Point", "coordinates": [-113.4874, 37.1175]}, "properties": {"NAME": "W7U/WS-124", "TITLE": "Shinob Kibe", "REGION": "Washington County", "ASSOCIATION": "USA - Utah", "POINTS": "1", "BONUSPOINTS": "0"}}]}