{"type": "FeatureCollection", "name": "W7U/NU SUMMITS", "features": [{"type": "Feature", "geometry": {"type": "Point", "coordinates": [-110.3729, 40.7764]}, "properties": {"NAME": "W7U/NU-001", "TITLE": "Kings Peak", "REGION": "North Utah", "ASSOCIATION": "USA - Utah", "POINTS": "10", "BONUSPOINTS": "3"}}, {"type": "Feature", "geometry": {"type": "Point", "coordinates": [-110.3404, 40.8234]}, "properties": {"NAME": "W7U/NU-002", "TITLE": "Gilbert Peak", "REGION": "North Utah", "ASSOCIATION": "USA - Utah", "POINTS": "10", "BONUSPOINTS": "3"}}, {"type": "Feature", "geometry": {"type": "Point", "coordinates": [-110.3037, 40.7117]}, "properties": {"NAME": "W7U/NU-003", "TITLE": "Emmons Mount", "REGION": "North Utah", "ASSOCIATION": "USA - Utah", "POINTS": "10", "BONUSPOINTS": "3"}}, {"type": "Feature", "geometry": {"type": "Point", "coordinates": [-110.3522, 40.8033]}, "properties": {"NAME": "W7U/NU-004", "TITLE": "Gunsight Peak", "REGION": "North Utah", "ASSOCIATION": "USA - Utah", "POINTS": "10", "BONUSPOINTS": "3"}}, {"type": "Feature", "geometry": {"type": "Point", "coordinates": [-110.6072, 40.7566]}, "properties": {"NAME": "W7U/NU-005", "TITLE": "Lovenia Mount", "REGION": "North Utah", "ASSOCIATION": "USA - Utah", "POINTS": "10", "BONUSPOINTS": "3"}}, {"type": "Feature", "geometry": {"type": "Point", "coordinates": [-110.426, 40.7986]}, "properties": {"NAME": "W7U/NU-006", "TITLE": "Powell Mount", "REGION": "North Utah", "ASSOCIATION": "USA - Utah", "POINTS": "10", "BONUSPOINTS": "3"}}, {"type": "Feature", "geometry": {"type": "Point", "coordinates": [-110.3666, 40.7927]}, "properties": {"NAME": "W7U/NU-007", "TITLE": "West Gunsight Peak", "REGION": "North Utah", "ASSOCIATION": "USA - Utah", "POINTS": "10", "BONUSPOINTS": "3"}}, {"type": "Feature", "geometry": {"type": "Point", "coordinates": [-109.2293, 38.4383]}, "properties": {"NAME": "W7U/NU-008", "TITLE": "Peale Mount", "REGION": "North Utah", "ASSOCIATION": "USA - Utah", "POINTS": "10", "BONUSPOINTS": "3"}}, {"type": "Feature", "geometry": {"type": "Point", "coordinates": [-109.234, 38.4633]}, "properties": {"NAME": "W7U/NU-009", "TITLE": "Mellenthin Mount", "REGION": "North Utah", "ASSOCIATION": "USA - Utah", "POINTS": "10", "BONUSPOINTS": "3"}}, {"type": "Feature", "geometry": {"type": "Point", "coordinates": [-110.7836, 40.7297]}, "properties": {"NAME": "W7U/NU-010", "TITLE": "Spread Eagle Peak", "REGION": "North Utah", "ASSOCIATION": "USA - Utah", "POINTS": "10", "BONUSPOINTS": "3"}}, {"type": "Feature", "geometry": {"type": "Point", "coordinates": [-109.2601, 38.4394]}, "properties": {"NAME": "W7U/NU-011", "TITLE": "Tukuhnikivatz Mount", "REGION": "North Utah", "ASSOCIATION": "USA - Utah", "POINTS": "10", "BONUSPOINTS": "3"}}, {"type": "Feature", "geometry": {"type": "Point", "coordinates": [-109.9743, 40.8095]}, "properties": {"NAME": "W7U/NU-012", "TITLE": "Eccentric Benchmark", "REGION": "North Utah", "ASSOCIATION": "USA - Utah", "POINTS": "10", "BONUSPOINTS": "3"}}, {"type": "Feature", "geometry": {"type": "Point", "coordinates": [-113.9197, 39.8283]}, "properties": {"NAME": "W7U/NU-013", "TITLE": "Ibapah Peak", "REGION": "North Utah", "ASSOCIATION": "USA - Utah", "POINTS": "10", "BONUSPOINTS": "3"}}, {"type": "Feature", "geometry": {"type": "Point", "coordinates": [-109.8343, 40.7682]}, "properties": {"NAME": "W7U/NU-014", "TITLE": "Leidy Peak", "REGION": "North Utah", "ASSOCIATION": "USA - Utah", "POINTS": "10", "BONUSPOINTS": "3"}}, {"type": "Feature", "geometry": {"type": "Point", "coordinates": [-111.7602, 39.8218]}, "properties": {"NAME": "W7U/NU-015", "TITLE": "Nebo Mount", "REGION": "North Utah", "ASSOCIATION": "USA - Utah", "POINTS": "10", "BONUSPOINTS": "3"}}, {"type": "Feature", "geometry": {"type": "Point", "coordinates": [-111.646, 40.3909]}, "properties": {"NAME": "W7U/NU-016", "TITLE": "Timpanogos Mount", "REGION": "North Utah", "ASSOCIATION": "USA - Utah", "POINTS": "10", "BONUSPOINTS": "3"}}, {"type": "Feature", "geometry": {"type": "Point", "coordinates": [-111.6566, 40.5518]}, "properties": {"NAME": "W7U/NU-017", "TITLE": "Twin Peaks", "REGION": "North Utah", "ASSOCIATION": "USA - Utah", "POINTS": "10", "BONUSPOINTS": "3"}}, {"type": "Feature", "geometry": {"type": "Point", "coordinates": [-111.7059, 40.5336]}, "properties": {"NAME": "W7U/NU-018", "TITLE": "Pfeifferhorn", "REGION": "North Utah", "ASSOCIATION": "USA - Utah", "POINTS": "10", "BONUSPOINTS": "3"}}, {"type": "Feature", "geometry": {"type": "Point", "coordinates": [-111.3576, 39.392]}, "properties": {"NAME": "W7U/NU-019", "TITLE": "South Tent Mountain", "REGION": "North Utah", "ASSOCIATION": "USA - Utah", "POINTS": "10", "BONUSPOINTS": "3"}}, {"type": "Feature", "geometry": {"type": "Point", "coordinates": [-112.0733, 38.5361]}, "properties": {"NAME": "W7U/NU-020", "TITLE": "Monroe Peak", "REGION": "North Utah", "ASSOCIATION": "USA - Utah", "POINTS": "10", "BONUSPOINTS": "3"}}, {"type": "Feature", "geometry": {"type": "Point", "coordinates": [-110.8915, 40.6806]}, "properties": {"NAME": "W7U/NU-021", "TITLE": "Murdock Mountain", "REGION": "North Utah", "ASSOCIATION": "USA - Utah", "POINTS": "10", "BONUSPOINTS": "3"}}, {"type": "Feature", "geometry": {"type": "Point", "coordinates": [-111.3204, 39.4273]}, "properties": {"NAME": "W7U/NU-022", "TITLE": "Lowry Top", "REGION": "North Utah", "ASSOCIATION": "USA - Utah", "POINTS": "10", "BONUSPOINTS": "3"}}, {"type": "Feature", "geometry": {"type": "Point", "coordinates": [-111.5569, 40.2443]}, "properties": {"NAME": "W7U/NU-023", "TITLE": "Provo Peak", "REGION": "North Utah", "ASSOCIATION": "USA - Utah", "POINTS": "10", "BONUSPOINTS": "3"}}, {"type": "Feature", "geometry": {"type": "Point", "coordinates": [-111.6248, 40.5659]}, "properties": {"NAME": "W7U/NU-024", "TITLE": "Sugarloaf Mountain", "REGION": "North Utah", "ASSOCIATION": "USA - Utah", "POINTS": "10", "BONUSPOINTS": "3"}}, {"type": "Feature", "geometry": {"type": "Point", "coordinates": [-112.6264, 40.4597]}, "properties": {"NAME": "W7U/NU-025", "TITLE": "Deseret Peak", "REGION": "North Utah", "ASSOCIATION": "USA - Utah", "POINTS": "10", "BONUSPOINTS": "3"}}, {"type": "Feature", "geometry": {"type": "Point", "coordinates": [-111.5887, 40.3071]}, "properties": {"NAME": "W7U/NU-026", "TITLE": "Cascade Mountain", "REGION": "North Utah", "ASSOCIATION": "USA - Utah", "POINTS": "10", "BONUSPOINTS": "3"}}, {"type": "Feature", "geometry": {"type": "Point", "coordinates": [-111.6034, 40.5854]}, "properties": {"NAME": "W7U/NU-027", "TITLE": "Wolverine Mount", "REGION": "North Utah", "ASSOCIATION": "USA - Utah", "POINTS": "10", "BONUSPOINTS": "3"}}, {"type": "Feature", "geometry": {"type": "Point", "coordinates": [-111.6165, 39.9758]}, "properties": {"NAME": "W7U/NU-028", "TITLE": "Loafer Mountain", "REGION": "North Utah", "ASSOCIATION": "USA - Utah", "POINTS": "10", "BONUSPOINTS": "3"}}, {"type": "Feature", "geometry": {"type": "Point", "coordinates": [-112.2086, 37.933]}, "properties": {"NAME": "W7U/NU-029", "TITLE": "Adams Head", "REGION": "North Utah", "ASSOCIATION": "USA - Utah", "POINTS": "8", "BONUSPOINTS": "3"}}, {"type": "Feature", "geometry": {"type": "Point", "coordinates": [-111.209, 39.5641]}, "properties": {"NAME": "W7U/NU-030", "TITLE": "Candland Mountain", "REGION": "North Utah", "ASSOCIATION": "USA - Utah", "POINTS": "8", "BONUSPOINTS": "3"}}, {"type": "Feature", "geometry": {"type": "Point", "coordinates": [-110.8696, 37.0342]}, "properties": {"NAME": "W7U/NU-031", "TITLE": "Navajo Mountain", "REGION": "North Utah", "ASSOCIATION": "USA - Utah", "POINTS": "8", "BONUSPOINTS": "3"}}, {"type": "Feature", "geometry": {"type": "Point", "coordinates": [-110.9845, 40.047]}, "properties": {"NAME": "W7U/NU-032", "TITLE": "Strawberry Peak", "REGION": "North Utah", "ASSOCIATION": "USA - Utah", "POINTS": "8", "BONUSPOINTS": "3"}}, {"type": "Feature", "geometry": {"type": "Point", "coordinates": [-111.6828, 40.6707]}, "properties": {"NAME": "W7U/NU-033", "TITLE": "Gobblers Knob", "REGION": "North Utah", "ASSOCIATION": "USA - Utah", "POINTS": "8", "BONUSPOINTS": "3"}}, {"type": "Feature", "geometry": {"type": "Point", "coordinates": [-111.1844, 40.4342]}, "properties": {"NAME": "W7U/NU-034", "TITLE": "Heber Mountain", "REGION": "North Utah", "ASSOCIATION": "USA - Utah", "POINTS": "8", "BONUSPOINTS": "3"}}, {"type": "Feature", "geometry": {"type": "Point", "coordinates": [-111.5277, 40.0878]}, "properties": {"NAME": "W7U/NU-035", "TITLE": "Spanish Fork Peak", "REGION": "North Utah", "ASSOCIATION": "USA - Utah", "POINTS": "8", "BONUSPOINTS": "3"}}, {"type": "Feature", "geometry": {"type": "Point", "coordinates": [-110.7898, 40.3615]}, "properties": {"NAME": "W7U/NU-036", "TITLE": "Tabby Mountain", "REGION": "North Utah", "ASSOCIATION": "USA - Utah", "POINTS": "8", "BONUSPOINTS": "3"}}, {"type": "Feature", "geometry": {"type": "Point", "coordinates": [-111.7432, 39.6649]}, "properties": {"NAME": "W7U/NU-037", "TITLE": "Salt Creek Peak", "REGION": "North Utah", "ASSOCIATION": "USA - Utah", "POINTS": "8", "BONUSPOINTS": "3"}}, {"type": "Feature", "geometry": {"type": "Point", "coordinates": [-111.6754, 41.9114]}, "properties": {"NAME": "W7U/NU-038", "TITLE": "Naomi Peak", "REGION": "North Utah", "ASSOCIATION": "USA - Utah", "POINTS": "8", "BONUSPOINTS": "3"}}, {"type": "Feature", "geometry": {"type": "Point", "coordinates": [-110.9014, 39.877]}, "properties": {"NAME": "W7U/NU-039", "TITLE": "Indian Head", "REGION": "North Utah", "ASSOCIATION": "USA - Utah", "POINTS": "8", "BONUSPOINTS": "3"}}, {"type": "Feature", "geometry": {"type": "Point", "coordinates": [-111.7315, 39.9406]}, "properties": {"NAME": "W7U/NU-040", "TITLE": "Dry Mountain", "REGION": "North Utah", "ASSOCIATION": "USA - Utah", "POINTS": "8", "BONUSPOINTS": "3"}}, {"type": "Feature", "geometry": {"type": "Point", "coordinates": [-110.9913, 39.7559]}, "properties": {"NAME": "W7U/NU-041", "TITLE": "Beaver Benchmark", "REGION": "North Utah", "ASSOCIATION": "USA - Utah", "POINTS": "8", "BONUSPOINTS": "3"}}, {"type": "Feature", "geometry": {"type": "Point", "coordinates": [-111.9744, 41.3827]}, "properties": {"NAME": "W7U/NU-042", "TITLE": "Willard Peak", "REGION": "North Utah", "ASSOCIATION": "USA - Utah", "POINTS": "8", "BONUSPOINTS": "3"}}, {"type": "Feature", "geometry": {"type": "Point", "coordinates": [-112.2072, 39.3925]}, "properties": {"NAME": "W7U/NU-043", "TITLE": "Fool Creek Peak", "REGION": "North Utah", "ASSOCIATION": "USA - Utah", "POINTS": "8", "BONUSPOINTS": "3"}}, {"type": "Feature", "geometry": {"type": "Point", "coordinates": [-111.718, 41.7134]}, "properties": {"NAME": "W7U/NU-044", "TITLE": "Logan Peak", "REGION": "North Utah", "ASSOCIATION": "USA - Utah", "POINTS": "8", "BONUSPOINTS": "3"}}, {"type": "Feature", "geometry": {"type": "Point", "coordinates": [-113.4831, 41.8893]}, "properties": {"NAME": "W7U/NU-045", "TITLE": "George Peak", "REGION": "North Utah", "ASSOCIATION": "USA - Utah", "POINTS": "8", "BONUSPOINTS": "3"}}, {"type": "Feature", "geometry": {"type": "Point", "coordinates": [-112.3492, 37.5627]}, "properties": {"NAME": "W7U/NU-046", "TITLE": "Black Butte", "REGION": "North Utah", "ASSOCIATION": "USA - Utah", "POINTS": "8", "BONUSPOINTS": "3"}}, {"type": "Feature", "geometry": {"type": "Point", "coordinates": [-111.6405, 39.0449]}, "properties": {"NAME": "W7U/NU-047", "TITLE": "Order Mountain", "REGION": "North Utah", "ASSOCIATION": "USA - Utah", "POINTS": "8", "BONUSPOINTS": "3"}}, {"type": "Feature", "geometry": {"type": "Point", "coordinates": [-111.8819, 41.1999]}, "properties": {"NAME": "W7U/NU-048", "TITLE": "Ogden Mount", "REGION": "North Utah", "ASSOCIATION": "USA - Utah", "POINTS": "8", "BONUSPOINTS": "3"}}, {"type": "Feature", "geometry": {"type": "Point", "coordinates": [-111.7929, 41.3913]}, "properties": {"NAME": "W7U/NU-049", "TITLE": "James Peak", "REGION": "North Utah", "ASSOCIATION": "USA - Utah", "POINTS": "8", "BONUSPOINTS": "3"}}, {"type": "Feature", "geometry": {"type": "Point", "coordinates": [-111.2578, 40.8067]}, "properties": {"NAME": "W7U/NU-050", "TITLE": "Elkhorn Divide", "REGION": "North Utah", "ASSOCIATION": "USA - Utah", "POINTS": "8", "BONUSPOINTS": "3"}}, {"type": "Feature", "geometry": {"type": "Point", "coordinates": [-112.0138, 41.6359]}, "properties": {"NAME": "W7U/NU-051", "TITLE": "Box Elder Peak", "REGION": "North Utah", "ASSOCIATION": "USA - Utah", "POINTS": "8", "BONUSPOINTS": "3"}}, {"type": "Feature", "geometry": {"type": "Point", "coordinates": [-111.4796, 40.8554]}, "properties": {"NAME": "W7U/NU-052", "TITLE": "Lewis Peak", "REGION": "North Utah", "ASSOCIATION": "USA - Utah", "POINTS": "8", "BONUSPOINTS": "3"}}, {"type": "Feature", "geometry": {"type": "Point", "coordinates": [-111.4768, 41.9991]}, "properties": {"NAME": "W7U/NU-053", "TITLE": "Bridger Peak", "REGION": "North Utah", "ASSOCIATION": "USA - Utah", "POINTS": "8", "BONUSPOINTS": "3"}}, {"type": "Feature", "geometry": {"type": "Point", "coordinates": [-111.5174, 41.4218]}, "properties": {"NAME": "W7U/NU-054", "TITLE": "Monte Cristo Peak", "REGION": "North Utah", "ASSOCIATION": "USA - Utah", "POINTS": "8", "BONUSPOINTS": "3"}}, {"type": "Feature", "geometry": {"type": "Point", "coordinates": [-111.7217, 41.4412]}, "properties": {"NAME": "W7U/NU-055", "TITLE": "Sharp Mountain", "REGION": "North Utah", "ASSOCIATION": "USA - Utah", "POINTS": "8", "BONUSPOINTS": "3"}}, {"type": "Feature", "geometry": {"type": "Point", "coordinates": [-111.5343, 41.8258]}, "properties": {"NAME": "W7U/NU-056", "TITLE": "Temple Peak", "REGION": "North Utah", "ASSOCIATION": "USA - Utah", "POINTS": "8", "BONUSPOINTS": "3"}}, {"type": "Feature", "geometry": {"type": "Point", "coordinates": [-111.5432, 40.6572]}, "properties": {"NAME": "W7U/NU-057", "TITLE": "Iron Mountain", "REGION": "North Utah", "ASSOCIATION": "USA - Utah", "POINTS": "8", "BONUSPOINTS": "3"}}, {"type": "Feature", "geometry": {"type": "Point", "coordinates": [-111.7154, 40.8343]}, "properties": {"NAME": "W7U/NU-058", "TITLE": "Lookout Peak", "REGION": "North Utah", "ASSOCIATION": "USA - Utah", "POINTS": "6", "BONUSPOINTS": "3"}}, {"type": "Feature", "geometry": {"type": "Point", "coordinates": [-111.1549, 39.8974]}, "properties": {"NAME": "W7U/NU-059", "TITLE": "Tucker Peak", "REGION": "North Utah", "ASSOCIATION": "USA - Utah", "POINTS": "6", "BONUSPOINTS": "3"}}, {"type": "Feature", "geometry": {"type": "Point", "coordinates": [-111.6954, 40.72]}, "properties": {"NAME": "W7U/NU-060", "TITLE": "Aire Mount", "REGION": "North Utah", "ASSOCIATION": "USA - Utah", "POINTS": "6", "BONUSPOINTS": "3"}}, {"type": "Feature", "geometry": {"type": "Point", "coordinates": [-109.6992, 40.5382]}, "properties": {"NAME": "W7U/NU-061", "TITLE": "Little Mountain", "REGION": "North Utah", "ASSOCIATION": "USA - Utah", "POINTS": "6", "BONUSPOINTS": "3"}}, {"type": "Feature", "geometry": {"type": "Point", "coordinates": [-111.37, 40.0281]}, "properties": {"NAME": "W7U/NU-062", "TITLE": "Teat Mountain", "REGION": "North Utah", "ASSOCIATION": "USA - Utah", "POINTS": "6", "BONUSPOINTS": "3"}}, {"type": "Feature", "geometry": {"type": "Point", "coordinates": [-109.7229, 37.8542]}, "properties": {"NAME": "W7U/NU-063", "TITLE": "Mormon Pasturre Mountain", "REGION": "North Utah", "ASSOCIATION": "USA - Utah", "POINTS": "6", "BONUSPOINTS": "3"}}, {"type": "Feature", "geometry": {"type": "Point", "coordinates": [-112.1972, 40.0036]}, "properties": {"NAME": "W7U/NU-064", "TITLE": "Boulter Peak", "REGION": "North Utah", "ASSOCIATION": "USA - Utah", "POINTS": "6", "BONUSPOINTS": "3"}}, {"type": "Feature", "geometry": {"type": "Point", "coordinates": [-111.7599, 40.707]}, "properties": {"NAME": "W7U/NU-065", "TITLE": "Grandeur Peak", "REGION": "North Utah", "ASSOCIATION": "USA - Utah", "POINTS": "6", "BONUSPOINTS": "3"}}, {"type": "Feature", "geometry": {"type": "Point", "coordinates": [-109.3282, 40.9689]}, "properties": {"NAME": "W7U/NU-066", "TITLE": "Goslin Mountain", "REGION": "North Utah", "ASSOCIATION": "USA - Utah", "POINTS": "6", "BONUSPOINTS": "3"}}, {"type": "Feature", "geometry": {"type": "Point", "coordinates": [-111.5233, 40.6826]}, "properties": {"NAME": "W7U/NU-067", "TITLE": "Quarry Mountain", "REGION": "North Utah", "ASSOCIATION": "USA - Utah", "POINTS": "6", "BONUSPOINTS": "3"}}, {"type": "Feature", "geometry": {"type": "Point", "coordinates": [-113.6964, 41.4941]}, "properties": {"NAME": "W7U/NU-068", "TITLE": "Bovine Mountains", "REGION": "North Utah", "ASSOCIATION": "USA - Utah", "POINTS": "6", "BONUSPOINTS": "3"}}, {"type": "Feature", "geometry": {"type": "Point", "coordinates": [-112.2519, 38.5149]}, "properties": {"NAME": "W7U/NU-069", "TITLE": "Hoover Peak", "REGION": "North Utah", "ASSOCIATION": "USA - Utah", "POINTS": "6", "BONUSPOINTS": "3"}}, {"type": "Feature", "geometry": {"type": "Point", "coordinates": [-109.7178, 38.0075]}, "properties": {"NAME": "W7U/NU-070", "TITLE": "Cedar Mesa", "REGION": "North Utah", "ASSOCIATION": "USA - Utah", "POINTS": "6", "BONUSPOINTS": "3"}}, {"type": "Feature", "geometry": {"type": "Point", "coordinates": [-111.8295, 40.0553]}, "properties": {"NAME": "W7U/NU-071", "TITLE": "West Mountain", "REGION": "North Utah", "ASSOCIATION": "USA - Utah", "POINTS": "6", "BONUSPOINTS": "3"}}, {"type": "Feature", "geometry": {"type": "Point", "coordinates": [-112.0142, 40.4345]}, "properties": {"NAME": "W7U/NU-072", "TITLE": "Latimer Point", "REGION": "North Utah", "ASSOCIATION": "USA - Utah", "POINTS": "6", "BONUSPOINTS": "3"}}, {"type": "Feature", "geometry": {"type": "Point", "coordinates": [-112.216, 40.9619]}, "properties": {"NAME": "W7U/NU-073", "TITLE": "Frary Peak", "REGION": "North Utah", "ASSOCIATION": "USA - Utah", "POINTS": "6", "BONUSPOINTS": "3"}}, {"type": "Feature", "geometry": {"type": "Point", "coordinates": [-112.3917, 39.6254]}, "properties": {"NAME": "W7U/NU-074", "TITLE": "Sand Mountain", "REGION": "North Utah", "ASSOCIATION": "USA - Utah", "POINTS": "2", "BONUSPOINTS": "3"}}, {"type": "Feature", "geometry": {"type": "Point", "coordinates": [-113.2972, 40.4781]}, "properties": {"NAME": "W7U/NU-075", "TITLE": "Wildcat Mountain", "REGION": "North Utah", "ASSOCIATION": "USA - Utah", "POINTS": "1", "BONUSPOINTS": "3"}}]}