{"type": "FeatureCollection", "name": "W7U/SL SUMMITS", "features": [{"type": "Feature", "geometry": {"type": "Point", "coordinates": [-111.7208, 40.5939]}, "properties": {"NAME": "W7U/SL-001", "TITLE": "Twin Peaks", "REGION": "Salt Lake County", "ASSOCIATION": "USA - Utah", "POINTS": "10", "BONUSPOINTS": "3"}}, {"type": "Feature", "geometry": {"type": "Point", "coordinates": [-111.6813, 40.5329]}, "properties": {"NAME": "W7U/SL-002", "TITLE": "White Baldy", "REGION": "Salt Lake County", "ASSOCIATION": "USA - Utah", "POINTS": "10", "BONUSPOINTS": "3"}}, {"type": "Feature", "geometry": {"type": "Point", "coordinates": [-111.7562, 40.5268]}, "properties": {"NAME": "W7U/SL-003", "TITLE": "Lone Peak", "REGION": "Salt Lake County", "ASSOCIATION": "USA - Utah", "POINTS": "10", "BONUSPOINTS": "3"}}, {"type": "Feature", "geometry": {"type": "Point", "coordinates": [-111.7351, 40.5327]}, "properties": {"NAME": "W7U/SL-004", "TITLE": "11154", "REGION": "Salt Lake County", "ASSOCIATION": "USA - Utah", "POINTS": "10", "BONUSPOINTS": "3"}}, {"type": "Feature", "geometry": {"type": "Point", "coordinates": [-111.5599, 40.5907]}, "properties": {"NAME": "W7U/SL-005", "TITLE": "Clayton Peak", "REGION": "Salt Lake County", "ASSOCIATION": "USA - Utah", "POINTS": "10", "BONUSPOINTS": "3"}}, {"type": "Feature", "geometry": {"type": "Point", "coordinates": [-111.6447, 40.6048]}, "properties": {"NAME": "W7U/SL-006", "TITLE": "Reed and Benson Ridge", "REGION": "Salt Lake County", "ASSOCIATION": "USA - Utah", "POINTS": "10", "BONUSPOINTS": "3"}}, {"type": "Feature", "geometry": {"type": "Point", "coordinates": [-111.7021, 40.6583]}, "properties": {"NAME": "W7U/SL-007", "TITLE": "Raymond, Mount", "REGION": "Salt Lake County", "ASSOCIATION": "USA - Utah", "POINTS": "8", "BONUSPOINTS": "3"}}, {"type": "Feature", "geometry": {"type": "Point", "coordinates": [-111.5675, 40.6241]}, "properties": {"NAME": "W7U/SL-008", "TITLE": "Scott Hill", "REGION": "Salt Lake County", "ASSOCIATION": "USA - Utah", "POINTS": "8", "BONUSPOINTS": "3"}}, {"type": "Feature", "geometry": {"type": "Point", "coordinates": [-111.7405, 40.6579]}, "properties": {"NAME": "W7U/SL-009", "TITLE": "9780", "REGION": "Salt Lake County", "ASSOCIATION": "USA - Utah", "POINTS": "8", "BONUSPOINTS": "3"}}, {"type": "Feature", "geometry": {"type": "Point", "coordinates": [-111.6051, 40.6933]}, "properties": {"NAME": "W7U/SL-010", "TITLE": "Murdock Peak", "REGION": "Salt Lake County", "ASSOCIATION": "USA - Utah", "POINTS": "8", "BONUSPOINTS": "3"}}, {"type": "Feature", "geometry": {"type": "Point", "coordinates": [-111.6459, 40.6621]}, "properties": {"NAME": "W7U/SL-011", "TITLE": "Reynolds Peak", "REGION": "Salt Lake County", "ASSOCIATION": "USA - Utah", "POINTS": "8", "BONUSPOINTS": "3"}}, {"type": "Feature", "geometry": {"type": "Point", "coordinates": [-111.7523, 40.8517]}, "properties": {"NAME": "W7U/SL-012", "TITLE": "Grandview Peak", "REGION": "Salt Lake County", "ASSOCIATION": "USA - Utah", "POINTS": "8", "BONUSPOINTS": "3"}}, {"type": "Feature", "geometry": {"type": "Point", "coordinates": [-112.1729, 40.4669]}, "properties": {"NAME": "W7U/SL-013", "TITLE": "Butterfield Peaks", "REGION": "Salt Lake County", "ASSOCIATION": "USA - Utah", "POINTS": "8", "BONUSPOINTS": "3"}}, {"type": "Feature", "geometry": {"type": "Point", "coordinates": [-112.1875, 40.6137]}, "properties": {"NAME": "W7U/SL-014", "TITLE": "Nelson Peak", "REGION": "Salt Lake County", "ASSOCIATION": "USA - Utah", "POINTS": "8", "BONUSPOINTS": "3"}}, {"type": "Feature", "geometry": {"type": "Point", "coordinates": [-112.1875, 40.5135]}, "properties": {"NAME": "W7U/SL-015", "TITLE": "Clipper Peak", "REGION": "Salt Lake County", "ASSOCIATION": "USA - Utah", "POINTS": "8", "BONUSPOINTS": "3"}}, {"type": "Feature", "geometry": {"type": "Point", "coordinates": [-112.1805, 40.4975]}, "properties": {"NAME": "W7U/SL-016", "TITLE": "9070", "REGION": "Salt Lake County", "ASSOCIATION": "USA - Utah", "POINTS": "8", "BONUSPOINTS": "3"}}, {"type": "Feature", "geometry": {"type": "Point", "coordinates": [-112.2023, 40.6595]}, "properties": {"NAME": "W7U/SL-017", "TITLE": "Farnsworth Peak", "REGION": "Salt Lake County", "ASSOCIATION": "USA - Utah", "POINTS": "8", "BONUSPOINTS": "3"}}, {"type": "Feature", "geometry": {"type": "Point", "coordinates": [-112.2031, 40.6752]}, "properties": {"NAME": "W7U/SL-018", "TITLE": "Kessler Peak", "REGION": "Salt Lake County", "ASSOCIATION": "USA - Utah", "POINTS": "6", "BONUSPOINTS": "3"}}, {"type": "Feature", "geometry": {"type": "Point", "coordinates": [-112.1792, 40.5462]}, "properties": {"NAME": "W7U/SL-019", "TITLE": "Markham Peak", "REGION": "Salt Lake County", "ASSOCIATION": "USA - Utah", "POINTS": "6", "BONUSPOINTS": "3"}}, {"type": "Feature", "geometry": {"type": "Point", "coordinates": [-111.6132, 40.7277]}, "properties": {"NAME": "W7U/SL-020", "TITLE": "8618", "REGION": "Salt Lake County", "ASSOCIATION": "USA - Utah", "POINTS": "6", "BONUSPOINTS": "3"}}, {"type": "Feature", "geometry": {"type": "Point", "coordinates": [-111.7244, 40.7141]}, "properties": {"NAME": "W7U/SL-021", "TITLE": "8306", "REGION": "Salt Lake County", "ASSOCIATION": "USA - Utah", "POINTS": "6", "BONUSPOINTS": "3"}}, {"type": "Feature", "geometry": {"type": "Point", "coordinates": [-111.7544, 40.798]}, "properties": {"NAME": "W7U/SL-022", "TITLE": "7500", "REGION": "Salt Lake County", "ASSOCIATION": "USA - Utah", "POINTS": "4", "BONUSPOINTS": "3"}}, {"type": "Feature", "geometry": {"type": "Point", "coordinates": [-111.7708, 40.7477]}, "properties": {"NAME": "W7U/SL-023", "TITLE": "7500", "REGION": "Salt Lake County", "ASSOCIATION": "USA - Utah", "POINTS": "4", "BONUSPOINTS": "3"}}, {"type": "Feature", "geometry": {"type": "Point", "coordinates": [-112.1431, 40.6703]}, "properties": {"NAME": "W7U/SL-024", "TITLE": "6996", "REGION": "Salt Lake County", "ASSOCIATION": "USA - Utah", "POINTS": "4", "BONUSPOINTS": "3"}}, {"type": "Feature", "geometry": {"type": "Point", "coordinates": [-112.1809, 40.718]}, "properties": {"NAME": "W7U/SL-025", "TITLE": "5658", "REGION": "Salt Lake County", "ASSOCIATION": "USA - Utah", "POINTS": "2", "BONUSPOINTS": "0"}}]}