{"type": "FeatureCollection", "name": "W7U/MI SUMMITS", "features": [{"type": "Feature", "geometry": {"type": "Point", "coordinates": [-112.1736, 38.9941]}, "properties": {"NAME": "W7U/MI-001", "TITLE": "Pioneer Peak", "REGION": "Millard County", "ASSOCIATION": "USA - Utah", "POINTS": "8", "BONUSPOINTS": "3"}}, {"type": "Feature", "geometry": {"type": "Point", "coordinates": [-112.1404, 39.0392]}, "properties": {"NAME": "W7U/MI-002", "TITLE": "10042", "REGION": "Millard County", "ASSOCIATION": "USA - Utah", "POINTS": "8", "BONUSPOINTS": "3"}}, {"type": "Feature", "geometry": {"type": "Point", "coordinates": [-112.1958, 38.9941]}, "properties": {"NAME": "W7U/MI-003", "TITLE": "Catherine, Mount", "REGION": "Millard County", "ASSOCIATION": "USA - Utah", "POINTS": "8", "BONUSPOINTS": "3"}}, {"type": "Feature", "geometry": {"type": "Point", "coordinates": [-113.3161, 39.3883]}, "properties": {"NAME": "W7U/MI-004", "TITLE": "Swasey Peak", "REGION": "Millard County", "ASSOCIATION": "USA - Utah", "POINTS": "8", "BONUSPOINTS": "3"}}, {"type": "Feature", "geometry": {"type": "Point", "coordinates": [-112.1973, 39.2948]}, "properties": {"NAME": "W7U/MI-005", "TITLE": "Williams Peak", "REGION": "Millard County", "ASSOCIATION": "USA - Utah", "POINTS": "8", "BONUSPOINTS": "3"}}, {"type": "Feature", "geometry": {"type": "Point", "coordinates": [-112.3289, 38.6789]}, "properties": {"NAME": "W7U/MI-006", "TITLE": "Indian Peak", "REGION": "Millard County", "ASSOCIATION": "USA - Utah", "POINTS": "8", "BONUSPOINTS": "3"}}, {"type": "Feature", "geometry": {"type": "Point", "coordinates": [-112.2266, 39.2995]}, "properties": {"NAME": "W7U/MI-007", "TITLE": "9165", "REGION": "Millard County", "ASSOCIATION": "USA - Utah", "POINTS": "8", "BONUSPOINTS": "3"}}, {"type": "Feature", "geometry": {"type": "Point", "coordinates": [-113.5673, 38.5941]}, "properties": {"NAME": "W7U/MI-008", "TITLE": "8940", "REGION": "Millard County", "ASSOCIATION": "USA - Utah", "POINTS": "6", "BONUSPOINTS": "3"}}, {"type": "Feature", "geometry": {"type": "Point", "coordinates": [-113.971, 38.612]}, "properties": {"NAME": "W7U/MI-009", "TITLE": "8860", "REGION": "Millard County", "ASSOCIATION": "USA - Utah", "POINTS": "6", "BONUSPOINTS": "3"}}, {"type": "Feature", "geometry": {"type": "Point", "coordinates": [-112.2443, 39.3295]}, "properties": {"NAME": "W7U/MI-010", "TITLE": "Partridge Mountain", "REGION": "Millard County", "ASSOCIATION": "USA - Utah", "POINTS": "6", "BONUSPOINTS": "3"}}, {"type": "Feature", "geometry": {"type": "Point", "coordinates": [-112.2562, 39.3056]}, "properties": {"NAME": "W7U/MI-011", "TITLE": "8801", "REGION": "Millard County", "ASSOCIATION": "USA - Utah", "POINTS": "6", "BONUSPOINTS": "3"}}, {"type": "Feature", "geometry": {"type": "Point", "coordinates": [-112.2517, 39.3929]}, "properties": {"NAME": "W7U/MI-012", "TITLE": "8763", "REGION": "Millard County", "ASSOCIATION": "USA - Utah", "POINTS": "6", "BONUSPOINTS": "3"}}, {"type": "Feature", "geometry": {"type": "Point", "coordinates": [-112.2657, 39.2814]}, "properties": {"NAME": "W7U/MI-013", "TITLE": "Blue Mountain", "REGION": "Millard County", "ASSOCIATION": "USA - Utah", "POINTS": "6", "BONUSPOINTS": "3"}}, {"type": "Feature", "geometry": {"type": "Point", "coordinates": [-113.3408, 39.42]}, "properties": {"NAME": "W7U/MI-014", "TITLE": "8503", "REGION": "Millard County", "ASSOCIATION": "USA - Utah", "POINTS": "6", "BONUSPOINTS": "3"}}, {"type": "Feature", "geometry": {"type": "Point", "coordinates": [-112.4109, 38.6826]}, "properties": {"NAME": "W7U/MI-015", "TITLE": "Marys Nipple", "REGION": "Millard County", "ASSOCIATION": "USA - Utah", "POINTS": "6", "BONUSPOINTS": "3"}}, {"type": "Feature", "geometry": {"type": "Point", "coordinates": [-113.606, 38.6845]}, "properties": {"NAME": "W7U/MI-016", "TITLE": "8460", "REGION": "Millard County", "ASSOCIATION": "USA - Utah", "POINTS": "6", "BONUSPOINTS": "3"}}, {"type": "Feature", "geometry": {"type": "Point", "coordinates": [-113.7626, 38.7597]}, "properties": {"NAME": "W7U/MI-017", "TITLE": "Tunnel Spring Mountains HP", "REGION": "Millard County", "ASSOCIATION": "USA - Utah", "POINTS": "6", "BONUSPOINTS": "3"}}, {"type": "Feature", "geometry": {"type": "Point", "coordinates": [-113.3416, 39.4531]}, "properties": {"NAME": "W7U/MI-018", "TITLE": "Tatow Knob", "REGION": "Millard County", "ASSOCIATION": "USA - Utah", "POINTS": "6", "BONUSPOINTS": "3"}}, {"type": "Feature", "geometry": {"type": "Point", "coordinates": [-113.3655, 39.3111]}, "properties": {"NAME": "W7U/MI-019", "TITLE": "Howell Peak", "REGION": "Millard County", "ASSOCIATION": "USA - Utah", "POINTS": "6", "BONUSPOINTS": "3"}}, {"type": "Feature", "geometry": {"type": "Point", "coordinates": [-113.5305, 38.981]}, "properties": {"NAME": "W7U/MI-020", "TITLE": "King Top", "REGION": "Millard County", "ASSOCIATION": "USA - Utah", "POINTS": "6", "BONUSPOINTS": "3"}}, {"type": "Feature", "geometry": {"type": "Point", "coordinates": [-113.4999, 38.9994]}, "properties": {"NAME": "W7U/MI-021", "TITLE": "8348", "REGION": "Millard County", "ASSOCIATION": "USA - Utah", "POINTS": "6", "BONUSPOINTS": "3"}}, {"type": "Feature", "geometry": {"type": "Point", "coordinates": [-112.488, 38.6367]}, "properties": {"NAME": "W7U/MI-022", "TITLE": "8340", "REGION": "Millard County", "ASSOCIATION": "USA - Utah", "POINTS": "6", "BONUSPOINTS": "3"}}, {"type": "Feature", "geometry": {"type": "Point", "coordinates": [-112.4384, 38.7273]}, "properties": {"NAME": "W7U/MI-023", "TITLE": "South Mountain", "REGION": "Millard County", "ASSOCIATION": "USA - Utah", "POINTS": "6", "BONUSPOINTS": "3"}}, {"type": "Feature", "geometry": {"type": "Point", "coordinates": [-112.535, 38.6477]}, "properties": {"NAME": "W7U/MI-024", "TITLE": "Dog Valley Peak", "REGION": "Millard County", "ASSOCIATION": "USA - Utah", "POINTS": "6", "BONUSPOINTS": "3"}}, {"type": "Feature", "geometry": {"type": "Point", "coordinates": [-113.7228, 39.2293]}, "properties": {"NAME": "W7U/MI-025", "TITLE": "Conger Mountain", "REGION": "Millard County", "ASSOCIATION": "USA - Utah", "POINTS": "6", "BONUSPOINTS": "3"}}, {"type": "Feature", "geometry": {"type": "Point", "coordinates": [-112.4988, 38.6772]}, "properties": {"NAME": "W7U/MI-026", "TITLE": "Pyramids West, The", "REGION": "Millard County", "ASSOCIATION": "USA - Utah", "POINTS": "6", "BONUSPOINTS": "3"}}, {"type": "Feature", "geometry": {"type": "Point", "coordinates": [-112.0325, 39.2251]}, "properties": {"NAME": "W7U/MI-027", "TITLE": "8025", "REGION": "Millard County", "ASSOCIATION": "USA - Utah", "POINTS": "6", "BONUSPOINTS": "3"}}, {"type": "Feature", "geometry": {"type": "Point", "coordinates": [-112.0271, 39.2735]}, "properties": {"NAME": "W7U/MI-028", "TITLE": "Sevier Benchmark", "REGION": "Millard County", "ASSOCIATION": "USA - Utah", "POINTS": "6", "BONUSPOINTS": "3"}}, {"type": "Feature", "geometry": {"type": "Point", "coordinates": [-112.1373, 39.1876]}, "properties": {"NAME": "W7U/MI-029", "TITLE": "8007", "REGION": "Millard County", "ASSOCIATION": "USA - Utah", "POINTS": "6", "BONUSPOINTS": "3"}}, {"type": "Feature", "geometry": {"type": "Point", "coordinates": [-112.4881, 38.694]}, "properties": {"NAME": "W7U/MI-030", "TITLE": "8002", "REGION": "Millard County", "ASSOCIATION": "USA - Utah", "POINTS": "6", "BONUSPOINTS": "3"}}, {"type": "Feature", "geometry": {"type": "Point", "coordinates": [-112.4878, 38.6819]}, "properties": {"NAME": "W7U/MI-031", "TITLE": "Pyramids East, The", "REGION": "Millard County", "ASSOCIATION": "USA - Utah", "POINTS": "6", "BONUSPOINTS": "3"}}, {"type": "Feature", "geometry": {"type": "Point", "coordinates": [-113.3422, 39.483]}, "properties": {"NAME": "W7U/MI-032", "TITLE": "7921", "REGION": "Millard County", "ASSOCIATION": "USA - Utah", "POINTS": "6", "BONUSPOINTS": "3"}}, {"type": "Feature", "geometry": {"type": "Point", "coordinates": [-113.3686, 39.1116]}, "properties": {"NAME": "W7U/MI-033", "TITLE": "7901", "REGION": "Millard County", "ASSOCIATION": "USA - Utah", "POINTS": "6", "BONUSPOINTS": "3"}}, {"type": "Feature", "geometry": {"type": "Point", "coordinates": [-113.5746, 39.0525]}, "properties": {"NAME": "W7U/MI-034", "TITLE": "7820", "REGION": "Millard County", "ASSOCIATION": "USA - Utah", "POINTS": "6", "BONUSPOINTS": "3"}}, {"type": "Feature", "geometry": {"type": "Point", "coordinates": [-113.81, 38.8319]}, "properties": {"NAME": "W7U/MI-035", "TITLE": "Burbank Hills", "REGION": "Millard County", "ASSOCIATION": "USA - Utah", "POINTS": "6", "BONUSPOINTS": "3"}}, {"type": "Feature", "geometry": {"type": "Point", "coordinates": [-113.8688, 38.8266]}, "properties": {"NAME": "W7U/MI-036", "TITLE": "7798", "REGION": "Millard County", "ASSOCIATION": "USA - Utah", "POINTS": "6", "BONUSPOINTS": "3"}}, {"type": "Feature", "geometry": {"type": "Point", "coordinates": [-113.5934, 38.8145]}, "properties": {"NAME": "W7U/MI-037", "TITLE": "7792", "REGION": "Millard County", "ASSOCIATION": "USA - Utah", "POINTS": "6", "BONUSPOINTS": "3"}}, {"type": "Feature", "geometry": {"type": "Point", "coordinates": [-113.4886, 38.9042]}, "properties": {"NAME": "W7U/MI-038", "TITLE": "Double Benchmark", "REGION": "Millard County", "ASSOCIATION": "USA - Utah", "POINTS": "6", "BONUSPOINTS": "3"}}, {"type": "Feature", "geometry": {"type": "Point", "coordinates": [-112.5201, 38.6972]}, "properties": {"NAME": "W7U/MI-039", "TITLE": "Dog Valley Mountain", "REGION": "Millard County", "ASSOCIATION": "USA - Utah", "POINTS": "6", "BONUSPOINTS": "3"}}, {"type": "Feature", "geometry": {"type": "Point", "coordinates": [-113.6513, 39.0202]}, "properties": {"NAME": "W7U/MI-040", "TITLE": "Center Benchmark", "REGION": "Millard County", "ASSOCIATION": "USA - Utah", "POINTS": "6", "BONUSPOINTS": "3"}}, {"type": "Feature", "geometry": {"type": "Point", "coordinates": [-113.9141, 38.8994]}, "properties": {"NAME": "W7U/MI-041", "TITLE": "7646", "REGION": "Millard County", "ASSOCIATION": "USA - Utah", "POINTS": "6", "BONUSPOINTS": "3"}}, {"type": "Feature", "geometry": {"type": "Point", "coordinates": [-112.2125, 39.4311]}, "properties": {"NAME": "W7U/MI-042", "TITLE": "7616", "REGION": "Millard County", "ASSOCIATION": "USA - Utah", "POINTS": "6", "BONUSPOINTS": "3"}}, {"type": "Feature", "geometry": {"type": "Point", "coordinates": [-113.3401, 39.5098]}, "properties": {"NAME": "W7U/MI-043", "TITLE": "7519", "REGION": "Millard County", "ASSOCIATION": "USA - Utah", "POINTS": "6", "BONUSPOINTS": "3"}}, {"type": "Feature", "geometry": {"type": "Point", "coordinates": [-113.5561, 38.83]}, "properties": {"NAME": "W7U/MI-044", "TITLE": "7500", "REGION": "Millard County", "ASSOCIATION": "USA - Utah", "POINTS": "4", "BONUSPOINTS": "3"}}, {"type": "Feature", "geometry": {"type": "Point", "coordinates": [-113.6106, 38.7725]}, "properties": {"NAME": "W7U/MI-045", "TITLE": "Crystal Benchmark", "REGION": "Millard County", "ASSOCIATION": "USA - Utah", "POINTS": "4", "BONUSPOINTS": "3"}}, {"type": "Feature", "geometry": {"type": "Point", "coordinates": [-113.5857, 39.1237]}, "properties": {"NAME": "W7U/MI-046", "TITLE": "7420", "REGION": "Millard County", "ASSOCIATION": "USA - Utah", "POINTS": "4", "BONUSPOINTS": "3"}}, {"type": "Feature", "geometry": {"type": "Point", "coordinates": [-113.6782, 39.158]}, "properties": {"NAME": "W7U/MI-047", "TITLE": "7382", "REGION": "Millard County", "ASSOCIATION": "USA - Utah", "POINTS": "4", "BONUSPOINTS": "3"}}, {"type": "Feature", "geometry": {"type": "Point", "coordinates": [-113.667, 39.1807]}, "properties": {"NAME": "W7U/MI-048", "TITLE": "Round Top Benchmark", "REGION": "Millard County", "ASSOCIATION": "USA - Utah", "POINTS": "4", "BONUSPOINTS": "3"}}, {"type": "Feature", "geometry": {"type": "Point", "coordinates": [-113.6151, 38.7858]}, "properties": {"NAME": "W7U/MI-049", "TITLE": "7353", "REGION": "Millard County", "ASSOCIATION": "USA - Utah", "POINTS": "4", "BONUSPOINTS": "3"}}, {"type": "Feature", "geometry": {"type": "Point", "coordinates": [-112.3377, 38.7359]}, "properties": {"NAME": "W7U/MI-050", "TITLE": "Middle Mountain", "REGION": "Millard County", "ASSOCIATION": "USA - Utah", "POINTS": "4", "BONUSPOINTS": "3"}}, {"type": "Feature", "geometry": {"type": "Point", "coordinates": [-113.6241, 39.1023]}, "properties": {"NAME": "W7U/MI-051", "TITLE": "7300", "REGION": "Millard County", "ASSOCIATION": "USA - Utah", "POINTS": "4", "BONUSPOINTS": "3"}}, {"type": "Feature", "geometry": {"type": "Point", "coordinates": [-112.9951, 39.5442]}, "properties": {"NAME": "W7U/MI-052", "TITLE": "7233", "REGION": "Millard County", "ASSOCIATION": "USA - Utah", "POINTS": "4", "BONUSPOINTS": "3"}}, {"type": "Feature", "geometry": {"type": "Point", "coordinates": [-113.0092, 38.8929]}, "properties": {"NAME": "W7U/MI-053", "TITLE": "Cricket Mountains HP", "REGION": "Millard County", "ASSOCIATION": "USA - Utah", "POINTS": "4", "BONUSPOINTS": "3"}}, {"type": "Feature", "geometry": {"type": "Point", "coordinates": [-112.8219, 38.6072]}, "properties": {"NAME": "W7U/MI-054", "TITLE": "Antelope Mountain", "REGION": "Millard County", "ASSOCIATION": "USA - Utah", "POINTS": "4", "BONUSPOINTS": "3"}}, {"type": "Feature", "geometry": {"type": "Point", "coordinates": [-113.4782, 38.6194]}, "properties": {"NAME": "W7U/MI-055", "TITLE": "7202", "REGION": "Millard County", "ASSOCIATION": "USA - Utah", "POINTS": "4", "BONUSPOINTS": "3"}}, {"type": "Feature", "geometry": {"type": "Point", "coordinates": [-113.4361, 38.9143]}, "properties": {"NAME": "W7U/MI-056", "TITLE": "Barn Hills", "REGION": "Millard County", "ASSOCIATION": "USA - Utah", "POINTS": "4", "BONUSPOINTS": "3"}}, {"type": "Feature", "geometry": {"type": "Point", "coordinates": [-113.72, 39.4383]}, "properties": {"NAME": "W7U/MI-057", "TITLE": "Plympton Ridge HP", "REGION": "Millard County", "ASSOCIATION": "USA - Utah", "POINTS": "4", "BONUSPOINTS": "3"}}, {"type": "Feature", "geometry": {"type": "Point", "coordinates": [-112.9559, 38.9622]}, "properties": {"NAME": "W7U/MI-058", "TITLE": "7182", "REGION": "Millard County", "ASSOCIATION": "USA - Utah", "POINTS": "4", "BONUSPOINTS": "3"}}, {"type": "Feature", "geometry": {"type": "Point", "coordinates": [-112.3622, 38.736]}, "properties": {"NAME": "W7U/MI-059", "TITLE": "7076", "REGION": "Millard County", "ASSOCIATION": "USA - Utah", "POINTS": "4", "BONUSPOINTS": "3"}}, {"type": "Feature", "geometry": {"type": "Point", "coordinates": [-112.9795, 39.5296]}, "properties": {"NAME": "W7U/MI-060", "TITLE": "Drum Benchmark", "REGION": "Millard County", "ASSOCIATION": "USA - Utah", "POINTS": "4", "BONUSPOINTS": "3"}}, {"type": "Feature", "geometry": {"type": "Point", "coordinates": [-113.6482, 38.7734]}, "properties": {"NAME": "W7U/MI-061", "TITLE": "Middle Mountain", "REGION": "Millard County", "ASSOCIATION": "USA - Utah", "POINTS": "4", "BONUSPOINTS": "3"}}, {"type": "Feature", "geometry": {"type": "Point", "coordinates": [-112.5718, 38.6436]}, "properties": {"NAME": "W7U/MI-062", "TITLE": "6955", "REGION": "Millard County", "ASSOCIATION": "USA - Utah", "POINTS": "4", "BONUSPOINTS": "3"}}, {"type": "Feature", "geometry": {"type": "Point", "coordinates": [-113.7922, 39.1984]}, "properties": {"NAME": "W7U/MI-063", "TITLE": "6900", "REGION": "Millard County", "ASSOCIATION": "USA - Utah", "POINTS": "4", "BONUSPOINTS": "3"}}, {"type": "Feature", "geometry": {"type": "Point", "coordinates": [-113.5201, 38.8675]}, "properties": {"NAME": "W7U/MI-064", "TITLE": "6884", "REGION": "Millard County", "ASSOCIATION": "USA - Utah", "POINTS": "4", "BONUSPOINTS": "3"}}, {"type": "Feature", "geometry": {"type": "Point", "coordinates": [-113.437, 38.9655]}, "properties": {"NAME": "W7U/MI-065", "TITLE": "6845", "REGION": "Millard County", "ASSOCIATION": "USA - Utah", "POINTS": "4", "BONUSPOINTS": "3"}}, {"type": "Feature", "geometry": {"type": "Point", "coordinates": [-113.8349, 38.6375]}, "properties": {"NAME": "W7U/MI-066", "TITLE": "Halfway Hills", "REGION": "Millard County", "ASSOCIATION": "USA - Utah", "POINTS": "4", "BONUSPOINTS": "3"}}, {"type": "Feature", "geometry": {"type": "Point", "coordinates": [-113.0261, 38.7967]}, "properties": {"NAME": "W7U/MI-067", "TITLE": "Headlight Mountain", "REGION": "Millard County", "ASSOCIATION": "USA - Utah", "POINTS": "4", "BONUSPOINTS": "3"}}, {"type": "Feature", "geometry": {"type": "Point", "coordinates": [-113.413, 38.95]}, "properties": {"NAME": "W7U/MI-068", "TITLE": "6727", "REGION": "Millard County", "ASSOCIATION": "USA - Utah", "POINTS": "4", "BONUSPOINTS": "3"}}, {"type": "Feature", "geometry": {"type": "Point", "coordinates": [-112.9958, 38.8407]}, "properties": {"NAME": "W7U/MI-069", "TITLE": "6722", "REGION": "Millard County", "ASSOCIATION": "USA - Utah", "POINTS": "4", "BONUSPOINTS": "3"}}, {"type": "Feature", "geometry": {"type": "Point", "coordinates": [-113.5012, 38.8608]}, "properties": {"NAME": "W7U/MI-070", "TITLE": "6711", "REGION": "Millard County", "ASSOCIATION": "USA - Utah", "POINTS": "4", "BONUSPOINTS": "3"}}, {"type": "Feature", "geometry": {"type": "Point", "coordinates": [-113.252, 38.6284]}, "properties": {"NAME": "W7U/MI-071", "TITLE": "6700", "REGION": "Millard County", "ASSOCIATION": "USA - Utah", "POINTS": "4", "BONUSPOINTS": "3"}}, {"type": "Feature", "geometry": {"type": "Point", "coordinates": [-113.1437, 38.6596]}, "properties": {"NAME": "W7U/MI-072", "TITLE": "Beaver Benchmark", "REGION": "Millard County", "ASSOCIATION": "USA - Utah", "POINTS": "4", "BONUSPOINTS": "3"}}, {"type": "Feature", "geometry": {"type": "Point", "coordinates": [-113.9579, 38.9317]}, "properties": {"NAME": "W7U/MI-073", "TITLE": "6660", "REGION": "Millard County", "ASSOCIATION": "USA - Utah", "POINTS": "4", "BONUSPOINTS": "3"}}, {"type": "Feature", "geometry": {"type": "Point", "coordinates": [-112.6173, 38.6702]}, "properties": {"NAME": "W7U/MI-074", "TITLE": "6640", "REGION": "Millard County", "ASSOCIATION": "USA - Utah", "POINTS": "4", "BONUSPOINTS": "3"}}, {"type": "Feature", "geometry": {"type": "Point", "coordinates": [-113.8892, 39.1347]}, "properties": {"NAME": "W7U/MI-075", "TITLE": "6614", "REGION": "Millard County", "ASSOCIATION": "USA - Utah", "POINTS": "4", "BONUSPOINTS": "3"}}, {"type": "Feature", "geometry": {"type": "Point", "coordinates": [-113.4104, 38.8967]}, "properties": {"NAME": "W7U/MI-076", "TITLE": "6596", "REGION": "Millard County", "ASSOCIATION": "USA - Utah", "POINTS": "4", "BONUSPOINTS": "3"}}, {"type": "Feature", "geometry": {"type": "Point", "coordinates": [-113.0698, 39.4937]}, "properties": {"NAME": "W7U/MI-077", "TITLE": "Little Drum Mountains HP", "REGION": "Millard County", "ASSOCIATION": "USA - Utah", "POINTS": "4", "BONUSPOINTS": "3"}}, {"type": "Feature", "geometry": {"type": "Point", "coordinates": [-113.1812, 38.629]}, "properties": {"NAME": "W7U/MI-078", "TITLE": "6573", "REGION": "Millard County", "ASSOCIATION": "USA - Utah", "POINTS": "4", "BONUSPOINTS": "3"}}, {"type": "Feature", "geometry": {"type": "Point", "coordinates": [-112.9486, 38.8604]}, "properties": {"NAME": "W7U/MI-079", "TITLE": "6570", "REGION": "Millard County", "ASSOCIATION": "USA - Utah", "POINTS": "4", "BONUSPOINTS": "3"}}, {"type": "Feature", "geometry": {"type": "Point", "coordinates": [-113.5068, 38.6792]}, "properties": {"NAME": "W7U/MI-080", "TITLE": "6565", "REGION": "Millard County", "ASSOCIATION": "USA - Utah", "POINTS": "4", "BONUSPOINTS": "3"}}, {"type": "Feature", "geometry": {"type": "Point", "coordinates": [-113.4086, 39.2362]}, "properties": {"NAME": "W7U/MI-081", "TITLE": "6540", "REGION": "Millard County", "ASSOCIATION": "USA - Utah", "POINTS": "4", "BONUSPOINTS": "3"}}, {"type": "Feature", "geometry": {"type": "Point", "coordinates": [-113.599, 38.8644]}, "properties": {"NAME": "W7U/MI-082", "TITLE": "6497", "REGION": "Millard County", "ASSOCIATION": "USA - Utah", "POINTS": "2", "BONUSPOINTS": "3"}}, {"type": "Feature", "geometry": {"type": "Point", "coordinates": [-112.9243, 38.8784]}, "properties": {"NAME": "W7U/MI-083", "TITLE": "6484", "REGION": "Millard County", "ASSOCIATION": "USA - Utah", "POINTS": "2", "BONUSPOINTS": "3"}}, {"type": "Feature", "geometry": {"type": "Point", "coordinates": [-112.7711, 38.7417]}, "properties": {"NAME": "W7U/MI-084", "TITLE": "South Twin Peak", "REGION": "Millard County", "ASSOCIATION": "USA - Utah", "POINTS": "2", "BONUSPOINTS": "3"}}, {"type": "Feature", "geometry": {"type": "Point", "coordinates": [-113.7325, 39.3409]}, "properties": {"NAME": "W7U/MI-085", "TITLE": "Plympton Ridge South", "REGION": "Millard County", "ASSOCIATION": "USA - Utah", "POINTS": "2", "BONUSPOINTS": "3"}}, {"type": "Feature", "geometry": {"type": "Point", "coordinates": [-113.4113, 38.9121]}, "properties": {"NAME": "W7U/MI-086", "TITLE": "6414", "REGION": "Millard County", "ASSOCIATION": "USA - Utah", "POINTS": "2", "BONUSPOINTS": "3"}}, {"type": "Feature", "geometry": {"type": "Point", "coordinates": [-114.0386, 39.4691]}, "properties": {"NAME": "W7U/MI-087", "TITLE": "Spring Mountain", "REGION": "Millard County", "ASSOCIATION": "USA - Utah", "POINTS": "2", "BONUSPOINTS": "3"}}, {"type": "Feature", "geometry": {"type": "Point", "coordinates": [-112.7293, 38.6847]}, "properties": {"NAME": "W7U/MI-088", "TITLE": "Burnt Benchmark", "REGION": "Millard County", "ASSOCIATION": "USA - Utah", "POINTS": "2", "BONUSPOINTS": "3"}}, {"type": "Feature", "geometry": {"type": "Point", "coordinates": [-113.3536, 38.7754]}, "properties": {"NAME": "W7U/MI-089", "TITLE": "Low Benchmark", "REGION": "Millard County", "ASSOCIATION": "USA - Utah", "POINTS": "2", "BONUSPOINTS": "3"}}, {"type": "Feature", "geometry": {"type": "Point", "coordinates": [-113.8334, 39.2292]}, "properties": {"NAME": "W7U/MI-090", "TITLE": "Knoll Hill", "REGION": "Millard County", "ASSOCIATION": "USA - Utah", "POINTS": "2", "BONUSPOINTS": "3"}}, {"type": "Feature", "geometry": {"type": "Point", "coordinates": [-113.4533, 39.0148]}, "properties": {"NAME": "W7U/MI-091", "TITLE": "6220", "REGION": "Millard County", "ASSOCIATION": "USA - Utah", "POINTS": "2", "BONUSPOINTS": "3"}}, {"type": "Feature", "geometry": {"type": "Point", "coordinates": [-113.4418, 38.6153]}, "properties": {"NAME": "W7U/MI-092", "TITLE": "6202", "REGION": "Millard County", "ASSOCIATION": "USA - Utah", "POINTS": "2", "BONUSPOINTS": "3"}}, {"type": "Feature", "geometry": {"type": "Point", "coordinates": [-113.0717, 38.737]}, "properties": {"NAME": "W7U/MI-093", "TITLE": "6180", "REGION": "Millard County", "ASSOCIATION": "USA - Utah", "POINTS": "2", "BONUSPOINTS": "0"}}, {"type": "Feature", "geometry": {"type": "Point", "coordinates": [-113.3576, 38.8152]}, "properties": {"NAME": "W7U/MI-094", "TITLE": "6150", "REGION": "Millard County", "ASSOCIATION": "USA - Utah", "POINTS": "2", "BONUSPOINTS": "0"}}, {"type": "Feature", "geometry": {"type": "Point", "coordinates": [-113.0487, 38.866]}, "properties": {"NAME": "W7U/MI-095", "TITLE": "Petes Knoll", "REGION": "Millard County", "ASSOCIATION": "USA - Utah", "POINTS": "2", "BONUSPOINTS": "0"}}, {"type": "Feature", "geometry": {"type": "Point", "coordinates": [-113.3945, 38.8858]}, "properties": {"NAME": "W7U/MI-096", "TITLE": "6060", "REGION": "Millard County", "ASSOCIATION": "USA - Utah", "POINTS": "2", "BONUSPOINTS": "0"}}, {"type": "Feature", "geometry": {"type": "Point", "coordinates": [-113.0581, 38.8355]}, "properties": {"NAME": "W7U/MI-097", "TITLE": "6042", "REGION": "Millard County", "ASSOCIATION": "USA - Utah", "POINTS": "2", "BONUSPOINTS": "0"}}, {"type": "Feature", "geometry": {"type": "Point", "coordinates": [-112.8798, 38.8373]}, "properties": {"NAME": "W7U/MI-098", "TITLE": "6012", "REGION": "Millard County", "ASSOCIATION": "USA - Utah", "POINTS": "2", "BONUSPOINTS": "0"}}, {"type": "Feature", "geometry": {"type": "Point", "coordinates": [-113.0637, 38.7734]}, "properties": {"NAME": "W7U/MI-099", "TITLE": "Red Hills West", "REGION": "Millard County", "ASSOCIATION": "USA - Utah", "POINTS": "2", "BONUSPOINTS": "0"}}, {"type": "Feature", "geometry": {"type": "Point", "coordinates": [-113.3077, 38.8398]}, "properties": {"NAME": "W7U/MI-100", "TITLE": "5969", "REGION": "Millard County", "ASSOCIATION": "USA - Utah", "POINTS": "2", "BONUSPOINTS": "0"}}, {"type": "Feature", "geometry": {"type": "Point", "coordinates": [-112.826, 38.7158]}, "properties": {"NAME": "W7U/MI-101", "TITLE": "5947", "REGION": "Millard County", "ASSOCIATION": "USA - Utah", "POINTS": "2", "BONUSPOINTS": "0"}}, {"type": "Feature", "geometry": {"type": "Point", "coordinates": [-113.4288, 39.0284]}, "properties": {"NAME": "W7U/MI-102", "TITLE": "5944", "REGION": "Millard County", "ASSOCIATION": "USA - Utah", "POINTS": "2", "BONUSPOINTS": "0"}}, {"type": "Feature", "geometry": {"type": "Point", "coordinates": [-113.3704, 38.7602]}, "properties": {"NAME": "W7U/MI-103", "TITLE": "5940", "REGION": "Millard County", "ASSOCIATION": "USA - Utah", "POINTS": "2", "BONUSPOINTS": "0"}}, {"type": "Feature", "geometry": {"type": "Point", "coordinates": [-113.8687, 39.5012]}, "properties": {"NAME": "W7U/MI-104", "TITLE": "Salt Marsh Range HP", "REGION": "Millard County", "ASSOCIATION": "USA - Utah", "POINTS": "2", "BONUSPOINTS": "0"}}, {"type": "Feature", "geometry": {"type": "Point", "coordinates": [-112.739, 38.7872]}, "properties": {"NAME": "W7U/MI-105", "TITLE": "North Twin Peak", "REGION": "Millard County", "ASSOCIATION": "USA - Utah", "POINTS": "2", "BONUSPOINTS": "0"}}, {"type": "Feature", "geometry": {"type": "Point", "coordinates": [-112.8623, 39.0568]}, "properties": {"NAME": "W7U/MI-106", "TITLE": "5868", "REGION": "Millard County", "ASSOCIATION": "USA - Utah", "POINTS": "2", "BONUSPOINTS": "0"}}, {"type": "Feature", "geometry": {"type": "Point", "coordinates": [-113.0952, 38.7116]}, "properties": {"NAME": "W7U/MI-107", "TITLE": "5797", "REGION": "Millard County", "ASSOCIATION": "USA - Utah", "POINTS": "2", "BONUSPOINTS": "0"}}, {"type": "Feature", "geometry": {"type": "Point", "coordinates": [-112.5522, 39.1316]}, "properties": {"NAME": "W7U/MI-108", "TITLE": "Pahvant Butte", "REGION": "Millard County", "ASSOCIATION": "USA - Utah", "POINTS": "2", "BONUSPOINTS": "0"}}, {"type": "Feature", "geometry": {"type": "Point", "coordinates": [-113.302, 38.7883]}, "properties": {"NAME": "W7U/MI-109", "TITLE": "5715", "REGION": "Millard County", "ASSOCIATION": "USA - Utah", "POINTS": "2", "BONUSPOINTS": "0"}}, {"type": "Feature", "geometry": {"type": "Point", "coordinates": [-113.4304, 38.6955]}, "properties": {"NAME": "W7U/MI-110", "TITLE": "5602", "REGION": "Millard County", "ASSOCIATION": "USA - Utah", "POINTS": "2", "BONUSPOINTS": "0"}}, {"type": "Feature", "geometry": {"type": "Point", "coordinates": [-113.5554, 39.4664]}, "properties": {"NAME": "W7U/MI-111", "TITLE": "Coyote Knolls West", "REGION": "Millard County", "ASSOCIATION": "USA - Utah", "POINTS": "1", "BONUSPOINTS": "0"}}]}