{"type": "FeatureCollection", "name": "W7U/SP SUMMITS", "features": [{"type": "Feature", "geometry": {"type": "Point", "coordinates": [-111.4538, 39.115]}, "properties": {"NAME": "W7U/SP-001", "TITLE": "Heliotrope Mountain", "REGION": "Sanpete County", "ASSOCIATION": "USA - Utah", "POINTS": "10", "BONUSPOINTS": "3"}}, {"type": "Feature", "geometry": {"type": "Point", "coordinates": [-111.3025, 39.4936]}, "properties": {"NAME": "W7U/SP-002", "TITLE": "11100", "REGION": "Sanpete County", "ASSOCIATION": "USA - Utah", "POINTS": "10", "BONUSPOINTS": "3"}}, {"type": "Feature", "geometry": {"type": "Point", "coordinates": [-111.4042, 39.3743]}, "properties": {"NAME": "W7U/SP-003", "TITLE": "Sanpete 2 Benchmark", "REGION": "Sanpete County", "ASSOCIATION": "USA - Utah", "POINTS": "10", "BONUSPOINTS": "3"}}, {"type": "Feature", "geometry": {"type": "Point", "coordinates": [-111.521, 39.061]}, "properties": {"NAME": "W7U/SP-004", "TITLE": "11071", "REGION": "Sanpete County", "ASSOCIATION": "USA - Utah", "POINTS": "10", "BONUSPOINTS": "3"}}, {"type": "Feature", "geometry": {"type": "Point", "coordinates": [-111.5779, 39.0364]}, "properties": {"NAME": "W7U/SP-005", "TITLE": "Marys Nipple", "REGION": "Sanpete County", "ASSOCIATION": "USA - Utah", "POINTS": "10", "BONUSPOINTS": "3"}}, {"type": "Feature", "geometry": {"type": "Point", "coordinates": [-111.5104, 39.1256]}, "properties": {"NAME": "W7U/SP-006", "TITLE": "Baldy, Mount", "REGION": "Sanpete County", "ASSOCIATION": "USA - Utah", "POINTS": "10", "BONUSPOINTS": "3"}}, {"type": "Feature", "geometry": {"type": "Point", "coordinates": [-111.514, 39.1556]}, "properties": {"NAME": "W7U/SP-007", "TITLE": "Black Mountain", "REGION": "Sanpete County", "ASSOCIATION": "USA - Utah", "POINTS": "10", "BONUSPOINTS": "3"}}, {"type": "Feature", "geometry": {"type": "Point", "coordinates": [-111.2655, 39.6558]}, "properties": {"NAME": "W7U/SP-008", "TITLE": "9731", "REGION": "Sanpete County", "ASSOCIATION": "USA - Utah", "POINTS": "8", "BONUSPOINTS": "3"}}, {"type": "Feature", "geometry": {"type": "Point", "coordinates": [-111.3549, 39.7994]}, "properties": {"NAME": "W7U/SP-009", "TITLE": "9324", "REGION": "Sanpete County", "ASSOCIATION": "USA - Utah", "POINTS": "8", "BONUSPOINTS": "3"}}, {"type": "Feature", "geometry": {"type": "Point", "coordinates": [-111.5777, 39.7602]}, "properties": {"NAME": "W7U/SP-010", "TITLE": "Baldy, Mount", "REGION": "Sanpete County", "ASSOCIATION": "USA - Utah", "POINTS": "8", "BONUSPOINTS": "3"}}, {"type": "Feature", "geometry": {"type": "Point", "coordinates": [-111.5341, 39.32]}, "properties": {"NAME": "W7U/SP-011", "TITLE": "Bald Mountain", "REGION": "Sanpete County", "ASSOCIATION": "USA - Utah", "POINTS": "6", "BONUSPOINTS": "3"}}, {"type": "Feature", "geometry": {"type": "Point", "coordinates": [-111.9976, 39.0602]}, "properties": {"NAME": "W7U/SP-012", "TITLE": "Stevens Benchmark", "REGION": "Sanpete County", "ASSOCIATION": "USA - Utah", "POINTS": "6", "BONUSPOINTS": "3"}}, {"type": "Feature", "geometry": {"type": "Point", "coordinates": [-111.5433, 39.6312]}, "properties": {"NAME": "W7U/SP-013", "TITLE": "Cedar Hills", "REGION": "Sanpete County", "ASSOCIATION": "USA - Utah", "POINTS": "6", "BONUSPOINTS": "3"}}, {"type": "Feature", "geometry": {"type": "Point", "coordinates": [-111.5196, 39.6812]}, "properties": {"NAME": "W7U/SP-014", "TITLE": "Cedar Hills North", "REGION": "Sanpete County", "ASSOCIATION": "USA - Utah", "POINTS": "6", "BONUSPOINTS": "3"}}, {"type": "Feature", "geometry": {"type": "Point", "coordinates": [-111.7494, 39.3009]}, "properties": {"NAME": "W7U/SP-015", "TITLE": "7740", "REGION": "Sanpete County", "ASSOCIATION": "USA - Utah", "POINTS": "6", "BONUSPOINTS": "3"}}, {"type": "Feature", "geometry": {"type": "Point", "coordinates": [-111.9633, 39.2456]}, "properties": {"NAME": "W7U/SP-016", "TITLE": "7495", "REGION": "Sanpete County", "ASSOCIATION": "USA - Utah", "POINTS": "4", "BONUSPOINTS": "3"}}, {"type": "Feature", "geometry": {"type": "Point", "coordinates": [-112.0103, 39.119]}, "properties": {"NAME": "W7U/SP-017", "TITLE": "7468", "REGION": "Sanpete County", "ASSOCIATION": "USA - Utah", "POINTS": "4", "BONUSPOINTS": "3"}}, {"type": "Feature", "geometry": {"type": "Point", "coordinates": [-111.9532, 39.1792]}, "properties": {"NAME": "W7U/SP-018", "TITLE": "7354", "REGION": "Sanpete County", "ASSOCIATION": "USA - Utah", "POINTS": "4", "BONUSPOINTS": "3"}}, {"type": "Feature", "geometry": {"type": "Point", "coordinates": [-111.9683, 39.1319]}, "properties": {"NAME": "W7U/SP-019", "TITLE": "7109", "REGION": "Sanpete County", "ASSOCIATION": "USA - Utah", "POINTS": "4", "BONUSPOINTS": "3"}}, {"type": "Feature", "geometry": {"type": "Point", "coordinates": [-111.5875, 39.6373]}, "properties": {"NAME": "W7U/SP-020", "TITLE": "7107", "REGION": "Sanpete County", "ASSOCIATION": "USA - Utah", "POINTS": "4", "BONUSPOINTS": "3"}}, {"type": "Feature", "geometry": {"type": "Point", "coordinates": [-111.9688, 39.3036]}, "properties": {"NAME": "W7U/SP-021", "TITLE": "7060", "REGION": "Sanpete County", "ASSOCIATION": "USA - Utah", "POINTS": "4", "BONUSPOINTS": "3"}}, {"type": "Feature", "geometry": {"type": "Point", "coordinates": [-111.9512, 39.1993]}, "properties": {"NAME": "W7U/SP-022", "TITLE": "6982", "REGION": "Sanpete County", "ASSOCIATION": "USA - Utah", "POINTS": "4", "BONUSPOINTS": "3"}}]}