{"type": "FeatureCollection", "name": "W7O/SE SUMMITS", "features": [{"type": "Feature", "geometry": {"type": "Point", "coordinates": [-118.5765, 42.6362]}, "properties": {"NAME": "W7O/SE-001", "TITLE": "Steens Mountain", "REGION": "OR-Southeast", "ASSOCIATION": "USA - Oregon", "POINTS": "10", "BONUSPOINTS": "3"}}, {"type": "Feature", "geometry": {"type": "Point", "coordinates": [-118.6504, 42.0993]}, "properties": {"NAME": "W7O/SE-002", "TITLE": "Pueblo Mountain", "REGION": "OR-Southeast", "ASSOCIATION": "USA - Oregon", "POINTS": "8", "BONUSPOINTS": "3"}}, {"type": "Feature", "geometry": {"type": "Point", "coordinates": [-117.9264, 42.122]}, "properties": {"NAME": "W7O/SE-003", "TITLE": "Stevenson Bench", "REGION": "OR-Southeast", "ASSOCIATION": "USA - Oregon", "POINTS": "8", "BONUSPOINTS": "3"}}, {"type": "Feature", "geometry": {"type": "Point", "coordinates": [-119.332, 42.3859]}, "properties": {"NAME": "W7O/SE-004", "TITLE": "Beatys Butte", "REGION": "OR-Southeast", "ASSOCIATION": "USA - Oregon", "POINTS": "6", "BONUSPOINTS": "3"}}, {"type": "Feature", "geometry": {"type": "Point", "coordinates": [-118.1362, 44.2428]}, "properties": {"NAME": "W7O/SE-005", "TITLE": "Ironside Mountain", "REGION": "OR-Southeast", "ASSOCIATION": "USA - Oregon", "POINTS": "6", "BONUSPOINTS": "3"}}, {"type": "Feature", "geometry": {"type": "Point", "coordinates": [-118.5402, 42.6463]}, "properties": {"NAME": "W7O/SE-006", "TITLE": "Devine Rock", "REGION": "OR-Southeast", "ASSOCIATION": "USA - Oregon", "POINTS": "6", "BONUSPOINTS": "3"}}, {"type": "Feature", "geometry": {"type": "Point", "coordinates": [-117.8753, 42.3214]}, "properties": {"NAME": "W7O/SE-007", "TITLE": "Blue Mountain", "REGION": "OR-Southeast", "ASSOCIATION": "USA - Oregon", "POINTS": "6", "BONUSPOINTS": "3"}}, {"type": "Feature", "geometry": {"type": "Point", "coordinates": [-119.0466, 42.0677]}, "properties": {"NAME": "W7O/SE-008", "TITLE": "Hawks Mountain", "REGION": "OR-Southeast", "ASSOCIATION": "USA - Oregon", "POINTS": "6", "BONUSPOINTS": "3"}}, {"type": "Feature", "geometry": {"type": "Point", "coordinates": [-118.3988, 42.912]}, "properties": {"NAME": "W7O/SE-009", "TITLE": "Stonyhouse Bench", "REGION": "OR-Southeast", "ASSOCIATION": "USA - Oregon", "POINTS": "6", "BONUSPOINTS": "3"}}, {"type": "Feature", "geometry": {"type": "Point", "coordinates": [-119.3203, 42.3619]}, "properties": {"NAME": "W7O/SE-010", "TITLE": "Mahogany Butte", "REGION": "OR-Southeast", "ASSOCIATION": "USA - Oregon", "POINTS": "6", "BONUSPOINTS": "3"}}, {"type": "Feature", "geometry": {"type": "Point", "coordinates": [-118.7032, 42.3474]}, "properties": {"NAME": "W7O/SE-011", "TITLE": "Alvord Peak", "REGION": "OR-Southeast", "ASSOCIATION": "USA - Oregon", "POINTS": "6", "BONUSPOINTS": "3"}}, {"type": "Feature", "geometry": {"type": "Point", "coordinates": [-117.8922, 42.0755]}, "properties": {"NAME": "W7O/SE-012", "TITLE": "Flattop", "REGION": "OR-Southeast", "ASSOCIATION": "USA - Oregon", "POINTS": "6", "BONUSPOINTS": "3"}}, {"type": "Feature", "geometry": {"type": "Point", "coordinates": [-119.133, 42.1037]}, "properties": {"NAME": "W7O/SE-013", "TITLE": "Acty Mountain", "REGION": "OR-Southeast", "ASSOCIATION": "USA - Oregon", "POINTS": "6", "BONUSPOINTS": "3"}}, {"type": "Feature", "geometry": {"type": "Point", "coordinates": [-118.3997, 42.0819]}, "properties": {"NAME": "W7O/SE-014", "TITLE": "Red Mountain", "REGION": "OR-Southeast", "ASSOCIATION": "USA - Oregon", "POINTS": "6", "BONUSPOINTS": "3"}}, {"type": "Feature", "geometry": {"type": "Point", "coordinates": [-119.0016, 42.1189]}, "properties": {"NAME": "W7O/SE-015", "TITLE": "Lone Mountain", "REGION": "OR-Southeast", "ASSOCIATION": "USA - Oregon", "POINTS": "6", "BONUSPOINTS": "3"}}, {"type": "Feature", "geometry": {"type": "Point", "coordinates": [-118.1827, 44.0214]}, "properties": {"NAME": "W7O/SE-016", "TITLE": "Castle Rock", "REGION": "OR-Southeast", "ASSOCIATION": "USA - Oregon", "POINTS": "6", "BONUSPOINTS": "3"}}, {"type": "Feature", "geometry": {"type": "Point", "coordinates": [-118.8254, 43.9288]}, "properties": {"NAME": "W7O/SE-017", "TITLE": "Calamity Butte", "REGION": "OR-Southeast", "ASSOCIATION": "USA - Oregon", "POINTS": "6", "BONUSPOINTS": "3"}}, {"type": "Feature", "geometry": {"type": "Point", "coordinates": [-118.8693, 43.8108]}, "properties": {"NAME": "W7O/SE-018", "TITLE": "King Mountain", "REGION": "OR-Southeast", "ASSOCIATION": "USA - Oregon", "POINTS": "6", "BONUSPOINTS": "3"}}, {"type": "Feature", "geometry": {"type": "Point", "coordinates": [-117.8465, 42.2817]}, "properties": {"NAME": "W7O/SE-019", "TITLE": "Table, The", "REGION": "OR-Southeast", "ASSOCIATION": "USA - Oregon", "POINTS": "6", "BONUSPOINTS": "3"}}, {"type": "Feature", "geometry": {"type": "Point", "coordinates": [-118.7591, 42.2897]}, "properties": {"NAME": "W7O/SE-020", "TITLE": "Fields Benchmark", "REGION": "OR-Southeast", "ASSOCIATION": "USA - Oregon", "POINTS": "6", "BONUSPOINTS": "3"}}, {"type": "Feature", "geometry": {"type": "Point", "coordinates": [-117.256, 43.2351]}, "properties": {"NAME": "W7O/SE-021", "TITLE": "Mahogany Mountain", "REGION": "OR-Southeast", "ASSOCIATION": "USA - Oregon", "POINTS": "6", "BONUSPOINTS": "3"}}, {"type": "Feature", "geometry": {"type": "Point", "coordinates": [-119.892, 43.3491]}, "properties": {"NAME": "W7O/SE-022", "TITLE": "Wagontire Mountain", "REGION": "OR-Southeast", "ASSOCIATION": "USA - Oregon", "POINTS": "6", "BONUSPOINTS": "3"}}, {"type": "Feature", "geometry": {"type": "Point", "coordinates": [-117.6621, 44.1687]}, "properties": {"NAME": "W7O/SE-023", "TITLE": "Cottonwood Mountain", "REGION": "OR-Southeast", "ASSOCIATION": "USA - Oregon", "POINTS": "6", "BONUSPOINTS": "3"}}, {"type": "Feature", "geometry": {"type": "Point", "coordinates": [-117.7491, 44.2074]}, "properties": {"NAME": "W7O/SE-024", "TITLE": "Juniper Mountain", "REGION": "OR-Southeast", "ASSOCIATION": "USA - Oregon", "POINTS": "6", "BONUSPOINTS": "3"}}, {"type": "Feature", "geometry": {"type": "Point", "coordinates": [-118.4164, 44.0385]}, "properties": {"NAME": "W7O/SE-025", "TITLE": "Antelope Mountain", "REGION": "OR-Southeast", "ASSOCIATION": "USA - Oregon", "POINTS": "6", "BONUSPOINTS": "3"}}, {"type": "Feature", "geometry": {"type": "Point", "coordinates": [-117.6976, 42.148]}, "properties": {"NAME": "W7O/SE-026", "TITLE": "High Peak", "REGION": "OR-Southeast", "ASSOCIATION": "USA - Oregon", "POINTS": "6", "BONUSPOINTS": "3"}}, {"type": "Feature", "geometry": {"type": "Point", "coordinates": [-118.8315, 43.832]}, "properties": {"NAME": "W7O/SE-027", "TITLE": "Telephone Butte", "REGION": "OR-Southeast", "ASSOCIATION": "USA - Oregon", "POINTS": "6", "BONUSPOINTS": "3"}}, {"type": "Feature", "geometry": {"type": "Point", "coordinates": [-118.499, 43.1002]}, "properties": {"NAME": "W7O/SE-028", "TITLE": "Riddle Mountain", "REGION": "OR-Southeast", "ASSOCIATION": "USA - Oregon", "POINTS": "6", "BONUSPOINTS": "3"}}, {"type": "Feature", "geometry": {"type": "Point", "coordinates": [-118.1443, 44.2798]}, "properties": {"NAME": "W7O/SE-029", "TITLE": "Sheephead Mountain", "REGION": "OR-Southeast", "ASSOCIATION": "USA - Oregon", "POINTS": "6", "BONUSPOINTS": "3"}}, {"type": "Feature", "geometry": {"type": "Point", "coordinates": [-118.3483, 42.7092]}, "properties": {"NAME": "W7O/SE-030", "TITLE": "Mickey Butte", "REGION": "OR-Southeast", "ASSOCIATION": "USA - Oregon", "POINTS": "6", "BONUSPOINTS": "3"}}, {"type": "Feature", "geometry": {"type": "Point", "coordinates": [-118.1693, 42.9521]}, "properties": {"NAME": "W7O/SE-031", "TITLE": "Sheepshead Mtns HP", "REGION": "OR-Southeast", "ASSOCIATION": "USA - Oregon", "POINTS": "6", "BONUSPOINTS": "3"}}, {"type": "Feature", "geometry": {"type": "Point", "coordinates": [-119.5638, 43.6718]}, "properties": {"NAME": "W7O/SE-032", "TITLE": "Dry Mountain", "REGION": "OR-Southeast", "ASSOCIATION": "USA - Oregon", "POINTS": "6", "BONUSPOINTS": "3"}}, {"type": "Feature", "geometry": {"type": "Point", "coordinates": [-118.7021, 42.1839]}, "properties": {"NAME": "W7O/SE-033", "TITLE": "Ladycomb Peak", "REGION": "OR-Southeast", "ASSOCIATION": "USA - Oregon", "POINTS": "6", "BONUSPOINTS": "3"}}, {"type": "Feature", "geometry": {"type": "Point", "coordinates": [-118.4603, 43.0965]}, "properties": {"NAME": "W7O/SE-034", "TITLE": "Anderson Mountain", "REGION": "OR-Southeast", "ASSOCIATION": "USA - Oregon", "POINTS": "6", "BONUSPOINTS": "3"}}, {"type": "Feature", "geometry": {"type": "Point", "coordinates": [-119.4014, 43.9344]}, "properties": {"NAME": "W7O/SE-035", "TITLE": "Whiskey Mountain", "REGION": "OR-Southeast", "ASSOCIATION": "USA - Oregon", "POINTS": "6", "BONUSPOINTS": "3"}}, {"type": "Feature", "geometry": {"type": "Point", "coordinates": [-118.3025, 43.1225]}, "properties": {"NAME": "W7O/SE-036", "TITLE": "Indian Benchmark", "REGION": "OR-Southeast", "ASSOCIATION": "USA - Oregon", "POINTS": "6", "BONUSPOINTS": "3"}}, {"type": "Feature", "geometry": {"type": "Point", "coordinates": [-119.8462, 43.1534]}, "properties": {"NAME": "W7O/SE-037", "TITLE": "Little Juniper Mountain", "REGION": "OR-Southeast", "ASSOCIATION": "USA - Oregon", "POINTS": "6", "BONUSPOINTS": "3"}}, {"type": "Feature", "geometry": {"type": "Point", "coordinates": [-119.2394, 43.9157]}, "properties": {"NAME": "W7O/SE-038", "TITLE": "Sugarloaf Mountain", "REGION": "OR-Southeast", "ASSOCIATION": "USA - Oregon", "POINTS": "6", "BONUSPOINTS": "3"}}, {"type": "Feature", "geometry": {"type": "Point", "coordinates": [-118.1374, 43.1677]}, "properties": {"NAME": "W7O/SE-039", "TITLE": "Duck Creek Butte", "REGION": "OR-Southeast", "ASSOCIATION": "USA - Oregon", "POINTS": "6", "BONUSPOINTS": "3"}}, {"type": "Feature", "geometry": {"type": "Point", "coordinates": [-117.0958, 42.8423]}, "properties": {"NAME": "W7O/SE-040", "TITLE": "Parsnip Peak", "REGION": "OR-Southeast", "ASSOCIATION": "USA - Oregon", "POINTS": "6", "BONUSPOINTS": "3"}}, {"type": "Feature", "geometry": {"type": "Point", "coordinates": [-119.0868, 42.1707]}, "properties": {"NAME": "W7O/SE-041", "TITLE": "Basque Hills HP", "REGION": "OR-Southeast", "ASSOCIATION": "USA - Oregon", "POINTS": "6", "BONUSPOINTS": "3"}}, {"type": "Feature", "geometry": {"type": "Point", "coordinates": [-118.4077, 42.2548]}, "properties": {"NAME": "W7O/SE-042", "TITLE": "Buckskin Mountain", "REGION": "OR-Southeast", "ASSOCIATION": "USA - Oregon", "POINTS": "6", "BONUSPOINTS": "3"}}, {"type": "Feature", "geometry": {"type": "Point", "coordinates": [-118.2074, 42.2554]}, "properties": {"NAME": "W7O/SE-043", "TITLE": "Whitehorse Butte", "REGION": "OR-Southeast", "ASSOCIATION": "USA - Oregon", "POINTS": "6", "BONUSPOINTS": "3"}}, {"type": "Feature", "geometry": {"type": "Point", "coordinates": [-117.9697, 43.3753]}, "properties": {"NAME": "W7O/SE-044", "TITLE": "Star Mountain", "REGION": "OR-Southeast", "ASSOCIATION": "USA - Oregon", "POINTS": "6", "BONUSPOINTS": "3"}}, {"type": "Feature", "geometry": {"type": "Point", "coordinates": [-118.3783, 42.1987]}, "properties": {"NAME": "W7O/SE-045", "TITLE": "Flagstaff Butte", "REGION": "OR-Southeast", "ASSOCIATION": "USA - Oregon", "POINTS": "6", "BONUSPOINTS": "3"}}, {"type": "Feature", "geometry": {"type": "Point", "coordinates": [-117.1216, 43.1886]}, "properties": {"NAME": "W7O/SE-046", "TITLE": "Spring Mountain", "REGION": "OR-Southeast", "ASSOCIATION": "USA - Oregon", "POINTS": "4", "BONUSPOINTS": "3"}}, {"type": "Feature", "geometry": {"type": "Point", "coordinates": [-119.3905, 43.7199]}, "properties": {"NAME": "W7O/SE-047", "TITLE": "Green Butte", "REGION": "OR-Southeast", "ASSOCIATION": "USA - Oregon", "POINTS": "4", "BONUSPOINTS": "3"}}, {"type": "Feature", "geometry": {"type": "Point", "coordinates": [-118.0267, 43.8728]}, "properties": {"NAME": "W7O/SE-048", "TITLE": "Lake Ridge", "REGION": "OR-Southeast", "ASSOCIATION": "USA - Oregon", "POINTS": "4", "BONUSPOINTS": "3"}}, {"type": "Feature", "geometry": {"type": "Point", "coordinates": [-118.7142, 43.933]}, "properties": {"NAME": "W7O/SE-049", "TITLE": "Capps Mountain", "REGION": "OR-Southeast", "ASSOCIATION": "USA - Oregon", "POINTS": "4", "BONUSPOINTS": "3"}}, {"type": "Feature", "geometry": {"type": "Point", "coordinates": [-117.9686, 43.938]}, "properties": {"NAME": "W7O/SE-050", "TITLE": "Westfall Benchmark", "REGION": "OR-Southeast", "ASSOCIATION": "USA - Oregon", "POINTS": "4", "BONUSPOINTS": "3"}}, {"type": "Feature", "geometry": {"type": "Point", "coordinates": [-118.5055, 43.5237]}, "properties": {"NAME": "W7O/SE-051", "TITLE": "Crowcamp Mountain", "REGION": "OR-Southeast", "ASSOCIATION": "USA - Oregon", "POINTS": "4", "BONUSPOINTS": "3"}}, {"type": "Feature", "geometry": {"type": "Point", "coordinates": [-118.3864, 43.5992]}, "properties": {"NAME": "W7O/SE-052", "TITLE": "Buzzard Ridge", "REGION": "OR-Southeast", "ASSOCIATION": "USA - Oregon", "POINTS": "4", "BONUSPOINTS": "3"}}, {"type": "Feature", "geometry": {"type": "Point", "coordinates": [-118.0331, 43.3192]}, "properties": {"NAME": "W7O/SE-053", "TITLE": "Stockade Mountain", "REGION": "OR-Southeast", "ASSOCIATION": "USA - Oregon", "POINTS": "4", "BONUSPOINTS": "3"}}, {"type": "Feature", "geometry": {"type": "Point", "coordinates": [-118.0959, 43.4019]}, "properties": {"NAME": "W7O/SE-054", "TITLE": "Swamp Creek Buttes, North", "REGION": "OR-Southeast", "ASSOCIATION": "USA - Oregon", "POINTS": "4", "BONUSPOINTS": "3"}}, {"type": "Feature", "geometry": {"type": "Point", "coordinates": [-119.7552, 43.1787]}, "properties": {"NAME": "W7O/SE-055", "TITLE": "Horsehead Mountain", "REGION": "OR-Southeast", "ASSOCIATION": "USA - Oregon", "POINTS": "4", "BONUSPOINTS": "3"}}, {"type": "Feature", "geometry": {"type": "Point", "coordinates": [-118.1356, 42.9813]}, "properties": {"NAME": "W7O/SE-056", "TITLE": "Ryegrass Butte", "REGION": "OR-Southeast", "ASSOCIATION": "USA - Oregon", "POINTS": "4", "BONUSPOINTS": "3"}}, {"type": "Feature", "geometry": {"type": "Point", "coordinates": [-117.9401, 43.4562]}, "properties": {"NAME": "W7O/SE-057", "TITLE": "Monumental Rock", "REGION": "OR-Southeast", "ASSOCIATION": "USA - Oregon", "POINTS": "4", "BONUSPOINTS": "3"}}, {"type": "Feature", "geometry": {"type": "Point", "coordinates": [-118.1924, 44.1517]}, "properties": {"NAME": "W7O/SE-058", "TITLE": "Clevenger Butte", "REGION": "OR-Southeast", "ASSOCIATION": "USA - Oregon", "POINTS": "4", "BONUSPOINTS": "3"}}, {"type": "Feature", "geometry": {"type": "Point", "coordinates": [-117.8915, 43.6641]}, "properties": {"NAME": "W7O/SE-059", "TITLE": "Monument Peak", "REGION": "OR-Southeast", "ASSOCIATION": "USA - Oregon", "POINTS": "4", "BONUSPOINTS": "3"}}, {"type": "Feature", "geometry": {"type": "Point", "coordinates": [-118.0544, 43.2689]}, "properties": {"NAME": "W7O/SE-060", "TITLE": "Stockade Buttes So.", "REGION": "OR-Southeast", "ASSOCIATION": "USA - Oregon", "POINTS": "4", "BONUSPOINTS": "3"}}, {"type": "Feature", "geometry": {"type": "Point", "coordinates": [-117.5395, 44.4145]}, "properties": {"NAME": "W7O/SE-061", "TITLE": "California Mountain", "REGION": "OR-Southeast", "ASSOCIATION": "USA - Oregon", "POINTS": "4", "BONUSPOINTS": "3"}}, {"type": "Feature", "geometry": {"type": "Point", "coordinates": [-119.883, 43.4224]}, "properties": {"NAME": "W7O/SE-062", "TITLE": "Sheep Mountain", "REGION": "OR-Southeast", "ASSOCIATION": "USA - Oregon", "POINTS": "4", "BONUSPOINTS": "3"}}, {"type": "Feature", "geometry": {"type": "Point", "coordinates": [-118.9717, 42.891]}, "properties": {"NAME": "W7O/SE-063", "TITLE": "Jackass Mountain", "REGION": "OR-Southeast", "ASSOCIATION": "USA - Oregon", "POINTS": "4", "BONUSPOINTS": "3"}}, {"type": "Feature", "geometry": {"type": "Point", "coordinates": [-118.3155, 42.2867]}, "properties": {"NAME": "W7O/SE-064", "TITLE": "Red Mountain", "REGION": "OR-Southeast", "ASSOCIATION": "USA - Oregon", "POINTS": "4", "BONUSPOINTS": "3"}}, {"type": "Feature", "geometry": {"type": "Point", "coordinates": [-117.9081, 43.6886]}, "properties": {"NAME": "W7O/SE-065", "TITLE": "Jones Butte", "REGION": "OR-Southeast", "ASSOCIATION": "USA - Oregon", "POINTS": "4", "BONUSPOINTS": "3"}}, {"type": "Feature", "geometry": {"type": "Point", "coordinates": [-117.8017, 44.1886]}, "properties": {"NAME": "W7O/SE-066", "TITLE": "Circle Butte", "REGION": "OR-Southeast", "ASSOCIATION": "USA - Oregon", "POINTS": "4", "BONUSPOINTS": "3"}}, {"type": "Feature", "geometry": {"type": "Point", "coordinates": [-119.5565, 42.9568]}, "properties": {"NAME": "W7O/SE-067", "TITLE": "Mule Spring Bench", "REGION": "OR-Southeast", "ASSOCIATION": "USA - Oregon", "POINTS": "4", "BONUSPOINTS": "3"}}, {"type": "Feature", "geometry": {"type": "Point", "coordinates": [-117.7019, 43.284]}, "properties": {"NAME": "W7O/SE-068", "TITLE": "Cedar Mountain", "REGION": "OR-Southeast", "ASSOCIATION": "USA - Oregon", "POINTS": "4", "BONUSPOINTS": "3"}}, {"type": "Feature", "geometry": {"type": "Point", "coordinates": [-118.4552, 42.2077]}, "properties": {"NAME": "W7O/SE-069", "TITLE": "Wallace Benchmark", "REGION": "OR-Southeast", "ASSOCIATION": "USA - Oregon", "POINTS": "4", "BONUSPOINTS": "3"}}, {"type": "Feature", "geometry": {"type": "Point", "coordinates": [-117.7383, 42.4679]}, "properties": {"NAME": "W7O/SE-070", "TITLE": "Bowden Hills HP", "REGION": "OR-Southeast", "ASSOCIATION": "USA - Oregon", "POINTS": "4", "BONUSPOINTS": "3"}}, {"type": "Feature", "geometry": {"type": "Point", "coordinates": [-118.2089, 43.7288]}, "properties": {"NAME": "W7O/SE-071", "TITLE": "Black Butte", "REGION": "OR-Southeast", "ASSOCIATION": "USA - Oregon", "POINTS": "4", "BONUSPOINTS": "3"}}, {"type": "Feature", "geometry": {"type": "Point", "coordinates": [-118.8217, 42.0481]}, "properties": {"NAME": "W7O/SE-072", "TITLE": "Oregon End Table", "REGION": "OR-Southeast", "ASSOCIATION": "USA - Oregon", "POINTS": "4", "BONUSPOINTS": "3"}}, {"type": "Feature", "geometry": {"type": "Point", "coordinates": [-117.5779, 43.624]}, "properties": {"NAME": "W7O/SE-073", "TITLE": "Freezeout Mountain", "REGION": "OR-Southeast", "ASSOCIATION": "USA - Oregon", "POINTS": "4", "BONUSPOINTS": "3"}}, {"type": "Feature", "geometry": {"type": "Point", "coordinates": [-119.7249, 43.4781]}, "properties": {"NAME": "W7O/SE-074", "TITLE": "Paiute Butte", "REGION": "OR-Southeast", "ASSOCIATION": "USA - Oregon", "POINTS": "4", "BONUSPOINTS": "3"}}, {"type": "Feature", "geometry": {"type": "Point", "coordinates": [-117.3334, 42.6286]}, "properties": {"NAME": "W7O/SE-075", "TITLE": "Grassy Mountain", "REGION": "OR-Southeast", "ASSOCIATION": "USA - Oregon", "POINTS": "4", "BONUSPOINTS": "3"}}, {"type": "Feature", "geometry": {"type": "Point", "coordinates": [-117.7519, 44.3186]}, "properties": {"NAME": "W7O/SE-076", "TITLE": "Cow Valley Butte", "REGION": "OR-Southeast", "ASSOCIATION": "USA - Oregon", "POINTS": "4", "BONUSPOINTS": "3"}}, {"type": "Feature", "geometry": {"type": "Point", "coordinates": [-118.0234, 43.4261]}, "properties": {"NAME": "W7O/SE-077", "TITLE": "Dry Buttes", "REGION": "OR-Southeast", "ASSOCIATION": "USA - Oregon", "POINTS": "4", "BONUSPOINTS": "3"}}, {"type": "Feature", "geometry": {"type": "Point", "coordinates": [-119.4536, 43.2627]}, "properties": {"NAME": "W7O/SE-078", "TITLE": "Iron Mountain", "REGION": "OR-Southeast", "ASSOCIATION": "USA - Oregon", "POINTS": "4", "BONUSPOINTS": "3"}}, {"type": "Feature", "geometry": {"type": "Point", "coordinates": [-119.7552, 43.333]}, "properties": {"NAME": "W7O/SE-079", "TITLE": "Egli Ridge", "REGION": "OR-Southeast", "ASSOCIATION": "USA - Oregon", "POINTS": "4", "BONUSPOINTS": "3"}}, {"type": "Feature", "geometry": {"type": "Point", "coordinates": [-117.9053, 43.0736]}, "properties": {"NAME": "W7O/SE-080", "TITLE": "Saddle Butte", "REGION": "OR-Southeast", "ASSOCIATION": "USA - Oregon", "POINTS": "4", "BONUSPOINTS": "3"}}, {"type": "Feature", "geometry": {"type": "Point", "coordinates": [-117.5055, 43.426]}, "properties": {"NAME": "W7O/SE-081", "TITLE": "Quartz Mountain", "REGION": "OR-Southeast", "ASSOCIATION": "USA - Oregon", "POINTS": "4", "BONUSPOINTS": "3"}}, {"type": "Feature", "geometry": {"type": "Point", "coordinates": [-118.38, 43.2406]}, "properties": {"NAME": "W7O/SE-082", "TITLE": "Round Mountain", "REGION": "OR-Southeast", "ASSOCIATION": "USA - Oregon", "POINTS": "4", "BONUSPOINTS": "3"}}, {"type": "Feature", "geometry": {"type": "Point", "coordinates": [-118.2638, 42.9799]}, "properties": {"NAME": "W7O/SE-083", "TITLE": "Folly Benchmark", "REGION": "OR-Southeast", "ASSOCIATION": "USA - Oregon", "POINTS": "4", "BONUSPOINTS": "3"}}, {"type": "Feature", "geometry": {"type": "Point", "coordinates": [-118.2522, 43.4958]}, "properties": {"NAME": "W7O/SE-084", "TITLE": "Buck Mountain", "REGION": "OR-Southeast", "ASSOCIATION": "USA - Oregon", "POINTS": "4", "BONUSPOINTS": "3"}}, {"type": "Feature", "geometry": {"type": "Point", "coordinates": [-118.0669, 43.8075]}, "properties": {"NAME": "W7O/SE-085", "TITLE": "Stemler Ridge", "REGION": "OR-Southeast", "ASSOCIATION": "USA - Oregon", "POINTS": "4", "BONUSPOINTS": "3"}}, {"type": "Feature", "geometry": {"type": "Point", "coordinates": [-118.2035, 43.9129]}, "properties": {"NAME": "W7O/SE-086", "TITLE": "Agency Mountain", "REGION": "OR-Southeast", "ASSOCIATION": "USA - Oregon", "POINTS": "4", "BONUSPOINTS": "3"}}, {"type": "Feature", "geometry": {"type": "Point", "coordinates": [-118.3095, 42.8376]}, "properties": {"NAME": "W7O/SE-087", "TITLE": "Coffin Butte", "REGION": "OR-Southeast", "ASSOCIATION": "USA - Oregon", "POINTS": "4", "BONUSPOINTS": "3"}}, {"type": "Feature", "geometry": {"type": "Point", "coordinates": [-117.2518, 43.4912]}, "properties": {"NAME": "W7O/SE-088", "TITLE": "Sheephead Ridge", "REGION": "OR-Southeast", "ASSOCIATION": "USA - Oregon", "POINTS": "2", "BONUSPOINTS": "0"}}, {"type": "Feature", "geometry": {"type": "Point", "coordinates": [-117.2133, 43.5147]}, "properties": {"NAME": "W7O/SE-089", "TITLE": "Board Corral Mtn", "REGION": "OR-Southeast", "ASSOCIATION": "USA - Oregon", "POINTS": "2", "BONUSPOINTS": "0"}}, {"type": "Feature", "geometry": {"type": "Point", "coordinates": [-118.3988, 43.7079]}, "properties": {"NAME": "W7O/SE-090", "TITLE": "Bartlett Mountain", "REGION": "OR-Southeast", "ASSOCIATION": "USA - Oregon", "POINTS": "2", "BONUSPOINTS": "0"}}, {"type": "Feature", "geometry": {"type": "Point", "coordinates": [-118.3047, 43.6809]}, "properties": {"NAME": "W7O/SE-091", "TITLE": "Upton Mountain", "REGION": "OR-Southeast", "ASSOCIATION": "USA - Oregon", "POINTS": "2", "BONUSPOINTS": "0"}}, {"type": "Feature", "geometry": {"type": "Point", "coordinates": [-118.3178, 43.6948]}, "properties": {"NAME": "W7O/SE-092", "TITLE": "Upton Mountain North", "REGION": "OR-Southeast", "ASSOCIATION": "USA - Oregon", "POINTS": "2", "BONUSPOINTS": "0"}}, {"type": "Feature", "geometry": {"type": "Point", "coordinates": [-117.1832, 43.4437]}, "properties": {"NAME": "W7O/SE-093", "TITLE": "Three Fingers Rock", "REGION": "OR-Southeast", "ASSOCIATION": "USA - Oregon", "POINTS": "2", "BONUSPOINTS": "0"}}, {"type": "Feature", "geometry": {"type": "Point", "coordinates": [-118.0984, 44.0069]}, "properties": {"NAME": "W7O/SE-094", "TITLE": "Hunter Mountain", "REGION": "OR-Southeast", "ASSOCIATION": "USA - Oregon", "POINTS": "2", "BONUSPOINTS": "0"}}, {"type": "Feature", "geometry": {"type": "Point", "coordinates": [-117.7761, 44.3561]}, "properties": {"NAME": "W7O/SE-095", "TITLE": "Worsham Butte", "REGION": "OR-Southeast", "ASSOCIATION": "USA - Oregon", "POINTS": "2", "BONUSPOINTS": "0"}}, {"type": "Feature", "geometry": {"type": "Point", "coordinates": [-117.5198, 43.5068]}, "properties": {"NAME": "W7O/SE-096", "TITLE": "Wall Rock Ridge", "REGION": "OR-Southeast", "ASSOCIATION": "USA - Oregon", "POINTS": "2", "BONUSPOINTS": "0"}}, {"type": "Feature", "geometry": {"type": "Point", "coordinates": [-117.17, 42.5384]}, "properties": {"NAME": "W7O/SE-097", "TITLE": "Three Forks Dome", "REGION": "OR-Southeast", "ASSOCIATION": "USA - Oregon", "POINTS": "2", "BONUSPOINTS": "0"}}, {"type": "Feature", "geometry": {"type": "Point", "coordinates": [-117.1399, 43.4083]}, "properties": {"NAME": "W7O/SE-098", "TITLE": "Round Mountain", "REGION": "OR-Southeast", "ASSOCIATION": "USA - Oregon", "POINTS": "2", "BONUSPOINTS": "0"}}, {"type": "Feature", "geometry": {"type": "Point", "coordinates": [-118.7608, 43.092]}, "properties": {"NAME": "W7O/SE-099", "TITLE": "Diamond Craters HP", "REGION": "OR-Southeast", "ASSOCIATION": "USA - Oregon", "POINTS": "2", "BONUSPOINTS": "0"}}, {"type": "Feature", "geometry": {"type": "Point", "coordinates": [-117.1369, 43.4344]}, "properties": {"NAME": "W7O/SE-100", "TITLE": "McIntyre Ridge", "REGION": "OR-Southeast", "ASSOCIATION": "USA - Oregon", "POINTS": "2", "BONUSPOINTS": "0"}}, {"type": "Feature", "geometry": {"type": "Point", "coordinates": [-118.1701, 43.7952]}, "properties": {"NAME": "W7O/SE-101", "TITLE": "Petes Mountain", "REGION": "OR-Southeast", "ASSOCIATION": "USA - Oregon", "POINTS": "2", "BONUSPOINTS": "0"}}, {"type": "Feature", "geometry": {"type": "Point", "coordinates": [-117.4338, 43.3508]}, "properties": {"NAME": "W7O/SE-102", "TITLE": "Red Butte", "REGION": "OR-Southeast", "ASSOCIATION": "USA - Oregon", "POINTS": "2", "BONUSPOINTS": "0"}}, {"type": "Feature", "geometry": {"type": "Point", "coordinates": [-117.3648, 43.6388]}, "properties": {"NAME": "W7O/SE-103", "TITLE": "Grassy Mountain", "REGION": "OR-Southeast", "ASSOCIATION": "USA - Oregon", "POINTS": "2", "BONUSPOINTS": "0"}}, {"type": "Feature", "geometry": {"type": "Point", "coordinates": [-117.3528, 43.38]}, "properties": {"NAME": "W7O/SE-104", "TITLE": "North Table Mountain", "REGION": "OR-Southeast", "ASSOCIATION": "USA - Oregon", "POINTS": "2", "BONUSPOINTS": "0"}}, {"type": "Feature", "geometry": {"type": "Point", "coordinates": [-117.3944, 43.5016]}, "properties": {"NAME": "W7O/SE-105", "TITLE": "Dry Creek Buttes HP", "REGION": "OR-Southeast", "ASSOCIATION": "USA - Oregon", "POINTS": "2", "BONUSPOINTS": "0"}}, {"type": "Feature", "geometry": {"type": "Point", "coordinates": [-117.3439, 43.322]}, "properties": {"NAME": "W7O/SE-106", "TITLE": "Rooster Comb", "REGION": "OR-Southeast", "ASSOCIATION": "USA - Oregon", "POINTS": "2", "BONUSPOINTS": "0"}}, {"type": "Feature", "geometry": {"type": "Point", "coordinates": [-117.3691, 43.5489]}, "properties": {"NAME": "W7O/SE-107", "TITLE": "Nannys Nipple", "REGION": "OR-Southeast", "ASSOCIATION": "USA - Oregon", "POINTS": "2", "BONUSPOINTS": "0"}}, {"type": "Feature", "geometry": {"type": "Point", "coordinates": [-117.3278, 43.5117]}, "properties": {"NAME": "W7O/SE-108", "TITLE": "Iron Mountain", "REGION": "OR-Southeast", "ASSOCIATION": "USA - Oregon", "POINTS": "2", "BONUSPOINTS": "0"}}, {"type": "Feature", "geometry": {"type": "Point", "coordinates": [-117.3476, 43.5917]}, "properties": {"NAME": "W7O/SE-109", "TITLE": "Burnt Mountain", "REGION": "OR-Southeast", "ASSOCIATION": "USA - Oregon", "POINTS": "2", "BONUSPOINTS": "0"}}, {"type": "Feature", "geometry": {"type": "Point", "coordinates": [-117.6549, 43.7935]}, "properties": {"NAME": "W7O/SE-110", "TITLE": "Cotton Benchmark", "REGION": "OR-Southeast", "ASSOCIATION": "USA - Oregon", "POINTS": "2", "BONUSPOINTS": "0"}}, {"type": "Feature", "geometry": {"type": "Point", "coordinates": [-117.3369, 43.4414]}, "properties": {"NAME": "W7O/SE-111", "TITLE": "Saddle Butte", "REGION": "OR-Southeast", "ASSOCIATION": "USA - Oregon", "POINTS": "2", "BONUSPOINTS": "0"}}, {"type": "Feature", "geometry": {"type": "Point", "coordinates": [-117.5839, 43.9408]}, "properties": {"NAME": "W7O/SE-112", "TITLE": "Little Benchmark", "REGION": "OR-Southeast", "ASSOCIATION": "USA - Oregon", "POINTS": "2", "BONUSPOINTS": "0"}}, {"type": "Feature", "geometry": {"type": "Point", "coordinates": [-117.1798, 43.7703]}, "properties": {"NAME": "W7O/SE-113", "TITLE": "Mitchell Butte", "REGION": "OR-Southeast", "ASSOCIATION": "USA - Oregon", "POINTS": "2", "BONUSPOINTS": "0"}}, {"type": "Feature", "geometry": {"type": "Point", "coordinates": [-117.2391, 44.1594]}, "properties": {"NAME": "W7O/SE-114", "TITLE": "Tub Mountain", "REGION": "OR-Southeast", "ASSOCIATION": "USA - Oregon", "POINTS": "2", "BONUSPOINTS": "0"}}, {"type": "Feature", "geometry": {"type": "Point", "coordinates": [-117.2014, 43.9704]}, "properties": {"NAME": "W7O/SE-115", "TITLE": "Vale Butte", "REGION": "OR-Southeast", "ASSOCIATION": "USA - Oregon", "POINTS": "2", "BONUSPOINTS": "0"}}, {"type": "Feature", "geometry": {"type": "Point", "coordinates": [-118.5431, 42.7337]}, "properties": {"NAME": "W7O/SE-116", "TITLE": "9348", "REGION": "OR-Southeast", "ASSOCIATION": "USA - Oregon", "POINTS": "10", "BONUSPOINTS": "3"}}, {"type": "Feature", "geometry": {"type": "Point", "coordinates": [-118.7073, 42.1038]}, "properties": {"NAME": "W7O/SE-117", "TITLE": "8420", "REGION": "OR-Southeast", "ASSOCIATION": "USA - Oregon", "POINTS": "8", "BONUSPOINTS": "3"}}, {"type": "Feature", "geometry": {"type": "Point", "coordinates": [-118.6776, 42.4777]}, "properties": {"NAME": "W7O/SE-118", "TITLE": "7698", "REGION": "OR-Southeast", "ASSOCIATION": "USA - Oregon", "POINTS": "6", "BONUSPOINTS": "3"}}, {"type": "Feature", "geometry": {"type": "Point", "coordinates": [-118.1007, 44.2604]}, "properties": {"NAME": "W7O/SE-119", "TITLE": "7676", "REGION": "OR-Southeast", "ASSOCIATION": "USA - Oregon", "POINTS": "6", "BONUSPOINTS": "3"}}, {"type": "Feature", "geometry": {"type": "Point", "coordinates": [-118.59, 42.5688]}, "properties": {"NAME": "W7O/SE-120", "TITLE": "7571", "REGION": "OR-Southeast", "ASSOCIATION": "USA - Oregon", "POINTS": "6", "BONUSPOINTS": "3"}}, {"type": "Feature", "geometry": {"type": "Point", "coordinates": [-118.6551, 42.0335]}, "properties": {"NAME": "W7O/SE-121", "TITLE": "7418", "REGION": "OR-Southeast", "ASSOCIATION": "USA - Oregon", "POINTS": "6", "BONUSPOINTS": "3"}}, {"type": "Feature", "geometry": {"type": "Point", "coordinates": [-118.6565, 42.075]}, "properties": {"NAME": "W7O/SE-122", "TITLE": "7410", "REGION": "OR-Southeast", "ASSOCIATION": "USA - Oregon", "POINTS": "6", "BONUSPOINTS": "3"}}, {"type": "Feature", "geometry": {"type": "Point", "coordinates": [-118.7002, 42.3827]}, "properties": {"NAME": "W7O/SE-123", "TITLE": "7011", "REGION": "OR-Southeast", "ASSOCIATION": "USA - Oregon", "POINTS": "6", "BONUSPOINTS": "3"}}, {"type": "Feature", "geometry": {"type": "Point", "coordinates": [-118.6755, 41.9951]}, "properties": {"NAME": "W7O/SE-124", "TITLE": "6740", "REGION": "OR-Southeast", "ASSOCIATION": "USA - Oregon", "POINTS": "6", "BONUSPOINTS": "3"}}, {"type": "Feature", "geometry": {"type": "Point", "coordinates": [-117.6105, 42.1012]}, "properties": {"NAME": "W7O/SE-125", "TITLE": "6710", "REGION": "OR-Southeast", "ASSOCIATION": "USA - Oregon", "POINTS": "6", "BONUSPOINTS": "3"}}, {"type": "Feature", "geometry": {"type": "Point", "coordinates": [-118.3913, 42.1099]}, "properties": {"NAME": "W7O/SE-126", "TITLE": "6616", "REGION": "OR-Southeast", "ASSOCIATION": "USA - Oregon", "POINTS": "6", "BONUSPOINTS": "3"}}, {"type": "Feature", "geometry": {"type": "Point", "coordinates": [-117.6525, 42.2204]}, "properties": {"NAME": "W7O/SE-127", "TITLE": "6564", "REGION": "OR-Southeast", "ASSOCIATION": "USA - Oregon", "POINTS": "6", "BONUSPOINTS": "3"}}, {"type": "Feature", "geometry": {"type": "Point", "coordinates": [-118.4063, 42.0972]}, "properties": {"NAME": "W7O/SE-128", "TITLE": "6448", "REGION": "OR-Southeast", "ASSOCIATION": "USA - Oregon", "POINTS": "6", "BONUSPOINTS": "3"}}, {"type": "Feature", "geometry": {"type": "Point", "coordinates": [-118.1958, 44.0376]}, "properties": {"NAME": "W7O/SE-129", "TITLE": "6441", "REGION": "OR-Southeast", "ASSOCIATION": "USA - Oregon", "POINTS": "6", "BONUSPOINTS": "3"}}, {"type": "Feature", "geometry": {"type": "Point", "coordinates": [-117.9624, 44.4326]}, "properties": {"NAME": "W7O/SE-130", "TITLE": "6411", "REGION": "OR-Southeast", "ASSOCIATION": "USA - Oregon", "POINTS": "6", "BONUSPOINTS": "3"}}, {"type": "Feature", "geometry": {"type": "Point", "coordinates": [-118.4268, 43.054]}, "properties": {"NAME": "W7O/SE-131", "TITLE": "6323", "REGION": "OR-Southeast", "ASSOCIATION": "USA - Oregon", "POINTS": "6", "BONUSPOINTS": "3"}}, {"type": "Feature", "geometry": {"type": "Point", "coordinates": [-118.3298, 42.9877]}, "properties": {"NAME": "W7O/SE-132", "TITLE": "6270", "REGION": "OR-Southeast", "ASSOCIATION": "USA - Oregon", "POINTS": "6", "BONUSPOINTS": "3"}}, {"type": "Feature", "geometry": {"type": "Point", "coordinates": [-118.0906, 44.1524]}, "properties": {"NAME": "W7O/SE-133", "TITLE": "6156", "REGION": "OR-Southeast", "ASSOCIATION": "USA - Oregon", "POINTS": "6", "BONUSPOINTS": "3"}}, {"type": "Feature", "geometry": {"type": "Point", "coordinates": [-118.0217, 44.4039]}, "properties": {"NAME": "W7O/SE-134", "TITLE": "6135", "REGION": "OR-Southeast", "ASSOCIATION": "USA - Oregon", "POINTS": "6", "BONUSPOINTS": "3"}}, {"type": "Feature", "geometry": {"type": "Point", "coordinates": [-118.1908, 42.827]}, "properties": {"NAME": "W7O/SE-135", "TITLE": "Wildcat Canyon WSA HP", "REGION": "OR-Southeast", "ASSOCIATION": "USA - Oregon", "POINTS": "6", "BONUSPOINTS": "3"}}, {"type": "Feature", "geometry": {"type": "Point", "coordinates": [-118.1622, 44.0941]}, "properties": {"NAME": "W7O/SE-136", "TITLE": "6121", "REGION": "OR-Southeast", "ASSOCIATION": "USA - Oregon", "POINTS": "6", "BONUSPOINTS": "3"}}, {"type": "Feature", "geometry": {"type": "Point", "coordinates": [-118.3001, 43.0093]}, "properties": {"NAME": "W7O/SE-137", "TITLE": "6113", "REGION": "OR-Southeast", "ASSOCIATION": "USA - Oregon", "POINTS": "6", "BONUSPOINTS": "3"}}, {"type": "Feature", "geometry": {"type": "Point", "coordinates": [-117.6449, 44.435]}, "properties": {"NAME": "W7O/SE-138", "TITLE": "6101", "REGION": "OR-Southeast", "ASSOCIATION": "USA - Oregon", "POINTS": "6", "BONUSPOINTS": "3"}}, {"type": "Feature", "geometry": {"type": "Point", "coordinates": [-119.5986, 43.948]}, "properties": {"NAME": "W7O/SE-139", "TITLE": "6100", "REGION": "OR-Southeast", "ASSOCIATION": "USA - Oregon", "POINTS": "6", "BONUSPOINTS": "3"}}, {"type": "Feature", "geometry": {"type": "Point", "coordinates": [-118.3952, 42.7325]}, "properties": {"NAME": "W7O/SE-140", "TITLE": "West Peak WSA HP", "REGION": "OR-Southeast", "ASSOCIATION": "USA - Oregon", "POINTS": "6", "BONUSPOINTS": "3"}}, {"type": "Feature", "geometry": {"type": "Point", "coordinates": [-118.2887, 43.0315]}, "properties": {"NAME": "W7O/SE-141", "TITLE": "6074", "REGION": "OR-Southeast", "ASSOCIATION": "USA - Oregon", "POINTS": "6", "BONUSPOINTS": "3"}}, {"type": "Feature", "geometry": {"type": "Point", "coordinates": [-118.7361, 43.7699]}, "properties": {"NAME": "W7O/SE-142", "TITLE": "6030", "REGION": "OR-Southeast", "ASSOCIATION": "USA - Oregon", "POINTS": "6", "BONUSPOINTS": "3"}}, {"type": "Feature", "geometry": {"type": "Point", "coordinates": [-118.4043, 42.1376]}, "properties": {"NAME": "W7O/SE-143", "TITLE": "5990", "REGION": "OR-Southeast", "ASSOCIATION": "USA - Oregon", "POINTS": "4", "BONUSPOINTS": "3"}}, {"type": "Feature", "geometry": {"type": "Point", "coordinates": [-117.9289, 42.3159]}, "properties": {"NAME": "W7O/SE-144", "TITLE": "5975", "REGION": "OR-Southeast", "ASSOCIATION": "USA - Oregon", "POINTS": "4", "BONUSPOINTS": "3"}}, {"type": "Feature", "geometry": {"type": "Point", "coordinates": [-118.0026, 43.8781]}, "properties": {"NAME": "W7O/SE-145", "TITLE": "5910", "REGION": "OR-Southeast", "ASSOCIATION": "USA - Oregon", "POINTS": "4", "BONUSPOINTS": "3"}}, {"type": "Feature", "geometry": {"type": "Point", "coordinates": [-117.9604, 43.8797]}, "properties": {"NAME": "W7O/SE-146", "TITLE": "5905", "REGION": "OR-Southeast", "ASSOCIATION": "USA - Oregon", "POINTS": "4", "BONUSPOINTS": "3"}}, {"type": "Feature", "geometry": {"type": "Point", "coordinates": [-118.0141, 44.1908]}, "properties": {"NAME": "W7O/SE-147", "TITLE": "5886", "REGION": "OR-Southeast", "ASSOCIATION": "USA - Oregon", "POINTS": "4", "BONUSPOINTS": "3"}}, {"type": "Feature", "geometry": {"type": "Point", "coordinates": [-118.0095, 44.36]}, "properties": {"NAME": "W7O/SE-148", "TITLE": "5846", "REGION": "OR-Southeast", "ASSOCIATION": "USA - Oregon", "POINTS": "4", "BONUSPOINTS": "3"}}, {"type": "Feature", "geometry": {"type": "Point", "coordinates": [-118.2243, 43.1136]}, "properties": {"NAME": "W7O/SE-149", "TITLE": "5803", "REGION": "OR-Southeast", "ASSOCIATION": "USA - Oregon", "POINTS": "4", "BONUSPOINTS": "3"}}, {"type": "Feature", "geometry": {"type": "Point", "coordinates": [-118.1132, 43.8913]}, "properties": {"NAME": "W7O/SE-150", "TITLE": "5780", "REGION": "OR-Southeast", "ASSOCIATION": "USA - Oregon", "POINTS": "4", "BONUSPOINTS": "3"}}, {"type": "Feature", "geometry": {"type": "Point", "coordinates": [-118.2168, 44.2118]}, "properties": {"NAME": "W7O/SE-151", "TITLE": "5644", "REGION": "OR-Southeast", "ASSOCIATION": "USA - Oregon", "POINTS": "4", "BONUSPOINTS": "3"}}, {"type": "Feature", "geometry": {"type": "Point", "coordinates": [-117.8583, 43.3704]}, "properties": {"NAME": "W7O/SE-152", "TITLE": "5567", "REGION": "OR-Southeast", "ASSOCIATION": "USA - Oregon", "POINTS": "4", "BONUSPOINTS": "3"}}, {"type": "Feature", "geometry": {"type": "Point", "coordinates": [-118.2137, 44.1241]}, "properties": {"NAME": "W7O/SE-153", "TITLE": "5540", "REGION": "OR-Southeast", "ASSOCIATION": "USA - Oregon", "POINTS": "4", "BONUSPOINTS": "3"}}, {"type": "Feature", "geometry": {"type": "Point", "coordinates": [-118.3378, 42.638]}, "properties": {"NAME": "W7O/SE-154", "TITLE": "East Alvord WSA HP", "REGION": "OR-Southeast", "ASSOCIATION": "USA - Oregon", "POINTS": "4", "BONUSPOINTS": "3"}}, {"type": "Feature", "geometry": {"type": "Point", "coordinates": [-118.066, 43.4503]}, "properties": {"NAME": "W7O/SE-155", "TITLE": "5293", "REGION": "OR-Southeast", "ASSOCIATION": "USA - Oregon", "POINTS": "4", "BONUSPOINTS": "3"}}, {"type": "Feature", "geometry": {"type": "Point", "coordinates": [-118.2326, 43.9242]}, "properties": {"NAME": "W7O/SE-156", "TITLE": "5180", "REGION": "OR-Southeast", "ASSOCIATION": "USA - Oregon", "POINTS": "4", "BONUSPOINTS": "3"}}, {"type": "Feature", "geometry": {"type": "Point", "coordinates": [-118.3624, 42.8324]}, "properties": {"NAME": "W7O/SE-157", "TITLE": "5130", "REGION": "OR-Southeast", "ASSOCIATION": "USA - Oregon", "POINTS": "4", "BONUSPOINTS": "3"}}, {"type": "Feature", "geometry": {"type": "Point", "coordinates": [-118.2868, 42.9301]}, "properties": {"NAME": "W7O/SE-158", "TITLE": "Heath Lake WSA HP", "REGION": "OR-Southeast", "ASSOCIATION": "USA - Oregon", "POINTS": "4", "BONUSPOINTS": "3"}}, {"type": "Feature", "geometry": {"type": "Point", "coordinates": [-118.2088, 43.3837]}, "properties": {"NAME": "W7O/SE-159", "TITLE": "5115", "REGION": "OR-Southeast", "ASSOCIATION": "USA - Oregon", "POINTS": "4", "BONUSPOINTS": "3"}}, {"type": "Feature", "geometry": {"type": "Point", "coordinates": [-118.4023, 42.8091]}, "properties": {"NAME": "W7O/SE-160", "TITLE": "5020", "REGION": "OR-Southeast", "ASSOCIATION": "USA - Oregon", "POINTS": "4", "BONUSPOINTS": "3"}}, {"type": "Feature", "geometry": {"type": "Point", "coordinates": [-118.2217, 43.0051]}, "properties": {"NAME": "W7O/SE-161", "TITLE": "5010", "REGION": "OR-Southeast", "ASSOCIATION": "USA - Oregon", "POINTS": "4", "BONUSPOINTS": "3"}}, {"type": "Feature", "geometry": {"type": "Point", "coordinates": [-118.5583, 42.2535]}, "properties": {"NAME": "W7O/SE-162", "TITLE": "5001", "REGION": "OR-Southeast", "ASSOCIATION": "USA - Oregon", "POINTS": "4", "BONUSPOINTS": "3"}}, {"type": "Feature", "geometry": {"type": "Point", "coordinates": [-118.5201, 42.3387]}, "properties": {"NAME": "W7O/SE-163", "TITLE": "4958", "REGION": "OR-Southeast", "ASSOCIATION": "USA - Oregon", "POINTS": "2", "BONUSPOINTS": "0"}}, {"type": "Feature", "geometry": {"type": "Point", "coordinates": [-118.5302, 42.2434]}, "properties": {"NAME": "W7O/SE-164", "TITLE": "4953", "REGION": "OR-Southeast", "ASSOCIATION": "USA - Oregon", "POINTS": "2", "BONUSPOINTS": "0"}}, {"type": "Feature", "geometry": {"type": "Point", "coordinates": [-117.6778, 44.2341]}, "properties": {"NAME": "W7O/SE-165", "TITLE": "4940", "REGION": "OR-Southeast", "ASSOCIATION": "USA - Oregon", "POINTS": "2", "BONUSPOINTS": "0"}}, {"type": "Feature", "geometry": {"type": "Point", "coordinates": [-117.2212, 43.4501]}, "properties": {"NAME": "W7O/SE-166", "TITLE": "4856", "REGION": "OR-Southeast", "ASSOCIATION": "USA - Oregon", "POINTS": "2", "BONUSPOINTS": "0"}}, {"type": "Feature", "geometry": {"type": "Point", "coordinates": [-118.036, 43.816]}, "properties": {"NAME": "W7O/SE-167", "TITLE": "4803", "REGION": "OR-Southeast", "ASSOCIATION": "USA - Oregon", "POINTS": "2", "BONUSPOINTS": "0"}}, {"type": "Feature", "geometry": {"type": "Point", "coordinates": [-118.3489, 42.7799]}, "properties": {"NAME": "W7O/SE-168", "TITLE": "4730", "REGION": "OR-Southeast", "ASSOCIATION": "USA - Oregon", "POINTS": "2", "BONUSPOINTS": "0"}}, {"type": "Feature", "geometry": {"type": "Point", "coordinates": [-118.4611, 43.813]}, "properties": {"NAME": "W7O/SE-169", "TITLE": "4495", "REGION": "OR-Southeast", "ASSOCIATION": "USA - Oregon", "POINTS": "2", "BONUSPOINTS": "0"}}, {"type": "Feature", "geometry": {"type": "Point", "coordinates": [-117.6416, 44.3039]}, "properties": {"NAME": "W7O/SE-170", "TITLE": "4490", "REGION": "OR-Southeast", "ASSOCIATION": "USA - Oregon", "POINTS": "2", "BONUSPOINTS": "0"}}, {"type": "Feature", "geometry": {"type": "Point", "coordinates": [-117.2057, 43.3931]}, "properties": {"NAME": "W7O/SE-171", "TITLE": "4485", "REGION": "OR-Southeast", "ASSOCIATION": "USA - Oregon", "POINTS": "2", "BONUSPOINTS": "0"}}, {"type": "Feature", "geometry": {"type": "Point", "coordinates": [-118.3665, 43.7544]}, "properties": {"NAME": "W7O/SE-172", "TITLE": "4358", "REGION": "OR-Southeast", "ASSOCIATION": "USA - Oregon", "POINTS": "2", "BONUSPOINTS": "0"}}, {"type": "Feature", "geometry": {"type": "Point", "coordinates": [-117.3397, 43.2832]}, "properties": {"NAME": "W7O/SE-173", "TITLE": "4346", "REGION": "OR-Southeast", "ASSOCIATION": "USA - Oregon", "POINTS": "2", "BONUSPOINTS": "0"}}, {"type": "Feature", "geometry": {"type": "Point", "coordinates": [-117.4095, 43.5196]}, "properties": {"NAME": "W7O/SE-174", "TITLE": "Dry Creek Buttes, Middle", "REGION": "OR-Southeast", "ASSOCIATION": "USA - Oregon", "POINTS": "2", "BONUSPOINTS": "0"}}, {"type": "Feature", "geometry": {"type": "Point", "coordinates": [-117.2822, 43.4441]}, "properties": {"NAME": "W7O/SE-175", "TITLE": "4253", "REGION": "OR-Southeast", "ASSOCIATION": "USA - Oregon", "POINTS": "2", "BONUSPOINTS": "0"}}, {"type": "Feature", "geometry": {"type": "Point", "coordinates": [-117.2926, 43.3975]}, "properties": {"NAME": "W7O/SE-176", "TITLE": "4029", "REGION": "OR-Southeast", "ASSOCIATION": "USA - Oregon", "POINTS": "2", "BONUSPOINTS": "0"}}, {"type": "Feature", "geometry": {"type": "Point", "coordinates": [-117.3182, 43.5454]}, "properties": {"NAME": "W7O/SE-177", "TITLE": "4020", "REGION": "OR-Southeast", "ASSOCIATION": "USA - Oregon", "POINTS": "2", "BONUSPOINTS": "0"}}, {"type": "Feature", "geometry": {"type": "Point", "coordinates": [-117.3298, 43.7542]}, "properties": {"NAME": "W7O/SE-178", "TITLE": "3914", "REGION": "OR-Southeast", "ASSOCIATION": "USA - Oregon", "POINTS": "2", "BONUSPOINTS": "0"}}, {"type": "Feature", "geometry": {"type": "Point", "coordinates": [-117.3956, 43.7221]}, "properties": {"NAME": "W7O/SE-179", "TITLE": "3882", "REGION": "OR-Southeast", "ASSOCIATION": "USA - Oregon", "POINTS": "2", "BONUSPOINTS": "0"}}, {"type": "Feature", "geometry": {"type": "Point", "coordinates": [-117.1573, 43.5017]}, "properties": {"NAME": "W7O/SE-180", "TITLE": "3735", "REGION": "OR-Southeast", "ASSOCIATION": "USA - Oregon", "POINTS": "2", "BONUSPOINTS": "0"}}, {"type": "Feature", "geometry": {"type": "Point", "coordinates": [-117.2922, 43.3797]}, "properties": {"NAME": "W7O/SE-181", "TITLE": "3604", "REGION": "OR-Southeast", "ASSOCIATION": "USA - Oregon", "POINTS": "2", "BONUSPOINTS": "0"}}, {"type": "Feature", "geometry": {"type": "Point", "coordinates": [-117.1965, 44.0751]}, "properties": {"NAME": "W7O/SE-182", "TITLE": "3276", "REGION": "OR-Southeast", "ASSOCIATION": "USA - Oregon", "POINTS": "2", "BONUSPOINTS": "0"}}, {"type": "Feature", "geometry": {"type": "Point", "coordinates": [-118.7372, 42.1304]}, "properties": {"NAME": "W7O/SE-183", "TITLE": "7878", "REGION": "OR-Southeast", "ASSOCIATION": "USA - Oregon", "POINTS": "6", "BONUSPOINTS": "3"}}, {"type": "Feature", "geometry": {"type": "Point", "coordinates": [-118.5436, 42.3027]}, "properties": {"NAME": "W7O/SE-184", "TITLE": "4919", "REGION": "OR-Southeast", "ASSOCIATION": "USA - Oregon", "POINTS": "2", "BONUSPOINTS": "0"}}, {"type": "Feature", "geometry": {"type": "Point", "coordinates": [-117.1278, 43.3719]}, "properties": {"NAME": "W7O/SE-185", "TITLE": "Smith Butte", "REGION": "OR-Southeast", "ASSOCIATION": "USA - Oregon", "POINTS": "2", "BONUSPOINTS": "0"}}, {"type": "Feature", "geometry": {"type": "Point", "coordinates": [-118.4688, 43.813]}, "properties": {"NAME": "W7O/SE-186", "TITLE": "4542", "REGION": "OR-Southeast", "ASSOCIATION": "USA - Oregon", "POINTS": "2", "BONUSPOINTS": "0"}}, {"type": "Feature", "geometry": {"type": "Point", "coordinates": [-117.4093, 43.6967]}, "properties": {"NAME": "W7O/SE-187", "TITLE": "3807", "REGION": "OR-Southeast", "ASSOCIATION": "USA - Oregon", "POINTS": "2", "BONUSPOINTS": "0"}}, {"type": "Feature", "geometry": {"type": "Point", "coordinates": [-117.2938, 43.388]}, "properties": {"NAME": "W7O/SE-188", "TITLE": "3660", "REGION": "OR-Southeast", "ASSOCIATION": "USA - Oregon", "POINTS": "2", "BONUSPOINTS": "0"}}, {"type": "Feature", "geometry": {"type": "Point", "coordinates": [-117.7581, 43.7755]}, "properties": {"NAME": "W7O/SE-189", "TITLE": "3300", "REGION": "OR-Southeast", "ASSOCIATION": "USA - Oregon", "POINTS": "2", "BONUSPOINTS": "0"}}]}