{"type": "FeatureCollection", "name": "W7O/NE SUMMITS", "features": [{"type": "Feature", "geometry": {"type": "Point", "coordinates": [-117.2652, 45.2593]}, "properties": {"NAME": "W7O/NE-001", "TITLE": "Hurwal Divide", "REGION": "OR-Northeast", "ASSOCIATION": "USA - Oregon", "POINTS": "10", "BONUSPOINTS": "3"}}, {"type": "Feature", "geometry": {"type": "Point", "coordinates": [-117.175, 45.2029]}, "properties": {"NAME": "W7O/NE-002", "TITLE": "Aneroid Mountain", "REGION": "OR-Northeast", "ASSOCIATION": "USA - Oregon", "POINTS": "10", "BONUSPOINTS": "3"}}, {"type": "Feature", "geometry": {"type": "Point", "coordinates": [-117.2204, 45.1894]}, "properties": {"NAME": "W7O/NE-003", "TITLE": "Petes Point", "REGION": "OR-Northeast", "ASSOCIATION": "USA - Oregon", "POINTS": "10", "BONUSPOINTS": "3"}}, {"type": "Feature", "geometry": {"type": "Point", "coordinates": [-117.3453, 45.3046]}, "properties": {"NAME": "W7O/NE-004", "TITLE": "Twin Peaks", "REGION": "OR-Northeast", "ASSOCIATION": "USA - Oregon", "POINTS": "10", "BONUSPOINTS": "3"}}, {"type": "Feature", "geometry": {"type": "Point", "coordinates": [-117.2619, 45.2856]}, "properties": {"NAME": "W7O/NE-005", "TITLE": "Chief Joseph Mountain", "REGION": "OR-Northeast", "ASSOCIATION": "USA - Oregon", "POINTS": "10", "BONUSPOINTS": "3"}}, {"type": "Feature", "geometry": {"type": "Point", "coordinates": [-117.2458, 45.0647]}, "properties": {"NAME": "W7O/NE-006", "TITLE": "Red Mountain", "REGION": "OR-Northeast", "ASSOCIATION": "USA - Oregon", "POINTS": "10", "BONUSPOINTS": "3"}}, {"type": "Feature", "geometry": {"type": "Point", "coordinates": [-117.2458, 45.0647]}, "properties": {"NAME": "W7O/NE-007", "TITLE": "Red Mountain", "REGION": "OR-Northeast", "ASSOCIATION": "USA - Oregon", "POINTS": "10", "BONUSPOINTS": "3"}}, {"type": "Feature", "geometry": {"type": "Point", "coordinates": [-117.3013, 45.1637]}, "properties": {"NAME": "W7O/NE-008", "TITLE": "Eagle Cap", "REGION": "OR-Northeast", "ASSOCIATION": "USA - Oregon", "POINTS": "10", "BONUSPOINTS": "3"}}, {"type": "Feature", "geometry": {"type": "Point", "coordinates": [-117.246, 45.1376]}, "properties": {"NAME": "W7O/NE-009", "TITLE": "Cusick Mountain", "REGION": "OR-Northeast", "ASSOCIATION": "USA - Oregon", "POINTS": "10", "BONUSPOINTS": "3"}}, {"type": "Feature", "geometry": {"type": "Point", "coordinates": [-117.2259, 45.1632]}, "properties": {"NAME": "W7O/NE-010", "TITLE": "Sentinel Peak", "REGION": "OR-Northeast", "ASSOCIATION": "USA - Oregon", "POINTS": "10", "BONUSPOINTS": "3"}}, {"type": "Feature", "geometry": {"type": "Point", "coordinates": [-117.1771, 45.2368]}, "properties": {"NAME": "W7O/NE-011", "TITLE": "East Peak", "REGION": "OR-Northeast", "ASSOCIATION": "USA - Oregon", "POINTS": "10", "BONUSPOINTS": "3"}}, {"type": "Feature", "geometry": {"type": "Point", "coordinates": [-117.3952, 45.2223]}, "properties": {"NAME": "W7O/NE-012", "TITLE": "Elkhorn Peak", "REGION": "OR-Northeast", "ASSOCIATION": "USA - Oregon", "POINTS": "10", "BONUSPOINTS": "3"}}, {"type": "Feature", "geometry": {"type": "Point", "coordinates": [-117.2626, 45.222]}, "properties": {"NAME": "W7O/NE-013", "TITLE": "Craig Mountain", "REGION": "OR-Northeast", "ASSOCIATION": "USA - Oregon", "POINTS": "10", "BONUSPOINTS": "3"}}, {"type": "Feature", "geometry": {"type": "Point", "coordinates": [-117.3887, 45.1887]}, "properties": {"NAME": "W7O/NE-014", "TITLE": "Glacier Mountain", "REGION": "OR-Northeast", "ASSOCIATION": "USA - Oregon", "POINTS": "10", "BONUSPOINTS": "3"}}, {"type": "Feature", "geometry": {"type": "Point", "coordinates": [-118.1039, 44.8167]}, "properties": {"NAME": "W7O/NE-015", "TITLE": "Rock Creek Butte", "REGION": "OR-Northeast", "ASSOCIATION": "USA - Oregon", "POINTS": "10", "BONUSPOINTS": "3"}}, {"type": "Feature", "geometry": {"type": "Point", "coordinates": [-117.2892, 45.0652]}, "properties": {"NAME": "W7O/NE-016", "TITLE": "Krag Peak", "REGION": "OR-Northeast", "ASSOCIATION": "USA - Oregon", "POINTS": "10", "BONUSPOINTS": "3"}}, {"type": "Feature", "geometry": {"type": "Point", "coordinates": [-117.3669, 45.3375]}, "properties": {"NAME": "W7O/NE-017", "TITLE": "Traverse Ridge", "REGION": "OR-Northeast", "ASSOCIATION": "USA - Oregon", "POINTS": "10", "BONUSPOINTS": "3"}}, {"type": "Feature", "geometry": {"type": "Point", "coordinates": [-118.7164, 44.312]}, "properties": {"NAME": "W7O/NE-018", "TITLE": "Strawberry Mountain", "REGION": "OR-Northeast", "ASSOCIATION": "USA - Oregon", "POINTS": "10", "BONUSPOINTS": "3"}}, {"type": "Feature", "geometry": {"type": "Point", "coordinates": [-117.3523, 45.1271]}, "properties": {"NAME": "W7O/NE-019", "TITLE": "Needle Point", "REGION": "OR-Northeast", "ASSOCIATION": "USA - Oregon", "POINTS": "10", "BONUSPOINTS": "3"}}, {"type": "Feature", "geometry": {"type": "Point", "coordinates": [-118.0745, 44.8098]}, "properties": {"NAME": "W7O/NE-020", "TITLE": "Elkhorn Peak", "REGION": "OR-Northeast", "ASSOCIATION": "USA - Oregon", "POINTS": "8", "BONUSPOINTS": "3"}}, {"type": "Feature", "geometry": {"type": "Point", "coordinates": [-118.1692, 44.8839]}, "properties": {"NAME": "W7O/NE-021", "TITLE": "Red Mountain", "REGION": "OR-Northeast", "ASSOCIATION": "USA - Oregon", "POINTS": "8", "BONUSPOINTS": "3"}}, {"type": "Feature", "geometry": {"type": "Point", "coordinates": [-117.1927, 45.1172]}, "properties": {"NAME": "W7O/NE-022", "TITLE": "Marble Mountain", "REGION": "OR-Northeast", "ASSOCIATION": "USA - Oregon", "POINTS": "8", "BONUSPOINTS": "3"}}, {"type": "Feature", "geometry": {"type": "Point", "coordinates": [-118.1648, 44.9283]}, "properties": {"NAME": "W7O/NE-023", "TITLE": "Twin Mountain", "REGION": "OR-Northeast", "ASSOCIATION": "USA - Oregon", "POINTS": "8", "BONUSPOINTS": "3"}}, {"type": "Feature", "geometry": {"type": "Point", "coordinates": [-117.3547, 45.3531]}, "properties": {"NAME": "W7O/NE-024", "TITLE": "Ruby Peak", "REGION": "OR-Northeast", "ASSOCIATION": "USA - Oregon", "POINTS": "8", "BONUSPOINTS": "3"}}, {"type": "Feature", "geometry": {"type": "Point", "coordinates": [-117.4434, 45.2921]}, "properties": {"NAME": "W7O/NE-025", "TITLE": "Lookout Mountain", "REGION": "OR-Northeast", "ASSOCIATION": "USA - Oregon", "POINTS": "8", "BONUSPOINTS": "3"}}, {"type": "Feature", "geometry": {"type": "Point", "coordinates": [-118.2026, 44.9496]}, "properties": {"NAME": "W7O/NE-026", "TITLE": "Van Patten Butte", "REGION": "OR-Northeast", "ASSOCIATION": "USA - Oregon", "POINTS": "8", "BONUSPOINTS": "3"}}, {"type": "Feature", "geometry": {"type": "Point", "coordinates": [-117.5006, 45.1353]}, "properties": {"NAME": "W7O/NE-027", "TITLE": "Granite Butte", "REGION": "OR-Northeast", "ASSOCIATION": "USA - Oregon", "POINTS": "8", "BONUSPOINTS": "3"}}, {"type": "Feature", "geometry": {"type": "Point", "coordinates": [-117.5101, 45.1557]}, "properties": {"NAME": "W7O/NE-028", "TITLE": "China Cap", "REGION": "OR-Northeast", "ASSOCIATION": "USA - Oregon", "POINTS": "8", "BONUSPOINTS": "3"}}, {"type": "Feature", "geometry": {"type": "Point", "coordinates": [-118.2297, 44.9416]}, "properties": {"NAME": "W7O/NE-029", "TITLE": "Angell Peak", "REGION": "OR-Northeast", "ASSOCIATION": "USA - Oregon", "POINTS": "8", "BONUSPOINTS": "3"}}, {"type": "Feature", "geometry": {"type": "Point", "coordinates": [-117.2815, 45.127]}, "properties": {"NAME": "W7O/NE-030", "TITLE": "Jackson Peak", "REGION": "OR-Northeast", "ASSOCIATION": "USA - Oregon", "POINTS": "8", "BONUSPOINTS": "3"}}, {"type": "Feature", "geometry": {"type": "Point", "coordinates": [-118.2314, 44.894]}, "properties": {"NAME": "W7O/NE-031", "TITLE": "Ruth, Mount", "REGION": "OR-Northeast", "ASSOCIATION": "USA - Oregon", "POINTS": "8", "BONUSPOINTS": "3"}}, {"type": "Feature", "geometry": {"type": "Point", "coordinates": [-118.6289, 44.2999]}, "properties": {"NAME": "W7O/NE-032", "TITLE": "Graham Mountain", "REGION": "OR-Northeast", "ASSOCIATION": "USA - Oregon", "POINTS": "8", "BONUSPOINTS": "3"}}, {"type": "Feature", "geometry": {"type": "Point", "coordinates": [-118.6972, 44.286]}, "properties": {"NAME": "W7O/NE-033", "TITLE": "Indian Spring Butte", "REGION": "OR-Northeast", "ASSOCIATION": "USA - Oregon", "POINTS": "8", "BONUSPOINTS": "3"}}, {"type": "Feature", "geometry": {"type": "Point", "coordinates": [-118.3206, 44.8368]}, "properties": {"NAME": "W7O/NE-034", "TITLE": "Ireland, Mount", "REGION": "OR-Northeast", "ASSOCIATION": "USA - Oregon", "POINTS": "8", "BONUSPOINTS": "3"}}, {"type": "Feature", "geometry": {"type": "Point", "coordinates": [-118.5615, 44.7137]}, "properties": {"NAME": "W7O/NE-035", "TITLE": "Vinegar Hill", "REGION": "OR-Northeast", "ASSOCIATION": "USA - Oregon", "POINTS": "8", "BONUSPOINTS": "3"}}, {"type": "Feature", "geometry": {"type": "Point", "coordinates": [-118.2281, 44.8653]}, "properties": {"NAME": "W7O/NE-036", "TITLE": "Columbia Hill", "REGION": "OR-Northeast", "ASSOCIATION": "USA - Oregon", "POINTS": "8", "BONUSPOINTS": "3"}}, {"type": "Feature", "geometry": {"type": "Point", "coordinates": [-118.4953, 44.2889]}, "properties": {"NAME": "W7O/NE-037", "TITLE": "Lookout Mountain", "REGION": "OR-Northeast", "ASSOCIATION": "USA - Oregon", "POINTS": "8", "BONUSPOINTS": "3"}}, {"type": "Feature", "geometry": {"type": "Point", "coordinates": [-118.2936, 44.8528]}, "properties": {"NAME": "W7O/NE-038", "TITLE": "Crown Point", "REGION": "OR-Northeast", "ASSOCIATION": "USA - Oregon", "POINTS": "8", "BONUSPOINTS": "3"}}, {"type": "Feature", "geometry": {"type": "Point", "coordinates": [-117.1435, 45.0834]}, "properties": {"NAME": "W7O/NE-039", "TITLE": "Sugarloaf Mountain", "REGION": "OR-Northeast", "ASSOCIATION": "USA - Oregon", "POINTS": "6", "BONUSPOINTS": "3"}}, {"type": "Feature", "geometry": {"type": "Point", "coordinates": [-118.7662, 44.298]}, "properties": {"NAME": "W7O/NE-040", "TITLE": "Indian Creek Butte", "REGION": "OR-Northeast", "ASSOCIATION": "USA - Oregon", "POINTS": "6", "BONUSPOINTS": "3"}}, {"type": "Feature", "geometry": {"type": "Point", "coordinates": [-118.2839, 44.3247]}, "properties": {"NAME": "W7O/NE-041", "TITLE": "Bullrun Rock", "REGION": "OR-Northeast", "ASSOCIATION": "USA - Oregon", "POINTS": "6", "BONUSPOINTS": "3"}}, {"type": "Feature", "geometry": {"type": "Point", "coordinates": [-117.5631, 45.2266]}, "properties": {"NAME": "W7O/NE-042", "TITLE": "Cartwheel Ridge", "REGION": "OR-Northeast", "ASSOCIATION": "USA - Oregon", "POINTS": "6", "BONUSPOINTS": "3"}}, {"type": "Feature", "geometry": {"type": "Point", "coordinates": [-118.6176, 44.7163]}, "properties": {"NAME": "W7O/NE-043", "TITLE": "Sunrise Butte", "REGION": "OR-Northeast", "ASSOCIATION": "USA - Oregon", "POINTS": "6", "BONUSPOINTS": "3"}}, {"type": "Feature", "geometry": {"type": "Point", "coordinates": [-118.1761, 44.8231]}, "properties": {"NAME": "W7O/NE-044", "TITLE": "Wind Creek Peak", "REGION": "OR-Northeast", "ASSOCIATION": "USA - Oregon", "POINTS": "6", "BONUSPOINTS": "3"}}, {"type": "Feature", "geometry": {"type": "Point", "coordinates": [-118.4467, 44.3934]}, "properties": {"NAME": "W7O/NE-045", "TITLE": "Baldy Mountain", "REGION": "OR-Northeast", "ASSOCIATION": "USA - Oregon", "POINTS": "6", "BONUSPOINTS": "3"}}, {"type": "Feature", "geometry": {"type": "Point", "coordinates": [-118.6275, 44.5824]}, "properties": {"NAME": "W7O/NE-046", "TITLE": "Dixie Butte", "REGION": "OR-Northeast", "ASSOCIATION": "USA - Oregon", "POINTS": "6", "BONUSPOINTS": "3"}}, {"type": "Feature", "geometry": {"type": "Point", "coordinates": [-118.2415, 44.3434]}, "properties": {"NAME": "W7O/NE-047", "TITLE": "Bullrun Mountain", "REGION": "OR-Northeast", "ASSOCIATION": "USA - Oregon", "POINTS": "6", "BONUSPOINTS": "3"}}, {"type": "Feature", "geometry": {"type": "Point", "coordinates": [-119.2585, 44.3385]}, "properties": {"NAME": "W7O/NE-048", "TITLE": "Fields Peak", "REGION": "OR-Northeast", "ASSOCIATION": "USA - Oregon", "POINTS": "6", "BONUSPOINTS": "3"}}, {"type": "Feature", "geometry": {"type": "Point", "coordinates": [-117.6911, 45.3262]}, "properties": {"NAME": "W7O/NE-049", "TITLE": "Dunns Bluff", "REGION": "OR-Northeast", "ASSOCIATION": "USA - Oregon", "POINTS": "6", "BONUSPOINTS": "3"}}, {"type": "Feature", "geometry": {"type": "Point", "coordinates": [-119.4962, 43.9704]}, "properties": {"NAME": "W7O/NE-050", "TITLE": "Snow Mountain", "REGION": "OR-Northeast", "ASSOCIATION": "USA - Oregon", "POINTS": "6", "BONUSPOINTS": "3"}}, {"type": "Feature", "geometry": {"type": "Point", "coordinates": [-117.2783, 44.6087]}, "properties": {"NAME": "W7O/NE-051", "TITLE": "Big Lookout Mountain", "REGION": "OR-Northeast", "ASSOCIATION": "USA - Oregon", "POINTS": "6", "BONUSPOINTS": "3"}}, {"type": "Feature", "geometry": {"type": "Point", "coordinates": [-119.2036, 44.3336]}, "properties": {"NAME": "W7O/NE-052", "TITLE": "McClellan Mountain", "REGION": "OR-Northeast", "ASSOCIATION": "USA - Oregon", "POINTS": "6", "BONUSPOINTS": "3"}}, {"type": "Feature", "geometry": {"type": "Point", "coordinates": [-118.6644, 44.8504]}, "properties": {"NAME": "W7O/NE-053", "TITLE": "Desolation Butte", "REGION": "OR-Northeast", "ASSOCIATION": "USA - Oregon", "POINTS": "6", "BONUSPOINTS": "3"}}, {"type": "Feature", "geometry": {"type": "Point", "coordinates": [-119.4508, 44.3773]}, "properties": {"NAME": "W7O/NE-054", "TITLE": "Aldrich Mountain", "REGION": "OR-Northeast", "ASSOCIATION": "USA - Oregon", "POINTS": "6", "BONUSPOINTS": "3"}}, {"type": "Feature", "geometry": {"type": "Point", "coordinates": [-116.6616, 45.4378]}, "properties": {"NAME": "W7O/NE-055", "TITLE": "Hat Point", "REGION": "OR-Northeast", "ASSOCIATION": "USA - Oregon", "POINTS": "6", "BONUSPOINTS": "3"}}, {"type": "Feature", "geometry": {"type": "Point", "coordinates": [-118.7173, 44.8057]}, "properties": {"NAME": "W7O/NE-056", "TITLE": "Jumpoff Joe Peak", "REGION": "OR-Northeast", "ASSOCIATION": "USA - Oregon", "POINTS": "6", "BONUSPOINTS": "3"}}, {"type": "Feature", "geometry": {"type": "Point", "coordinates": [-118.2345, 44.2857]}, "properties": {"NAME": "W7O/NE-057", "TITLE": "WaqÃ­ima Butte", "REGION": "OR-Northeast", "ASSOCIATION": "USA - Oregon", "POINTS": "6", "BONUSPOINTS": "3"}}, {"type": "Feature", "geometry": {"type": "Point", "coordinates": [-118.5687, 45.0541]}, "properties": {"NAME": "W7O/NE-058", "TITLE": "Tower Mountain", "REGION": "OR-Northeast", "ASSOCIATION": "USA - Oregon", "POINTS": "6", "BONUSPOINTS": "3"}}, {"type": "Feature", "geometry": {"type": "Point", "coordinates": [-118.2028, 44.3143]}, "properties": {"NAME": "W7O/NE-059", "TITLE": "Rastus Mountain", "REGION": "OR-Northeast", "ASSOCIATION": "USA - Oregon", "POINTS": "6", "BONUSPOINTS": "3"}}, {"type": "Feature", "geometry": {"type": "Point", "coordinates": [-118.2891, 44.7782]}, "properties": {"NAME": "W7O/NE-060", "TITLE": "Grays Peak", "REGION": "OR-Northeast", "ASSOCIATION": "USA - Oregon", "POINTS": "6", "BONUSPOINTS": "3"}}, {"type": "Feature", "geometry": {"type": "Point", "coordinates": [-119.1381, 44.3139]}, "properties": {"NAME": "W7O/NE-061", "TITLE": "Ingle Mountain", "REGION": "OR-Northeast", "ASSOCIATION": "USA - Oregon", "POINTS": "6", "BONUSPOINTS": "3"}}, {"type": "Feature", "geometry": {"type": "Point", "coordinates": [-119.1087, 44.3072]}, "properties": {"NAME": "W7O/NE-062", "TITLE": "Coal Pit Mountain", "REGION": "OR-Northeast", "ASSOCIATION": "USA - Oregon", "POINTS": "6", "BONUSPOINTS": "3"}}, {"type": "Feature", "geometry": {"type": "Point", "coordinates": [-118.3673, 44.4786]}, "properties": {"NAME": "W7O/NE-063", "TITLE": "Steep Benchmark", "REGION": "OR-Northeast", "ASSOCIATION": "USA - Oregon", "POINTS": "6", "BONUSPOINTS": "3"}}, {"type": "Feature", "geometry": {"type": "Point", "coordinates": [-117.3644, 44.6933]}, "properties": {"NAME": "W7O/NE-064", "TITLE": "Little Lookout Mountain", "REGION": "OR-Northeast", "ASSOCIATION": "USA - Oregon", "POINTS": "6", "BONUSPOINTS": "3"}}, {"type": "Feature", "geometry": {"type": "Point", "coordinates": [-117.8936, 44.5741]}, "properties": {"NAME": "W7O/NE-065", "TITLE": "Bald Mountain", "REGION": "OR-Northeast", "ASSOCIATION": "USA - Oregon", "POINTS": "6", "BONUSPOINTS": "3"}}, {"type": "Feature", "geometry": {"type": "Point", "coordinates": [-118.0029, 44.6312]}, "properties": {"NAME": "W7O/NE-066", "TITLE": "Black Mountain", "REGION": "OR-Northeast", "ASSOCIATION": "USA - Oregon", "POINTS": "6", "BONUSPOINTS": "3"}}, {"type": "Feature", "geometry": {"type": "Point", "coordinates": [-119.2808, 44.186]}, "properties": {"NAME": "W7O/NE-067", "TITLE": "Flagtail Mountain", "REGION": "OR-Northeast", "ASSOCIATION": "USA - Oregon", "POINTS": "6", "BONUSPOINTS": "3"}}, {"type": "Feature", "geometry": {"type": "Point", "coordinates": [-118.8007, 44.0775]}, "properties": {"NAME": "W7O/NE-068", "TITLE": "Jump-off Joe Mountain", "REGION": "OR-Northeast", "ASSOCIATION": "USA - Oregon", "POINTS": "6", "BONUSPOINTS": "3"}}, {"type": "Feature", "geometry": {"type": "Point", "coordinates": [-118.4587, 44.057]}, "properties": {"NAME": "W7O/NE-069", "TITLE": "Knox Mountain", "REGION": "OR-Northeast", "ASSOCIATION": "USA - Oregon", "POINTS": "6", "BONUSPOINTS": "3"}}, {"type": "Feature", "geometry": {"type": "Point", "coordinates": [-118.568, 44.8333]}, "properties": {"NAME": "W7O/NE-070", "TITLE": "Rabbit Butte", "REGION": "OR-Northeast", "ASSOCIATION": "USA - Oregon", "POINTS": "6", "BONUSPOINTS": "3"}}, {"type": "Feature", "geometry": {"type": "Point", "coordinates": [-117.5556, 44.4646]}, "properties": {"NAME": "W7O/NE-071", "TITLE": "Pedro Mountain", "REGION": "OR-Northeast", "ASSOCIATION": "USA - Oregon", "POINTS": "6", "BONUSPOINTS": "3"}}, {"type": "Feature", "geometry": {"type": "Point", "coordinates": [-117.9491, 44.5857]}, "properties": {"NAME": "W7O/NE-072", "TITLE": "Little Bald Mountain", "REGION": "OR-Northeast", "ASSOCIATION": "USA - Oregon", "POINTS": "6", "BONUSPOINTS": "3"}}, {"type": "Feature", "geometry": {"type": "Point", "coordinates": [-117.7839, 44.5993]}, "properties": {"NAME": "W7O/NE-073", "TITLE": "Bald Ridge", "REGION": "OR-Northeast", "ASSOCIATION": "USA - Oregon", "POINTS": "6", "BONUSPOINTS": "3"}}, {"type": "Feature", "geometry": {"type": "Point", "coordinates": [-119.1602, 43.9746]}, "properties": {"NAME": "W7O/NE-074", "TITLE": "West Myrtle Butte", "REGION": "OR-Northeast", "ASSOCIATION": "USA - Oregon", "POINTS": "6", "BONUSPOINTS": "3"}}, {"type": "Feature", "geometry": {"type": "Point", "coordinates": [-118.7323, 44.625]}, "properties": {"NAME": "W7O/NE-075", "TITLE": "Ragged Rocks", "REGION": "OR-Northeast", "ASSOCIATION": "USA - Oregon", "POINTS": "6", "BONUSPOINTS": "3"}}, {"type": "Feature", "geometry": {"type": "Point", "coordinates": [-118.8952, 44.293]}, "properties": {"NAME": "W7O/NE-076", "TITLE": "Rattlesnake Ridge", "REGION": "OR-Northeast", "ASSOCIATION": "USA - Oregon", "POINTS": "6", "BONUSPOINTS": "3"}}, {"type": "Feature", "geometry": {"type": "Point", "coordinates": [-118.6484, 44.095]}, "properties": {"NAME": "W7O/NE-077", "TITLE": "Frazier Point", "REGION": "OR-Northeast", "ASSOCIATION": "USA - Oregon", "POINTS": "6", "BONUSPOINTS": "3"}}, {"type": "Feature", "geometry": {"type": "Point", "coordinates": [-118.4821, 44.762]}, "properties": {"NAME": "W7O/NE-078", "TITLE": "Quebec Hill", "REGION": "OR-Northeast", "ASSOCIATION": "USA - Oregon", "POINTS": "6", "BONUSPOINTS": "3"}}, {"type": "Feature", "geometry": {"type": "Point", "coordinates": [-119.1382, 44.5401]}, "properties": {"NAME": "W7O/NE-079", "TITLE": "Black Butte", "REGION": "OR-Northeast", "ASSOCIATION": "USA - Oregon", "POINTS": "6", "BONUSPOINTS": "3"}}, {"type": "Feature", "geometry": {"type": "Point", "coordinates": [-118.9157, 44.5801]}, "properties": {"NAME": "W7O/NE-080", "TITLE": "Lake Butte", "REGION": "OR-Northeast", "ASSOCIATION": "USA - Oregon", "POINTS": "6", "BONUSPOINTS": "3"}}, {"type": "Feature", "geometry": {"type": "Point", "coordinates": [-117.9261, 44.4447]}, "properties": {"NAME": "W7O/NE-081", "TITLE": "Fire Benchmark", "REGION": "OR-Northeast", "ASSOCIATION": "USA - Oregon", "POINTS": "6", "BONUSPOINTS": "3"}}, {"type": "Feature", "geometry": {"type": "Point", "coordinates": [-119.045, 44.6653]}, "properties": {"NAME": "W7O/NE-082", "TITLE": "Long Creek Mountain", "REGION": "OR-Northeast", "ASSOCIATION": "USA - Oregon", "POINTS": "6", "BONUSPOINTS": "3"}}, {"type": "Feature", "geometry": {"type": "Point", "coordinates": [-119.0361, 43.9743]}, "properties": {"NAME": "W7O/NE-083", "TITLE": "Gold Hill", "REGION": "OR-Northeast", "ASSOCIATION": "USA - Oregon", "POINTS": "6", "BONUSPOINTS": "3"}}, {"type": "Feature", "geometry": {"type": "Point", "coordinates": [-118.7659, 44.5749]}, "properties": {"NAME": "W7O/NE-084", "TITLE": "Lick Benchmark", "REGION": "OR-Northeast", "ASSOCIATION": "USA - Oregon", "POINTS": "6", "BONUSPOINTS": "3"}}, {"type": "Feature", "geometry": {"type": "Point", "coordinates": [-118.1389, 45.0082]}, "properties": {"NAME": "W7O/NE-085", "TITLE": "Gorham Butte", "REGION": "OR-Northeast", "ASSOCIATION": "USA - Oregon", "POINTS": "6", "BONUSPOINTS": "3"}}, {"type": "Feature", "geometry": {"type": "Point", "coordinates": [-118.806, 44.5875]}, "properties": {"NAME": "W7O/NE-086", "TITLE": "Cougar Rock", "REGION": "OR-Northeast", "ASSOCIATION": "USA - Oregon", "POINTS": "6", "BONUSPOINTS": "3"}}, {"type": "Feature", "geometry": {"type": "Point", "coordinates": [-119.1519, 44.3472]}, "properties": {"NAME": "W7O/NE-087", "TITLE": "Cinnabar Mountain", "REGION": "OR-Northeast", "ASSOCIATION": "USA - Oregon", "POINTS": "6", "BONUSPOINTS": "3"}}, {"type": "Feature", "geometry": {"type": "Point", "coordinates": [-118.9765, 44.5773]}, "properties": {"NAME": "W7O/NE-088", "TITLE": "Nipple Butte", "REGION": "OR-Northeast", "ASSOCIATION": "USA - Oregon", "POINTS": "6", "BONUSPOINTS": "3"}}, {"type": "Feature", "geometry": {"type": "Point", "coordinates": [-118.4559, 44.7452]}, "properties": {"NAME": "W7O/NE-089", "TITLE": "Olive Butte", "REGION": "OR-Northeast", "ASSOCIATION": "USA - Oregon", "POINTS": "6", "BONUSPOINTS": "3"}}, {"type": "Feature", "geometry": {"type": "Point", "coordinates": [-118.0914, 45.4378]}, "properties": {"NAME": "W7O/NE-090", "TITLE": "Emily, Mount", "REGION": "OR-Northeast", "ASSOCIATION": "USA - Oregon", "POINTS": "6", "BONUSPOINTS": "3"}}, {"type": "Feature", "geometry": {"type": "Point", "coordinates": [-118.1442, 45.1542]}, "properties": {"NAME": "W7O/NE-091", "TITLE": "Summit Spring Ridge", "REGION": "OR-Northeast", "ASSOCIATION": "USA - Oregon", "POINTS": "6", "BONUSPOINTS": "3"}}, {"type": "Feature", "geometry": {"type": "Point", "coordinates": [-116.8771, 45.3287]}, "properties": {"NAME": "W7O/NE-092", "TITLE": "Harl Butte", "REGION": "OR-Northeast", "ASSOCIATION": "USA - Oregon", "POINTS": "6", "BONUSPOINTS": "3"}}, {"type": "Feature", "geometry": {"type": "Point", "coordinates": [-117.9291, 45.9924]}, "properties": {"NAME": "W7O/NE-093", "TITLE": "Milk Shakes West", "REGION": "OR-Northeast", "ASSOCIATION": "USA - Oregon", "POINTS": "6", "BONUSPOINTS": "3"}}, {"type": "Feature", "geometry": {"type": "Point", "coordinates": [-119.5986, 44.3797]}, "properties": {"NAME": "W7O/NE-094", "TITLE": "Battle Creek Mountain", "REGION": "OR-Northeast", "ASSOCIATION": "USA - Oregon", "POINTS": "6", "BONUSPOINTS": "3"}}, {"type": "Feature", "geometry": {"type": "Point", "coordinates": [-118.6557, 44.9958]}, "properties": {"NAME": "W7O/NE-095", "TITLE": "Winom Butte", "REGION": "OR-Northeast", "ASSOCIATION": "USA - Oregon", "POINTS": "4", "BONUSPOINTS": "3"}}, {"type": "Feature", "geometry": {"type": "Point", "coordinates": [-119.0428, 44.2936]}, "properties": {"NAME": "W7O/NE-096", "TITLE": "Fall Mountain", "REGION": "OR-Northeast", "ASSOCIATION": "USA - Oregon", "POINTS": "4", "BONUSPOINTS": "3"}}, {"type": "Feature", "geometry": {"type": "Point", "coordinates": [-119.2956, 45.213]}, "properties": {"NAME": "W7O/NE-097", "TITLE": "Black Mountain", "REGION": "OR-Northeast", "ASSOCIATION": "USA - Oregon", "POINTS": "4", "BONUSPOINTS": "3"}}, {"type": "Feature", "geometry": {"type": "Point", "coordinates": [-118.1714, 44.6682]}, "properties": {"NAME": "W7O/NE-098", "TITLE": "Huckleberry Mountain", "REGION": "OR-Northeast", "ASSOCIATION": "USA - Oregon", "POINTS": "4", "BONUSPOINTS": "3"}}, {"type": "Feature", "geometry": {"type": "Point", "coordinates": [-118.3307, 45.1697]}, "properties": {"NAME": "W7O/NE-099", "TITLE": "Whitehorse Ridge", "REGION": "OR-Northeast", "ASSOCIATION": "USA - Oregon", "POINTS": "4", "BONUSPOINTS": "3"}}, {"type": "Feature", "geometry": {"type": "Point", "coordinates": [-117.2518, 44.6888]}, "properties": {"NAME": "W7O/NE-100", "TITLE": "Sheep Mountain", "REGION": "OR-Northeast", "ASSOCIATION": "USA - Oregon", "POINTS": "4", "BONUSPOINTS": "3"}}, {"type": "Feature", "geometry": {"type": "Point", "coordinates": [-119.2522, 45.1936]}, "properties": {"NAME": "W7O/NE-101", "TITLE": "Arbuckle Mountain", "REGION": "OR-Northeast", "ASSOCIATION": "USA - Oregon", "POINTS": "4", "BONUSPOINTS": "3"}}, {"type": "Feature", "geometry": {"type": "Point", "coordinates": [-117.6763, 44.6163]}, "properties": {"NAME": "W7O/NE-102", "TITLE": "Ebell Creek Divide", "REGION": "OR-Northeast", "ASSOCIATION": "USA - Oregon", "POINTS": "4", "BONUSPOINTS": "3"}}, {"type": "Feature", "geometry": {"type": "Point", "coordinates": [-116.8244, 45.3983]}, "properties": {"NAME": "W7O/NE-103", "TITLE": "Beeler Ridge", "REGION": "OR-Northeast", "ASSOCIATION": "USA - Oregon", "POINTS": "4", "BONUSPOINTS": "3"}}, {"type": "Feature", "geometry": {"type": "Point", "coordinates": [-118.2552, 44.1346]}, "properties": {"NAME": "W7O/NE-104", "TITLE": "Ruehlam Benchmark", "REGION": "OR-Northeast", "ASSOCIATION": "USA - Oregon", "POINTS": "4", "BONUSPOINTS": "3"}}, {"type": "Feature", "geometry": {"type": "Point", "coordinates": [-119.4449, 44.5905]}, "properties": {"NAME": "W7O/NE-105", "TITLE": "Rudio Mountain", "REGION": "OR-Northeast", "ASSOCIATION": "USA - Oregon", "POINTS": "4", "BONUSPOINTS": "3"}}, {"type": "Feature", "geometry": {"type": "Point", "coordinates": [-118.0037, 45.9146]}, "properties": {"NAME": "W7O/NE-106", "TITLE": "Yellow Jacket Bench", "REGION": "OR-Northeast", "ASSOCIATION": "USA - Oregon", "POINTS": "4", "BONUSPOINTS": "3"}}, {"type": "Feature", "geometry": {"type": "Point", "coordinates": [-119.4617, 44.0326]}, "properties": {"NAME": "W7O/NE-107", "TITLE": "Big Flat Benchmark", "REGION": "OR-Northeast", "ASSOCIATION": "USA - Oregon", "POINTS": "4", "BONUSPOINTS": "3"}}, {"type": "Feature", "geometry": {"type": "Point", "coordinates": [-118.416, 45.1205]}, "properties": {"NAME": "W7O/NE-108", "TITLE": "Johnson Benchmark", "REGION": "OR-Northeast", "ASSOCIATION": "USA - Oregon", "POINTS": "4", "BONUSPOINTS": "3"}}, {"type": "Feature", "geometry": {"type": "Point", "coordinates": [-119.4747, 45.1072]}, "properties": {"NAME": "W7O/NE-109", "TITLE": "Madison Butte", "REGION": "OR-Northeast", "ASSOCIATION": "USA - Oregon", "POINTS": "4", "BONUSPOINTS": "3"}}, {"type": "Feature", "geometry": {"type": "Point", "coordinates": [-118.887, 44.5076]}, "properties": {"NAME": "W7O/NE-110", "TITLE": "Round Top", "REGION": "OR-Northeast", "ASSOCIATION": "USA - Oregon", "POINTS": "4", "BONUSPOINTS": "3"}}, {"type": "Feature", "geometry": {"type": "Point", "coordinates": [-118.9119, 44.7165]}, "properties": {"NAME": "W7O/NE-111", "TITLE": "Kahler Butte", "REGION": "OR-Northeast", "ASSOCIATION": "USA - Oregon", "POINTS": "4", "BONUSPOINTS": "3"}}, {"type": "Feature", "geometry": {"type": "Point", "coordinates": [-116.8626, 45.444]}, "properties": {"NAME": "W7O/NE-112", "TITLE": "Dead Horse Ridge", "REGION": "OR-Northeast", "ASSOCIATION": "USA - Oregon", "POINTS": "4", "BONUSPOINTS": "3"}}, {"type": "Feature", "geometry": {"type": "Point", "coordinates": [-117.781, 45.1238]}, "properties": {"NAME": "W7O/NE-113", "TITLE": "Clark Mountain", "REGION": "OR-Northeast", "ASSOCIATION": "USA - Oregon", "POINTS": "4", "BONUSPOINTS": "3"}}, {"type": "Feature", "geometry": {"type": "Point", "coordinates": [-119.4402, 44.1044]}, "properties": {"NAME": "W7O/NE-114", "TITLE": "Morgan Mountain", "REGION": "OR-Northeast", "ASSOCIATION": "USA - Oregon", "POINTS": "4", "BONUSPOINTS": "3"}}, {"type": "Feature", "geometry": {"type": "Point", "coordinates": [-116.9648, 45.5265]}, "properties": {"NAME": "W7O/NE-115", "TITLE": "Harsin Butte", "REGION": "OR-Northeast", "ASSOCIATION": "USA - Oregon", "POINTS": "4", "BONUSPOINTS": "3"}}, {"type": "Feature", "geometry": {"type": "Point", "coordinates": [-116.9925, 45.5455]}, "properties": {"NAME": "W7O/NE-116", "TITLE": "MÃ©exsem HÃ©epey Butte", "REGION": "OR-Northeast", "ASSOCIATION": "USA - Oregon", "POINTS": "4", "BONUSPOINTS": "3"}}, {"type": "Feature", "geometry": {"type": "Point", "coordinates": [-116.9552, 45.8843]}, "properties": {"NAME": "W7O/NE-117", "TITLE": "Cold Spring Ridge", "REGION": "OR-Northeast", "ASSOCIATION": "USA - Oregon", "POINTS": "4", "BONUSPOINTS": "3"}}, {"type": "Feature", "geometry": {"type": "Point", "coordinates": [-118.2383, 45.5929]}, "properties": {"NAME": "W7O/NE-118", "TITLE": "Black Mountain", "REGION": "OR-Northeast", "ASSOCIATION": "USA - Oregon", "POINTS": "4", "BONUSPOINTS": "3"}}, {"type": "Feature", "geometry": {"type": "Point", "coordinates": [-118.975, 44.7026]}, "properties": {"NAME": "W7O/NE-119", "TITLE": "Keeney Point", "REGION": "OR-Northeast", "ASSOCIATION": "USA - Oregon", "POINTS": "4", "BONUSPOINTS": "3"}}, {"type": "Feature", "geometry": {"type": "Point", "coordinates": [-119.3822, 44.0898]}, "properties": {"NAME": "W7O/NE-120", "TITLE": "Mahogany Mountain", "REGION": "OR-Northeast", "ASSOCIATION": "USA - Oregon", "POINTS": "4", "BONUSPOINTS": "3"}}, {"type": "Feature", "geometry": {"type": "Point", "coordinates": [-117.4829, 44.5109]}, "properties": {"NAME": "W7O/NE-121", "TITLE": "Baldy Mountain", "REGION": "OR-Northeast", "ASSOCIATION": "USA - Oregon", "POINTS": "4", "BONUSPOINTS": "3"}}, {"type": "Feature", "geometry": {"type": "Point", "coordinates": [-117.6949, 45.0761]}, "properties": {"NAME": "W7O/NE-122", "TITLE": "Frazier Mountain", "REGION": "OR-Northeast", "ASSOCIATION": "USA - Oregon", "POINTS": "4", "BONUSPOINTS": "3"}}, {"type": "Feature", "geometry": {"type": "Point", "coordinates": [-119.326, 44.058]}, "properties": {"NAME": "W7O/NE-123", "TITLE": "Buck Mountain", "REGION": "OR-Northeast", "ASSOCIATION": "USA - Oregon", "POINTS": "4", "BONUSPOINTS": "3"}}, {"type": "Feature", "geometry": {"type": "Point", "coordinates": [-117.893, 45.4404]}, "properties": {"NAME": "W7O/NE-124", "TITLE": "Harris, Mount", "REGION": "OR-Northeast", "ASSOCIATION": "USA - Oregon", "POINTS": "4", "BONUSPOINTS": "3"}}, {"type": "Feature", "geometry": {"type": "Point", "coordinates": [-119.3613, 44.6822]}, "properties": {"NAME": "W7O/NE-125", "TITLE": "Hamilton Mountain", "REGION": "OR-Northeast", "ASSOCIATION": "USA - Oregon", "POINTS": "4", "BONUSPOINTS": "3"}}, {"type": "Feature", "geometry": {"type": "Point", "coordinates": [-117.5766, 44.5577]}, "properties": {"NAME": "W7O/NE-126", "TITLE": "Sheep Mountain", "REGION": "OR-Northeast", "ASSOCIATION": "USA - Oregon", "POINTS": "4", "BONUSPOINTS": "3"}}, {"type": "Feature", "geometry": {"type": "Point", "coordinates": [-117.4243, 44.4857]}, "properties": {"NAME": "W7O/NE-127", "TITLE": "Juniper Mountain", "REGION": "OR-Northeast", "ASSOCIATION": "USA - Oregon", "POINTS": "4", "BONUSPOINTS": "3"}}, {"type": "Feature", "geometry": {"type": "Point", "coordinates": [-119.4981, 45.0788]}, "properties": {"NAME": "W7O/NE-128", "TITLE": "Tupper Butte", "REGION": "OR-Northeast", "ASSOCIATION": "USA - Oregon", "POINTS": "4", "BONUSPOINTS": "3"}}, {"type": "Feature", "geometry": {"type": "Point", "coordinates": [-117.2043, 45.5951]}, "properties": {"NAME": "W7O/NE-129", "TITLE": "Elk Mountain", "REGION": "OR-Northeast", "ASSOCIATION": "USA - Oregon", "POINTS": "4", "BONUSPOINTS": "3"}}, {"type": "Feature", "geometry": {"type": "Point", "coordinates": [-118.0713, 44.9725]}, "properties": {"NAME": "W7O/NE-130", "TITLE": "Antelope Peak", "REGION": "OR-Northeast", "ASSOCIATION": "USA - Oregon", "POINTS": "4", "BONUSPOINTS": "3"}}, {"type": "Feature", "geometry": {"type": "Point", "coordinates": [-116.905, 44.9795]}, "properties": {"NAME": "W7O/NE-131", "TITLE": "McLean Benchmark", "REGION": "OR-Northeast", "ASSOCIATION": "USA - Oregon", "POINTS": "4", "BONUSPOINTS": "3"}}, {"type": "Feature", "geometry": {"type": "Point", "coordinates": [-117.7314, 44.746]}, "properties": {"NAME": "W7O/NE-132", "TITLE": "Lone Pine Mountain", "REGION": "OR-Northeast", "ASSOCIATION": "USA - Oregon", "POINTS": "4", "BONUSPOINTS": "3"}}, {"type": "Feature", "geometry": {"type": "Point", "coordinates": [-117.278, 44.4709]}, "properties": {"NAME": "W7O/NE-133", "TITLE": "Morgan Mountain", "REGION": "OR-Northeast", "ASSOCIATION": "USA - Oregon", "POINTS": "4", "BONUSPOINTS": "3"}}, {"type": "Feature", "geometry": {"type": "Point", "coordinates": [-117.6613, 45.3713]}, "properties": {"NAME": "W7O/NE-134", "TITLE": "Backbone Ridge", "REGION": "OR-Northeast", "ASSOCIATION": "USA - Oregon", "POINTS": "4", "BONUSPOINTS": "3"}}, {"type": "Feature", "geometry": {"type": "Point", "coordinates": [-117.6614, 45.3713]}, "properties": {"NAME": "W7O/NE-135", "TITLE": "Backbone Ridge", "REGION": "OR-Northeast", "ASSOCIATION": "USA - Oregon", "POINTS": "4", "BONUSPOINTS": "3"}}, {"type": "Feature", "geometry": {"type": "Point", "coordinates": [-119.6133, 45.0439]}, "properties": {"NAME": "W7O/NE-136", "TITLE": "Opal Butte", "REGION": "OR-Northeast", "ASSOCIATION": "USA - Oregon", "POINTS": "4", "BONUSPOINTS": "3"}}, {"type": "Feature", "geometry": {"type": "Point", "coordinates": [-119.6418, 44.8646]}, "properties": {"NAME": "W7O/NE-137", "TITLE": "Little Tamarack Mtn", "REGION": "OR-Northeast", "ASSOCIATION": "USA - Oregon", "POINTS": "4", "BONUSPOINTS": "3"}}, {"type": "Feature", "geometry": {"type": "Point", "coordinates": [-117.9195, 45.1833]}, "properties": {"NAME": "W7O/NE-138", "TITLE": "Craig Mountain", "REGION": "OR-Northeast", "ASSOCIATION": "USA - Oregon", "POINTS": "4", "BONUSPOINTS": "3"}}, {"type": "Feature", "geometry": {"type": "Point", "coordinates": [-119.5948, 44.8777]}, "properties": {"NAME": "W7O/NE-139", "TITLE": "Happy Jack Ridge", "REGION": "OR-Northeast", "ASSOCIATION": "USA - Oregon", "POINTS": "2", "BONUSPOINTS": "0"}}, {"type": "Feature", "geometry": {"type": "Point", "coordinates": [-118.1856, 44.518]}, "properties": {"NAME": "W7O/NE-140", "TITLE": "King Mountain", "REGION": "OR-Northeast", "ASSOCIATION": "USA - Oregon", "POINTS": "2", "BONUSPOINTS": "0"}}, {"type": "Feature", "geometry": {"type": "Point", "coordinates": [-117.3329, 44.8855]}, "properties": {"NAME": "W7O/NE-141", "TITLE": "Sparta Butte", "REGION": "OR-Northeast", "ASSOCIATION": "USA - Oregon", "POINTS": "2", "BONUSPOINTS": "0"}}, {"type": "Feature", "geometry": {"type": "Point", "coordinates": [-118.1208, 44.4281]}, "properties": {"NAME": "W7O/NE-142", "TITLE": "Murray Peak", "REGION": "OR-Northeast", "ASSOCIATION": "USA - Oregon", "POINTS": "2", "BONUSPOINTS": "0"}}, {"type": "Feature", "geometry": {"type": "Point", "coordinates": [-117.3864, 44.7719]}, "properties": {"NAME": "W7O/NE-143", "TITLE": "Glasgow Butte", "REGION": "OR-Northeast", "ASSOCIATION": "USA - Oregon", "POINTS": "2", "BONUSPOINTS": "0"}}, {"type": "Feature", "geometry": {"type": "Point", "coordinates": [-117.1988, 45.7482]}, "properties": {"NAME": "W7O/NE-144", "TITLE": "Miller Ridge", "REGION": "OR-Northeast", "ASSOCIATION": "USA - Oregon", "POINTS": "2", "BONUSPOINTS": "0"}}, {"type": "Feature", "geometry": {"type": "Point", "coordinates": [-117.2516, 45.694]}, "properties": {"NAME": "W7O/NE-145", "TITLE": "Starvation Ridge", "REGION": "OR-Northeast", "ASSOCIATION": "USA - Oregon", "POINTS": "2", "BONUSPOINTS": "0"}}, {"type": "Feature", "geometry": {"type": "Point", "coordinates": [-117.4786, 44.3834]}, "properties": {"NAME": "W7O/NE-146", "TITLE": "Cinder Butte", "REGION": "OR-Northeast", "ASSOCIATION": "USA - Oregon", "POINTS": "2", "BONUSPOINTS": "0"}}, {"type": "Feature", "geometry": {"type": "Point", "coordinates": [-119.6201, 44.8468]}, "properties": {"NAME": "W7O/NE-147", "TITLE": "Columbus Sewell Knob", "REGION": "OR-Northeast", "ASSOCIATION": "USA - Oregon", "POINTS": "2", "BONUSPOINTS": "0"}}, {"type": "Feature", "geometry": {"type": "Point", "coordinates": [-118.2155, 45.4419]}, "properties": {"NAME": "W7O/NE-148", "TITLE": "Sugarloaf Mountain", "REGION": "OR-Northeast", "ASSOCIATION": "USA - Oregon", "POINTS": "2", "BONUSPOINTS": "0"}}, {"type": "Feature", "geometry": {"type": "Point", "coordinates": [-117.7601, 45.5519]}, "properties": {"NAME": "W7O/NE-149", "TITLE": "Stubblefield Mountain", "REGION": "OR-Northeast", "ASSOCIATION": "USA - Oregon", "POINTS": "2", "BONUSPOINTS": "0"}}, {"type": "Feature", "geometry": {"type": "Point", "coordinates": [-117.0675, 45.6683]}, "properties": {"NAME": "W7O/NE-150", "TITLE": "Greenwood Butte", "REGION": "OR-Northeast", "ASSOCIATION": "USA - Oregon", "POINTS": "2", "BONUSPOINTS": "0"}}, {"type": "Feature", "geometry": {"type": "Point", "coordinates": [-118.1776, 45.3686]}, "properties": {"NAME": "W7O/NE-151", "TITLE": "Mahogany Mountain", "REGION": "OR-Northeast", "ASSOCIATION": "USA - Oregon", "POINTS": "2", "BONUSPOINTS": "0"}}, {"type": "Feature", "geometry": {"type": "Point", "coordinates": [-118.1363, 45.8554]}, "properties": {"NAME": "W7O/NE-152", "TITLE": "Blalock Mountain", "REGION": "OR-Northeast", "ASSOCIATION": "USA - Oregon", "POINTS": "2", "BONUSPOINTS": "0"}}, {"type": "Feature", "geometry": {"type": "Point", "coordinates": [-117.8066, 44.9426]}, "properties": {"NAME": "W7O/NE-153", "TITLE": "Magpie Peak", "REGION": "OR-Northeast", "ASSOCIATION": "USA - Oregon", "POINTS": "2", "BONUSPOINTS": "0"}}, {"type": "Feature", "geometry": {"type": "Point", "coordinates": [-118.1236, 45.97]}, "properties": {"NAME": "W7O/NE-154", "TITLE": "Pikes Peak Bench", "REGION": "OR-Northeast", "ASSOCIATION": "USA - Oregon", "POINTS": "2", "BONUSPOINTS": "0"}}, {"type": "Feature", "geometry": {"type": "Point", "coordinates": [-118.3303, 45.5314]}, "properties": {"NAME": "W7O/NE-155", "TITLE": "Horseshoe Ridge", "REGION": "OR-Northeast", "ASSOCIATION": "USA - Oregon", "POINTS": "2", "BONUSPOINTS": "0"}}, {"type": "Feature", "geometry": {"type": "Point", "coordinates": [-117.3725, 44.3266]}, "properties": {"NAME": "W7O/NE-156", "TITLE": "Limestone Butte", "REGION": "OR-Northeast", "ASSOCIATION": "USA - Oregon", "POINTS": "2", "BONUSPOINTS": "0"}}, {"type": "Feature", "geometry": {"type": "Point", "coordinates": [-117.7501, 45.0069]}, "properties": {"NAME": "W7O/NE-157", "TITLE": "Rattlesnake Hill", "REGION": "OR-Northeast", "ASSOCIATION": "USA - Oregon", "POINTS": "2", "BONUSPOINTS": "0"}}, {"type": "Feature", "geometry": {"type": "Point", "coordinates": [-117.396, 44.5432]}, "properties": {"NAME": "W7O/NE-158", "TITLE": "Gold Hill", "REGION": "OR-Northeast", "ASSOCIATION": "USA - Oregon", "POINTS": "2", "BONUSPOINTS": "0"}}, {"type": "Feature", "geometry": {"type": "Point", "coordinates": [-119.0839, 44.4278]}, "properties": {"NAME": "W7O/NE-159", "TITLE": "Vernon, Mount", "REGION": "OR-Northeast", "ASSOCIATION": "USA - Oregon", "POINTS": "2", "BONUSPOINTS": "0"}}, {"type": "Feature", "geometry": {"type": "Point", "coordinates": [-117.0799, 44.8046]}, "properties": {"NAME": "W7O/NE-160", "TITLE": "Sag Benchmark", "REGION": "OR-Northeast", "ASSOCIATION": "USA - Oregon", "POINTS": "2", "BONUSPOINTS": "0"}}, {"type": "Feature", "geometry": {"type": "Point", "coordinates": [-119.4275, 44.8617]}, "properties": {"NAME": "W7O/NE-161", "TITLE": "Monument Mountain", "REGION": "OR-Northeast", "ASSOCIATION": "USA - Oregon", "POINTS": "2", "BONUSPOINTS": "0"}}, {"type": "Feature", "geometry": {"type": "Point", "coordinates": [-117.91, 44.9246]}, "properties": {"NAME": "W7O/NE-162", "TITLE": "Coyote Point", "REGION": "OR-Northeast", "ASSOCIATION": "USA - Oregon", "POINTS": "2", "BONUSPOINTS": "0"}}, {"type": "Feature", "geometry": {"type": "Point", "coordinates": [-117.9511, 45.5269]}, "properties": {"NAME": "W7O/NE-163", "TITLE": "Pumpkin Ridge", "REGION": "OR-Northeast", "ASSOCIATION": "USA - Oregon", "POINTS": "2", "BONUSPOINTS": "0"}}, {"type": "Feature", "geometry": {"type": "Point", "coordinates": [-117.2292, 44.3514]}, "properties": {"NAME": "W7O/NE-164", "TITLE": "Slaughterhouse Range", "REGION": "OR-Northeast", "ASSOCIATION": "USA - Oregon", "POINTS": "2", "BONUSPOINTS": "0"}}, {"type": "Feature", "geometry": {"type": "Point", "coordinates": [-119.3877, 44.9117]}, "properties": {"NAME": "W7O/NE-165", "TITLE": "Johnny Cake Mountain", "REGION": "OR-Northeast", "ASSOCIATION": "USA - Oregon", "POINTS": "2", "BONUSPOINTS": "0"}}, {"type": "Feature", "geometry": {"type": "Point", "coordinates": [-116.9986, 44.8633]}, "properties": {"NAME": "W7O/NE-166", "TITLE": "Officer Butte", "REGION": "OR-Northeast", "ASSOCIATION": "USA - Oregon", "POINTS": "2", "BONUSPOINTS": "0"}}, {"type": "Feature", "geometry": {"type": "Point", "coordinates": [-119.432, 45.4863]}, "properties": {"NAME": "W7O/NE-167", "TITLE": "Gleason Butte", "REGION": "OR-Northeast", "ASSOCIATION": "USA - Oregon", "POINTS": "2", "BONUSPOINTS": "0"}}, {"type": "Feature", "geometry": {"type": "Point", "coordinates": [-119.8122, 45.4665]}, "properties": {"NAME": "W7O/NE-168", "TITLE": "Jordan Butte", "REGION": "OR-Northeast", "ASSOCIATION": "USA - Oregon", "POINTS": "1", "BONUSPOINTS": "0"}}, {"type": "Feature", "geometry": {"type": "Point", "coordinates": [-117.1714, 45.2261]}, "properties": {"NAME": "W7O/NE-169", "TITLE": "9460", "REGION": "OR-Northeast", "ASSOCIATION": "USA - Oregon", "POINTS": "10", "BONUSPOINTS": "3"}}, {"type": "Feature", "geometry": {"type": "Point", "coordinates": [-117.3292, 45.2189]}, "properties": {"NAME": "W7O/NE-170", "TITLE": "9386", "REGION": "OR-Northeast", "ASSOCIATION": "USA - Oregon", "POINTS": "10", "BONUSPOINTS": "3"}}, {"type": "Feature", "geometry": {"type": "Point", "coordinates": [-117.2125, 45.2164]}, "properties": {"NAME": "W7O/NE-171", "TITLE": "9180", "REGION": "OR-Northeast", "ASSOCIATION": "USA - Oregon", "POINTS": "10", "BONUSPOINTS": "3"}}, {"type": "Feature", "geometry": {"type": "Point", "coordinates": [-117.1347, 45.2185]}, "properties": {"NAME": "W7O/NE-172", "TITLE": "9128", "REGION": "OR-Northeast", "ASSOCIATION": "USA - Oregon", "POINTS": "10", "BONUSPOINTS": "3"}}, {"type": "Feature", "geometry": {"type": "Point", "coordinates": [-117.1868, 45.1851]}, "properties": {"NAME": "W7O/NE-173", "TITLE": "9100", "REGION": "OR-Northeast", "ASSOCIATION": "USA - Oregon", "POINTS": "10", "BONUSPOINTS": "3"}}, {"type": "Feature", "geometry": {"type": "Point", "coordinates": [-117.429, 45.1193]}, "properties": {"NAME": "W7O/NE-174", "TITLE": "8949", "REGION": "OR-Northeast", "ASSOCIATION": "USA - Oregon", "POINTS": "8", "BONUSPOINTS": "3"}}, {"type": "Feature", "geometry": {"type": "Point", "coordinates": [-118.1118, 44.8326]}, "properties": {"NAME": "W7O/NE-175", "TITLE": "8940", "REGION": "OR-Northeast", "ASSOCIATION": "USA - Oregon", "POINTS": "8", "BONUSPOINTS": "3"}}, {"type": "Feature", "geometry": {"type": "Point", "coordinates": [-117.4625, 45.1266]}, "properties": {"NAME": "W7O/NE-176", "TITLE": "8934", "REGION": "OR-Northeast", "ASSOCIATION": "USA - Oregon", "POINTS": "8", "BONUSPOINTS": "3"}}, {"type": "Feature", "geometry": {"type": "Point", "coordinates": [-117.3278, 45.1273]}, "properties": {"NAME": "W7O/NE-177", "TITLE": "8924", "REGION": "OR-Northeast", "ASSOCIATION": "USA - Oregon", "POINTS": "8", "BONUSPOINTS": "3"}}, {"type": "Feature", "geometry": {"type": "Point", "coordinates": [-117.3689, 45.1622]}, "properties": {"NAME": "W7O/NE-178", "TITLE": "8839", "REGION": "OR-Northeast", "ASSOCIATION": "USA - Oregon", "POINTS": "8", "BONUSPOINTS": "3"}}, {"type": "Feature", "geometry": {"type": "Point", "coordinates": [-117.443, 45.2177]}, "properties": {"NAME": "W7O/NE-179", "TITLE": "8820", "REGION": "OR-Northeast", "ASSOCIATION": "USA - Oregon", "POINTS": "8", "BONUSPOINTS": "3"}}, {"type": "Feature", "geometry": {"type": "Point", "coordinates": [-117.3339, 45.1051]}, "properties": {"NAME": "W7O/NE-180", "TITLE": "8721", "REGION": "OR-Northeast", "ASSOCIATION": "USA - Oregon", "POINTS": "8", "BONUSPOINTS": "3"}}, {"type": "Feature", "geometry": {"type": "Point", "coordinates": [-117.3486, 45.0861]}, "properties": {"NAME": "W7O/NE-181", "TITLE": "8676", "REGION": "OR-Northeast", "ASSOCIATION": "USA - Oregon", "POINTS": "8", "BONUSPOINTS": "3"}}, {"type": "Feature", "geometry": {"type": "Point", "coordinates": [-117.427, 45.2967]}, "properties": {"NAME": "W7O/NE-182", "TITLE": "8675", "REGION": "OR-Northeast", "ASSOCIATION": "USA - Oregon", "POINTS": "8", "BONUSPOINTS": "3"}}, {"type": "Feature", "geometry": {"type": "Point", "coordinates": [-117.4483, 45.3368]}, "properties": {"NAME": "W7O/NE-183", "TITLE": "8627", "REGION": "OR-Northeast", "ASSOCIATION": "USA - Oregon", "POINTS": "8", "BONUSPOINTS": "3"}}, {"type": "Feature", "geometry": {"type": "Point", "coordinates": [-117.3724, 45.1095]}, "properties": {"NAME": "W7O/NE-184", "TITLE": "8587", "REGION": "OR-Northeast", "ASSOCIATION": "USA - Oregon", "POINTS": "8", "BONUSPOINTS": "3"}}, {"type": "Feature", "geometry": {"type": "Point", "coordinates": [-118.232, 44.9235]}, "properties": {"NAME": "W7O/NE-185", "TITLE": "8525", "REGION": "OR-Northeast", "ASSOCIATION": "USA - Oregon", "POINTS": "8", "BONUSPOINTS": "3"}}, {"type": "Feature", "geometry": {"type": "Point", "coordinates": [-118.6483, 44.2959]}, "properties": {"NAME": "W7O/NE-186", "TITLE": "8511", "REGION": "OR-Northeast", "ASSOCIATION": "USA - Oregon", "POINTS": "8", "BONUSPOINTS": "3"}}, {"type": "Feature", "geometry": {"type": "Point", "coordinates": [-117.2793, 45.1189]}, "properties": {"NAME": "W7O/NE-187", "TITLE": "8500", "REGION": "OR-Northeast", "ASSOCIATION": "USA - Oregon", "POINTS": "8", "BONUSPOINTS": "3"}}, {"type": "Feature", "geometry": {"type": "Point", "coordinates": [-117.3972, 45.1092]}, "properties": {"NAME": "W7O/NE-188", "TITLE": "8448", "REGION": "OR-Northeast", "ASSOCIATION": "USA - Oregon", "POINTS": "8", "BONUSPOINTS": "3"}}, {"type": "Feature", "geometry": {"type": "Point", "coordinates": [-117.3132, 45.1904]}, "properties": {"NAME": "W7O/NE-189", "TITLE": "8441", "REGION": "OR-Northeast", "ASSOCIATION": "USA - Oregon", "POINTS": "8", "BONUSPOINTS": "3"}}, {"type": "Feature", "geometry": {"type": "Point", "coordinates": [-118.2065, 44.9173]}, "properties": {"NAME": "W7O/NE-190", "TITLE": "8428", "REGION": "OR-Northeast", "ASSOCIATION": "USA - Oregon", "POINTS": "8", "BONUSPOINTS": "3"}}, {"type": "Feature", "geometry": {"type": "Point", "coordinates": [-117.4843, 45.2925]}, "properties": {"NAME": "W7O/NE-191", "TITLE": "8352", "REGION": "OR-Northeast", "ASSOCIATION": "USA - Oregon", "POINTS": "8", "BONUSPOINTS": "3"}}, {"type": "Feature", "geometry": {"type": "Point", "coordinates": [-117.3306, 45.1493]}, "properties": {"NAME": "W7O/NE-192", "TITLE": "8335", "REGION": "OR-Northeast", "ASSOCIATION": "USA - Oregon", "POINTS": "8", "BONUSPOINTS": "3"}}, {"type": "Feature", "geometry": {"type": "Point", "coordinates": [-117.1998, 45.0735]}, "properties": {"NAME": "W7O/NE-193", "TITLE": "8140", "REGION": "OR-Northeast", "ASSOCIATION": "USA - Oregon", "POINTS": "8", "BONUSPOINTS": "3"}}, {"type": "Feature", "geometry": {"type": "Point", "coordinates": [-117.4314, 45.313]}, "properties": {"NAME": "W7O/NE-194", "TITLE": "8100", "REGION": "OR-Northeast", "ASSOCIATION": "USA - Oregon", "POINTS": "8", "BONUSPOINTS": "3"}}, {"type": "Feature", "geometry": {"type": "Point", "coordinates": [-118.8725, 44.3265]}, "properties": {"NAME": "W7O/NE-195", "TITLE": "8020", "REGION": "OR-Northeast", "ASSOCIATION": "USA - Oregon", "POINTS": "8", "BONUSPOINTS": "3"}}, {"type": "Feature", "geometry": {"type": "Point", "coordinates": [-118.8006, 44.3133]}, "properties": {"NAME": "W7O/NE-196", "TITLE": "7975", "REGION": "OR-Northeast", "ASSOCIATION": "USA - Oregon", "POINTS": "6", "BONUSPOINTS": "3"}}, {"type": "Feature", "geometry": {"type": "Point", "coordinates": [-118.3304, 44.8904]}, "properties": {"NAME": "W7O/NE-197", "TITLE": "7317", "REGION": "OR-Northeast", "ASSOCIATION": "USA - Oregon", "POINTS": "6", "BONUSPOINTS": "3"}}, {"type": "Feature", "geometry": {"type": "Point", "coordinates": [-116.7145, 45.3389]}, "properties": {"NAME": "W7O/NE-198", "TITLE": "6940", "REGION": "OR-Northeast", "ASSOCIATION": "USA - Oregon", "POINTS": "6", "BONUSPOINTS": "3"}}, {"type": "Feature", "geometry": {"type": "Point", "coordinates": [-118.6584, 44.5796]}, "properties": {"NAME": "W7O/NE-199", "TITLE": "6848", "REGION": "OR-Northeast", "ASSOCIATION": "USA - Oregon", "POINTS": "6", "BONUSPOINTS": "3"}}, {"type": "Feature", "geometry": {"type": "Point", "coordinates": [-118.3752, 44.4592]}, "properties": {"NAME": "W7O/NE-200", "TITLE": "6620", "REGION": "OR-Northeast", "ASSOCIATION": "USA - Oregon", "POINTS": "6", "BONUSPOINTS": "3"}}, {"type": "Feature", "geometry": {"type": "Point", "coordinates": [-118.4002, 44.9722]}, "properties": {"NAME": "W7O/NE-201", "TITLE": "6514", "REGION": "OR-Northeast", "ASSOCIATION": "USA - Oregon", "POINTS": "6", "BONUSPOINTS": "3"}}, {"type": "Feature", "geometry": {"type": "Point", "coordinates": [-118.5697, 44.9236]}, "properties": {"NAME": "W7O/NE-202", "TITLE": "6500", "REGION": "OR-Northeast", "ASSOCIATION": "USA - Oregon", "POINTS": "6", "BONUSPOINTS": "3"}}, {"type": "Feature", "geometry": {"type": "Point", "coordinates": [-118.517, 44.1786]}, "properties": {"NAME": "W7O/NE-203", "TITLE": "6460", "REGION": "OR-Northeast", "ASSOCIATION": "USA - Oregon", "POINTS": "6", "BONUSPOINTS": "3"}}, {"type": "Feature", "geometry": {"type": "Point", "coordinates": [-118.5071, 44.0991]}, "properties": {"NAME": "W7O/NE-204", "TITLE": "6460", "REGION": "OR-Northeast", "ASSOCIATION": "USA - Oregon", "POINTS": "6", "BONUSPOINTS": "3"}}, {"type": "Feature", "geometry": {"type": "Point", "coordinates": [-119.3191, 44.317]}, "properties": {"NAME": "W7O/NE-205", "TITLE": "6401", "REGION": "OR-Northeast", "ASSOCIATION": "USA - Oregon", "POINTS": "6", "BONUSPOINTS": "3"}}, {"type": "Feature", "geometry": {"type": "Point", "coordinates": [-118.2256, 44.8026]}, "properties": {"NAME": "W7O/NE-206", "TITLE": "6327", "REGION": "OR-Northeast", "ASSOCIATION": "USA - Oregon", "POINTS": "6", "BONUSPOINTS": "3"}}, {"type": "Feature", "geometry": {"type": "Point", "coordinates": [-118.5559, 44.5095]}, "properties": {"NAME": "W7O/NE-207", "TITLE": "6298", "REGION": "OR-Northeast", "ASSOCIATION": "USA - Oregon", "POINTS": "6", "BONUSPOINTS": "3"}}, {"type": "Feature", "geometry": {"type": "Point", "coordinates": [-117.237, 44.5757]}, "properties": {"NAME": "W7O/NE-208", "TITLE": "6260", "REGION": "OR-Northeast", "ASSOCIATION": "USA - Oregon", "POINTS": "6", "BONUSPOINTS": "3"}}, {"type": "Feature", "geometry": {"type": "Point", "coordinates": [-116.7639, 45.2221]}, "properties": {"NAME": "W7O/NE-209", "TITLE": "6244", "REGION": "OR-Northeast", "ASSOCIATION": "USA - Oregon", "POINTS": "6", "BONUSPOINTS": "3"}}, {"type": "Feature", "geometry": {"type": "Point", "coordinates": [-118.5104, 45.0007]}, "properties": {"NAME": "W7O/NE-210", "TITLE": "6180", "REGION": "OR-Northeast", "ASSOCIATION": "USA - Oregon", "POINTS": "6", "BONUSPOINTS": "3"}}, {"type": "Feature", "geometry": {"type": "Point", "coordinates": [-118.3532, 44.7447]}, "properties": {"NAME": "W7O/NE-211", "TITLE": "6161", "REGION": "OR-Northeast", "ASSOCIATION": "USA - Oregon", "POINTS": "6", "BONUSPOINTS": "3"}}, {"type": "Feature", "geometry": {"type": "Point", "coordinates": [-117.2733, 44.5615]}, "properties": {"NAME": "W7O/NE-212", "TITLE": "6140", "REGION": "OR-Northeast", "ASSOCIATION": "USA - Oregon", "POINTS": "6", "BONUSPOINTS": "3"}}, {"type": "Feature", "geometry": {"type": "Point", "coordinates": [-118.4496, 44.7889]}, "properties": {"NAME": "W7O/NE-213", "TITLE": "6140", "REGION": "OR-Northeast", "ASSOCIATION": "USA - Oregon", "POINTS": "6", "BONUSPOINTS": "3"}}, {"type": "Feature", "geometry": {"type": "Point", "coordinates": [-117.5865, 44.4955]}, "properties": {"NAME": "W7O/NE-214", "TITLE": "6136", "REGION": "OR-Northeast", "ASSOCIATION": "USA - Oregon", "POINTS": "6", "BONUSPOINTS": "3"}}, {"type": "Feature", "geometry": {"type": "Point", "coordinates": [-119.2157, 44.1366]}, "properties": {"NAME": "W7O/NE-215", "TITLE": "6124", "REGION": "OR-Northeast", "ASSOCIATION": "USA - Oregon", "POINTS": "6", "BONUSPOINTS": "3"}}, {"type": "Feature", "geometry": {"type": "Point", "coordinates": [-118.4251, 44.9007]}, "properties": {"NAME": "W7O/NE-216", "TITLE": "6103", "REGION": "OR-Northeast", "ASSOCIATION": "USA - Oregon", "POINTS": "6", "BONUSPOINTS": "3"}}, {"type": "Feature", "geometry": {"type": "Point", "coordinates": [-119.2423, 44.1233]}, "properties": {"NAME": "W7O/NE-217", "TITLE": "6100", "REGION": "OR-Northeast", "ASSOCIATION": "USA - Oregon", "POINTS": "6", "BONUSPOINTS": "3"}}, {"type": "Feature", "geometry": {"type": "Point", "coordinates": [-118.32, 44.6055]}, "properties": {"NAME": "W7O/NE-218", "TITLE": "5910", "REGION": "OR-Northeast", "ASSOCIATION": "USA - Oregon", "POINTS": "4", "BONUSPOINTS": "3"}}, {"type": "Feature", "geometry": {"type": "Point", "coordinates": [-117.1691, 44.6241]}, "properties": {"NAME": "W7O/NE-219", "TITLE": "5883", "REGION": "OR-Northeast", "ASSOCIATION": "USA - Oregon", "POINTS": "4", "BONUSPOINTS": "3"}}, {"type": "Feature", "geometry": {"type": "Point", "coordinates": [-118.4873, 44.7782]}, "properties": {"NAME": "W7O/NE-220", "TITLE": "5836", "REGION": "OR-Northeast", "ASSOCIATION": "USA - Oregon", "POINTS": "4", "BONUSPOINTS": "3"}}, {"type": "Feature", "geometry": {"type": "Point", "coordinates": [-119.5961, 44.125]}, "properties": {"NAME": "W7O/NE-221", "TITLE": "5835", "REGION": "OR-Northeast", "ASSOCIATION": "USA - Oregon", "POINTS": "4", "BONUSPOINTS": "3"}}, {"type": "Feature", "geometry": {"type": "Point", "coordinates": [-119.215, 44.1957]}, "properties": {"NAME": "W7O/NE-222", "TITLE": "5820", "REGION": "OR-Northeast", "ASSOCIATION": "USA - Oregon", "POINTS": "4", "BONUSPOINTS": "3"}}, {"type": "Feature", "geometry": {"type": "Point", "coordinates": [-118.5978, 44.5283]}, "properties": {"NAME": "W7O/NE-223", "TITLE": "5784", "REGION": "OR-Northeast", "ASSOCIATION": "USA - Oregon", "POINTS": "4", "BONUSPOINTS": "3"}}, {"type": "Feature", "geometry": {"type": "Point", "coordinates": [-119.1829, 44.1838]}, "properties": {"NAME": "W7O/NE-224", "TITLE": "5736", "REGION": "OR-Northeast", "ASSOCIATION": "USA - Oregon", "POINTS": "4", "BONUSPOINTS": "3"}}, {"type": "Feature", "geometry": {"type": "Point", "coordinates": [-119.2122, 44.6989]}, "properties": {"NAME": "W7O/NE-225", "TITLE": "5641", "REGION": "OR-Northeast", "ASSOCIATION": "USA - Oregon", "POINTS": "4", "BONUSPOINTS": "3"}}, {"type": "Feature", "geometry": {"type": "Point", "coordinates": [-118.1283, 44.5604]}, "properties": {"NAME": "W7O/NE-226", "TITLE": "5576", "REGION": "OR-Northeast", "ASSOCIATION": "USA - Oregon", "POINTS": "4", "BONUSPOINTS": "3"}}, {"type": "Feature", "geometry": {"type": "Point", "coordinates": [-116.971, 45.3678]}, "properties": {"NAME": "W7O/NE-227", "TITLE": "5571", "REGION": "OR-Northeast", "ASSOCIATION": "USA - Oregon", "POINTS": "4", "BONUSPOINTS": "3"}}, {"type": "Feature", "geometry": {"type": "Point", "coordinates": [-118.4945, 44.53]}, "properties": {"NAME": "W7O/NE-228", "TITLE": "5526", "REGION": "OR-Northeast", "ASSOCIATION": "USA - Oregon", "POINTS": "4", "BONUSPOINTS": "3"}}, {"type": "Feature", "geometry": {"type": "Point", "coordinates": [-118.0315, 45.7431]}, "properties": {"NAME": "W7O/NE-229", "TITLE": "5500", "REGION": "OR-Northeast", "ASSOCIATION": "USA - Oregon", "POINTS": "4", "BONUSPOINTS": "3"}}, {"type": "Feature", "geometry": {"type": "Point", "coordinates": [-118.5183, 44.6463]}, "properties": {"NAME": "W7O/NE-230", "TITLE": "5497", "REGION": "OR-Northeast", "ASSOCIATION": "USA - Oregon", "POINTS": "4", "BONUSPOINTS": "3"}}, {"type": "Feature", "geometry": {"type": "Point", "coordinates": [-118.1105, 45.0807]}, "properties": {"NAME": "W7O/NE-231", "TITLE": "5368", "REGION": "OR-Northeast", "ASSOCIATION": "USA - Oregon", "POINTS": "4", "BONUSPOINTS": "3"}}, {"type": "Feature", "geometry": {"type": "Point", "coordinates": [-117.863, 45.8998]}, "properties": {"NAME": "W7O/NE-232", "TITLE": "5340", "REGION": "OR-Northeast", "ASSOCIATION": "USA - Oregon", "POINTS": "4", "BONUSPOINTS": "3"}}, {"type": "Feature", "geometry": {"type": "Point", "coordinates": [-118.3335, 44.1182]}, "properties": {"NAME": "W7O/NE-233", "TITLE": "5282", "REGION": "OR-Northeast", "ASSOCIATION": "USA - Oregon", "POINTS": "4", "BONUSPOINTS": "3"}}, {"type": "Feature", "geometry": {"type": "Point", "coordinates": [-117.7454, 44.5487]}, "properties": {"NAME": "W7O/NE-234", "TITLE": "5260", "REGION": "OR-Northeast", "ASSOCIATION": "USA - Oregon", "POINTS": "4", "BONUSPOINTS": "3"}}, {"type": "Feature", "geometry": {"type": "Point", "coordinates": [-118.4686, 45.1429]}, "properties": {"NAME": "W7O/NE-235", "TITLE": "5231", "REGION": "OR-Northeast", "ASSOCIATION": "USA - Oregon", "POINTS": "4", "BONUSPOINTS": "3"}}, {"type": "Feature", "geometry": {"type": "Point", "coordinates": [-118.7579, 45.3384]}, "properties": {"NAME": "W7O/NE-236", "TITLE": "5230", "REGION": "OR-Northeast", "ASSOCIATION": "USA - Oregon", "POINTS": "4", "BONUSPOINTS": "3"}}, {"type": "Feature", "geometry": {"type": "Point", "coordinates": [-117.0074, 45.57]}, "properties": {"NAME": "W7O/NE-237", "TITLE": "Findley Butte", "REGION": "OR-Northeast", "ASSOCIATION": "USA - Oregon", "POINTS": "4", "BONUSPOINTS": "3"}}, {"type": "Feature", "geometry": {"type": "Point", "coordinates": [-116.6597, 45.7145]}, "properties": {"NAME": "W7O/NE-238", "TITLE": "5063", "REGION": "OR-Northeast", "ASSOCIATION": "USA - Oregon", "POINTS": "4", "BONUSPOINTS": "3"}}, {"type": "Feature", "geometry": {"type": "Point", "coordinates": [-116.9012, 44.9034]}, "properties": {"NAME": "W7O/NE-239", "TITLE": "Sheep Mountain WSA HP", "REGION": "OR-Northeast", "ASSOCIATION": "USA - Oregon", "POINTS": "2", "BONUSPOINTS": "0"}}, {"type": "Feature", "geometry": {"type": "Point", "coordinates": [-117.2656, 45.732]}, "properties": {"NAME": "W7O/NE-240", "TITLE": "4940", "REGION": "OR-Northeast", "ASSOCIATION": "USA - Oregon", "POINTS": "2", "BONUSPOINTS": "0"}}, {"type": "Feature", "geometry": {"type": "Point", "coordinates": [-119.0586, 44.936]}, "properties": {"NAME": "W7O/NE-241", "TITLE": "Twelve Benchmark", "REGION": "OR-Northeast", "ASSOCIATION": "USA - Oregon", "POINTS": "2", "BONUSPOINTS": "0"}}, {"type": "Feature", "geometry": {"type": "Point", "coordinates": [-117.7366, 45.5271]}, "properties": {"NAME": "W7O/NE-242", "TITLE": "4812", "REGION": "OR-Northeast", "ASSOCIATION": "USA - Oregon", "POINTS": "2", "BONUSPOINTS": "0"}}, {"type": "Feature", "geometry": {"type": "Point", "coordinates": [-117.4567, 44.3207]}, "properties": {"NAME": "W7O/NE-243", "TITLE": "4590", "REGION": "OR-Northeast", "ASSOCIATION": "USA - Oregon", "POINTS": "2", "BONUSPOINTS": "0"}}, {"type": "Feature", "geometry": {"type": "Point", "coordinates": [-119.466, 44.7114]}, "properties": {"NAME": "W7O/NE-244", "TITLE": "4590", "REGION": "OR-Northeast", "ASSOCIATION": "USA - Oregon", "POINTS": "2", "BONUSPOINTS": "0"}}, {"type": "Feature", "geometry": {"type": "Point", "coordinates": [-117.8954, 44.6609]}, "properties": {"NAME": "W7O/NE-245", "TITLE": "4539", "REGION": "OR-Northeast", "ASSOCIATION": "USA - Oregon", "POINTS": "2", "BONUSPOINTS": "0"}}, {"type": "Feature", "geometry": {"type": "Point", "coordinates": [-118.1682, 44.498]}, "properties": {"NAME": "W7O/NE-246", "TITLE": "4509", "REGION": "OR-Northeast", "ASSOCIATION": "USA - Oregon", "POINTS": "2", "BONUSPOINTS": "0"}}, {"type": "Feature", "geometry": {"type": "Point", "coordinates": [-116.7422, 45.6796]}, "properties": {"NAME": "W7O/NE-247", "TITLE": "4249", "REGION": "OR-Northeast", "ASSOCIATION": "USA - Oregon", "POINTS": "2", "BONUSPOINTS": "0"}}, {"type": "Feature", "geometry": {"type": "Point", "coordinates": [-119.3359, 44.762]}, "properties": {"NAME": "W7O/NE-248", "TITLE": "4248", "REGION": "OR-Northeast", "ASSOCIATION": "USA - Oregon", "POINTS": "2", "BONUSPOINTS": "0"}}, {"type": "Feature", "geometry": {"type": "Point", "coordinates": [-117.7121, 44.8269]}, "properties": {"NAME": "W7O/NE-249", "TITLE": "4223", "REGION": "OR-Northeast", "ASSOCIATION": "USA - Oregon", "POINTS": "2", "BONUSPOINTS": "0"}}, {"type": "Feature", "geometry": {"type": "Point", "coordinates": [-117.0984, 44.9373]}, "properties": {"NAME": "W7O/NE-250", "TITLE": "4195", "REGION": "OR-Northeast", "ASSOCIATION": "USA - Oregon", "POINTS": "2", "BONUSPOINTS": "0"}}, {"type": "Feature", "geometry": {"type": "Point", "coordinates": [-117.8063, 45.2554]}, "properties": {"NAME": "W7O/NE-251", "TITLE": "4124", "REGION": "OR-Northeast", "ASSOCIATION": "USA - Oregon", "POINTS": "2", "BONUSPOINTS": "0"}}, {"type": "Feature", "geometry": {"type": "Point", "coordinates": [-116.8253, 45.8354]}, "properties": {"NAME": "W7O/NE-252", "TITLE": "4025", "REGION": "OR-Northeast", "ASSOCIATION": "USA - Oregon", "POINTS": "2", "BONUSPOINTS": "0"}}, {"type": "Feature", "geometry": {"type": "Point", "coordinates": [-116.961, 44.7931]}, "properties": {"NAME": "W7O/NE-253", "TITLE": "4012", "REGION": "OR-Northeast", "ASSOCIATION": "USA - Oregon", "POINTS": "2", "BONUSPOINTS": "0"}}, {"type": "Feature", "geometry": {"type": "Point", "coordinates": [-116.9998, 44.7764]}, "properties": {"NAME": "W7O/NE-254", "TITLE": "3933", "REGION": "OR-Northeast", "ASSOCIATION": "USA - Oregon", "POINTS": "2", "BONUSPOINTS": "0"}}, {"type": "Feature", "geometry": {"type": "Point", "coordinates": [-117.0816, 44.7232]}, "properties": {"NAME": "W7O/NE-255", "TITLE": "3928", "REGION": "OR-Northeast", "ASSOCIATION": "USA - Oregon", "POINTS": "2", "BONUSPOINTS": "0"}}, {"type": "Feature", "geometry": {"type": "Point", "coordinates": [-119.5226, 44.7722]}, "properties": {"NAME": "W7O/NE-256", "TITLE": "3627", "REGION": "OR-Northeast", "ASSOCIATION": "USA - Oregon", "POINTS": "2", "BONUSPOINTS": "0"}}, {"type": "Feature", "geometry": {"type": "Point", "coordinates": [-119.5525, 44.7674]}, "properties": {"NAME": "W7O/NE-257", "TITLE": "3547", "REGION": "OR-Northeast", "ASSOCIATION": "USA - Oregon", "POINTS": "2", "BONUSPOINTS": "0"}}, {"type": "Feature", "geometry": {"type": "Point", "coordinates": [-119.6351, 44.521]}, "properties": {"NAME": "W7O/NE-258", "TITLE": "3340", "REGION": "OR-Northeast", "ASSOCIATION": "USA - Oregon", "POINTS": "2", "BONUSPOINTS": "0"}}, {"type": "Feature", "geometry": {"type": "Point", "coordinates": [-117.2928, 45.2451]}, "properties": {"NAME": "W7O/NE-259", "TITLE": "Sacajawea Peak", "REGION": "OR-Northeast", "ASSOCIATION": "USA - Oregon", "POINTS": "10", "BONUSPOINTS": "3"}}, {"type": "Feature", "geometry": {"type": "Point", "coordinates": [-117.2237, 45.1774]}, "properties": {"NAME": "W7O/NE-260", "TITLE": "9395", "REGION": "OR-Northeast", "ASSOCIATION": "USA - Oregon", "POINTS": "10", "BONUSPOINTS": "3"}}, {"type": "Feature", "geometry": {"type": "Point", "coordinates": [-117.2605, 45.0981]}, "properties": {"NAME": "W7O/NE-261", "TITLE": "8993", "REGION": "OR-Northeast", "ASSOCIATION": "USA - Oregon", "POINTS": "8", "BONUSPOINTS": "3"}}, {"type": "Feature", "geometry": {"type": "Point", "coordinates": [-117.4377, 45.1488]}, "properties": {"NAME": "W7O/NE-262", "TITLE": "8438", "REGION": "OR-Northeast", "ASSOCIATION": "USA - Oregon", "POINTS": "8", "BONUSPOINTS": "3"}}, {"type": "Feature", "geometry": {"type": "Point", "coordinates": [-118.1815, 44.2926]}, "properties": {"NAME": "W7O/NE-263", "TITLE": "Murray Hill", "REGION": "OR-Northeast", "ASSOCIATION": "USA - Oregon", "POINTS": "6", "BONUSPOINTS": "3"}}, {"type": "Feature", "geometry": {"type": "Point", "coordinates": [-118.9342, 44.581]}, "properties": {"NAME": "W7O/NE-264", "TITLE": "6260", "REGION": "OR-Northeast", "ASSOCIATION": "USA - Oregon", "POINTS": "6", "BONUSPOINTS": "3"}}, {"type": "Feature", "geometry": {"type": "Point", "coordinates": [-118.4453, 44.8742]}, "properties": {"NAME": "W7O/NE-265", "TITLE": "Ten Cent Butte", "REGION": "OR-Northeast", "ASSOCIATION": "USA - Oregon", "POINTS": "6", "BONUSPOINTS": "3"}}, {"type": "Feature", "geometry": {"type": "Point", "coordinates": [-118.822, 44.5412]}, "properties": {"NAME": "W7O/NE-266", "TITLE": "5798", "REGION": "OR-Northeast", "ASSOCIATION": "USA - Oregon", "POINTS": "4", "BONUSPOINTS": "3"}}, {"type": "Feature", "geometry": {"type": "Point", "coordinates": [-118.1288, 44.638]}, "properties": {"NAME": "W7O/NE-267", "TITLE": "5795", "REGION": "OR-Northeast", "ASSOCIATION": "USA - Oregon", "POINTS": "4", "BONUSPOINTS": "3"}}, {"type": "Feature", "geometry": {"type": "Point", "coordinates": [-118.4018, 45.1319]}, "properties": {"NAME": "W7O/NE-268", "TITLE": "5750", "REGION": "OR-Northeast", "ASSOCIATION": "USA - Oregon", "POINTS": "4", "BONUSPOINTS": "3"}}, {"type": "Feature", "geometry": {"type": "Point", "coordinates": [-118.1397, 44.757]}, "properties": {"NAME": "W7O/NE-269", "TITLE": "5655", "REGION": "OR-Northeast", "ASSOCIATION": "USA - Oregon", "POINTS": "4", "BONUSPOINTS": "3"}}, {"type": "Feature", "geometry": {"type": "Point", "coordinates": [-116.9355, 45.9363]}, "properties": {"NAME": "W7O/NE-270", "TITLE": "Jim Creek Butte", "REGION": "OR-Northeast", "ASSOCIATION": "USA - Oregon", "POINTS": "4", "BONUSPOINTS": "3"}}, {"type": "Feature", "geometry": {"type": "Point", "coordinates": [-119.3643, 45.2194]}, "properties": {"NAME": "W7O/NE-271", "TITLE": "Summerfield Ridge", "REGION": "OR-Northeast", "ASSOCIATION": "USA - Oregon", "POINTS": "4", "BONUSPOINTS": "3"}}, {"type": "Feature", "geometry": {"type": "Point", "coordinates": [-117.1979, 45.7625]}, "properties": {"NAME": "W7O/NE-272", "TITLE": "Miller Ridge", "REGION": "OR-Northeast", "ASSOCIATION": "USA - Oregon", "POINTS": "2", "BONUSPOINTS": "0"}}, {"type": "Feature", "geometry": {"type": "Point", "coordinates": [-118.0738, 45.9355]}, "properties": {"NAME": "W7O/NE-273", "TITLE": "4836", "REGION": "OR-Northeast", "ASSOCIATION": "USA - Oregon", "POINTS": "2", "BONUSPOINTS": "0"}}, {"type": "Feature", "geometry": {"type": "Point", "coordinates": [-117.0982, 45.9636]}, "properties": {"NAME": "W7O/NE-274", "TITLE": "4198", "REGION": "OR-Northeast", "ASSOCIATION": "USA - Oregon", "POINTS": "2", "BONUSPOINTS": "0"}}]}