{"type": "FeatureCollection", "name": "W7O/NC SUMMITS", "features": [{"type": "Feature", "geometry": {"type": "Point", "coordinates": [-123.5482, 45.665]}, "properties": {"NAME": "W7O/NC-001", "TITLE": "Rogers Peak", "REGION": "OR-North Coastal", "ASSOCIATION": "USA - Oregon", "POINTS": "2", "BONUSPOINTS": "0"}}, {"type": "Feature", "geometry": {"type": "Point", "coordinates": [-123.3821, 45.5454]}, "properties": {"NAME": "W7O/NC-002", "TITLE": "Saddle Mountain", "REGION": "OR-North Coastal", "ASSOCIATION": "USA - Oregon", "POINTS": "2", "BONUSPOINTS": "0"}}, {"type": "Feature", "geometry": {"type": "Point", "coordinates": [-123.456, 45.3713]}, "properties": {"NAME": "W7O/NC-003", "TITLE": "Trask Mountain", "REGION": "OR-North Coastal", "ASSOCIATION": "USA - Oregon", "POINTS": "2", "BONUSPOINTS": "0"}}, {"type": "Feature", "geometry": {"type": "Point", "coordinates": [-123.6853, 45.9689]}, "properties": {"NAME": "W7O/NC-004", "TITLE": "Saddle Mountain", "REGION": "OR-North Coastal", "ASSOCIATION": "USA - Oregon", "POINTS": "2", "BONUSPOINTS": "0"}}, {"type": "Feature", "geometry": {"type": "Point", "coordinates": [-123.6436, 45.6315]}, "properties": {"NAME": "W7O/NC-005", "TITLE": "Triangulation Point", "REGION": "OR-North Coastal", "ASSOCIATION": "USA - Oregon", "POINTS": "2", "BONUSPOINTS": "0"}}, {"type": "Feature", "geometry": {"type": "Point", "coordinates": [-123.7253, 45.222]}, "properties": {"NAME": "W7O/NC-006", "TITLE": "Mount Hebo", "REGION": "OR-North Coastal", "ASSOCIATION": "USA - Oregon", "POINTS": "2", "BONUSPOINTS": "0"}}, {"type": "Feature", "geometry": {"type": "Point", "coordinates": [-123.685, 45.392]}, "properties": {"NAME": "W7O/NC-007", "TITLE": "Edwards Butte", "REGION": "OR-North Coastal", "ASSOCIATION": "USA - Oregon", "POINTS": "2", "BONUSPOINTS": "0"}}, {"type": "Feature", "geometry": {"type": "Point", "coordinates": [-123.6093, 45.7057]}, "properties": {"NAME": "W7O/NC-008", "TITLE": "Pinochle Peak", "REGION": "OR-North Coastal", "ASSOCIATION": "USA - Oregon", "POINTS": "2", "BONUSPOINTS": "0"}}, {"type": "Feature", "geometry": {"type": "Point", "coordinates": [-123.4492, 45.2817]}, "properties": {"NAME": "W7O/NC-009", "TITLE": "Sheridan Peak", "REGION": "OR-North Coastal", "ASSOCIATION": "USA - Oregon", "POINTS": "2", "BONUSPOINTS": "0"}}, {"type": "Feature", "geometry": {"type": "Point", "coordinates": [-123.9077, 45.8095]}, "properties": {"NAME": "W7O/NC-010", "TITLE": "West Onion Peak", "REGION": "OR-North Coastal", "ASSOCIATION": "USA - Oregon", "POINTS": "2", "BONUSPOINTS": "0"}}, {"type": "Feature", "geometry": {"type": "Point", "coordinates": [-123.8847, 45.816]}, "properties": {"NAME": "W7O/NC-011", "TITLE": "Onion Peak", "REGION": "OR-North Coastal", "ASSOCIATION": "USA - Oregon", "POINTS": "2", "BONUSPOINTS": "0"}}, {"type": "Feature", "geometry": {"type": "Point", "coordinates": [-123.4906, 45.4411]}, "properties": {"NAME": "W7O/NC-012", "TITLE": "Gobblers Knob", "REGION": "OR-North Coastal", "ASSOCIATION": "USA - Oregon", "POINTS": "2", "BONUSPOINTS": "0"}}, {"type": "Feature", "geometry": {"type": "Point", "coordinates": [-123.4579, 46.0873]}, "properties": {"NAME": "W7O/NC-013", "TITLE": "Nicolai Mountain", "REGION": "OR-North Coastal", "ASSOCIATION": "USA - Oregon", "POINTS": "2", "BONUSPOINTS": "0"}}, {"type": "Feature", "geometry": {"type": "Point", "coordinates": [-123.6629, 45.3513]}, "properties": {"NAME": "W7O/NC-014", "TITLE": "Grindstone Mountain", "REGION": "OR-North Coastal", "ASSOCIATION": "USA - Oregon", "POINTS": "2", "BONUSPOINTS": "0"}}, {"type": "Feature", "geometry": {"type": "Point", "coordinates": [-123.3623, 45.6773]}, "properties": {"NAME": "W7O/NC-015", "TITLE": "Round Top", "REGION": "OR-North Coastal", "ASSOCIATION": "USA - Oregon", "POINTS": "1", "BONUSPOINTS": "0"}}, {"type": "Feature", "geometry": {"type": "Point", "coordinates": [-123.6964, 45.0137]}, "properties": {"NAME": "W7O/NC-016", "TITLE": "Grand Ronde Benchmark", "REGION": "OR-North Coastal", "ASSOCIATION": "USA - Oregon", "POINTS": "1", "BONUSPOINTS": "0"}}, {"type": "Feature", "geometry": {"type": "Point", "coordinates": [-123.7091, 45.3604]}, "properties": {"NAME": "W7O/NC-017", "TITLE": "Beaver Point", "REGION": "OR-North Coastal", "ASSOCIATION": "USA - Oregon", "POINTS": "1", "BONUSPOINTS": "0"}}, {"type": "Feature", "geometry": {"type": "Point", "coordinates": [-123.6473, 45.5906]}, "properties": {"NAME": "W7O/NC-018", "TITLE": "Cedar Butte", "REGION": "OR-North Coastal", "ASSOCIATION": "USA - Oregon", "POINTS": "1", "BONUSPOINTS": "0"}}, {"type": "Feature", "geometry": {"type": "Point", "coordinates": [-123.857, 45.8593]}, "properties": {"NAME": "W7O/NC-019", "TITLE": "Sugarloaf Mountain", "REGION": "OR-North Coastal", "ASSOCIATION": "USA - Oregon", "POINTS": "1", "BONUSPOINTS": "0"}}, {"type": "Feature", "geometry": {"type": "Point", "coordinates": [-123.6533, 45.4263]}, "properties": {"NAME": "W7O/NC-020", "TITLE": "Gold Peak", "REGION": "OR-North Coastal", "ASSOCIATION": "USA - Oregon", "POINTS": "1", "BONUSPOINTS": "0"}}, {"type": "Feature", "geometry": {"type": "Point", "coordinates": [-123.5087, 45.3136]}, "properties": {"NAME": "W7O/NC-021", "TITLE": "Dovre Peak", "REGION": "OR-North Coastal", "ASSOCIATION": "USA - Oregon", "POINTS": "1", "BONUSPOINTS": "0"}}, {"type": "Feature", "geometry": {"type": "Point", "coordinates": [-123.5644, 46.0539]}, "properties": {"NAME": "W7O/NC-022", "TITLE": "Elk Mountain", "REGION": "OR-North Coastal", "ASSOCIATION": "USA - Oregon", "POINTS": "1", "BONUSPOINTS": "0"}}, {"type": "Feature", "geometry": {"type": "Point", "coordinates": [-123.4136, 45.733]}, "properties": {"NAME": "W7O/NC-023", "TITLE": "Giveout Mountain", "REGION": "OR-North Coastal", "ASSOCIATION": "USA - Oregon", "POINTS": "1", "BONUSPOINTS": "0"}}, {"type": "Feature", "geometry": {"type": "Point", "coordinates": [-123.5865, 46.105]}, "properties": {"NAME": "W7O/NC-024", "TITLE": "Wickiup Mountain", "REGION": "OR-North Coastal", "ASSOCIATION": "USA - Oregon", "POINTS": "1", "BONUSPOINTS": "0"}}, {"type": "Feature", "geometry": {"type": "Point", "coordinates": [-123.5019, 45.4075]}, "properties": {"NAME": "W7O/NC-025", "TITLE": "Ginsberg Point", "REGION": "OR-North Coastal", "ASSOCIATION": "USA - Oregon", "POINTS": "1", "BONUSPOINTS": "0"}}, {"type": "Feature", "geometry": {"type": "Point", "coordinates": [-123.9203, 45.7878]}, "properties": {"NAME": "W7O/NC-026", "TITLE": "Angora Peak", "REGION": "OR-North Coastal", "ASSOCIATION": "USA - Oregon", "POINTS": "1", "BONUSPOINTS": "0"}}, {"type": "Feature", "geometry": {"type": "Point", "coordinates": [-123.6156, 45.5793]}, "properties": {"NAME": "W7O/NC-027", "TITLE": "Wolf Point", "REGION": "OR-North Coastal", "ASSOCIATION": "USA - Oregon", "POINTS": "1", "BONUSPOINTS": "0"}}, {"type": "Feature", "geometry": {"type": "Point", "coordinates": [-123.6921, 45.926]}, "properties": {"NAME": "W7O/NC-028", "TITLE": "Humbug Mountain", "REGION": "OR-North Coastal", "ASSOCIATION": "USA - Oregon", "POINTS": "1", "BONUSPOINTS": "0"}}, {"type": "Feature", "geometry": {"type": "Point", "coordinates": [-123.4486, 45.2318]}, "properties": {"NAME": "W7O/NC-029", "TITLE": "Stony Mountain", "REGION": "OR-North Coastal", "ASSOCIATION": "USA - Oregon", "POINTS": "1", "BONUSPOINTS": "0"}}, {"type": "Feature", "geometry": {"type": "Point", "coordinates": [-123.7471, 45.5237]}, "properties": {"NAME": "W7O/NC-030", "TITLE": "Stanley Peak", "REGION": "OR-North Coastal", "ASSOCIATION": "USA - Oregon", "POINTS": "1", "BONUSPOINTS": "0"}}, {"type": "Feature", "geometry": {"type": "Point", "coordinates": [-123.3838, 45.4549]}, "properties": {"NAME": "W7O/NC-031", "TITLE": "Blind Cabin Ridge", "REGION": "OR-North Coastal", "ASSOCIATION": "USA - Oregon", "POINTS": "1", "BONUSPOINTS": "0"}}, {"type": "Feature", "geometry": {"type": "Point", "coordinates": [-123.7532, 45.144]}, "properties": {"NAME": "W7O/NC-032", "TITLE": "Little Hebo", "REGION": "OR-North Coastal", "ASSOCIATION": "USA - Oregon", "POINTS": "1", "BONUSPOINTS": "0"}}, {"type": "Feature", "geometry": {"type": "Point", "coordinates": [-123.8232, 45.6514]}, "properties": {"NAME": "W7O/NC-033", "TITLE": "Foley Peak", "REGION": "OR-North Coastal", "ASSOCIATION": "USA - Oregon", "POINTS": "1", "BONUSPOINTS": "0"}}, {"type": "Feature", "geometry": {"type": "Point", "coordinates": [-123.1082, 45.7883]}, "properties": {"NAME": "W7O/NC-034", "TITLE": "Long Mountain", "REGION": "OR-North Coastal", "ASSOCIATION": "USA - Oregon", "POINTS": "1", "BONUSPOINTS": "0"}}, {"type": "Feature", "geometry": {"type": "Point", "coordinates": [-123.8307, 45.1621]}, "properties": {"NAME": "W7O/NC-035", "TITLE": "Gauldy, Mount", "REGION": "OR-North Coastal", "ASSOCIATION": "USA - Oregon", "POINTS": "1", "BONUSPOINTS": "0"}}, {"type": "Feature", "geometry": {"type": "Point", "coordinates": [-123.135, 45.7439]}, "properties": {"NAME": "W7O/NC-036", "TITLE": "Green Mountain", "REGION": "OR-North Coastal", "ASSOCIATION": "USA - Oregon", "POINTS": "1", "BONUSPOINTS": "0"}}, {"type": "Feature", "geometry": {"type": "Point", "coordinates": [-123.6705, 45.4732]}, "properties": {"NAME": "W7O/NC-037", "TITLE": "Blue Ridge", "REGION": "OR-North Coastal", "ASSOCIATION": "USA - Oregon", "POINTS": "1", "BONUSPOINTS": "0"}}, {"type": "Feature", "geometry": {"type": "Point", "coordinates": [-123.0353, 45.8592]}, "properties": {"NAME": "W7O/NC-038", "TITLE": "Bunker Hill", "REGION": "OR-North Coastal", "ASSOCIATION": "USA - Oregon", "POINTS": "1", "BONUSPOINTS": "0"}}, {"type": "Feature", "geometry": {"type": "Point", "coordinates": [-123.2823, 46.066]}, "properties": {"NAME": "W7O/NC-039", "TITLE": "Clatskanie Mountain", "REGION": "OR-North Coastal", "ASSOCIATION": "USA - Oregon", "POINTS": "1", "BONUSPOINTS": "0"}}, {"type": "Feature", "geometry": {"type": "Point", "coordinates": [-123.7055, 46.0186]}, "properties": {"NAME": "W7O/NC-040", "TITLE": "Green Mountain", "REGION": "OR-North Coastal", "ASSOCIATION": "USA - Oregon", "POINTS": "1", "BONUSPOINTS": "0"}}, {"type": "Feature", "geometry": {"type": "Point", "coordinates": [-123.9198, 45.7576]}, "properties": {"NAME": "W7O/NC-041", "TITLE": "Rock Mountain", "REGION": "OR-North Coastal", "ASSOCIATION": "USA - Oregon", "POINTS": "1", "BONUSPOINTS": "0"}}, {"type": "Feature", "geometry": {"type": "Point", "coordinates": [-123.2109, 46.0399]}, "properties": {"NAME": "W7O/NC-042", "TITLE": "Benson Point", "REGION": "OR-North Coastal", "ASSOCIATION": "USA - Oregon", "POINTS": "1", "BONUSPOINTS": "0"}}, {"type": "Feature", "geometry": {"type": "Point", "coordinates": [-123.212, 45.5383]}, "properties": {"NAME": "W7O/NC-043", "TITLE": "Gales Peak", "REGION": "OR-North Coastal", "ASSOCIATION": "USA - Oregon", "POINTS": "1", "BONUSPOINTS": "0"}}, {"type": "Feature", "geometry": {"type": "Point", "coordinates": [-123.2431, 45.662]}, "properties": {"NAME": "W7O/NC-044", "TITLE": "Wildcat Mountain", "REGION": "OR-North Coastal", "ASSOCIATION": "USA - Oregon", "POINTS": "1", "BONUSPOINTS": "0"}}, {"type": "Feature", "geometry": {"type": "Point", "coordinates": [-123.6004, 45.1111]}, "properties": {"NAME": "W7O/NC-045", "TITLE": "Spirit Mountain", "REGION": "OR-North Coastal", "ASSOCIATION": "USA - Oregon", "POINTS": "1", "BONUSPOINTS": "0"}}, {"type": "Feature", "geometry": {"type": "Point", "coordinates": [-123.6316, 45.834]}, "properties": {"NAME": "W7O/NC-046", "TITLE": "Cougar Mountain", "REGION": "OR-North Coastal", "ASSOCIATION": "USA - Oregon", "POINTS": "1", "BONUSPOINTS": "0"}}, {"type": "Feature", "geometry": {"type": "Point", "coordinates": [-123.9099, 45.5808]}, "properties": {"NAME": "W7O/NC-047", "TITLE": "Captain Gray Mountain", "REGION": "OR-North Coastal", "ASSOCIATION": "USA - Oregon", "POINTS": "1", "BONUSPOINTS": "0"}}, {"type": "Feature", "geometry": {"type": "Point", "coordinates": [-123.7609, 46.009]}, "properties": {"NAME": "W7O/NC-048", "TITLE": "Sister Green Mountain", "REGION": "OR-North Coastal", "ASSOCIATION": "USA - Oregon", "POINTS": "1", "BONUSPOINTS": "0"}}, {"type": "Feature", "geometry": {"type": "Point", "coordinates": [-123.2422, 45.7496]}, "properties": {"NAME": "W7O/NC-049", "TITLE": "Cape Horn", "REGION": "OR-North Coastal", "ASSOCIATION": "USA - Oregon", "POINTS": "1", "BONUSPOINTS": "0"}}, {"type": "Feature", "geometry": {"type": "Point", "coordinates": [-123.8782, 45.278]}, "properties": {"NAME": "W7O/NC-050", "TITLE": "Buzzard Butte", "REGION": "OR-North Coastal", "ASSOCIATION": "USA - Oregon", "POINTS": "1", "BONUSPOINTS": "0"}}, {"type": "Feature", "geometry": {"type": "Point", "coordinates": [-123.0559, 45.3957]}, "properties": {"NAME": "W7O/NC-051", "TITLE": "Bald Peak", "REGION": "OR-North Coastal", "ASSOCIATION": "USA - Oregon", "POINTS": "1", "BONUSPOINTS": "0"}}, {"type": "Feature", "geometry": {"type": "Point", "coordinates": [-123.8735, 45.9463]}, "properties": {"NAME": "W7O/NC-052", "TITLE": "Twin Peaks East", "REGION": "OR-North Coastal", "ASSOCIATION": "USA - Oregon", "POINTS": "1", "BONUSPOINTS": "0"}}, {"type": "Feature", "geometry": {"type": "Point", "coordinates": [-123.5908, 45.9119]}, "properties": {"NAME": "W7O/NC-053", "TITLE": "Boiler Ridge", "REGION": "OR-North Coastal", "ASSOCIATION": "USA - Oregon", "POINTS": "1", "BONUSPOINTS": "0"}}, {"type": "Feature", "geometry": {"type": "Point", "coordinates": [-123.8358, 45.055]}, "properties": {"NAME": "W7O/NC-054", "TITLE": "Neskowin Ridge", "REGION": "OR-North Coastal", "ASSOCIATION": "USA - Oregon", "POINTS": "1", "BONUSPOINTS": "0"}}, {"type": "Feature", "geometry": {"type": "Point", "coordinates": [-123.9204, 45.4658]}, "properties": {"NAME": "W7O/NC-055", "TITLE": "Meares Benchmark", "REGION": "OR-North Coastal", "ASSOCIATION": "USA - Oregon", "POINTS": "1", "BONUSPOINTS": "0"}}, {"type": "Feature", "geometry": {"type": "Point", "coordinates": [-123.729, 45.8402]}, "properties": {"NAME": "W7O/NC-056", "TITLE": "Cole Mountain", "REGION": "OR-North Coastal", "ASSOCIATION": "USA - Oregon", "POINTS": "1", "BONUSPOINTS": "0"}}, {"type": "Feature", "geometry": {"type": "Point", "coordinates": [-123.9689, 45.9614]}, "properties": {"NAME": "W7O/NC-057", "TITLE": "Clarks Mountain", "REGION": "OR-North Coastal", "ASSOCIATION": "USA - Oregon", "POINTS": "1", "BONUSPOINTS": "0"}}, {"type": "Feature", "geometry": {"type": "Point", "coordinates": [-123.1701, 45.5604]}, "properties": {"NAME": "W7O/NC-058", "TITLE": "David Hill", "REGION": "OR-North Coastal", "ASSOCIATION": "USA - Oregon", "POINTS": "1", "BONUSPOINTS": "0"}}, {"type": "Feature", "geometry": {"type": "Point", "coordinates": [-123.1457, 45.0679]}, "properties": {"NAME": "W7O/NC-059", "TITLE": "Eola Hills HP", "REGION": "OR-North Coastal", "ASSOCIATION": "USA - Oregon", "POINTS": "1", "BONUSPOINTS": "0"}}, {"type": "Feature", "geometry": {"type": "Point", "coordinates": [-123.8113, 46.0704]}, "properties": {"NAME": "W7O/NC-060", "TITLE": "Lone Ridge", "REGION": "OR-North Coastal", "ASSOCIATION": "USA - Oregon", "POINTS": "1", "BONUSPOINTS": "0"}}, {"type": "Feature", "geometry": {"type": "Point", "coordinates": [-123.0582, 45.294]}, "properties": {"NAME": "W7O/NC-061", "TITLE": "Red Hills of Dundee HP", "REGION": "OR-North Coastal", "ASSOCIATION": "USA - Oregon", "POINTS": "1", "BONUSPOINTS": "0"}}, {"type": "Feature", "geometry": {"type": "Point", "coordinates": [-123.9483, 45.8529]}, "properties": {"NAME": "W7O/NC-062", "TITLE": "Double Peak", "REGION": "OR-North Coastal", "ASSOCIATION": "USA - Oregon", "POINTS": "1", "BONUSPOINTS": "0"}}, {"type": "Feature", "geometry": {"type": "Point", "coordinates": [-123.9372, 45.1855]}, "properties": {"NAME": "W7O/NC-063", "TITLE": "Brooten Mountain", "REGION": "OR-North Coastal", "ASSOCIATION": "USA - Oregon", "POINTS": "1", "BONUSPOINTS": "0"}}, {"type": "Feature", "geometry": {"type": "Point", "coordinates": [-123.4892, 45.6463]}, "properties": {"NAME": "W7O/NC-064", "TITLE": "3594", "REGION": "OR-North Coastal", "ASSOCIATION": "USA - Oregon", "POINTS": "2", "BONUSPOINTS": "0"}}, {"type": "Feature", "geometry": {"type": "Point", "coordinates": [-123.4341, 45.5498]}, "properties": {"NAME": "W7O/NC-065", "TITLE": "3534", "REGION": "OR-North Coastal", "ASSOCIATION": "USA - Oregon", "POINTS": "2", "BONUSPOINTS": "0"}}, {"type": "Feature", "geometry": {"type": "Point", "coordinates": [-123.4504, 45.5208]}, "properties": {"NAME": "W7O/NC-066", "TITLE": "3442", "REGION": "OR-North Coastal", "ASSOCIATION": "USA - Oregon", "POINTS": "2", "BONUSPOINTS": "0"}}, {"type": "Feature", "geometry": {"type": "Point", "coordinates": [-123.6089, 45.6556]}, "properties": {"NAME": "W7O/NC-067", "TITLE": "3410", "REGION": "OR-North Coastal", "ASSOCIATION": "USA - Oregon", "POINTS": "2", "BONUSPOINTS": "0"}}, {"type": "Feature", "geometry": {"type": "Point", "coordinates": [-123.5471, 45.7498]}, "properties": {"NAME": "W7O/NC-068", "TITLE": "3220", "REGION": "OR-North Coastal", "ASSOCIATION": "USA - Oregon", "POINTS": "2", "BONUSPOINTS": "0"}}, {"type": "Feature", "geometry": {"type": "Point", "coordinates": [-123.6711, 45.6434]}, "properties": {"NAME": "W7O/NC-069", "TITLE": "3220", "REGION": "OR-North Coastal", "ASSOCIATION": "USA - Oregon", "POINTS": "2", "BONUSPOINTS": "0"}}, {"type": "Feature", "geometry": {"type": "Point", "coordinates": [-123.6604, 45.9611]}, "properties": {"NAME": "W7O/NC-070", "TITLE": "3126", "REGION": "OR-North Coastal", "ASSOCIATION": "USA - Oregon", "POINTS": "2", "BONUSPOINTS": "0"}}, {"type": "Feature", "geometry": {"type": "Point", "coordinates": [-123.5346, 45.4806]}, "properties": {"NAME": "W7O/NC-071", "TITLE": "3058", "REGION": "OR-North Coastal", "ASSOCIATION": "USA - Oregon", "POINTS": "2", "BONUSPOINTS": "0"}}, {"type": "Feature", "geometry": {"type": "Point", "coordinates": [-123.4558, 45.7678]}, "properties": {"NAME": "W7O/NC-072", "TITLE": "2905", "REGION": "OR-North Coastal", "ASSOCIATION": "USA - Oregon", "POINTS": "1", "BONUSPOINTS": "0"}}, {"type": "Feature", "geometry": {"type": "Point", "coordinates": [-123.5906, 45.6213]}, "properties": {"NAME": "W7O/NC-073", "TITLE": "2814", "REGION": "OR-North Coastal", "ASSOCIATION": "USA - Oregon", "POINTS": "1", "BONUSPOINTS": "0"}}, {"type": "Feature", "geometry": {"type": "Point", "coordinates": [-123.6701, 45.6001]}, "properties": {"NAME": "W7O/NC-074", "TITLE": "2788", "REGION": "OR-North Coastal", "ASSOCIATION": "USA - Oregon", "POINTS": "1", "BONUSPOINTS": "0"}}, {"type": "Feature", "geometry": {"type": "Point", "coordinates": [-123.7259, 45.651]}, "properties": {"NAME": "W7O/NC-075", "TITLE": "2778", "REGION": "OR-North Coastal", "ASSOCIATION": "USA - Oregon", "POINTS": "1", "BONUSPOINTS": "0"}}, {"type": "Feature", "geometry": {"type": "Point", "coordinates": [-123.4947, 45.717]}, "properties": {"NAME": "W7O/NC-076", "TITLE": "2748", "REGION": "OR-North Coastal", "ASSOCIATION": "USA - Oregon", "POINTS": "1", "BONUSPOINTS": "0"}}, {"type": "Feature", "geometry": {"type": "Point", "coordinates": [-123.6634, 45.4143]}, "properties": {"NAME": "W7O/NC-077", "TITLE": "2730", "REGION": "OR-North Coastal", "ASSOCIATION": "USA - Oregon", "POINTS": "1", "BONUSPOINTS": "0"}}, {"type": "Feature", "geometry": {"type": "Point", "coordinates": [-123.7003, 45.5713]}, "properties": {"NAME": "W7O/NC-078", "TITLE": "2660", "REGION": "OR-North Coastal", "ASSOCIATION": "USA - Oregon", "POINTS": "1", "BONUSPOINTS": "0"}}, {"type": "Feature", "geometry": {"type": "Point", "coordinates": [-123.4371, 45.33]}, "properties": {"NAME": "W7O/NC-079", "TITLE": "2660", "REGION": "OR-North Coastal", "ASSOCIATION": "USA - Oregon", "POINTS": "1", "BONUSPOINTS": "0"}}, {"type": "Feature", "geometry": {"type": "Point", "coordinates": [-123.523, 45.391]}, "properties": {"NAME": "W7O/NC-080", "TITLE": "2646", "REGION": "OR-North Coastal", "ASSOCIATION": "USA - Oregon", "POINTS": "1", "BONUSPOINTS": "0"}}, {"type": "Feature", "geometry": {"type": "Point", "coordinates": [-123.7992, 45.6044]}, "properties": {"NAME": "W7O/NC-081", "TITLE": "2620", "REGION": "OR-North Coastal", "ASSOCIATION": "USA - Oregon", "POINTS": "1", "BONUSPOINTS": "0"}}, {"type": "Feature", "geometry": {"type": "Point", "coordinates": [-123.4764, 45.8616]}, "properties": {"NAME": "W7O/NC-082", "TITLE": "2600", "REGION": "OR-North Coastal", "ASSOCIATION": "USA - Oregon", "POINTS": "1", "BONUSPOINTS": "0"}}, {"type": "Feature", "geometry": {"type": "Point", "coordinates": [-123.4877, 45.5834]}, "properties": {"NAME": "W7O/NC-083", "TITLE": "2592", "REGION": "OR-North Coastal", "ASSOCIATION": "USA - Oregon", "POINTS": "1", "BONUSPOINTS": "0"}}, {"type": "Feature", "geometry": {"type": "Point", "coordinates": [-123.5962, 45.3351]}, "properties": {"NAME": "W7O/NC-084", "TITLE": "2580", "REGION": "OR-North Coastal", "ASSOCIATION": "USA - Oregon", "POINTS": "1", "BONUSPOINTS": "0"}}, {"type": "Feature", "geometry": {"type": "Point", "coordinates": [-123.418, 45.8696]}, "properties": {"NAME": "W7O/NC-085", "TITLE": "2510", "REGION": "OR-North Coastal", "ASSOCIATION": "USA - Oregon", "POINTS": "1", "BONUSPOINTS": "0"}}, {"type": "Feature", "geometry": {"type": "Point", "coordinates": [-123.7845, 45.6133]}, "properties": {"NAME": "W7O/NC-086", "TITLE": "2500", "REGION": "OR-North Coastal", "ASSOCIATION": "USA - Oregon", "POINTS": "1", "BONUSPOINTS": "0"}}, {"type": "Feature", "geometry": {"type": "Point", "coordinates": [-123.4186, 45.6062]}, "properties": {"NAME": "W7O/NC-087", "TITLE": "2445", "REGION": "OR-North Coastal", "ASSOCIATION": "USA - Oregon", "POINTS": "1", "BONUSPOINTS": "0"}}, {"type": "Feature", "geometry": {"type": "Point", "coordinates": [-123.7931, 45.8696]}, "properties": {"NAME": "W7O/NC-088", "TITLE": "2420", "REGION": "OR-North Coastal", "ASSOCIATION": "USA - Oregon", "POINTS": "1", "BONUSPOINTS": "0"}}, {"type": "Feature", "geometry": {"type": "Point", "coordinates": [-123.6685, 45.7631]}, "properties": {"NAME": "W7O/NC-089", "TITLE": "2420", "REGION": "OR-North Coastal", "ASSOCIATION": "USA - Oregon", "POINTS": "1", "BONUSPOINTS": "0"}}, {"type": "Feature", "geometry": {"type": "Point", "coordinates": [-123.4287, 45.7898]}, "properties": {"NAME": "W7O/NC-090", "TITLE": "2416", "REGION": "OR-North Coastal", "ASSOCIATION": "USA - Oregon", "POINTS": "1", "BONUSPOINTS": "0"}}, {"type": "Feature", "geometry": {"type": "Point", "coordinates": [-123.5504, 45.556]}, "properties": {"NAME": "W7O/NC-091", "TITLE": "2399", "REGION": "OR-North Coastal", "ASSOCIATION": "USA - Oregon", "POINTS": "1", "BONUSPOINTS": "0"}}, {"type": "Feature", "geometry": {"type": "Point", "coordinates": [-123.746, 45.5756]}, "properties": {"NAME": "W7O/NC-092", "TITLE": "2386", "REGION": "OR-North Coastal", "ASSOCIATION": "USA - Oregon", "POINTS": "1", "BONUSPOINTS": "0"}}, {"type": "Feature", "geometry": {"type": "Point", "coordinates": [-123.7691, 45.942]}, "properties": {"NAME": "W7O/NC-093", "TITLE": "2384", "REGION": "OR-North Coastal", "ASSOCIATION": "USA - Oregon", "POINTS": "1", "BONUSPOINTS": "0"}}, {"type": "Feature", "geometry": {"type": "Point", "coordinates": [-123.438, 45.8389]}, "properties": {"NAME": "W7O/NC-094", "TITLE": "2384", "REGION": "OR-North Coastal", "ASSOCIATION": "USA - Oregon", "POINTS": "1", "BONUSPOINTS": "0"}}, {"type": "Feature", "geometry": {"type": "Point", "coordinates": [-123.2982, 45.5693]}, "properties": {"NAME": "W7O/NC-095", "TITLE": "2382", "REGION": "OR-North Coastal", "ASSOCIATION": "USA - Oregon", "POINTS": "1", "BONUSPOINTS": "0"}}, {"type": "Feature", "geometry": {"type": "Point", "coordinates": [-123.5583, 45.3339]}, "properties": {"NAME": "W7O/NC-096", "TITLE": "2380", "REGION": "OR-North Coastal", "ASSOCIATION": "USA - Oregon", "POINTS": "1", "BONUSPOINTS": "0"}}, {"type": "Feature", "geometry": {"type": "Point", "coordinates": [-123.4471, 45.5979]}, "properties": {"NAME": "W7O/NC-097", "TITLE": "2360", "REGION": "OR-North Coastal", "ASSOCIATION": "USA - Oregon", "POINTS": "1", "BONUSPOINTS": "0"}}, {"type": "Feature", "geometry": {"type": "Point", "coordinates": [-123.5151, 45.8045]}, "properties": {"NAME": "W7O/NC-098", "TITLE": "2340", "REGION": "OR-North Coastal", "ASSOCIATION": "USA - Oregon", "POINTS": "1", "BONUSPOINTS": "0"}}, {"type": "Feature", "geometry": {"type": "Point", "coordinates": [-123.6529, 45.5232]}, "properties": {"NAME": "W7O/NC-099", "TITLE": "2300", "REGION": "OR-North Coastal", "ASSOCIATION": "USA - Oregon", "POINTS": "1", "BONUSPOINTS": "0"}}, {"type": "Feature", "geometry": {"type": "Point", "coordinates": [-123.7664, 45.6277]}, "properties": {"NAME": "W7O/NC-100", "TITLE": "2260", "REGION": "OR-North Coastal", "ASSOCIATION": "USA - Oregon", "POINTS": "1", "BONUSPOINTS": "0"}}, {"type": "Feature", "geometry": {"type": "Point", "coordinates": [-123.8162, 45.5497]}, "properties": {"NAME": "W7O/NC-101", "TITLE": "2260", "REGION": "OR-North Coastal", "ASSOCIATION": "USA - Oregon", "POINTS": "1", "BONUSPOINTS": "0"}}, {"type": "Feature", "geometry": {"type": "Point", "coordinates": [-123.7158, 45.4612]}, "properties": {"NAME": "W7O/NC-102", "TITLE": "2260", "REGION": "OR-North Coastal", "ASSOCIATION": "USA - Oregon", "POINTS": "1", "BONUSPOINTS": "0"}}, {"type": "Feature", "geometry": {"type": "Point", "coordinates": [-123.7089, 45.5398]}, "properties": {"NAME": "W7O/NC-103", "TITLE": "2238", "REGION": "OR-North Coastal", "ASSOCIATION": "USA - Oregon", "POINTS": "1", "BONUSPOINTS": "0"}}, {"type": "Feature", "geometry": {"type": "Point", "coordinates": [-123.7377, 45.3261]}, "properties": {"NAME": "W7O/NC-104", "TITLE": "2180", "REGION": "OR-North Coastal", "ASSOCIATION": "USA - Oregon", "POINTS": "1", "BONUSPOINTS": "0"}}, {"type": "Feature", "geometry": {"type": "Point", "coordinates": [-123.597, 45.3776]}, "properties": {"NAME": "W7O/NC-105", "TITLE": "2144", "REGION": "OR-North Coastal", "ASSOCIATION": "USA - Oregon", "POINTS": "1", "BONUSPOINTS": "0"}}, {"type": "Feature", "geometry": {"type": "Point", "coordinates": [-123.5629, 45.2915]}, "properties": {"NAME": "W7O/NC-106", "TITLE": "2140", "REGION": "OR-North Coastal", "ASSOCIATION": "USA - Oregon", "POINTS": "1", "BONUSPOINTS": "0"}}, {"type": "Feature", "geometry": {"type": "Point", "coordinates": [-123.7464, 45.3501]}, "properties": {"NAME": "W7O/NC-107", "TITLE": "2065", "REGION": "OR-North Coastal", "ASSOCIATION": "USA - Oregon", "POINTS": "1", "BONUSPOINTS": "0"}}, {"type": "Feature", "geometry": {"type": "Point", "coordinates": [-123.7901, 45.653]}, "properties": {"NAME": "W7O/NC-108", "TITLE": "2060", "REGION": "OR-North Coastal", "ASSOCIATION": "USA - Oregon", "POINTS": "1", "BONUSPOINTS": "0"}}, {"type": "Feature", "geometry": {"type": "Point", "coordinates": [-123.7824, 45.5001]}, "properties": {"NAME": "W7O/NC-109", "TITLE": "2020", "REGION": "OR-North Coastal", "ASSOCIATION": "USA - Oregon", "POINTS": "1", "BONUSPOINTS": "0"}}, {"type": "Feature", "geometry": {"type": "Point", "coordinates": [-123.3385, 45.8403]}, "properties": {"NAME": "W7O/NC-110", "TITLE": "1940", "REGION": "OR-North Coastal", "ASSOCIATION": "USA - Oregon", "POINTS": "1", "BONUSPOINTS": "0"}}, {"type": "Feature", "geometry": {"type": "Point", "coordinates": [-123.9304, 45.3627]}, "properties": {"NAME": "W7O/NC-111", "TITLE": "1860", "REGION": "OR-North Coastal", "ASSOCIATION": "USA - Oregon", "POINTS": "1", "BONUSPOINTS": "0"}}, {"type": "Feature", "geometry": {"type": "Point", "coordinates": [-123.5687, 45.8294]}, "properties": {"NAME": "W7O/NC-112", "TITLE": "1804", "REGION": "OR-North Coastal", "ASSOCIATION": "USA - Oregon", "POINTS": "1", "BONUSPOINTS": "0"}}, {"type": "Feature", "geometry": {"type": "Point", "coordinates": [-123.9764, 45.0647]}, "properties": {"NAME": "W7O/NC-113", "TITLE": "1783", "REGION": "OR-North Coastal", "ASSOCIATION": "USA - Oregon", "POINTS": "1", "BONUSPOINTS": "0"}}, {"type": "Feature", "geometry": {"type": "Point", "coordinates": [-123.7449, 45.745]}, "properties": {"NAME": "W7O/NC-114", "TITLE": "1780", "REGION": "OR-North Coastal", "ASSOCIATION": "USA - Oregon", "POINTS": "1", "BONUSPOINTS": "0"}}, {"type": "Feature", "geometry": {"type": "Point", "coordinates": [-123.7858, 45.7162]}, "properties": {"NAME": "W7O/NC-115", "TITLE": "1700", "REGION": "OR-North Coastal", "ASSOCIATION": "USA - Oregon", "POINTS": "1", "BONUSPOINTS": "0"}}, {"type": "Feature", "geometry": {"type": "Point", "coordinates": [-123.9294, 45.0954]}, "properties": {"NAME": "W7O/NC-116", "TITLE": "1660", "REGION": "OR-North Coastal", "ASSOCIATION": "USA - Oregon", "POINTS": "1", "BONUSPOINTS": "0"}}, {"type": "Feature", "geometry": {"type": "Point", "coordinates": [-123.7488, 45.4774]}, "properties": {"NAME": "W7O/NC-117", "TITLE": "1540", "REGION": "OR-North Coastal", "ASSOCIATION": "USA - Oregon", "POINTS": "1", "BONUSPOINTS": "0"}}, {"type": "Feature", "geometry": {"type": "Point", "coordinates": [-123.9275, 45.1131]}, "properties": {"NAME": "W7O/NC-118", "TITLE": "1532", "REGION": "OR-North Coastal", "ASSOCIATION": "USA - Oregon", "POINTS": "1", "BONUSPOINTS": "0"}}, {"type": "Feature", "geometry": {"type": "Point", "coordinates": [-123.7814, 45.7932]}, "properties": {"NAME": "W7O/NC-119", "TITLE": "1500", "REGION": "OR-North Coastal", "ASSOCIATION": "USA - Oregon", "POINTS": "1", "BONUSPOINTS": "0"}}, {"type": "Feature", "geometry": {"type": "Point", "coordinates": [-123.8552, 45.6666]}, "properties": {"NAME": "W7O/NC-120", "TITLE": "1500", "REGION": "OR-North Coastal", "ASSOCIATION": "USA - Oregon", "POINTS": "1", "BONUSPOINTS": "0"}}, {"type": "Feature", "geometry": {"type": "Point", "coordinates": [-123.822, 45.0795]}, "properties": {"NAME": "W7O/NC-121", "TITLE": "1460", "REGION": "OR-North Coastal", "ASSOCIATION": "USA - Oregon", "POINTS": "1", "BONUSPOINTS": "0"}}, {"type": "Feature", "geometry": {"type": "Point", "coordinates": [-123.6947, 45.8306]}, "properties": {"NAME": "W7O/NC-122", "TITLE": "1380", "REGION": "OR-North Coastal", "ASSOCIATION": "USA - Oregon", "POINTS": "1", "BONUSPOINTS": "0"}}, {"type": "Feature", "geometry": {"type": "Point", "coordinates": [-123.8821, 45.6635]}, "properties": {"NAME": "W7O/NC-123", "TITLE": "1380", "REGION": "OR-North Coastal", "ASSOCIATION": "USA - Oregon", "POINTS": "1", "BONUSPOINTS": "0"}}, {"type": "Feature", "geometry": {"type": "Point", "coordinates": [-123.9624, 45.7752]}, "properties": {"NAME": "W7O/NC-124", "TITLE": "1060", "REGION": "OR-North Coastal", "ASSOCIATION": "USA - Oregon", "POINTS": "1", "BONUSPOINTS": "0"}}, {"type": "Feature", "geometry": {"type": "Point", "coordinates": [-123.1289, 45.3758]}, "properties": {"NAME": "W7O/NC-125", "TITLE": "850", "REGION": "OR-North Coastal", "ASSOCIATION": "USA - Oregon", "POINTS": "1", "BONUSPOINTS": "0"}}, {"type": "Feature", "geometry": {"type": "Point", "coordinates": [-123.3014, 45.1594]}, "properties": {"NAME": "W7O/NC-126", "TITLE": "789", "REGION": "OR-North Coastal", "ASSOCIATION": "USA - Oregon", "POINTS": "1", "BONUSPOINTS": "0"}}, {"type": "Feature", "geometry": {"type": "Point", "coordinates": [-123.993, 45.022]}, "properties": {"NAME": "W7O/NC-127", "TITLE": "620", "REGION": "OR-North Coastal", "ASSOCIATION": "USA - Oregon", "POINTS": "1", "BONUSPOINTS": "0"}}, {"type": "Feature", "geometry": {"type": "Point", "coordinates": [-123.4491, 45.4955]}, "properties": {"NAME": "W7O/NC-128", "TITLE": "2853", "REGION": "OR-North Coastal", "ASSOCIATION": "USA - Oregon", "POINTS": "1", "BONUSPOINTS": "0"}}, {"type": "Feature", "geometry": {"type": "Point", "coordinates": [-123.6647, 45.47]}, "properties": {"NAME": "W7O/NC-129", "TITLE": "Blue Ridge", "REGION": "OR-North Coastal", "ASSOCIATION": "USA - Oregon", "POINTS": "1", "BONUSPOINTS": "0"}}, {"type": "Feature", "geometry": {"type": "Point", "coordinates": [-123.6815, 45.5115]}, "properties": {"NAME": "W7O/NC-130", "TITLE": "2032", "REGION": "OR-North Coastal", "ASSOCIATION": "USA - Oregon", "POINTS": "1", "BONUSPOINTS": "0"}}]}