{"type": "FeatureCollection", "name": "W7O/CC SUMMITS", "features": [{"type": "Feature", "geometry": {"type": "Point", "coordinates": [-123.5524, 44.5044]}, "properties": {"NAME": "W7O/CC-001", "TITLE": "Marys Peak", "REGION": "OR-Central Coast", "ASSOCIATION": "USA - Oregon", "POINTS": "2", "BONUSPOINTS": "0"}}, {"type": "Feature", "geometry": {"type": "Point", "coordinates": [-123.6738, 44.4238]}, "properties": {"NAME": "W7O/CC-002", "TITLE": "Grass Mountain", "REGION": "OR-Central Coast", "ASSOCIATION": "USA - Oregon", "POINTS": "2", "BONUSPOINTS": "0"}}, {"type": "Feature", "geometry": {"type": "Point", "coordinates": [-123.5733, 44.9233]}, "properties": {"NAME": "W7O/CC-003", "TITLE": "Laurel Mountain", "REGION": "OR-Central Coast", "ASSOCIATION": "USA - Oregon", "POINTS": "2", "BONUSPOINTS": "0"}}, {"type": "Feature", "geometry": {"type": "Point", "coordinates": [-123.6747, 44.8988]}, "properties": {"NAME": "W7O/CC-004", "TITLE": "Sugarloaf Mountain", "REGION": "OR-Central Coast", "ASSOCIATION": "USA - Oregon", "POINTS": "2", "BONUSPOINTS": "0"}}, {"type": "Feature", "geometry": {"type": "Point", "coordinates": [-123.5871, 44.2799]}, "properties": {"NAME": "W7O/CC-005", "TITLE": "Prairie Mountain", "REGION": "OR-Central Coast", "ASSOCIATION": "USA - Oregon", "POINTS": "2", "BONUSPOINTS": "0"}}, {"type": "Feature", "geometry": {"type": "Point", "coordinates": [-123.7786, 44.9916]}, "properties": {"NAME": "W7O/CC-006", "TITLE": "Saddle Bag Mountain", "REGION": "OR-Central Coast", "ASSOCIATION": "USA - Oregon", "POINTS": "2", "BONUSPOINTS": "0"}}, {"type": "Feature", "geometry": {"type": "Point", "coordinates": [-123.092, 43.5256]}, "properties": {"NAME": "W7O/CC-007", "TITLE": "Harness Mountain", "REGION": "OR-Central Coast", "ASSOCIATION": "USA - Oregon", "POINTS": "2", "BONUSPOINTS": "0"}}, {"type": "Feature", "geometry": {"type": "Point", "coordinates": [-123.5391, 44.2914]}, "properties": {"NAME": "W7O/CC-008", "TITLE": "Prairie Mountain East", "REGION": "OR-Central Coast", "ASSOCIATION": "USA - Oregon", "POINTS": "2", "BONUSPOINTS": "0"}}, {"type": "Feature", "geometry": {"type": "Point", "coordinates": [-123.0053, 43.6414]}, "properties": {"NAME": "W7O/CC-009", "TITLE": "Laurel Butte", "REGION": "OR-Central Coast", "ASSOCIATION": "USA - Oregon", "POINTS": "2", "BONUSPOINTS": "0"}}, {"type": "Feature", "geometry": {"type": "Point", "coordinates": [-123.5628, 44.4592]}, "properties": {"NAME": "W7O/CC-010", "TITLE": "Old Blue Mountain", "REGION": "OR-Central Coast", "ASSOCIATION": "USA - Oregon", "POINTS": "2", "BONUSPOINTS": "0"}}, {"type": "Feature", "geometry": {"type": "Point", "coordinates": [-123.5433, 44.7969]}, "properties": {"NAME": "W7O/CC-011", "TITLE": "Bald Mountain", "REGION": "OR-Central Coast", "ASSOCIATION": "USA - Oregon", "POINTS": "2", "BONUSPOINTS": "0"}}, {"type": "Feature", "geometry": {"type": "Point", "coordinates": [-123.7387, 43.9121]}, "properties": {"NAME": "W7O/CC-012", "TITLE": "Roman Nose Mountain", "REGION": "OR-Central Coast", "ASSOCIATION": "USA - Oregon", "POINTS": "1", "BONUSPOINTS": "0"}}, {"type": "Feature", "geometry": {"type": "Point", "coordinates": [-123.5532, 44.9808]}, "properties": {"NAME": "W7O/CC-013", "TITLE": "Dorn Peak", "REGION": "OR-Central Coast", "ASSOCIATION": "USA - Oregon", "POINTS": "1", "BONUSPOINTS": "0"}}, {"type": "Feature", "geometry": {"type": "Point", "coordinates": [-123.7352, 44.8426]}, "properties": {"NAME": "W7O/CC-014", "TITLE": "Big Tip", "REGION": "OR-Central Coast", "ASSOCIATION": "USA - Oregon", "POINTS": "1", "BONUSPOINTS": "0"}}, {"type": "Feature", "geometry": {"type": "Point", "coordinates": [-123.6404, 44.761]}, "properties": {"NAME": "W7O/CC-015", "TITLE": "Green Mountain", "REGION": "OR-Central Coast", "ASSOCIATION": "USA - Oregon", "POINTS": "1", "BONUSPOINTS": "0"}}, {"type": "Feature", "geometry": {"type": "Point", "coordinates": [-123.8368, 44.4756]}, "properties": {"NAME": "W7O/CC-016", "TITLE": "Table Mountain", "REGION": "OR-Central Coast", "ASSOCIATION": "USA - Oregon", "POINTS": "1", "BONUSPOINTS": "0"}}, {"type": "Feature", "geometry": {"type": "Point", "coordinates": [-123.4829, 44.4202]}, "properties": {"NAME": "W7O/CC-017", "TITLE": "Flat Mountain", "REGION": "OR-Central Coast", "ASSOCIATION": "USA - Oregon", "POINTS": "1", "BONUSPOINTS": "0"}}, {"type": "Feature", "geometry": {"type": "Point", "coordinates": [-123.4663, 44.3662]}, "properties": {"NAME": "W7O/CC-018", "TITLE": "Green Peak", "REGION": "OR-Central Coast", "ASSOCIATION": "USA - Oregon", "POINTS": "1", "BONUSPOINTS": "0"}}, {"type": "Feature", "geometry": {"type": "Point", "coordinates": [-123.5877, 44.7396]}, "properties": {"NAME": "W7O/CC-019", "TITLE": "Little Grass Mountain", "REGION": "OR-Central Coast", "ASSOCIATION": "USA - Oregon", "POINTS": "1", "BONUSPOINTS": "0"}}, {"type": "Feature", "geometry": {"type": "Point", "coordinates": [-123.1886, 43.5139]}, "properties": {"NAME": "W7O/CC-020", "TITLE": "Ben More Mountain", "REGION": "OR-Central Coast", "ASSOCIATION": "USA - Oregon", "POINTS": "1", "BONUSPOINTS": "0"}}, {"type": "Feature", "geometry": {"type": "Point", "coordinates": [-123.6765, 43.5131]}, "properties": {"NAME": "W7O/CC-021", "TITLE": "Old Blue", "REGION": "OR-Central Coast", "ASSOCIATION": "USA - Oregon", "POINTS": "1", "BONUSPOINTS": "0"}}, {"type": "Feature", "geometry": {"type": "Point", "coordinates": [-123.7073, 44.4763]}, "properties": {"NAME": "W7O/CC-022", "TITLE": "Lone Spring Mountain", "REGION": "OR-Central Coast", "ASSOCIATION": "USA - Oregon", "POINTS": "1", "BONUSPOINTS": "0"}}, {"type": "Feature", "geometry": {"type": "Point", "coordinates": [-123.9929, 44.2356]}, "properties": {"NAME": "W7O/CC-023", "TITLE": "Cummins Peak", "REGION": "OR-Central Coast", "ASSOCIATION": "USA - Oregon", "POINTS": "1", "BONUSPOINTS": "0"}}, {"type": "Feature", "geometry": {"type": "Point", "coordinates": [-123.4034, 43.5464]}, "properties": {"NAME": "W7O/CC-024", "TITLE": "Yellow Butte", "REGION": "OR-Central Coast", "ASSOCIATION": "USA - Oregon", "POINTS": "1", "BONUSPOINTS": "0"}}, {"type": "Feature", "geometry": {"type": "Point", "coordinates": [-123.8714, 44.835]}, "properties": {"NAME": "W7O/CC-025", "TITLE": "Euchre Mountain", "REGION": "OR-Central Coast", "ASSOCIATION": "USA - Oregon", "POINTS": "1", "BONUSPOINTS": "0"}}, {"type": "Feature", "geometry": {"type": "Point", "coordinates": [-123.7458, 44.7956]}, "properties": {"NAME": "W7O/CC-026", "TITLE": "Diamond Peak", "REGION": "OR-Central Coast", "ASSOCIATION": "USA - Oregon", "POINTS": "1", "BONUSPOINTS": "0"}}, {"type": "Feature", "geometry": {"type": "Point", "coordinates": [-123.6292, 44.0664]}, "properties": {"NAME": "W7O/CC-027", "TITLE": "Walker Point", "REGION": "OR-Central Coast", "ASSOCIATION": "USA - Oregon", "POINTS": "1", "BONUSPOINTS": "0"}}, {"type": "Feature", "geometry": {"type": "Point", "coordinates": [-123.9636, 44.1873]}, "properties": {"NAME": "W7O/CC-028", "TITLE": "Saddle Mountain", "REGION": "OR-Central Coast", "ASSOCIATION": "USA - Oregon", "POINTS": "1", "BONUSPOINTS": "0"}}, {"type": "Feature", "geometry": {"type": "Point", "coordinates": [-123.8244, 44.8153]}, "properties": {"NAME": "W7O/CC-029", "TITLE": "Wildcat Ridge", "REGION": "OR-Central Coast", "ASSOCIATION": "USA - Oregon", "POINTS": "1", "BONUSPOINTS": "0"}}, {"type": "Feature", "geometry": {"type": "Point", "coordinates": [-123.1366, 43.6568]}, "properties": {"NAME": "W7O/CC-030", "TITLE": "Cuttock Butte", "REGION": "OR-Central Coast", "ASSOCIATION": "USA - Oregon", "POINTS": "1", "BONUSPOINTS": "0"}}, {"type": "Feature", "geometry": {"type": "Point", "coordinates": [-123.2003, 43.5588]}, "properties": {"NAME": "W7O/CC-031", "TITLE": "Dickinson Mountain", "REGION": "OR-Central Coast", "ASSOCIATION": "USA - Oregon", "POINTS": "1", "BONUSPOINTS": "0"}}, {"type": "Feature", "geometry": {"type": "Point", "coordinates": [-124.0339, 44.1995]}, "properties": {"NAME": "W7O/CC-032", "TITLE": "Fairview Mountain", "REGION": "OR-Central Coast", "ASSOCIATION": "USA - Oregon", "POINTS": "1", "BONUSPOINTS": "0"}}, {"type": "Feature", "geometry": {"type": "Point", "coordinates": [-123.6228, 44.1536]}, "properties": {"NAME": "W7O/CC-033", "TITLE": "Elk Mountain", "REGION": "OR-Central Coast", "ASSOCIATION": "USA - Oregon", "POINTS": "1", "BONUSPOINTS": "0"}}, {"type": "Feature", "geometry": {"type": "Point", "coordinates": [-123.9276, 44.2352]}, "properties": {"NAME": "W7O/CC-034", "TITLE": "Klickitat Mountain", "REGION": "OR-Central Coast", "ASSOCIATION": "USA - Oregon", "POINTS": "1", "BONUSPOINTS": "0"}}, {"type": "Feature", "geometry": {"type": "Point", "coordinates": [-123.859, 43.9124]}, "properties": {"NAME": "W7O/CC-035", "TITLE": "Mount Grayback", "REGION": "OR-Central Coast", "ASSOCIATION": "USA - Oregon", "POINTS": "1", "BONUSPOINTS": "0"}}, {"type": "Feature", "geometry": {"type": "Point", "coordinates": [-123.4825, 44.9826]}, "properties": {"NAME": "W7O/CC-036", "TITLE": "Mill Creek Ridge", "REGION": "OR-Central Coast", "ASSOCIATION": "USA - Oregon", "POINTS": "1", "BONUSPOINTS": "0"}}, {"type": "Feature", "geometry": {"type": "Point", "coordinates": [-123.6774, 44.2645]}, "properties": {"NAME": "W7O/CC-037", "TITLE": "Taylor Butte", "REGION": "OR-Central Coast", "ASSOCIATION": "USA - Oregon", "POINTS": "1", "BONUSPOINTS": "0"}}, {"type": "Feature", "geometry": {"type": "Point", "coordinates": [-123.3527, 44.6298]}, "properties": {"NAME": "W7O/CC-038", "TITLE": "Cardwell Hills HP", "REGION": "OR-Central Coast", "ASSOCIATION": "USA - Oregon", "POINTS": "1", "BONUSPOINTS": "0"}}, {"type": "Feature", "geometry": {"type": "Point", "coordinates": [-123.8957, 43.5965]}, "properties": {"NAME": "W7O/CC-039", "TITLE": "Umpcoos Ridge", "REGION": "OR-Central Coast", "ASSOCIATION": "USA - Oregon", "POINTS": "1", "BONUSPOINTS": "0"}}, {"type": "Feature", "geometry": {"type": "Point", "coordinates": [-123.1573, 43.7358]}, "properties": {"NAME": "W7O/CC-040", "TITLE": "Wards Butte", "REGION": "OR-Central Coast", "ASSOCIATION": "USA - Oregon", "POINTS": "1", "BONUSPOINTS": "0"}}, {"type": "Feature", "geometry": {"type": "Point", "coordinates": [-124.0127, 44.1244]}, "properties": {"NAME": "W7O/CC-041", "TITLE": "Herman Peak", "REGION": "OR-Central Coast", "ASSOCIATION": "USA - Oregon", "POINTS": "1", "BONUSPOINTS": "0"}}, {"type": "Feature", "geometry": {"type": "Point", "coordinates": [-123.6553, 44.1472]}, "properties": {"NAME": "W7O/CC-042", "TITLE": "Windy Peak", "REGION": "OR-Central Coast", "ASSOCIATION": "USA - Oregon", "POINTS": "1", "BONUSPOINTS": "0"}}, {"type": "Feature", "geometry": {"type": "Point", "coordinates": [-123.0957, 43.9831]}, "properties": {"NAME": "W7O/CC-043", "TITLE": "Spencer Butte", "REGION": "OR-Central Coast", "ASSOCIATION": "USA - Oregon", "POINTS": "1", "BONUSPOINTS": "0"}}, {"type": "Feature", "geometry": {"type": "Point", "coordinates": [-123.679, 44.8169]}, "properties": {"NAME": "W7O/CC-044", "TITLE": "Chandler Mountain", "REGION": "OR-Central Coast", "ASSOCIATION": "USA - Oregon", "POINTS": "1", "BONUSPOINTS": "0"}}, {"type": "Feature", "geometry": {"type": "Point", "coordinates": [-123.4225, 43.6108]}, "properties": {"NAME": "W7O/CC-045", "TITLE": "Middle Ridge", "REGION": "OR-Central Coast", "ASSOCIATION": "USA - Oregon", "POINTS": "1", "BONUSPOINTS": "0"}}, {"type": "Feature", "geometry": {"type": "Point", "coordinates": [-123.4836, 44.8914]}, "properties": {"NAME": "W7O/CC-046", "TITLE": "Mount Brown", "REGION": "OR-Central Coast", "ASSOCIATION": "USA - Oregon", "POINTS": "1", "BONUSPOINTS": "0"}}, {"type": "Feature", "geometry": {"type": "Point", "coordinates": [-123.8864, 44.3487]}, "properties": {"NAME": "W7O/CC-047", "TITLE": "Cannibal Mountain", "REGION": "OR-Central Coast", "ASSOCIATION": "USA - Oregon", "POINTS": "1", "BONUSPOINTS": "0"}}, {"type": "Feature", "geometry": {"type": "Point", "coordinates": [-123.3795, 43.9063]}, "properties": {"NAME": "W7O/CC-048", "TITLE": "High Point", "REGION": "OR-Central Coast", "ASSOCIATION": "USA - Oregon", "POINTS": "1", "BONUSPOINTS": "0"}}, {"type": "Feature", "geometry": {"type": "Point", "coordinates": [-123.4928, 43.9248]}, "properties": {"NAME": "W7O/CC-049", "TITLE": "Stony Point", "REGION": "OR-Central Coast", "ASSOCIATION": "USA - Oregon", "POINTS": "1", "BONUSPOINTS": "0"}}, {"type": "Feature", "geometry": {"type": "Point", "coordinates": [-123.3789, 43.7293]}, "properties": {"NAME": "W7O/CC-050", "TITLE": "Lookout Mountain", "REGION": "OR-Central Coast", "ASSOCIATION": "USA - Oregon", "POINTS": "1", "BONUSPOINTS": "0"}}, {"type": "Feature", "geometry": {"type": "Point", "coordinates": [-123.7892, 43.7108]}, "properties": {"NAME": "W7O/CC-051", "TITLE": "Fern Top", "REGION": "OR-Central Coast", "ASSOCIATION": "USA - Oregon", "POINTS": "1", "BONUSPOINTS": "0"}}, {"type": "Feature", "geometry": {"type": "Point", "coordinates": [-124.0497, 44.2786]}, "properties": {"NAME": "W7O/CC-052", "TITLE": "Cape Ridge", "REGION": "OR-Central Coast", "ASSOCIATION": "USA - Oregon", "POINTS": "1", "BONUSPOINTS": "0"}}, {"type": "Feature", "geometry": {"type": "Point", "coordinates": [-123.6793, 43.7166]}, "properties": {"NAME": "W7O/CC-053", "TITLE": "Devil Benchmark", "REGION": "OR-Central Coast", "ASSOCIATION": "USA - Oregon", "POINTS": "1", "BONUSPOINTS": "0"}}, {"type": "Feature", "geometry": {"type": "Point", "coordinates": [-123.9415, 44.9223]}, "properties": {"NAME": "W7O/CC-054", "TITLE": "Ball Mountain", "REGION": "OR-Central Coast", "ASSOCIATION": "USA - Oregon", "POINTS": "1", "BONUSPOINTS": "0"}}, {"type": "Feature", "geometry": {"type": "Point", "coordinates": [-123.7793, 44.3955]}, "properties": {"NAME": "W7O/CC-055", "TITLE": "Scott Mountain", "REGION": "OR-Central Coast", "ASSOCIATION": "USA - Oregon", "POINTS": "1", "BONUSPOINTS": "0"}}, {"type": "Feature", "geometry": {"type": "Point", "coordinates": [-123.679, 44.7381]}, "properties": {"NAME": "W7O/CC-056", "TITLE": "Steer Divide", "REGION": "OR-Central Coast", "ASSOCIATION": "USA - Oregon", "POINTS": "1", "BONUSPOINTS": "0"}}, {"type": "Feature", "geometry": {"type": "Point", "coordinates": [-123.5028, 44.0505]}, "properties": {"NAME": "W7O/CC-057", "TITLE": "Badger Mountain", "REGION": "OR-Central Coast", "ASSOCIATION": "USA - Oregon", "POINTS": "1", "BONUSPOINTS": "0"}}, {"type": "Feature", "geometry": {"type": "Point", "coordinates": [-123.5397, 43.7143]}, "properties": {"NAME": "W7O/CC-058", "TITLE": "Saddle Butte", "REGION": "OR-Central Coast", "ASSOCIATION": "USA - Oregon", "POINTS": "1", "BONUSPOINTS": "0"}}, {"type": "Feature", "geometry": {"type": "Point", "coordinates": [-123.9798, 43.6144]}, "properties": {"NAME": "W7O/CC-059", "TITLE": "Dean Mountain", "REGION": "OR-Central Coast", "ASSOCIATION": "USA - Oregon", "POINTS": "1", "BONUSPOINTS": "0"}}, {"type": "Feature", "geometry": {"type": "Point", "coordinates": [-123.3267, 43.6385]}, "properties": {"NAME": "W7O/CC-060", "TITLE": "Mount Yoncalla", "REGION": "OR-Central Coast", "ASSOCIATION": "USA - Oregon", "POINTS": "1", "BONUSPOINTS": "0"}}, {"type": "Feature", "geometry": {"type": "Point", "coordinates": [-123.4964, 43.6159]}, "properties": {"NAME": "W7O/CC-061", "TITLE": "Bell Mountain", "REGION": "OR-Central Coast", "ASSOCIATION": "USA - Oregon", "POINTS": "1", "BONUSPOINTS": "0"}}, {"type": "Feature", "geometry": {"type": "Point", "coordinates": [-123.9894, 43.5459]}, "properties": {"NAME": "W7O/CC-062", "TITLE": "Dry Ridge", "REGION": "OR-Central Coast", "ASSOCIATION": "USA - Oregon", "POINTS": "1", "BONUSPOINTS": "0"}}, {"type": "Feature", "geometry": {"type": "Point", "coordinates": [-123.9295, 43.9565]}, "properties": {"NAME": "W7O/CC-063", "TITLE": "Mount Peter", "REGION": "OR-Central Coast", "ASSOCIATION": "USA - Oregon", "POINTS": "1", "BONUSPOINTS": "0"}}, {"type": "Feature", "geometry": {"type": "Point", "coordinates": [-124.0323, 44.3293]}, "properties": {"NAME": "W7O/CC-064", "TITLE": "Kerby Mountain", "REGION": "OR-Central Coast", "ASSOCIATION": "USA - Oregon", "POINTS": "1", "BONUSPOINTS": "0"}}, {"type": "Feature", "geometry": {"type": "Point", "coordinates": [-123.4445, 44.0381]}, "properties": {"NAME": "W7O/CC-065", "TITLE": "Green Mountain", "REGION": "OR-Central Coast", "ASSOCIATION": "USA - Oregon", "POINTS": "1", "BONUSPOINTS": "0"}}, {"type": "Feature", "geometry": {"type": "Point", "coordinates": [-123.972, 44.3579]}, "properties": {"NAME": "W7O/CC-066", "TITLE": "Burnt Timber Mountain", "REGION": "OR-Central Coast", "ASSOCIATION": "USA - Oregon", "POINTS": "1", "BONUSPOINTS": "0"}}, {"type": "Feature", "geometry": {"type": "Point", "coordinates": [-123.894, 44.0395]}, "properties": {"NAME": "W7O/CC-067", "TITLE": "Neely Mountain", "REGION": "OR-Central Coast", "ASSOCIATION": "USA - Oregon", "POINTS": "1", "BONUSPOINTS": "0"}}, {"type": "Feature", "geometry": {"type": "Point", "coordinates": [-123.8677, 44.5565]}, "properties": {"NAME": "W7O/CC-068", "TITLE": "Palmer Mountain", "REGION": "OR-Central Coast", "ASSOCIATION": "USA - Oregon", "POINTS": "1", "BONUSPOINTS": "0"}}, {"type": "Feature", "geometry": {"type": "Point", "coordinates": [-123.718, 44.5978]}, "properties": {"NAME": "W7O/CC-069", "TITLE": "Strom Boulder Ridge", "REGION": "OR-Central Coast", "ASSOCIATION": "USA - Oregon", "POINTS": "1", "BONUSPOINTS": "0"}}, {"type": "Feature", "geometry": {"type": "Point", "coordinates": [-123.2738, 43.6688]}, "properties": {"NAME": "W7O/CC-070", "TITLE": "Green Mountain", "REGION": "OR-Central Coast", "ASSOCIATION": "USA - Oregon", "POINTS": "1", "BONUSPOINTS": "0"}}, {"type": "Feature", "geometry": {"type": "Point", "coordinates": [-124.0751, 44.0973]}, "properties": {"NAME": "W7O/CC-071", "TITLE": "Cape Mountain", "REGION": "OR-Central Coast", "ASSOCIATION": "USA - Oregon", "POINTS": "1", "BONUSPOINTS": "0"}}, {"type": "Feature", "geometry": {"type": "Point", "coordinates": [-123.9301, 44.9584]}, "properties": {"NAME": "W7O/CC-072", "TITLE": "Prairie Hill", "REGION": "OR-Central Coast", "ASSOCIATION": "USA - Oregon", "POINTS": "1", "BONUSPOINTS": "0"}}, {"type": "Feature", "geometry": {"type": "Point", "coordinates": [-123.7897, 44.6222]}, "properties": {"NAME": "W7O/CC-073", "TITLE": "Baber Butte", "REGION": "OR-Central Coast", "ASSOCIATION": "USA - Oregon", "POINTS": "1", "BONUSPOINTS": "0"}}, {"type": "Feature", "geometry": {"type": "Point", "coordinates": [-123.004, 44.325]}, "properties": {"NAME": "W7O/CC-074", "TITLE": "Indian Head", "REGION": "OR-Central Coast", "ASSOCIATION": "USA - Oregon", "POINTS": "1", "BONUSPOINTS": "0"}}, {"type": "Feature", "geometry": {"type": "Point", "coordinates": [-123.3106, 43.6108]}, "properties": {"NAME": "W7O/CC-075", "TITLE": "DeVore Mountain", "REGION": "OR-Central Coast", "ASSOCIATION": "USA - Oregon", "POINTS": "1", "BONUSPOINTS": "0"}}, {"type": "Feature", "geometry": {"type": "Point", "coordinates": [-123.4886, 44.1092]}, "properties": {"NAME": "W7O/CC-076", "TITLE": "Stoney Point", "REGION": "OR-Central Coast", "ASSOCIATION": "USA - Oregon", "POINTS": "1", "BONUSPOINTS": "0"}}, {"type": "Feature", "geometry": {"type": "Point", "coordinates": [-123.1225, 44.8545]}, "properties": {"NAME": "W7O/CC-077", "TITLE": "Prospect Hill", "REGION": "OR-Central Coast", "ASSOCIATION": "USA - Oregon", "POINTS": "1", "BONUSPOINTS": "0"}}, {"type": "Feature", "geometry": {"type": "Point", "coordinates": [-124.0183, 44.82]}, "properties": {"NAME": "W7O/CC-078", "TITLE": "Siletz Hill", "REGION": "OR-Central Coast", "ASSOCIATION": "USA - Oregon", "POINTS": "1", "BONUSPOINTS": "0"}}, {"type": "Feature", "geometry": {"type": "Point", "coordinates": [-123.972, 44.8753]}, "properties": {"NAME": "W7O/CC-079", "TITLE": "Cannery Mountain", "REGION": "OR-Central Coast", "ASSOCIATION": "USA - Oregon", "POINTS": "1", "BONUSPOINTS": "0"}}, {"type": "Feature", "geometry": {"type": "Point", "coordinates": [-123.5456, 43.6435]}, "properties": {"NAME": "W7O/CC-080", "TITLE": "Hancock Hill", "REGION": "OR-Central Coast", "ASSOCIATION": "USA - Oregon", "POINTS": "1", "BONUSPOINTS": "0"}}, {"type": "Feature", "geometry": {"type": "Point", "coordinates": [-123.882, 44.6708]}, "properties": {"NAME": "W7O/CC-081", "TITLE": "Pioneer Mountain", "REGION": "OR-Central Coast", "ASSOCIATION": "USA - Oregon", "POINTS": "1", "BONUSPOINTS": "0"}}, {"type": "Feature", "geometry": {"type": "Point", "coordinates": [-123.023, 44.4689]}, "properties": {"NAME": "W7O/CC-082", "TITLE": "Ward Butte", "REGION": "OR-Central Coast", "ASSOCIATION": "USA - Oregon", "POINTS": "1", "BONUSPOINTS": "0"}}, {"type": "Feature", "geometry": {"type": "Point", "coordinates": [-123.806, 43.7778]}, "properties": {"NAME": "W7O/CC-083", "TITLE": "Island, The", "REGION": "OR-Central Coast", "ASSOCIATION": "USA - Oregon", "POINTS": "1", "BONUSPOINTS": "0"}}, {"type": "Feature", "geometry": {"type": "Point", "coordinates": [-124.0751, 43.9561]}, "properties": {"NAME": "W7O/CC-084", "TITLE": "Spur 2 Benchmark", "REGION": "OR-Central Coast", "ASSOCIATION": "USA - Oregon", "POINTS": "1", "BONUSPOINTS": "0"}}, {"type": "Feature", "geometry": {"type": "Point", "coordinates": [-123.7147, 44.9675]}, "properties": {"NAME": "W7O/CC-085", "TITLE": "3480", "REGION": "OR-Central Coast", "ASSOCIATION": "USA - Oregon", "POINTS": "2", "BONUSPOINTS": "0"}}, {"type": "Feature", "geometry": {"type": "Point", "coordinates": [-123.6136, 44.9505]}, "properties": {"NAME": "W7O/CC-086", "TITLE": "3190", "REGION": "OR-Central Coast", "ASSOCIATION": "USA - Oregon", "POINTS": "2", "BONUSPOINTS": "0"}}, {"type": "Feature", "geometry": {"type": "Point", "coordinates": [-123.5238, 44.4796]}, "properties": {"NAME": "W7O/CC-087", "TITLE": "3060", "REGION": "OR-Central Coast", "ASSOCIATION": "USA - Oregon", "POINTS": "2", "BONUSPOINTS": "0"}}, {"type": "Feature", "geometry": {"type": "Point", "coordinates": [-123.1215, 43.5993]}, "properties": {"NAME": "W7O/CC-088", "TITLE": "2534", "REGION": "OR-Central Coast", "ASSOCIATION": "USA - Oregon", "POINTS": "1", "BONUSPOINTS": "0"}}, {"type": "Feature", "geometry": {"type": "Point", "coordinates": [-123.5244, 44.9591]}, "properties": {"NAME": "W7O/CC-089", "TITLE": "2520", "REGION": "OR-Central Coast", "ASSOCIATION": "USA - Oregon", "POINTS": "1", "BONUSPOINTS": "0"}}, {"type": "Feature", "geometry": {"type": "Point", "coordinates": [-123.7614, 43.5317]}, "properties": {"NAME": "W7O/CC-090", "TITLE": "2300", "REGION": "OR-Central Coast", "ASSOCIATION": "USA - Oregon", "POINTS": "1", "BONUSPOINTS": "0"}}, {"type": "Feature", "geometry": {"type": "Point", "coordinates": [-123.6745, 44.7584]}, "properties": {"NAME": "W7O/CC-091", "TITLE": "2280", "REGION": "OR-Central Coast", "ASSOCIATION": "USA - Oregon", "POINTS": "1", "BONUSPOINTS": "0"}}, {"type": "Feature", "geometry": {"type": "Point", "coordinates": [-123.8, 44.8479]}, "properties": {"NAME": "W7O/CC-092", "TITLE": "2245", "REGION": "OR-Central Coast", "ASSOCIATION": "USA - Oregon", "POINTS": "1", "BONUSPOINTS": "0"}}, {"type": "Feature", "geometry": {"type": "Point", "coordinates": [-123.6475, 44.1887]}, "properties": {"NAME": "W7O/CC-093", "TITLE": "2215", "REGION": "OR-Central Coast", "ASSOCIATION": "USA - Oregon", "POINTS": "1", "BONUSPOINTS": "0"}}, {"type": "Feature", "geometry": {"type": "Point", "coordinates": [-123.607, 44.4794]}, "properties": {"NAME": "W7O/CC-094", "TITLE": "2122", "REGION": "OR-Central Coast", "ASSOCIATION": "USA - Oregon", "POINTS": "1", "BONUSPOINTS": "0"}}, {"type": "Feature", "geometry": {"type": "Point", "coordinates": [-123.4945, 44.1661]}, "properties": {"NAME": "W7O/CC-095", "TITLE": "2112", "REGION": "OR-Central Coast", "ASSOCIATION": "USA - Oregon", "POINTS": "1", "BONUSPOINTS": "0"}}, {"type": "Feature", "geometry": {"type": "Point", "coordinates": [-123.3995, 44.6321]}, "properties": {"NAME": "W7O/CC-096", "TITLE": "2100", "REGION": "OR-Central Coast", "ASSOCIATION": "USA - Oregon", "POINTS": "1", "BONUSPOINTS": "0"}}, {"type": "Feature", "geometry": {"type": "Point", "coordinates": [-123.3493, 44.672]}, "properties": {"NAME": "W7O/CC-097", "TITLE": "2096", "REGION": "OR-Central Coast", "ASSOCIATION": "USA - Oregon", "POINTS": "1", "BONUSPOINTS": "0"}}, {"type": "Feature", "geometry": {"type": "Point", "coordinates": [-123.9263, 43.5133]}, "properties": {"NAME": "W7O/CC-098", "TITLE": "2051", "REGION": "OR-Central Coast", "ASSOCIATION": "USA - Oregon", "POINTS": "1", "BONUSPOINTS": "0"}}, {"type": "Feature", "geometry": {"type": "Point", "coordinates": [-123.729, 44.8135]}, "properties": {"NAME": "W7O/CC-099", "TITLE": "1985", "REGION": "OR-Central Coast", "ASSOCIATION": "USA - Oregon", "POINTS": "1", "BONUSPOINTS": "0"}}, {"type": "Feature", "geometry": {"type": "Point", "coordinates": [-123.4438, 44.3269]}, "properties": {"NAME": "W7O/CC-100", "TITLE": "1982", "REGION": "OR-Central Coast", "ASSOCIATION": "USA - Oregon", "POINTS": "1", "BONUSPOINTS": "0"}}, {"type": "Feature", "geometry": {"type": "Point", "coordinates": [-123.9475, 43.509]}, "properties": {"NAME": "W7O/CC-101", "TITLE": "1980", "REGION": "OR-Central Coast", "ASSOCIATION": "USA - Oregon", "POINTS": "1", "BONUSPOINTS": "0"}}, {"type": "Feature", "geometry": {"type": "Point", "coordinates": [-123.7161, 44.7633]}, "properties": {"NAME": "W7O/CC-102", "TITLE": "1960", "REGION": "OR-Central Coast", "ASSOCIATION": "USA - Oregon", "POINTS": "1", "BONUSPOINTS": "0"}}, {"type": "Feature", "geometry": {"type": "Point", "coordinates": [-123.5029, 44.3489]}, "properties": {"NAME": "W7O/CC-103", "TITLE": "1870", "REGION": "OR-Central Coast", "ASSOCIATION": "USA - Oregon", "POINTS": "1", "BONUSPOINTS": "0"}}, {"type": "Feature", "geometry": {"type": "Point", "coordinates": [-123.8121, 44.0734]}, "properties": {"NAME": "W7O/CC-104", "TITLE": "1820", "REGION": "OR-Central Coast", "ASSOCIATION": "USA - Oregon", "POINTS": "1", "BONUSPOINTS": "0"}}, {"type": "Feature", "geometry": {"type": "Point", "coordinates": [-123.8565, 44.8826]}, "properties": {"NAME": "W7O/CC-105", "TITLE": "1820", "REGION": "OR-Central Coast", "ASSOCIATION": "USA - Oregon", "POINTS": "1", "BONUSPOINTS": "0"}}, {"type": "Feature", "geometry": {"type": "Point", "coordinates": [-123.5523, 44.0551]}, "properties": {"NAME": "W7O/CC-106", "TITLE": "1790", "REGION": "OR-Central Coast", "ASSOCIATION": "USA - Oregon", "POINTS": "1", "BONUSPOINTS": "0"}}, {"type": "Feature", "geometry": {"type": "Point", "coordinates": [-123.567, 43.8566]}, "properties": {"NAME": "W7O/CC-107", "TITLE": "1780", "REGION": "OR-Central Coast", "ASSOCIATION": "USA - Oregon", "POINTS": "1", "BONUSPOINTS": "0"}}, {"type": "Feature", "geometry": {"type": "Point", "coordinates": [-123.129, 43.868]}, "properties": {"NAME": "W7O/CC-108", "TITLE": "1752", "REGION": "OR-Central Coast", "ASSOCIATION": "USA - Oregon", "POINTS": "1", "BONUSPOINTS": "0"}}, {"type": "Feature", "geometry": {"type": "Point", "coordinates": [-123.7084, 44.3225]}, "properties": {"NAME": "W7O/CC-109", "TITLE": "1740", "REGION": "OR-Central Coast", "ASSOCIATION": "USA - Oregon", "POINTS": "1", "BONUSPOINTS": "0"}}, {"type": "Feature", "geometry": {"type": "Point", "coordinates": [-123.1395, 43.7731]}, "properties": {"NAME": "W7O/CC-110", "TITLE": "1708", "REGION": "OR-Central Coast", "ASSOCIATION": "USA - Oregon", "POINTS": "1", "BONUSPOINTS": "0"}}, {"type": "Feature", "geometry": {"type": "Point", "coordinates": [-123.3353, 43.9241]}, "properties": {"NAME": "W7O/CC-111", "TITLE": "1685", "REGION": "OR-Central Coast", "ASSOCIATION": "USA - Oregon", "POINTS": "1", "BONUSPOINTS": "0"}}, {"type": "Feature", "geometry": {"type": "Point", "coordinates": [-123.7692, 44.3569]}, "properties": {"NAME": "W7O/CC-112", "TITLE": "1675", "REGION": "OR-Central Coast", "ASSOCIATION": "USA - Oregon", "POINTS": "1", "BONUSPOINTS": "0"}}, {"type": "Feature", "geometry": {"type": "Point", "coordinates": [-123.8611, 44.0553]}, "properties": {"NAME": "W7O/CC-113", "TITLE": "1660", "REGION": "OR-Central Coast", "ASSOCIATION": "USA - Oregon", "POINTS": "1", "BONUSPOINTS": "0"}}, {"type": "Feature", "geometry": {"type": "Point", "coordinates": [-123.9178, 44.4631]}, "properties": {"NAME": "W7O/CC-114", "TITLE": "1650", "REGION": "OR-Central Coast", "ASSOCIATION": "USA - Oregon", "POINTS": "1", "BONUSPOINTS": "0"}}, {"type": "Feature", "geometry": {"type": "Point", "coordinates": [-123.7338, 44.3363]}, "properties": {"NAME": "W7O/CC-115", "TITLE": "1645", "REGION": "OR-Central Coast", "ASSOCIATION": "USA - Oregon", "POINTS": "1", "BONUSPOINTS": "0"}}, {"type": "Feature", "geometry": {"type": "Point", "coordinates": [-124.0717, 44.1552]}, "properties": {"NAME": "W7O/CC-116", "TITLE": "1630", "REGION": "OR-Central Coast", "ASSOCIATION": "USA - Oregon", "POINTS": "1", "BONUSPOINTS": "0"}}, {"type": "Feature", "geometry": {"type": "Point", "coordinates": [-123.8372, 43.6357]}, "properties": {"NAME": "W7O/CC-117", "TITLE": "1620", "REGION": "OR-Central Coast", "ASSOCIATION": "USA - Oregon", "POINTS": "1", "BONUSPOINTS": "0"}}, {"type": "Feature", "geometry": {"type": "Point", "coordinates": [-123.309, 44.6255]}, "properties": {"NAME": "W7O/CC-118", "TITLE": "1580", "REGION": "OR-Central Coast", "ASSOCIATION": "USA - Oregon", "POINTS": "1", "BONUSPOINTS": "0"}}, {"type": "Feature", "geometry": {"type": "Point", "coordinates": [-123.5691, 43.9883]}, "properties": {"NAME": "W7O/CC-119", "TITLE": "1580", "REGION": "OR-Central Coast", "ASSOCIATION": "USA - Oregon", "POINTS": "1", "BONUSPOINTS": "0"}}, {"type": "Feature", "geometry": {"type": "Point", "coordinates": [-123.5852, 43.9496]}, "properties": {"NAME": "W7O/CC-120", "TITLE": "1550", "REGION": "OR-Central Coast", "ASSOCIATION": "USA - Oregon", "POINTS": "1", "BONUSPOINTS": "0"}}, {"type": "Feature", "geometry": {"type": "Point", "coordinates": [-123.5728, 43.7558]}, "properties": {"NAME": "W7O/CC-121", "TITLE": "1540", "REGION": "OR-Central Coast", "ASSOCIATION": "USA - Oregon", "POINTS": "1", "BONUSPOINTS": "0"}}, {"type": "Feature", "geometry": {"type": "Point", "coordinates": [-123.3272, 43.6846]}, "properties": {"NAME": "W7O/CC-122", "TITLE": "1540", "REGION": "OR-Central Coast", "ASSOCIATION": "USA - Oregon", "POINTS": "1", "BONUSPOINTS": "0"}}, {"type": "Feature", "geometry": {"type": "Point", "coordinates": [-123.3523, 44.2718]}, "properties": {"NAME": "W7O/CC-123", "TITLE": "1523", "REGION": "OR-Central Coast", "ASSOCIATION": "USA - Oregon", "POINTS": "1", "BONUSPOINTS": "0"}}, {"type": "Feature", "geometry": {"type": "Point", "coordinates": [-123.2484, 43.6217]}, "properties": {"NAME": "W7O/CC-124", "TITLE": "1498", "REGION": "OR-Central Coast", "ASSOCIATION": "USA - Oregon", "POINTS": "1", "BONUSPOINTS": "0"}}, {"type": "Feature", "geometry": {"type": "Point", "coordinates": [-123.747, 44.2974]}, "properties": {"NAME": "W7O/CC-125", "TITLE": "1465", "REGION": "OR-Central Coast", "ASSOCIATION": "USA - Oregon", "POINTS": "1", "BONUSPOINTS": "0"}}, {"type": "Feature", "geometry": {"type": "Point", "coordinates": [-123.6403, 44.6755]}, "properties": {"NAME": "W7O/CC-126", "TITLE": "1444", "REGION": "OR-Central Coast", "ASSOCIATION": "USA - Oregon", "POINTS": "1", "BONUSPOINTS": "0"}}, {"type": "Feature", "geometry": {"type": "Point", "coordinates": [-123.4828, 44.5939]}, "properties": {"NAME": "W7O/CC-127", "TITLE": "1356", "REGION": "OR-Central Coast", "ASSOCIATION": "USA - Oregon", "POINTS": "1", "BONUSPOINTS": "0"}}, {"type": "Feature", "geometry": {"type": "Point", "coordinates": [-123.7392, 44.5741]}, "properties": {"NAME": "W7O/CC-128", "TITLE": "1340", "REGION": "OR-Central Coast", "ASSOCIATION": "USA - Oregon", "POINTS": "1", "BONUSPOINTS": "0"}}, {"type": "Feature", "geometry": {"type": "Point", "coordinates": [-123.7669, 44.671]}, "properties": {"NAME": "W7O/CC-129", "TITLE": "1319", "REGION": "OR-Central Coast", "ASSOCIATION": "USA - Oregon", "POINTS": "1", "BONUSPOINTS": "0"}}, {"type": "Feature", "geometry": {"type": "Point", "coordinates": [-123.661, 44.6375]}, "properties": {"NAME": "W7O/CC-130", "TITLE": "1294", "REGION": "OR-Central Coast", "ASSOCIATION": "USA - Oregon", "POINTS": "1", "BONUSPOINTS": "0"}}, {"type": "Feature", "geometry": {"type": "Point", "coordinates": [-123.5886, 44.6766]}, "properties": {"NAME": "W7O/CC-131", "TITLE": "1289", "REGION": "OR-Central Coast", "ASSOCIATION": "USA - Oregon", "POINTS": "1", "BONUSPOINTS": "0"}}, {"type": "Feature", "geometry": {"type": "Point", "coordinates": [-123.7145, 44.6445]}, "properties": {"NAME": "W7O/CC-132", "TITLE": "1196", "REGION": "OR-Central Coast", "ASSOCIATION": "USA - Oregon", "POINTS": "1", "BONUSPOINTS": "0"}}, {"type": "Feature", "geometry": {"type": "Point", "coordinates": [-123.8995, 44.8638]}, "properties": {"NAME": "W7O/CC-133", "TITLE": "1140", "REGION": "OR-Central Coast", "ASSOCIATION": "USA - Oregon", "POINTS": "1", "BONUSPOINTS": "0"}}, {"type": "Feature", "geometry": {"type": "Point", "coordinates": [-123.0048, 44.0322]}, "properties": {"NAME": "W7O/CC-134", "TITLE": "Springfield Butte", "REGION": "OR-Central Coast", "ASSOCIATION": "USA - Oregon", "POINTS": "1", "BONUSPOINTS": "0"}}, {"type": "Feature", "geometry": {"type": "Point", "coordinates": [-123.5219, 43.5499]}, "properties": {"NAME": "W7O/CC-135", "TITLE": "1100", "REGION": "OR-Central Coast", "ASSOCIATION": "USA - Oregon", "POINTS": "1", "BONUSPOINTS": "0"}}, {"type": "Feature", "geometry": {"type": "Point", "coordinates": [-123.3481, 44.1483]}, "properties": {"NAME": "W7O/CC-136", "TITLE": "1094", "REGION": "OR-Central Coast", "ASSOCIATION": "USA - Oregon", "POINTS": "1", "BONUSPOINTS": "0"}}, {"type": "Feature", "geometry": {"type": "Point", "coordinates": [-123.1428, 44.9781]}, "properties": {"NAME": "W7O/CC-137", "TITLE": "1093", "REGION": "OR-Central Coast", "ASSOCIATION": "USA - Oregon", "POINTS": "1", "BONUSPOINTS": "0"}}, {"type": "Feature", "geometry": {"type": "Point", "coordinates": [-124.0215, 44.7412]}, "properties": {"NAME": "W7O/CC-138", "TITLE": "1071", "REGION": "OR-Central Coast", "ASSOCIATION": "USA - Oregon", "POINTS": "1", "BONUSPOINTS": "0"}}, {"type": "Feature", "geometry": {"type": "Point", "coordinates": [-124.0486, 44.7563]}, "properties": {"NAME": "W7O/CC-139", "TITLE": "1060", "REGION": "OR-Central Coast", "ASSOCIATION": "USA - Oregon", "POINTS": "1", "BONUSPOINTS": "0"}}, {"type": "Feature", "geometry": {"type": "Point", "coordinates": [-124.057, 43.926]}, "properties": {"NAME": "W7O/CC-140", "TITLE": "860", "REGION": "OR-Central Coast", "ASSOCIATION": "USA - Oregon", "POINTS": "1", "BONUSPOINTS": "0"}}, {"type": "Feature", "geometry": {"type": "Point", "coordinates": [-123.9276, 43.7784]}, "properties": {"NAME": "W7O/CC-141", "TITLE": "830", "REGION": "OR-Central Coast", "ASSOCIATION": "USA - Oregon", "POINTS": "1", "BONUSPOINTS": "0"}}, {"type": "Feature", "geometry": {"type": "Point", "coordinates": [-123.6439, 44.8692]}, "properties": {"NAME": "W7O/CC-142", "TITLE": "Fanno Peak", "REGION": "OR-Central Coast", "ASSOCIATION": "USA - Oregon", "POINTS": "2", "BONUSPOINTS": "0"}}, {"type": "Feature", "geometry": {"type": "Point", "coordinates": [-124.0117, 44.1859]}, "properties": {"NAME": "W7O/CC-143", "TITLE": "Rock Creek Wilderness HP", "REGION": "OR-Central Coast", "ASSOCIATION": "USA - Oregon", "POINTS": "1", "BONUSPOINTS": "0"}}, {"type": "Feature", "geometry": {"type": "Point", "coordinates": [-123.4278, 44.2436]}, "properties": {"NAME": "W7O/CC-144", "TITLE": "1959", "REGION": "OR-Central Coast", "ASSOCIATION": "USA - Oregon", "POINTS": "1", "BONUSPOINTS": "0"}}, {"type": "Feature", "geometry": {"type": "Point", "coordinates": [-123.9972, 44.1382]}, "properties": {"NAME": "W7O/CC-145", "TITLE": "Three Buttes", "REGION": "OR-Central Coast", "ASSOCIATION": "USA - Oregon", "POINTS": "1", "BONUSPOINTS": "0"}}, {"type": "Feature", "geometry": {"type": "Point", "coordinates": [-123.3845, 43.8036]}, "properties": {"NAME": "W7O/CC-146", "TITLE": "1660", "REGION": "OR-Central Coast", "ASSOCIATION": "USA - Oregon", "POINTS": "1", "BONUSPOINTS": "0"}}, {"type": "Feature", "geometry": {"type": "Point", "coordinates": [-123.2707, 44.6462]}, "properties": {"NAME": "W7O/CC-147", "TITLE": "Vineyard Mountain", "REGION": "OR-Central Coast", "ASSOCIATION": "USA - Oregon", "POINTS": "1", "BONUSPOINTS": "0"}}]}