{"type": "FeatureCollection", "name": "W7O/CS SUMMITS", "features": [{"type": "Feature", "geometry": {"type": "Point", "coordinates": [-122.3158, 42.4445]}, "properties": {"NAME": "W7O/CS-001", "TITLE": "Mount McLoughlin", "REGION": "OR-Cascades South", "ASSOCIATION": "USA - Oregon", "POINTS": "10", "BONUSPOINTS": "3"}}, {"type": "Feature", "geometry": {"type": "Point", "coordinates": [-122.0665, 43.1527]}, "properties": {"NAME": "W7O/CS-002", "TITLE": "Mount Thielsen", "REGION": "OR-Cascades South", "ASSOCIATION": "USA - Oregon", "POINTS": "10", "BONUSPOINTS": "3"}}, {"type": "Feature", "geometry": {"type": "Point", "coordinates": [-122.0161, 42.9229]}, "properties": {"NAME": "W7O/CS-003", "TITLE": "Mount Scott", "REGION": "OR-Cascades South", "ASSOCIATION": "USA - Oregon", "POINTS": "8", "BONUSPOINTS": "3"}}, {"type": "Feature", "geometry": {"type": "Point", "coordinates": [-122.2201, 43.1551]}, "properties": {"NAME": "W7O/CS-004", "TITLE": "Mount Bailey", "REGION": "OR-Cascades South", "ASSOCIATION": "USA - Oregon", "POINTS": "8", "BONUSPOINTS": "3"}}, {"type": "Feature", "geometry": {"type": "Point", "coordinates": [-122.0392, 43.1923]}, "properties": {"NAME": "W7O/CS-005", "TITLE": "Howlock Mountain", "REGION": "OR-Cascades South", "ASSOCIATION": "USA - Oregon", "POINTS": "8", "BONUSPOINTS": "3"}}, {"type": "Feature", "geometry": {"type": "Point", "coordinates": [-122.0877, 42.3155]}, "properties": {"NAME": "W7O/CS-006", "TITLE": "Aspen Butte", "REGION": "OR-Cascades South", "ASSOCIATION": "USA - Oregon", "POINTS": "8", "BONUSPOINTS": "3"}}, {"type": "Feature", "geometry": {"type": "Point", "coordinates": [-122.0479, 43.1561]}, "properties": {"NAME": "W7O/CS-007", "TITLE": "Hollys Ridge", "REGION": "OR-Cascades South", "ASSOCIATION": "USA - Oregon", "POINTS": "8", "BONUSPOINTS": "3"}}, {"type": "Feature", "geometry": {"type": "Point", "coordinates": [-122.1692, 42.9518]}, "properties": {"NAME": "W7O/CS-008", "TITLE": "Hillman Peak", "REGION": "OR-Cascades South", "ASSOCIATION": "USA - Oregon", "POINTS": "8", "BONUSPOINTS": "3"}}, {"type": "Feature", "geometry": {"type": "Point", "coordinates": [-122.0843, 42.9024]}, "properties": {"NAME": "W7O/CS-009", "TITLE": "Dutton Ridge", "REGION": "OR-Cascades South", "ASSOCIATION": "USA - Oregon", "POINTS": "8", "BONUSPOINTS": "3"}}, {"type": "Feature", "geometry": {"type": "Point", "coordinates": [-122.1049, 42.8998]}, "properties": {"NAME": "W7O/CS-010", "TITLE": "Applegate Peak", "REGION": "OR-Cascades South", "ASSOCIATION": "USA - Oregon", "POINTS": "8", "BONUSPOINTS": "3"}}, {"type": "Feature", "geometry": {"type": "Point", "coordinates": [-122.1344, 42.9727]}, "properties": {"NAME": "W7O/CS-011", "TITLE": "Llao Rock", "REGION": "OR-Cascades South", "ASSOCIATION": "USA - Oregon", "POINTS": "8", "BONUSPOINTS": "3"}}, {"type": "Feature", "geometry": {"type": "Point", "coordinates": [-122.1453, 42.5134]}, "properties": {"NAME": "W7O/CS-012", "TITLE": "Pelican Butte", "REGION": "OR-Cascades South", "ASSOCIATION": "USA - Oregon", "POINTS": "8", "BONUSPOINTS": "3"}}, {"type": "Feature", "geometry": {"type": "Point", "coordinates": [-122.0929, 42.3732]}, "properties": {"NAME": "W7O/CS-013", "TITLE": "Mount Harriman", "REGION": "OR-Cascades South", "ASSOCIATION": "USA - Oregon", "POINTS": "6", "BONUSPOINTS": "3"}}, {"type": "Feature", "geometry": {"type": "Point", "coordinates": [-122.083, 42.3334]}, "properties": {"NAME": "W7O/CS-014", "TITLE": "Carmine, Mount", "REGION": "OR-Cascades South", "ASSOCIATION": "USA - Oregon", "POINTS": "6", "BONUSPOINTS": "3"}}, {"type": "Feature", "geometry": {"type": "Point", "coordinates": [-122.148, 42.3288]}, "properties": {"NAME": "W7O/CS-015", "TITLE": "Crater Mountain", "REGION": "OR-Cascades South", "ASSOCIATION": "USA - Oregon", "POINTS": "6", "BONUSPOINTS": "3"}}, {"type": "Feature", "geometry": {"type": "Point", "coordinates": [-122.2234, 42.8311]}, "properties": {"NAME": "W7O/CS-016", "TITLE": "Union Peak", "REGION": "OR-Cascades South", "ASSOCIATION": "USA - Oregon", "POINTS": "6", "BONUSPOINTS": "3"}}, {"type": "Feature", "geometry": {"type": "Point", "coordinates": [-122.0538, 43.3997]}, "properties": {"NAME": "W7O/CS-017", "TITLE": "Cowhorn Mountain", "REGION": "OR-Cascades South", "ASSOCIATION": "USA - Oregon", "POINTS": "6", "BONUSPOINTS": "3"}}, {"type": "Feature", "geometry": {"type": "Point", "coordinates": [-122.2138, 42.6432]}, "properties": {"NAME": "W7O/CS-018", "TITLE": "Devils Peak", "REGION": "OR-Cascades South", "ASSOCIATION": "USA - Oregon", "POINTS": "6", "BONUSPOINTS": "3"}}, {"type": "Feature", "geometry": {"type": "Point", "coordinates": [-122.7169, 42.0808]}, "properties": {"NAME": "W7O/CS-019", "TITLE": "Mount Ashland", "REGION": "OR-Cascades South", "ASSOCIATION": "USA - Oregon", "POINTS": "6", "BONUSPOINTS": "3"}}, {"type": "Feature", "geometry": {"type": "Point", "coordinates": [-122.0625, 43.0433]}, "properties": {"NAME": "W7O/CS-020", "TITLE": "Timber Crater", "REGION": "OR-Cascades South", "ASSOCIATION": "USA - Oregon", "POINTS": "6", "BONUSPOINTS": "3"}}, {"type": "Feature", "geometry": {"type": "Point", "coordinates": [-122.8908, 42.0433]}, "properties": {"NAME": "W7O/CS-021", "TITLE": "Dutchman Peak", "REGION": "OR-Cascades South", "ASSOCIATION": "USA - Oregon", "POINTS": "6", "BONUSPOINTS": "3"}}, {"type": "Feature", "geometry": {"type": "Point", "coordinates": [-122.1632, 42.9979]}, "properties": {"NAME": "W7O/CS-022", "TITLE": "Red Cone", "REGION": "OR-Cascades South", "ASSOCIATION": "USA - Oregon", "POINTS": "6", "BONUSPOINTS": "3"}}, {"type": "Feature", "geometry": {"type": "Point", "coordinates": [-122.2701, 42.3648]}, "properties": {"NAME": "W7O/CS-023", "TITLE": "Brown Mountain", "REGION": "OR-Cascades South", "ASSOCIATION": "USA - Oregon", "POINTS": "6", "BONUSPOINTS": "3"}}, {"type": "Feature", "geometry": {"type": "Point", "coordinates": [-122.1016, 43.384]}, "properties": {"NAME": "W7O/CS-024", "TITLE": "Sawtooth Mountain", "REGION": "OR-Cascades South", "ASSOCIATION": "USA - Oregon", "POINTS": "6", "BONUSPOINTS": "3"}}, {"type": "Feature", "geometry": {"type": "Point", "coordinates": [-122.1246, 42.6892]}, "properties": {"NAME": "W7O/CS-025", "TITLE": "Klamath Point", "REGION": "OR-Cascades South", "ASSOCIATION": "USA - Oregon", "POINTS": "6", "BONUSPOINTS": "3"}}, {"type": "Feature", "geometry": {"type": "Point", "coordinates": [-122.0974, 42.848]}, "properties": {"NAME": "W7O/CS-026", "TITLE": "Crater Peak", "REGION": "OR-Cascades South", "ASSOCIATION": "USA - Oregon", "POINTS": "6", "BONUSPOINTS": "3"}}, {"type": "Feature", "geometry": {"type": "Point", "coordinates": [-122.7745, 42.1182]}, "properties": {"NAME": "W7O/CS-027", "TITLE": "Wagner Butte", "REGION": "OR-Cascades South", "ASSOCIATION": "USA - Oregon", "POINTS": "6", "BONUSPOINTS": "3"}}, {"type": "Feature", "geometry": {"type": "Point", "coordinates": [-122.1536, 42.7876]}, "properties": {"NAME": "W7O/CS-028", "TITLE": "Goose Nest", "REGION": "OR-Cascades South", "ASSOCIATION": "USA - Oregon", "POINTS": "6", "BONUSPOINTS": "3"}}, {"type": "Feature", "geometry": {"type": "Point", "coordinates": [-122.0672, 42.2833]}, "properties": {"NAME": "W7O/CS-029", "TITLE": "Little Aspen Butte", "REGION": "OR-Cascades South", "ASSOCIATION": "USA - Oregon", "POINTS": "6", "BONUSPOINTS": "3"}}, {"type": "Feature", "geometry": {"type": "Point", "coordinates": [-122.7535, 42.0829]}, "properties": {"NAME": "W7O/CS-030", "TITLE": "McDonald Peak", "REGION": "OR-Cascades South", "ASSOCIATION": "USA - Oregon", "POINTS": "6", "BONUSPOINTS": "3"}}, {"type": "Feature", "geometry": {"type": "Point", "coordinates": [-122.185, 42.7152]}, "properties": {"NAME": "W7O/CS-031", "TITLE": "Maude Mountain", "REGION": "OR-Cascades South", "ASSOCIATION": "USA - Oregon", "POINTS": "6", "BONUSPOINTS": "3"}}, {"type": "Feature", "geometry": {"type": "Point", "coordinates": [-122.2106, 42.6071]}, "properties": {"NAME": "W7O/CS-032", "TITLE": "Luther Mountain", "REGION": "OR-Cascades South", "ASSOCIATION": "USA - Oregon", "POINTS": "6", "BONUSPOINTS": "3"}}, {"type": "Feature", "geometry": {"type": "Point", "coordinates": [-122.1817, 42.7716]}, "properties": {"NAME": "W7O/CS-033", "TITLE": "Goose Egg", "REGION": "OR-Cascades South", "ASSOCIATION": "USA - Oregon", "POINTS": "6", "BONUSPOINTS": "3"}}, {"type": "Feature", "geometry": {"type": "Point", "coordinates": [-122.8411, 42.0525]}, "properties": {"NAME": "W7O/CS-034", "TITLE": "Big Red Mountain", "REGION": "OR-Cascades South", "ASSOCIATION": "USA - Oregon", "POINTS": "6", "BONUSPOINTS": "3"}}, {"type": "Feature", "geometry": {"type": "Point", "coordinates": [-122.0128, 43.3183]}, "properties": {"NAME": "W7O/CS-035", "TITLE": "Tolo Mountain", "REGION": "OR-Cascades South", "ASSOCIATION": "USA - Oregon", "POINTS": "6", "BONUSPOINTS": "3"}}, {"type": "Feature", "geometry": {"type": "Point", "coordinates": [-122.2818, 43.1451]}, "properties": {"NAME": "W7O/CS-036", "TITLE": "Garwood Butte", "REGION": "OR-Cascades South", "ASSOCIATION": "USA - Oregon", "POINTS": "6", "BONUSPOINTS": "3"}}, {"type": "Feature", "geometry": {"type": "Point", "coordinates": [-122.1509, 43.0609]}, "properties": {"NAME": "W7O/CS-037", "TITLE": "Desert Ridge", "REGION": "OR-Cascades South", "ASSOCIATION": "USA - Oregon", "POINTS": "6", "BONUSPOINTS": "3"}}, {"type": "Feature", "geometry": {"type": "Point", "coordinates": [-122.1466, 42.9384]}, "properties": {"NAME": "W7O/CS-038", "TITLE": "Wizard Island", "REGION": "OR-Cascades South", "ASSOCIATION": "USA - Oregon", "POINTS": "6", "BONUSPOINTS": "3"}}, {"type": "Feature", "geometry": {"type": "Point", "coordinates": [-122.2517, 43.1145]}, "properties": {"NAME": "W7O/CS-039", "TITLE": "Sherwood Butte", "REGION": "OR-Cascades South", "ASSOCIATION": "USA - Oregon", "POINTS": "6", "BONUSPOINTS": "3"}}, {"type": "Feature", "geometry": {"type": "Point", "coordinates": [-122.2429, 42.7648]}, "properties": {"NAME": "W7O/CS-040", "TITLE": "Tom Mountain", "REGION": "OR-Cascades South", "ASSOCIATION": "USA - Oregon", "POINTS": "6", "BONUSPOINTS": "3"}}, {"type": "Feature", "geometry": {"type": "Point", "coordinates": [-122.4239, 43.0756]}, "properties": {"NAME": "W7O/CS-041", "TITLE": "Fish Mountain", "REGION": "OR-Cascades South", "ASSOCIATION": "USA - Oregon", "POINTS": "6", "BONUSPOINTS": "3"}}, {"type": "Feature", "geometry": {"type": "Point", "coordinates": [-122.2135, 42.5064]}, "properties": {"NAME": "W7O/CS-042", "TITLE": "Lost Peak", "REGION": "OR-Cascades South", "ASSOCIATION": "USA - Oregon", "POINTS": "6", "BONUSPOINTS": "3"}}, {"type": "Feature", "geometry": {"type": "Point", "coordinates": [-122.1637, 42.7147]}, "properties": {"NAME": "W7O/CS-043", "TITLE": "Bunker Hill", "REGION": "OR-Cascades South", "ASSOCIATION": "USA - Oregon", "POINTS": "6", "BONUSPOINTS": "3"}}, {"type": "Feature", "geometry": {"type": "Point", "coordinates": [-122.1588, 43.0343]}, "properties": {"NAME": "W7O/CS-044", "TITLE": "Desert Cone", "REGION": "OR-Cascades South", "ASSOCIATION": "USA - Oregon", "POINTS": "6", "BONUSPOINTS": "3"}}, {"type": "Feature", "geometry": {"type": "Point", "coordinates": [-122.4242, 43.1067]}, "properties": {"NAME": "W7O/CS-045", "TITLE": "Rattlesnake Mountain", "REGION": "OR-Cascades South", "ASSOCIATION": "USA - Oregon", "POINTS": "6", "BONUSPOINTS": "3"}}, {"type": "Feature", "geometry": {"type": "Point", "coordinates": [-122.2905, 42.5402]}, "properties": {"NAME": "W7O/CS-046", "TITLE": "Smith Rock", "REGION": "OR-Cascades South", "ASSOCIATION": "USA - Oregon", "POINTS": "6", "BONUSPOINTS": "3"}}, {"type": "Feature", "geometry": {"type": "Point", "coordinates": [-122.1505, 42.578]}, "properties": {"NAME": "W7O/CS-047", "TITLE": "Cherry Peak", "REGION": "OR-Cascades South", "ASSOCIATION": "USA - Oregon", "POINTS": "6", "BONUSPOINTS": "3"}}, {"type": "Feature", "geometry": {"type": "Point", "coordinates": [-122.0606, 43.2725]}, "properties": {"NAME": "W7O/CS-048", "TITLE": "Red Cinder Butte", "REGION": "OR-Cascades South", "ASSOCIATION": "USA - Oregon", "POINTS": "6", "BONUSPOINTS": "3"}}, {"type": "Feature", "geometry": {"type": "Point", "coordinates": [-122.1806, 42.2129]}, "properties": {"NAME": "W7O/CS-049", "TITLE": "Surveyor Mountain", "REGION": "OR-Cascades South", "ASSOCIATION": "USA - Oregon", "POINTS": "6", "BONUSPOINTS": "3"}}, {"type": "Feature", "geometry": {"type": "Point", "coordinates": [-122.2204, 43.0418]}, "properties": {"NAME": "W7O/CS-050", "TITLE": "Bald Crater", "REGION": "OR-Cascades South", "ASSOCIATION": "USA - Oregon", "POINTS": "6", "BONUSPOINTS": "3"}}, {"type": "Feature", "geometry": {"type": "Point", "coordinates": [-122.1531, 43.4477]}, "properties": {"NAME": "W7O/CS-051", "TITLE": "Emigrant Butte", "REGION": "OR-Cascades South", "ASSOCIATION": "USA - Oregon", "POINTS": "6", "BONUSPOINTS": "3"}}, {"type": "Feature", "geometry": {"type": "Point", "coordinates": [-122.2858, 42.8433]}, "properties": {"NAME": "W7O/CS-052", "TITLE": "Rocktop Butte", "REGION": "OR-Cascades South", "ASSOCIATION": "USA - Oregon", "POINTS": "6", "BONUSPOINTS": "3"}}, {"type": "Feature", "geometry": {"type": "Point", "coordinates": [-122.2207, 42.4204]}, "properties": {"NAME": "W7O/CS-053", "TITLE": "Rye Spur", "REGION": "OR-Cascades South", "ASSOCIATION": "USA - Oregon", "POINTS": "6", "BONUSPOINTS": "3"}}, {"type": "Feature", "geometry": {"type": "Point", "coordinates": [-122.0339, 43.3566]}, "properties": {"NAME": "W7O/CS-054", "TITLE": "Windigo Butte", "REGION": "OR-Cascades South", "ASSOCIATION": "USA - Oregon", "POINTS": "6", "BONUSPOINTS": "3"}}, {"type": "Feature", "geometry": {"type": "Point", "coordinates": [-122.1097, 43.241]}, "properties": {"NAME": "W7O/CS-055", "TITLE": "Cinnamon Butte", "REGION": "OR-Cascades South", "ASSOCIATION": "USA - Oregon", "POINTS": "6", "BONUSPOINTS": "3"}}, {"type": "Feature", "geometry": {"type": "Point", "coordinates": [-122.0183, 42.8327]}, "properties": {"NAME": "W7O/CS-056", "TITLE": "Maklaks Crater", "REGION": "OR-Cascades South", "ASSOCIATION": "USA - Oregon", "POINTS": "6", "BONUSPOINTS": "3"}}, {"type": "Feature", "geometry": {"type": "Point", "coordinates": [-122.4499, 43.061]}, "properties": {"NAME": "W7O/CS-057", "TITLE": "Weaver Mountain", "REGION": "OR-Cascades South", "ASSOCIATION": "USA - Oregon", "POINTS": "6", "BONUSPOINTS": "3"}}, {"type": "Feature", "geometry": {"type": "Point", "coordinates": [-122.2888, 42.2478]}, "properties": {"NAME": "W7O/CS-058", "TITLE": "Old Baldy", "REGION": "OR-Cascades South", "ASSOCIATION": "USA - Oregon", "POINTS": "6", "BONUSPOINTS": "3"}}, {"type": "Feature", "geometry": {"type": "Point", "coordinates": [-122.0007, 42.8031]}, "properties": {"NAME": "W7O/CS-059", "TITLE": "Sand Ridge", "REGION": "OR-Cascades South", "ASSOCIATION": "USA - Oregon", "POINTS": "6", "BONUSPOINTS": "3"}}, {"type": "Feature", "geometry": {"type": "Point", "coordinates": [-122.4549, 43.0355]}, "properties": {"NAME": "W7O/CS-060", "TITLE": "Hershberger Mountain", "REGION": "OR-Cascades South", "ASSOCIATION": "USA - Oregon", "POINTS": "6", "BONUSPOINTS": "3"}}, {"type": "Feature", "geometry": {"type": "Point", "coordinates": [-122.1529, 42.1683]}, "properties": {"NAME": "W7O/CS-061", "TITLE": "Buck Mountain", "REGION": "OR-Cascades South", "ASSOCIATION": "USA - Oregon", "POINTS": "6", "BONUSPOINTS": "3"}}, {"type": "Feature", "geometry": {"type": "Point", "coordinates": [-122.3481, 42.6192]}, "properties": {"NAME": "W7O/CS-062", "TITLE": "Rustler Peak", "REGION": "OR-Cascades South", "ASSOCIATION": "USA - Oregon", "POINTS": "6", "BONUSPOINTS": "3"}}, {"type": "Feature", "geometry": {"type": "Point", "coordinates": [-122.4857, 43.0505]}, "properties": {"NAME": "W7O/CS-063", "TITLE": "Highrock Mountain", "REGION": "OR-Cascades South", "ASSOCIATION": "USA - Oregon", "POINTS": "6", "BONUSPOINTS": "3"}}, {"type": "Feature", "geometry": {"type": "Point", "coordinates": [-122.4003, 43.3987]}, "properties": {"NAME": "W7O/CS-064", "TITLE": "Staley Ridge", "REGION": "OR-Cascades South", "ASSOCIATION": "USA - Oregon", "POINTS": "6", "BONUSPOINTS": "3"}}, {"type": "Feature", "geometry": {"type": "Point", "coordinates": [-122.4643, 43.16]}, "properties": {"NAME": "W7O/CS-065", "TITLE": "Black Rock", "REGION": "OR-Cascades South", "ASSOCIATION": "USA - Oregon", "POINTS": "6", "BONUSPOINTS": "3"}}, {"type": "Feature", "geometry": {"type": "Point", "coordinates": [-122.3748, 43.0999]}, "properties": {"NAME": "W7O/CS-066", "TITLE": "Buckneck Mountain", "REGION": "OR-Cascades South", "ASSOCIATION": "USA - Oregon", "POINTS": "6", "BONUSPOINTS": "3"}}, {"type": "Feature", "geometry": {"type": "Point", "coordinates": [-122.3387, 43.365]}, "properties": {"NAME": "W7O/CS-067", "TITLE": "Potter Mountain", "REGION": "OR-Cascades South", "ASSOCIATION": "USA - Oregon", "POINTS": "6", "BONUSPOINTS": "3"}}, {"type": "Feature", "geometry": {"type": "Point", "coordinates": [-122.4372, 42.1522]}, "properties": {"NAME": "W7O/CS-068", "TITLE": "Chinquapin Mountain", "REGION": "OR-Cascades South", "ASSOCIATION": "USA - Oregon", "POINTS": "6", "BONUSPOINTS": "3"}}, {"type": "Feature", "geometry": {"type": "Point", "coordinates": [-122.2913, 43.2158]}, "properties": {"NAME": "W7O/CS-069", "TITLE": "Trap Mountain", "REGION": "OR-Cascades South", "ASSOCIATION": "USA - Oregon", "POINTS": "6", "BONUSPOINTS": "3"}}, {"type": "Feature", "geometry": {"type": "Point", "coordinates": [-122.5497, 42.9433]}, "properties": {"NAME": "W7O/CS-070", "TITLE": "Abbott Butte", "REGION": "OR-Cascades South", "ASSOCIATION": "USA - Oregon", "POINTS": "6", "BONUSPOINTS": "3"}}, {"type": "Feature", "geometry": {"type": "Point", "coordinates": [-122.2829, 43.424]}, "properties": {"NAME": "W7O/CS-071", "TITLE": "McGowan Mountain", "REGION": "OR-Cascades South", "ASSOCIATION": "USA - Oregon", "POINTS": "6", "BONUSPOINTS": "3"}}, {"type": "Feature", "geometry": {"type": "Point", "coordinates": [-122.4215, 43.3802]}, "properties": {"NAME": "W7O/CS-072", "TITLE": "Balm Mountain", "REGION": "OR-Cascades South", "ASSOCIATION": "USA - Oregon", "POINTS": "6", "BONUSPOINTS": "3"}}, {"type": "Feature", "geometry": {"type": "Point", "coordinates": [-122.493, 42.1977]}, "properties": {"NAME": "W7O/CS-073", "TITLE": "Table Mountain", "REGION": "OR-Cascades South", "ASSOCIATION": "USA - Oregon", "POINTS": "6", "BONUSPOINTS": "3"}}, {"type": "Feature", "geometry": {"type": "Point", "coordinates": [-122.2488, 42.2832]}, "properties": {"NAME": "W7O/CS-074", "TITLE": "Burton Butte", "REGION": "OR-Cascades South", "ASSOCIATION": "USA - Oregon", "POINTS": "6", "BONUSPOINTS": "3"}}, {"type": "Feature", "geometry": {"type": "Point", "coordinates": [-122.479, 42.0647]}, "properties": {"NAME": "W7O/CS-075", "TITLE": "Soda Mountain", "REGION": "OR-Cascades South", "ASSOCIATION": "USA - Oregon", "POINTS": "6", "BONUSPOINTS": "3"}}, {"type": "Feature", "geometry": {"type": "Point", "coordinates": [-122.4442, 43.0086]}, "properties": {"NAME": "W7O/CS-076", "TITLE": "Rabbit Ears West", "REGION": "OR-Cascades South", "ASSOCIATION": "USA - Oregon", "POINTS": "6", "BONUSPOINTS": "3"}}, {"type": "Feature", "geometry": {"type": "Point", "coordinates": [-122.1851, 43.3489]}, "properties": {"NAME": "W7O/CS-077", "TITLE": "Kelsay Mountain", "REGION": "OR-Cascades South", "ASSOCIATION": "USA - Oregon", "POINTS": "4", "BONUSPOINTS": "3"}}, {"type": "Feature", "geometry": {"type": "Point", "coordinates": [-122.3268, 42.7649]}, "properties": {"NAME": "W7O/CS-078", "TITLE": "Bessie Rock", "REGION": "OR-Cascades South", "ASSOCIATION": "USA - Oregon", "POINTS": "4", "BONUSPOINTS": "3"}}, {"type": "Feature", "geometry": {"type": "Point", "coordinates": [-122.0933, 43.2746]}, "properties": {"NAME": "W7O/CS-079", "TITLE": "Thirsty Point", "REGION": "OR-Cascades South", "ASSOCIATION": "USA - Oregon", "POINTS": "4", "BONUSPOINTS": "3"}}, {"type": "Feature", "geometry": {"type": "Point", "coordinates": [-122.2362, 43.3013]}, "properties": {"NAME": "W7O/CS-080", "TITLE": "Elephant Mountain", "REGION": "OR-Cascades South", "ASSOCIATION": "USA - Oregon", "POINTS": "4", "BONUSPOINTS": "3"}}, {"type": "Feature", "geometry": {"type": "Point", "coordinates": [-122.6167, 42.2696]}, "properties": {"NAME": "W7O/CS-081", "TITLE": "Grizzly Peak", "REGION": "OR-Cascades South", "ASSOCIATION": "USA - Oregon", "POINTS": "4", "BONUSPOINTS": "3"}}, {"type": "Feature", "geometry": {"type": "Point", "coordinates": [-122.5992, 43.2211]}, "properties": {"NAME": "W7O/CS-082", "TITLE": "Twin Lakes Mountain", "REGION": "OR-Cascades South", "ASSOCIATION": "USA - Oregon", "POINTS": "4", "BONUSPOINTS": "3"}}, {"type": "Feature", "geometry": {"type": "Point", "coordinates": [-122.3815, 42.3645]}, "properties": {"NAME": "W7O/CS-083", "TITLE": "Robinson Butte", "REGION": "OR-Cascades South", "ASSOCIATION": "USA - Oregon", "POINTS": "4", "BONUSPOINTS": "3"}}, {"type": "Feature", "geometry": {"type": "Point", "coordinates": [-122.6258, 42.0836]}, "properties": {"NAME": "W7O/CS-084", "TITLE": "Ogden Hill", "REGION": "OR-Cascades South", "ASSOCIATION": "USA - Oregon", "POINTS": "4", "BONUSPOINTS": "3"}}, {"type": "Feature", "geometry": {"type": "Point", "coordinates": [-122.5919, 42.9035]}, "properties": {"NAME": "W7O/CS-085", "TITLE": "Whaleback", "REGION": "OR-Cascades South", "ASSOCIATION": "USA - Oregon", "POINTS": "4", "BONUSPOINTS": "3"}}, {"type": "Feature", "geometry": {"type": "Point", "coordinates": [-122.5609, 42.0306]}, "properties": {"NAME": "W7O/CS-086", "TITLE": "Pilot Rock", "REGION": "OR-Cascades South", "ASSOCIATION": "USA - Oregon", "POINTS": "4", "BONUSPOINTS": "3"}}, {"type": "Feature", "geometry": {"type": "Point", "coordinates": [-122.5204, 42.9535]}, "properties": {"NAME": "W7O/CS-087", "TITLE": "Falcon Butte", "REGION": "OR-Cascades South", "ASSOCIATION": "USA - Oregon", "POINTS": "4", "BONUSPOINTS": "3"}}, {"type": "Feature", "geometry": {"type": "Point", "coordinates": [-122.3695, 42.1702]}, "properties": {"NAME": "W7O/CS-088", "TITLE": "Little Chinquapin Mountain", "REGION": "OR-Cascades South", "ASSOCIATION": "USA - Oregon", "POINTS": "4", "BONUSPOINTS": "3"}}, {"type": "Feature", "geometry": {"type": "Point", "coordinates": [-122.8182, 42.1573]}, "properties": {"NAME": "W7O/CS-089", "TITLE": "Bald Mountain", "REGION": "OR-Cascades South", "ASSOCIATION": "USA - Oregon", "POINTS": "4", "BONUSPOINTS": "3"}}, {"type": "Feature", "geometry": {"type": "Point", "coordinates": [-122.1808, 43.3259]}, "properties": {"NAME": "W7O/CS-090", "TITLE": "Bunker Hill", "REGION": "OR-Cascades South", "ASSOCIATION": "USA - Oregon", "POINTS": "4", "BONUSPOINTS": "3"}}, {"type": "Feature", "geometry": {"type": "Point", "coordinates": [-122.6714, 43.1639]}, "properties": {"NAME": "W7O/CS-091", "TITLE": "Quartz Mountain", "REGION": "OR-Cascades South", "ASSOCIATION": "USA - Oregon", "POINTS": "4", "BONUSPOINTS": "3"}}, {"type": "Feature", "geometry": {"type": "Point", "coordinates": [-122.0285, 42.055]}, "properties": {"NAME": "W7O/CS-092", "TITLE": "Chicken Hills HP", "REGION": "OR-Cascades South", "ASSOCIATION": "USA - Oregon", "POINTS": "4", "BONUSPOINTS": "3"}}, {"type": "Feature", "geometry": {"type": "Point", "coordinates": [-122.3601, 43.2675]}, "properties": {"NAME": "W7O/CS-093", "TITLE": "Pig Iron Mountain", "REGION": "OR-Cascades South", "ASSOCIATION": "USA - Oregon", "POINTS": "4", "BONUSPOINTS": "3"}}, {"type": "Feature", "geometry": {"type": "Point", "coordinates": [-122.5629, 43.3491]}, "properties": {"NAME": "W7O/CS-094", "TITLE": "Illahee Rock", "REGION": "OR-Cascades South", "ASSOCIATION": "USA - Oregon", "POINTS": "4", "BONUSPOINTS": "3"}}, {"type": "Feature", "geometry": {"type": "Point", "coordinates": [-122.5477, 42.7953]}, "properties": {"NAME": "W7O/CS-095", "TITLE": "Bald Mountain", "REGION": "OR-Cascades South", "ASSOCIATION": "USA - Oregon", "POINTS": "4", "BONUSPOINTS": "3"}}, {"type": "Feature", "geometry": {"type": "Point", "coordinates": [-122.2326, 43.3298]}, "properties": {"NAME": "W7O/CS-096", "TITLE": "Basket Butte", "REGION": "OR-Cascades South", "ASSOCIATION": "USA - Oregon", "POINTS": "4", "BONUSPOINTS": "3"}}, {"type": "Feature", "geometry": {"type": "Point", "coordinates": [-122.8808, 43.1655]}, "properties": {"NAME": "W7O/CS-097", "TITLE": "Red Butte", "REGION": "OR-Cascades South", "ASSOCIATION": "USA - Oregon", "POINTS": "4", "BONUSPOINTS": "3"}}, {"type": "Feature", "geometry": {"type": "Point", "coordinates": [-122.4731, 42.4103]}, "properties": {"NAME": "W7O/CS-098", "TITLE": "Bieberstedt Butte", "REGION": "OR-Cascades South", "ASSOCIATION": "USA - Oregon", "POINTS": "4", "BONUSPOINTS": "3"}}, {"type": "Feature", "geometry": {"type": "Point", "coordinates": [-122.5076, 42.1435]}, "properties": {"NAME": "W7O/CS-099", "TITLE": "Green Springs Mountain", "REGION": "OR-Cascades South", "ASSOCIATION": "USA - Oregon", "POINTS": "4", "BONUSPOINTS": "3"}}, {"type": "Feature", "geometry": {"type": "Point", "coordinates": [-122.2789, 42.1054]}, "properties": {"NAME": "W7O/CS-100", "TITLE": "Parker Mountain", "REGION": "OR-Cascades South", "ASSOCIATION": "USA - Oregon", "POINTS": "4", "BONUSPOINTS": "3"}}, {"type": "Feature", "geometry": {"type": "Point", "coordinates": [-122.5789, 42.8485]}, "properties": {"NAME": "W7O/CS-101", "TITLE": "Round Top", "REGION": "OR-Cascades South", "ASSOCIATION": "USA - Oregon", "POINTS": "4", "BONUSPOINTS": "3"}}, {"type": "Feature", "geometry": {"type": "Point", "coordinates": [-122.897, 42.2021]}, "properties": {"NAME": "W7O/CS-102", "TITLE": "Anderson Butte", "REGION": "OR-Cascades South", "ASSOCIATION": "USA - Oregon", "POINTS": "4", "BONUSPOINTS": "3"}}, {"type": "Feature", "geometry": {"type": "Point", "coordinates": [-122.5539, 42.1811]}, "properties": {"NAME": "W7O/CS-103", "TITLE": "Tom Spring Mountain", "REGION": "OR-Cascades South", "ASSOCIATION": "USA - Oregon", "POINTS": "4", "BONUSPOINTS": "3"}}, {"type": "Feature", "geometry": {"type": "Point", "coordinates": [-122.143, 42.1047]}, "properties": {"NAME": "W7O/CS-104", "TITLE": "Mule Hill", "REGION": "OR-Cascades South", "ASSOCIATION": "USA - Oregon", "POINTS": "4", "BONUSPOINTS": "3"}}, {"type": "Feature", "geometry": {"type": "Point", "coordinates": [-122.8403, 42.1828]}, "properties": {"NAME": "W7O/CS-105", "TITLE": "Point Mountain", "REGION": "OR-Cascades South", "ASSOCIATION": "USA - Oregon", "POINTS": "4", "BONUSPOINTS": "3"}}, {"type": "Feature", "geometry": {"type": "Point", "coordinates": [-122.2882, 42.0401]}, "properties": {"NAME": "W7O/CS-106", "TITLE": "Grizzly Mountain", "REGION": "OR-Cascades South", "ASSOCIATION": "USA - Oregon", "POINTS": "4", "BONUSPOINTS": "3"}}, {"type": "Feature", "geometry": {"type": "Point", "coordinates": [-122.7336, 43.1602]}, "properties": {"NAME": "W7O/CS-107", "TITLE": "Cavitt Mountain", "REGION": "OR-Cascades South", "ASSOCIATION": "USA - Oregon", "POINTS": "4", "BONUSPOINTS": "3"}}, {"type": "Feature", "geometry": {"type": "Point", "coordinates": [-122.5359, 42.662]}, "properties": {"NAME": "W7O/CS-108", "TITLE": "Olson Mountain", "REGION": "OR-Cascades South", "ASSOCIATION": "USA - Oregon", "POINTS": "4", "BONUSPOINTS": "3"}}, {"type": "Feature", "geometry": {"type": "Point", "coordinates": [-122.7668, 43.1543]}, "properties": {"NAME": "W7O/CS-109", "TITLE": "Black Butte", "REGION": "OR-Cascades South", "ASSOCIATION": "USA - Oregon", "POINTS": "4", "BONUSPOINTS": "3"}}, {"type": "Feature", "geometry": {"type": "Point", "coordinates": [-122.7386, 43.2603]}, "properties": {"NAME": "W7O/CS-110", "TITLE": "Lookout Mountain", "REGION": "OR-Cascades South", "ASSOCIATION": "USA - Oregon", "POINTS": "4", "BONUSPOINTS": "3"}}, {"type": "Feature", "geometry": {"type": "Point", "coordinates": [-122.7311, 43.4323]}, "properties": {"NAME": "W7O/CS-111", "TITLE": "Chilcoot Mountain", "REGION": "OR-Cascades South", "ASSOCIATION": "USA - Oregon", "POINTS": "2", "BONUSPOINTS": "0"}}, {"type": "Feature", "geometry": {"type": "Point", "coordinates": [-122.439, 43.3183]}, "properties": {"NAME": "W7O/CS-112", "TITLE": "Camel Hump", "REGION": "OR-Cascades South", "ASSOCIATION": "USA - Oregon", "POINTS": "2", "BONUSPOINTS": "0"}}, {"type": "Feature", "geometry": {"type": "Point", "coordinates": [-122.7868, 42.8624]}, "properties": {"NAME": "W7O/CS-113", "TITLE": "Devils Knob", "REGION": "OR-Cascades South", "ASSOCIATION": "USA - Oregon", "POINTS": "2", "BONUSPOINTS": "0"}}, {"type": "Feature", "geometry": {"type": "Point", "coordinates": [-122.4617, 43.3319]}, "properties": {"NAME": "W7O/CS-114", "TITLE": "Perry Butte", "REGION": "OR-Cascades South", "ASSOCIATION": "USA - Oregon", "POINTS": "2", "BONUSPOINTS": "0"}}, {"type": "Feature", "geometry": {"type": "Point", "coordinates": [-122.7742, 43.1413]}, "properties": {"NAME": "W7O/CS-115", "TITLE": "Dumont Butte", "REGION": "OR-Cascades South", "ASSOCIATION": "USA - Oregon", "POINTS": "2", "BONUSPOINTS": "0"}}, {"type": "Feature", "geometry": {"type": "Point", "coordinates": [-122.2779, 43.3407]}, "properties": {"NAME": "W7O/CS-116", "TITLE": "Dread and Terror Ridge", "REGION": "OR-Cascades South", "ASSOCIATION": "USA - Oregon", "POINTS": "2", "BONUSPOINTS": "0"}}, {"type": "Feature", "geometry": {"type": "Point", "coordinates": [-122.6857, 43.237]}, "properties": {"NAME": "W7O/CS-117", "TITLE": "Limpy Mountain", "REGION": "OR-Cascades South", "ASSOCIATION": "USA - Oregon", "POINTS": "2", "BONUSPOINTS": "0"}}, {"type": "Feature", "geometry": {"type": "Point", "coordinates": [-122.6491, 43.3319]}, "properties": {"NAME": "W7O/CS-118", "TITLE": "Dog Mountain", "REGION": "OR-Cascades South", "ASSOCIATION": "USA - Oregon", "POINTS": "2", "BONUSPOINTS": "0"}}, {"type": "Feature", "geometry": {"type": "Point", "coordinates": [-122.7835, 42.7886]}, "properties": {"NAME": "W7O/CS-119", "TITLE": "Ragsdale Butte", "REGION": "OR-Cascades South", "ASSOCIATION": "USA - Oregon", "POINTS": "2", "BONUSPOINTS": "0"}}, {"type": "Feature", "geometry": {"type": "Point", "coordinates": [-122.9499, 42.7639]}, "properties": {"NAME": "W7O/CS-120", "TITLE": "Richter Mountain", "REGION": "OR-Cascades South", "ASSOCIATION": "USA - Oregon", "POINTS": "2", "BONUSPOINTS": "0"}}, {"type": "Feature", "geometry": {"type": "Point", "coordinates": [-122.7597, 42.8307]}, "properties": {"NAME": "W7O/CS-121", "TITLE": "Hawk Mountain", "REGION": "OR-Cascades South", "ASSOCIATION": "USA - Oregon", "POINTS": "2", "BONUSPOINTS": "0"}}, {"type": "Feature", "geometry": {"type": "Point", "coordinates": [-122.773, 42.8234]}, "properties": {"NAME": "W7O/CS-122", "TITLE": "Timbered Rock", "REGION": "OR-Cascades South", "ASSOCIATION": "USA - Oregon", "POINTS": "2", "BONUSPOINTS": "0"}}, {"type": "Feature", "geometry": {"type": "Point", "coordinates": [-122.7964, 43.2346]}, "properties": {"NAME": "W7O/CS-123", "TITLE": "Taft Mountain", "REGION": "OR-Cascades South", "ASSOCIATION": "USA - Oregon", "POINTS": "2", "BONUSPOINTS": "0"}}, {"type": "Feature", "geometry": {"type": "Point", "coordinates": [-122.2075, 42.0794]}, "properties": {"NAME": "W7O/CS-124", "TITLE": "Mud Spring Mountain", "REGION": "OR-Cascades South", "ASSOCIATION": "USA - Oregon", "POINTS": "2", "BONUSPOINTS": "0"}}, {"type": "Feature", "geometry": {"type": "Point", "coordinates": [-122.4347, 42.9376]}, "properties": {"NAME": "W7O/CS-125", "TITLE": "Mount Stella", "REGION": "OR-Cascades South", "ASSOCIATION": "USA - Oregon", "POINTS": "2", "BONUSPOINTS": "0"}}, {"type": "Feature", "geometry": {"type": "Point", "coordinates": [-122.9067, 42.7817]}, "properties": {"NAME": "W7O/CS-126", "TITLE": "Threehorn Mountain", "REGION": "OR-Cascades South", "ASSOCIATION": "USA - Oregon", "POINTS": "2", "BONUSPOINTS": "0"}}, {"type": "Feature", "geometry": {"type": "Point", "coordinates": [-122.734, 42.8442]}, "properties": {"NAME": "W7O/CS-127", "TITLE": "Elkhorn Peak", "REGION": "OR-Cascades South", "ASSOCIATION": "USA - Oregon", "POINTS": "2", "BONUSPOINTS": "0"}}, {"type": "Feature", "geometry": {"type": "Point", "coordinates": [-122.9914, 42.702]}, "properties": {"NAME": "W7O/CS-128", "TITLE": "Round Top", "REGION": "OR-Cascades South", "ASSOCIATION": "USA - Oregon", "POINTS": "2", "BONUSPOINTS": "0"}}, {"type": "Feature", "geometry": {"type": "Point", "coordinates": [-122.8834, 43.3603]}, "properties": {"NAME": "W7O/CS-129", "TITLE": "Old Fairview", "REGION": "OR-Cascades South", "ASSOCIATION": "USA - Oregon", "POINTS": "2", "BONUSPOINTS": "0"}}, {"type": "Feature", "geometry": {"type": "Point", "coordinates": [-122.8047, 43.1449]}, "properties": {"NAME": "W7O/CS-130", "TITLE": "Foster Butte", "REGION": "OR-Cascades South", "ASSOCIATION": "USA - Oregon", "POINTS": "2", "BONUSPOINTS": "0"}}, {"type": "Feature", "geometry": {"type": "Point", "coordinates": [-122.6833, 43.2559]}, "properties": {"NAME": "W7O/CS-131", "TITLE": "Bachelor Butte", "REGION": "OR-Cascades South", "ASSOCIATION": "USA - Oregon", "POINTS": "2", "BONUSPOINTS": "0"}}, {"type": "Feature", "geometry": {"type": "Point", "coordinates": [-122.7529, 42.9258]}, "properties": {"NAME": "W7O/CS-132", "TITLE": "Green Prairie", "REGION": "OR-Cascades South", "ASSOCIATION": "USA - Oregon", "POINTS": "2", "BONUSPOINTS": "0"}}, {"type": "Feature", "geometry": {"type": "Point", "coordinates": [-122.5337, 43.1268]}, "properties": {"NAME": "W7O/CS-133", "TITLE": "Little Black Rock", "REGION": "OR-Cascades South", "ASSOCIATION": "USA - Oregon", "POINTS": "2", "BONUSPOINTS": "0"}}, {"type": "Feature", "geometry": {"type": "Point", "coordinates": [-122.9417, 43.0875]}, "properties": {"NAME": "W7O/CS-134", "TITLE": "Deadman Mountain", "REGION": "OR-Cascades South", "ASSOCIATION": "USA - Oregon", "POINTS": "2", "BONUSPOINTS": "0"}}, {"type": "Feature", "geometry": {"type": "Point", "coordinates": [-122.7644, 42.7671]}, "properties": {"NAME": "W7O/CS-135", "TITLE": "Alco Rock", "REGION": "OR-Cascades South", "ASSOCIATION": "USA - Oregon", "POINTS": "2", "BONUSPOINTS": "0"}}, {"type": "Feature", "geometry": {"type": "Point", "coordinates": [-122.9883, 43.4416]}, "properties": {"NAME": "W7O/CS-136", "TITLE": "Brown Mountain", "REGION": "OR-Cascades South", "ASSOCIATION": "USA - Oregon", "POINTS": "2", "BONUSPOINTS": "0"}}, {"type": "Feature", "geometry": {"type": "Point", "coordinates": [-122.6464, 43.0522]}, "properties": {"NAME": "W7O/CS-137", "TITLE": "Acker Rock", "REGION": "OR-Cascades South", "ASSOCIATION": "USA - Oregon", "POINTS": "2", "BONUSPOINTS": "0"}}, {"type": "Feature", "geometry": {"type": "Point", "coordinates": [-122.8105, 42.7059]}, "properties": {"NAME": "W7O/CS-138", "TITLE": "Buck Rock", "REGION": "OR-Cascades South", "ASSOCIATION": "USA - Oregon", "POINTS": "2", "BONUSPOINTS": "0"}}, {"type": "Feature", "geometry": {"type": "Point", "coordinates": [-122.9742, 43.1767]}, "properties": {"NAME": "W7O/CS-139", "TITLE": "Sampson Butte", "REGION": "OR-Cascades South", "ASSOCIATION": "USA - Oregon", "POINTS": "2", "BONUSPOINTS": "0"}}, {"type": "Feature", "geometry": {"type": "Point", "coordinates": [-122.6639, 43.4934]}, "properties": {"NAME": "W7O/CS-140", "TITLE": "McKinley Rock", "REGION": "OR-Cascades South", "ASSOCIATION": "USA - Oregon", "POINTS": "2", "BONUSPOINTS": "0"}}, {"type": "Feature", "geometry": {"type": "Point", "coordinates": [-122.9207, 43.2704]}, "properties": {"NAME": "W7O/CS-141", "TITLE": "Shivigny Mountain", "REGION": "OR-Cascades South", "ASSOCIATION": "USA - Oregon", "POINTS": "2", "BONUSPOINTS": "0"}}, {"type": "Feature", "geometry": {"type": "Point", "coordinates": [-122.786, 42.9966]}, "properties": {"NAME": "W7O/CS-142", "TITLE": "Collins Ridge", "REGION": "OR-Cascades South", "ASSOCIATION": "USA - Oregon", "POINTS": "2", "BONUSPOINTS": "0"}}, {"type": "Feature", "geometry": {"type": "Point", "coordinates": [-122.6626, 42.7498]}, "properties": {"NAME": "W7O/CS-143", "TITLE": "Burnt Peak", "REGION": "OR-Cascades South", "ASSOCIATION": "USA - Oregon", "POINTS": "2", "BONUSPOINTS": "0"}}, {"type": "Feature", "geometry": {"type": "Point", "coordinates": [-122.6846, 42.5409]}, "properties": {"NAME": "W7O/CS-144", "TITLE": "Round Top", "REGION": "OR-Cascades South", "ASSOCIATION": "USA - Oregon", "POINTS": "2", "BONUSPOINTS": "0"}}, {"type": "Feature", "geometry": {"type": "Point", "coordinates": [-122.655, 43.4775]}, "properties": {"NAME": "W7O/CS-145", "TITLE": "Lemon Butte", "REGION": "OR-Cascades South", "ASSOCIATION": "USA - Oregon", "POINTS": "2", "BONUSPOINTS": "0"}}, {"type": "Feature", "geometry": {"type": "Point", "coordinates": [-122.9042, 42.6618]}, "properties": {"NAME": "W7O/CS-146", "TITLE": "Board Mountain", "REGION": "OR-Cascades South", "ASSOCIATION": "USA - Oregon", "POINTS": "2", "BONUSPOINTS": "0"}}, {"type": "Feature", "geometry": {"type": "Point", "coordinates": [-122.7859, 42.3545]}, "properties": {"NAME": "W7O/CS-147", "TITLE": "Roxy Ann Peak", "REGION": "OR-Cascades South", "ASSOCIATION": "USA - Oregon", "POINTS": "2", "BONUSPOINTS": "0"}}, {"type": "Feature", "geometry": {"type": "Point", "coordinates": [-122.9126, 42.6221]}, "properties": {"NAME": "W7O/CS-148", "TITLE": "Boswell Mountain", "REGION": "OR-Cascades South", "ASSOCIATION": "USA - Oregon", "POINTS": "2", "BONUSPOINTS": "0"}}, {"type": "Feature", "geometry": {"type": "Point", "coordinates": [-122.9941, 43.0748]}, "properties": {"NAME": "W7O/CS-149", "TITLE": "Tater Hill", "REGION": "OR-Cascades South", "ASSOCIATION": "USA - Oregon", "POINTS": "2", "BONUSPOINTS": "0"}}, {"type": "Feature", "geometry": {"type": "Point", "coordinates": [-122.9231, 42.9874]}, "properties": {"NAME": "W7O/CS-150", "TITLE": "Rondeau Butte", "REGION": "OR-Cascades South", "ASSOCIATION": "USA - Oregon", "POINTS": "2", "BONUSPOINTS": "0"}}, {"type": "Feature", "geometry": {"type": "Point", "coordinates": [-122.8558, 42.9436]}, "properties": {"NAME": "W7O/CS-151", "TITLE": "Pickett Butte", "REGION": "OR-Cascades South", "ASSOCIATION": "USA - Oregon", "POINTS": "2", "BONUSPOINTS": "0"}}, {"type": "Feature", "geometry": {"type": "Point", "coordinates": [-122.684, 42.9997]}, "properties": {"NAME": "W7O/CS-152", "TITLE": "Tallow Butte", "REGION": "OR-Cascades South", "ASSOCIATION": "USA - Oregon", "POINTS": "2", "BONUSPOINTS": "0"}}, {"type": "Feature", "geometry": {"type": "Point", "coordinates": [-122.9923, 42.5898]}, "properties": {"NAME": "W7O/CS-153", "TITLE": "Hull Mountain", "REGION": "OR-Cascades South", "ASSOCIATION": "USA - Oregon", "POINTS": "2", "BONUSPOINTS": "0"}}, {"type": "Feature", "geometry": {"type": "Point", "coordinates": [-122.7781, 42.5711]}, "properties": {"NAME": "W7O/CS-154", "TITLE": "Vestal Butte", "REGION": "OR-Cascades South", "ASSOCIATION": "USA - Oregon", "POINTS": "2", "BONUSPOINTS": "0"}}, {"type": "Feature", "geometry": {"type": "Point", "coordinates": [-122.6359, 42.7809]}, "properties": {"NAME": "W7O/CS-155", "TITLE": "Mule Hill", "REGION": "OR-Cascades South", "ASSOCIATION": "USA - Oregon", "POINTS": "1", "BONUSPOINTS": "0"}}, {"type": "Feature", "geometry": {"type": "Point", "coordinates": [-122.9341, 42.5732]}, "properties": {"NAME": "W7O/CS-156", "TITLE": "Cinnabar Mountain", "REGION": "OR-Cascades South", "ASSOCIATION": "USA - Oregon", "POINTS": "1", "BONUSPOINTS": "0"}}, {"type": "Feature", "geometry": {"type": "Point", "coordinates": [-122.9192, 42.4766]}, "properties": {"NAME": "W7O/CS-157", "TITLE": "Upper Table Rock", "REGION": "OR-Cascades South", "ASSOCIATION": "USA - Oregon", "POINTS": "1", "BONUSPOINTS": "0"}}, {"type": "Feature", "geometry": {"type": "Point", "coordinates": [-122.832, 42.496]}, "properties": {"NAME": "W7O/CS-158", "TITLE": "Long Mountain", "REGION": "OR-Cascades South", "ASSOCIATION": "USA - Oregon", "POINTS": "1", "BONUSPOINTS": "0"}}, {"type": "Feature", "geometry": {"type": "Point", "coordinates": [-122.396, 43.0941]}, "properties": {"NAME": "W7O/CS-159", "TITLE": "6045", "REGION": "OR-Cascades South", "ASSOCIATION": "USA - Oregon", "POINTS": "6", "BONUSPOINTS": "3"}}, {"type": "Feature", "geometry": {"type": "Point", "coordinates": [-122.4814, 43.4101]}, "properties": {"NAME": "W7O/CS-160", "TITLE": "5940", "REGION": "OR-Cascades South", "ASSOCIATION": "USA - Oregon", "POINTS": "4", "BONUSPOINTS": "3"}}, {"type": "Feature", "geometry": {"type": "Point", "coordinates": [-122.6707, 42.8897]}, "properties": {"NAME": "W7O/CS-161", "TITLE": "5588", "REGION": "OR-Cascades South", "ASSOCIATION": "USA - Oregon", "POINTS": "4", "BONUSPOINTS": "3"}}, {"type": "Feature", "geometry": {"type": "Point", "coordinates": [-122.5183, 43.1884]}, "properties": {"NAME": "W7O/CS-162", "TITLE": "5302", "REGION": "OR-Cascades South", "ASSOCIATION": "USA - Oregon", "POINTS": "4", "BONUSPOINTS": "3"}}, {"type": "Feature", "geometry": {"type": "Point", "coordinates": [-122.3226, 43.2815]}, "properties": {"NAME": "W7O/CS-163", "TITLE": "5220", "REGION": "OR-Cascades South", "ASSOCIATION": "USA - Oregon", "POINTS": "4", "BONUSPOINTS": "3"}}, {"type": "Feature", "geometry": {"type": "Point", "coordinates": [-122.0007, 42.2291]}, "properties": {"NAME": "W7O/CS-164", "TITLE": "5084", "REGION": "OR-Cascades South", "ASSOCIATION": "USA - Oregon", "POINTS": "4", "BONUSPOINTS": "3"}}, {"type": "Feature", "geometry": {"type": "Point", "coordinates": [-122.4801, 43.477]}, "properties": {"NAME": "W7O/CS-165", "TITLE": "5020", "REGION": "OR-Cascades South", "ASSOCIATION": "USA - Oregon", "POINTS": "4", "BONUSPOINTS": "3"}}, {"type": "Feature", "geometry": {"type": "Point", "coordinates": [-122.5693, 43.0228]}, "properties": {"NAME": "W7O/CS-166", "TITLE": "4780", "REGION": "OR-Cascades South", "ASSOCIATION": "USA - Oregon", "POINTS": "2", "BONUSPOINTS": "0"}}, {"type": "Feature", "geometry": {"type": "Point", "coordinates": [-122.7824, 43.259]}, "properties": {"NAME": "W7O/CS-167", "TITLE": "4705", "REGION": "OR-Cascades South", "ASSOCIATION": "USA - Oregon", "POINTS": "2", "BONUSPOINTS": "0"}}, {"type": "Feature", "geometry": {"type": "Point", "coordinates": [-122.9801, 42.7377]}, "properties": {"NAME": "W7O/CS-168", "TITLE": "4620", "REGION": "OR-Cascades South", "ASSOCIATION": "USA - Oregon", "POINTS": "2", "BONUSPOINTS": "0"}}, {"type": "Feature", "geometry": {"type": "Point", "coordinates": [-122.4884, 43.3233]}, "properties": {"NAME": "W7O/CS-169", "TITLE": "4512", "REGION": "OR-Cascades South", "ASSOCIATION": "USA - Oregon", "POINTS": "2", "BONUSPOINTS": "0"}}, {"type": "Feature", "geometry": {"type": "Point", "coordinates": [-122.554, 43.1198]}, "properties": {"NAME": "W7O/CS-170", "TITLE": "4460", "REGION": "OR-Cascades South", "ASSOCIATION": "USA - Oregon", "POINTS": "2", "BONUSPOINTS": "0"}}, {"type": "Feature", "geometry": {"type": "Point", "coordinates": [-122.7938, 43.4563]}, "properties": {"NAME": "W7O/CS-171", "TITLE": "4386", "REGION": "OR-Cascades South", "ASSOCIATION": "USA - Oregon", "POINTS": "2", "BONUSPOINTS": "0"}}, {"type": "Feature", "geometry": {"type": "Point", "coordinates": [-122.8262, 43.1467]}, "properties": {"NAME": "W7O/CS-172", "TITLE": "4385", "REGION": "OR-Cascades South", "ASSOCIATION": "USA - Oregon", "POINTS": "2", "BONUSPOINTS": "0"}}, {"type": "Feature", "geometry": {"type": "Point", "coordinates": [-122.6007, 43.0593]}, "properties": {"NAME": "W7O/CS-173", "TITLE": "4300", "REGION": "OR-Cascades South", "ASSOCIATION": "USA - Oregon", "POINTS": "2", "BONUSPOINTS": "0"}}, {"type": "Feature", "geometry": {"type": "Point", "coordinates": [-122.9688, 43.4511]}, "properties": {"NAME": "W7O/CS-174", "TITLE": "4140", "REGION": "OR-Cascades South", "ASSOCIATION": "USA - Oregon", "POINTS": "2", "BONUSPOINTS": "0"}}, {"type": "Feature", "geometry": {"type": "Point", "coordinates": [-122.588, 43.0762]}, "properties": {"NAME": "W7O/CS-175", "TITLE": "4140", "REGION": "OR-Cascades South", "ASSOCIATION": "USA - Oregon", "POINTS": "2", "BONUSPOINTS": "0"}}, {"type": "Feature", "geometry": {"type": "Point", "coordinates": [-122.9899, 43.4198]}, "properties": {"NAME": "W7O/CS-176", "TITLE": "4106", "REGION": "OR-Cascades South", "ASSOCIATION": "USA - Oregon", "POINTS": "2", "BONUSPOINTS": "0"}}, {"type": "Feature", "geometry": {"type": "Point", "coordinates": [-122.7155, 43.1161]}, "properties": {"NAME": "W7O/CS-177", "TITLE": "4062", "REGION": "OR-Cascades South", "ASSOCIATION": "USA - Oregon", "POINTS": "2", "BONUSPOINTS": "0"}}, {"type": "Feature", "geometry": {"type": "Point", "coordinates": [-122.8775, 43.0535]}, "properties": {"NAME": "W7O/CS-178", "TITLE": "4060", "REGION": "OR-Cascades South", "ASSOCIATION": "USA - Oregon", "POINTS": "2", "BONUSPOINTS": "0"}}, {"type": "Feature", "geometry": {"type": "Point", "coordinates": [-122.863, 43.4453]}, "properties": {"NAME": "W7O/CS-179", "TITLE": "3900", "REGION": "OR-Cascades South", "ASSOCIATION": "USA - Oregon", "POINTS": "2", "BONUSPOINTS": "0"}}, {"type": "Feature", "geometry": {"type": "Point", "coordinates": [-122.9835, 42.8375]}, "properties": {"NAME": "W7O/CS-180", "TITLE": "3740", "REGION": "OR-Cascades South", "ASSOCIATION": "USA - Oregon", "POINTS": "2", "BONUSPOINTS": "0"}}, {"type": "Feature", "geometry": {"type": "Point", "coordinates": [-122.9565, 42.2303]}, "properties": {"NAME": "W7O/CS-181", "TITLE": "3739", "REGION": "OR-Cascades South", "ASSOCIATION": "USA - Oregon", "POINTS": "2", "BONUSPOINTS": "0"}}, {"type": "Feature", "geometry": {"type": "Point", "coordinates": [-122.7695, 43.49]}, "properties": {"NAME": "W7O/CS-182", "TITLE": "3730", "REGION": "OR-Cascades South", "ASSOCIATION": "USA - Oregon", "POINTS": "2", "BONUSPOINTS": "0"}}, {"type": "Feature", "geometry": {"type": "Point", "coordinates": [-122.4918, 43.2792]}, "properties": {"NAME": "W7O/CS-183", "TITLE": "3660", "REGION": "OR-Cascades South", "ASSOCIATION": "USA - Oregon", "POINTS": "2", "BONUSPOINTS": "0"}}, {"type": "Feature", "geometry": {"type": "Point", "coordinates": [-122.6323, 43.4924]}, "properties": {"NAME": "W7O/CS-184", "TITLE": "3500", "REGION": "OR-Cascades South", "ASSOCIATION": "USA - Oregon", "POINTS": "2", "BONUSPOINTS": "0"}}, {"type": "Feature", "geometry": {"type": "Point", "coordinates": [-122.8442, 42.2287]}, "properties": {"NAME": "W7O/CS-185", "TITLE": "3419", "REGION": "OR-Cascades South", "ASSOCIATION": "USA - Oregon", "POINTS": "2", "BONUSPOINTS": "0"}}, {"type": "Feature", "geometry": {"type": "Point", "coordinates": [-122.9971, 43.2862]}, "properties": {"NAME": "W7O/CS-186", "TITLE": "3349", "REGION": "OR-Cascades South", "ASSOCIATION": "USA - Oregon", "POINTS": "2", "BONUSPOINTS": "0"}}, {"type": "Feature", "geometry": {"type": "Point", "coordinates": [-122.6607, 42.8073]}, "properties": {"NAME": "W7O/CS-187", "TITLE": "3313", "REGION": "OR-Cascades South", "ASSOCIATION": "USA - Oregon", "POINTS": "2", "BONUSPOINTS": "0"}}, {"type": "Feature", "geometry": {"type": "Point", "coordinates": [-122.743, 42.6256]}, "properties": {"NAME": "W7O/CS-188", "TITLE": "3260", "REGION": "OR-Cascades South", "ASSOCIATION": "USA - Oregon", "POINTS": "2", "BONUSPOINTS": "0"}}, {"type": "Feature", "geometry": {"type": "Point", "coordinates": [-122.9564, 42.2653]}, "properties": {"NAME": "W7O/CS-189", "TITLE": "3181", "REGION": "OR-Cascades South", "ASSOCIATION": "USA - Oregon", "POINTS": "2", "BONUSPOINTS": "0"}}, {"type": "Feature", "geometry": {"type": "Point", "coordinates": [-122.7818, 42.6333]}, "properties": {"NAME": "W7O/CS-190", "TITLE": "2950", "REGION": "OR-Cascades South", "ASSOCIATION": "USA - Oregon", "POINTS": "1", "BONUSPOINTS": "0"}}, {"type": "Feature", "geometry": {"type": "Point", "coordinates": [-122.6763, 42.4262]}, "properties": {"NAME": "W7O/CS-191", "TITLE": "2768", "REGION": "OR-Cascades South", "ASSOCIATION": "USA - Oregon", "POINTS": "1", "BONUSPOINTS": "0"}}, {"type": "Feature", "geometry": {"type": "Point", "coordinates": [-122.6992, 42.607]}, "properties": {"NAME": "W7O/CS-192", "TITLE": "2570", "REGION": "OR-Cascades South", "ASSOCIATION": "USA - Oregon", "POINTS": "1", "BONUSPOINTS": "0"}}, {"type": "Feature", "geometry": {"type": "Point", "coordinates": [-122.7906, 42.4028]}, "properties": {"NAME": "W7O/CS-193", "TITLE": "2203", "REGION": "OR-Cascades South", "ASSOCIATION": "USA - Oregon", "POINTS": "1", "BONUSPOINTS": "0"}}, {"type": "Feature", "geometry": {"type": "Point", "coordinates": [-122.9871, 42.4557]}, "properties": {"NAME": "W7O/CS-194", "TITLE": "2126", "REGION": "OR-Cascades South", "ASSOCIATION": "USA - Oregon", "POINTS": "1", "BONUSPOINTS": "0"}}, {"type": "Feature", "geometry": {"type": "Point", "coordinates": [-122.038, 43.2175]}, "properties": {"NAME": "W7O/CS-195", "TITLE": "Tipsoo Peak", "REGION": "OR-Cascades South", "ASSOCIATION": "USA - Oregon", "POINTS": "8", "BONUSPOINTS": "3"}}, {"type": "Feature", "geometry": {"type": "Point", "coordinates": [-122.4746, 43.0904]}, "properties": {"NAME": "W7O/CS-196", "TITLE": "Rocky Ridge", "REGION": "OR-Cascades South", "ASSOCIATION": "USA - Oregon", "POINTS": "6", "BONUSPOINTS": "3"}}, {"type": "Feature", "geometry": {"type": "Point", "coordinates": [-122.543, 43.3619]}, "properties": {"NAME": "W7O/CS-197", "TITLE": "Harding Butte", "REGION": "OR-Cascades South", "ASSOCIATION": "USA - Oregon", "POINTS": "4", "BONUSPOINTS": "3"}}, {"type": "Feature", "geometry": {"type": "Point", "coordinates": [-122.591, 43.3391]}, "properties": {"NAME": "W7O/CS-198", "TITLE": "Ragged Butte", "REGION": "OR-Cascades South", "ASSOCIATION": "USA - Oregon", "POINTS": "2", "BONUSPOINTS": "0"}}, {"type": "Feature", "geometry": {"type": "Point", "coordinates": [-122.806, 43.3828]}, "properties": {"NAME": "W7O/CS-199", "TITLE": "3664", "REGION": "OR-Cascades South", "ASSOCIATION": "USA - Oregon", "POINTS": "2", "BONUSPOINTS": "0"}}]}