{"type": "FeatureCollection", "name": "W7O/SC SUMMITS", "features": [{"type": "Feature", "geometry": {"type": "Point", "coordinates": [-123.3123, 42.1098]}, "properties": {"NAME": "W7O/SC-001", "TITLE": "Grayback Mountain", "REGION": "OR-South Coastal", "ASSOCIATION": "USA - Oregon", "POINTS": "6", "BONUSPOINTS": "3"}}, {"type": "Feature", "geometry": {"type": "Point", "coordinates": [-123.3598, 42.0901]}, "properties": {"NAME": "W7O/SC-002", "TITLE": "Lake Mountain", "REGION": "OR-South Coastal", "ASSOCIATION": "USA - Oregon", "POINTS": "6", "BONUSPOINTS": "3"}}, {"type": "Feature", "geometry": {"type": "Point", "coordinates": [-123.3013, 42.0134]}, "properties": {"NAME": "W7O/SC-003", "TITLE": "Lake Peak", "REGION": "OR-South Coastal", "ASSOCIATION": "USA - Oregon", "POINTS": "6", "BONUSPOINTS": "3"}}, {"type": "Feature", "geometry": {"type": "Point", "coordinates": [-123.2615, 42.0203]}, "properties": {"NAME": "W7O/SC-004", "TITLE": "Whisky Peak", "REGION": "OR-South Coastal", "ASSOCIATION": "USA - Oregon", "POINTS": "6", "BONUSPOINTS": "3"}}, {"type": "Feature", "geometry": {"type": "Point", "coordinates": [-123.358, 42.0522]}, "properties": {"NAME": "W7O/SC-005", "TITLE": "Craggy Mountain", "REGION": "OR-South Coastal", "ASSOCIATION": "USA - Oregon", "POINTS": "6", "BONUSPOINTS": "3"}}, {"type": "Feature", "geometry": {"type": "Point", "coordinates": [-123.4575, 42.0103]}, "properties": {"NAME": "W7O/SC-006", "TITLE": "Althouse Mountain", "REGION": "OR-South Coastal", "ASSOCIATION": "USA - Oregon", "POINTS": "6", "BONUSPOINTS": "3"}}, {"type": "Feature", "geometry": {"type": "Point", "coordinates": [-123.4013, 42.0058]}, "properties": {"NAME": "W7O/SC-007", "TITLE": "Tannen Mountain", "REGION": "OR-South Coastal", "ASSOCIATION": "USA - Oregon", "POINTS": "6", "BONUSPOINTS": "3"}}, {"type": "Feature", "geometry": {"type": "Point", "coordinates": [-123.3642, 42.03]}, "properties": {"NAME": "W7O/SC-008", "TITLE": "Swan Mountain", "REGION": "OR-South Coastal", "ASSOCIATION": "USA - Oregon", "POINTS": "6", "BONUSPOINTS": "3"}}, {"type": "Feature", "geometry": {"type": "Point", "coordinates": [-123.2569, 42.0714]}, "properties": {"NAME": "W7O/SC-009", "TITLE": "Steve Peak", "REGION": "OR-South Coastal", "ASSOCIATION": "USA - Oregon", "POINTS": "4", "BONUSPOINTS": "3"}}, {"type": "Feature", "geometry": {"type": "Point", "coordinates": [-123.4612, 42.2203]}, "properties": {"NAME": "W7O/SC-010", "TITLE": "Kerby Peak", "REGION": "OR-South Coastal", "ASSOCIATION": "USA - Oregon", "POINTS": "4", "BONUSPOINTS": "3"}}, {"type": "Feature", "geometry": {"type": "Point", "coordinates": [-123.4926, 42.0355]}, "properties": {"NAME": "W7O/SC-011", "TITLE": "French Peak", "REGION": "OR-South Coastal", "ASSOCIATION": "USA - Oregon", "POINTS": "4", "BONUSPOINTS": "3"}}, {"type": "Feature", "geometry": {"type": "Point", "coordinates": [-123.4572, 42.1994]}, "properties": {"NAME": "W7O/SC-012", "TITLE": "Little Grayback Peak", "REGION": "OR-South Coastal", "ASSOCIATION": "USA - Oregon", "POINTS": "4", "BONUSPOINTS": "3"}}, {"type": "Feature", "geometry": {"type": "Point", "coordinates": [-123.8804, 42.5976]}, "properties": {"NAME": "W7O/SC-013", "TITLE": "Brandy Peak", "REGION": "OR-South Coastal", "ASSOCIATION": "USA - Oregon", "POINTS": "4", "BONUSPOINTS": "3"}}, {"type": "Feature", "geometry": {"type": "Point", "coordinates": [-123.2308, 42.6919]}, "properties": {"NAME": "W7O/SC-014", "TITLE": "King Mountain", "REGION": "OR-South Coastal", "ASSOCIATION": "USA - Oregon", "POINTS": "4", "BONUSPOINTS": "3"}}, {"type": "Feature", "geometry": {"type": "Point", "coordinates": [-123.4042, 42.1892]}, "properties": {"NAME": "W7O/SC-015", "TITLE": "Holcomb Peak", "REGION": "OR-South Coastal", "ASSOCIATION": "USA - Oregon", "POINTS": "4", "BONUSPOINTS": "3"}}, {"type": "Feature", "geometry": {"type": "Point", "coordinates": [-123.3795, 42.2532]}, "properties": {"NAME": "W7O/SC-016", "TITLE": "Mungers Butte", "REGION": "OR-South Coastal", "ASSOCIATION": "USA - Oregon", "POINTS": "4", "BONUSPOINTS": "3"}}, {"type": "Feature", "geometry": {"type": "Point", "coordinates": [-123.1226, 42.7619]}, "properties": {"NAME": "W7O/SC-017", "TITLE": "Cedar Springs Mountain", "REGION": "OR-South Coastal", "ASSOCIATION": "USA - Oregon", "POINTS": "4", "BONUSPOINTS": "3"}}, {"type": "Feature", "geometry": {"type": "Point", "coordinates": [-123.5594, 42.0158]}, "properties": {"NAME": "W7O/SC-018", "TITLE": "Page Mountain", "REGION": "OR-South Coastal", "ASSOCIATION": "USA - Oregon", "POINTS": "4", "BONUSPOINTS": "3"}}, {"type": "Feature", "geometry": {"type": "Point", "coordinates": [-123.8462, 42.2988]}, "properties": {"NAME": "W7O/SC-019", "TITLE": "Pearsoll Peak", "REGION": "OR-South Coastal", "ASSOCIATION": "USA - Oregon", "POINTS": "4", "BONUSPOINTS": "3"}}, {"type": "Feature", "geometry": {"type": "Point", "coordinates": [-123.0545, 42.063]}, "properties": {"NAME": "W7O/SC-020", "TITLE": "Little Grayback Mountain", "REGION": "OR-South Coastal", "ASSOCIATION": "USA - Oregon", "POINTS": "4", "BONUSPOINTS": "3"}}, {"type": "Feature", "geometry": {"type": "Point", "coordinates": [-123.2162, 42.126]}, "properties": {"NAME": "W7O/SC-021", "TITLE": "Humpy Mountain", "REGION": "OR-South Coastal", "ASSOCIATION": "USA - Oregon", "POINTS": "4", "BONUSPOINTS": "3"}}, {"type": "Feature", "geometry": {"type": "Point", "coordinates": [-123.8993, 42.5553]}, "properties": {"NAME": "W7O/SC-022", "TITLE": "Sugarloaf Mountain", "REGION": "OR-South Coastal", "ASSOCIATION": "USA - Oregon", "POINTS": "4", "BONUSPOINTS": "3"}}, {"type": "Feature", "geometry": {"type": "Point", "coordinates": [-123.1515, 42.1964]}, "properties": {"NAME": "W7O/SC-023", "TITLE": "Tallowbox Mountain", "REGION": "OR-South Coastal", "ASSOCIATION": "USA - Oregon", "POINTS": "4", "BONUSPOINTS": "3"}}, {"type": "Feature", "geometry": {"type": "Point", "coordinates": [-123.1105, 42.1941]}, "properties": {"NAME": "W7O/SC-024", "TITLE": "Mount Baldy", "REGION": "OR-South Coastal", "ASSOCIATION": "USA - Oregon", "POINTS": "2", "BONUSPOINTS": "0"}}, {"type": "Feature", "geometry": {"type": "Point", "coordinates": [-123.8216, 42.1939]}, "properties": {"NAME": "W7O/SC-025", "TITLE": "Canyon Peak", "REGION": "OR-South Coastal", "ASSOCIATION": "USA - Oregon", "POINTS": "2", "BONUSPOINTS": "0"}}, {"type": "Feature", "geometry": {"type": "Point", "coordinates": [-123.7674, 42.2403]}, "properties": {"NAME": "W7O/SC-026", "TITLE": "Fiddler Mountain", "REGION": "OR-South Coastal", "ASSOCIATION": "USA - Oregon", "POINTS": "2", "BONUSPOINTS": "0"}}, {"type": "Feature", "geometry": {"type": "Point", "coordinates": [-123.1634, 42.7513]}, "properties": {"NAME": "W7O/SC-027", "TITLE": "Green Mountain", "REGION": "OR-South Coastal", "ASSOCIATION": "USA - Oregon", "POINTS": "2", "BONUSPOINTS": "0"}}, {"type": "Feature", "geometry": {"type": "Point", "coordinates": [-123.1803, 42.1461]}, "properties": {"NAME": "W7O/SC-028", "TITLE": "Ninemile Peak", "REGION": "OR-South Coastal", "ASSOCIATION": "USA - Oregon", "POINTS": "2", "BONUSPOINTS": "0"}}, {"type": "Feature", "geometry": {"type": "Point", "coordinates": [-123.9158, 42.5936]}, "properties": {"NAME": "W7O/SC-029", "TITLE": "High Ridge", "REGION": "OR-South Coastal", "ASSOCIATION": "USA - Oregon", "POINTS": "2", "BONUSPOINTS": "0"}}, {"type": "Feature", "geometry": {"type": "Point", "coordinates": [-123.0125, 42.7719]}, "properties": {"NAME": "W7O/SC-030", "TITLE": "Red Mountain", "REGION": "OR-South Coastal", "ASSOCIATION": "USA - Oregon", "POINTS": "2", "BONUSPOINTS": "0"}}, {"type": "Feature", "geometry": {"type": "Point", "coordinates": [-123.4181, 42.3052]}, "properties": {"NAME": "W7O/SC-031", "TITLE": "Roundtop Mountain", "REGION": "OR-South Coastal", "ASSOCIATION": "USA - Oregon", "POINTS": "2", "BONUSPOINTS": "0"}}, {"type": "Feature", "geometry": {"type": "Point", "coordinates": [-123.7829, 42.1617]}, "properties": {"NAME": "W7O/SC-032", "TITLE": "Josephine Mountain", "REGION": "OR-South Coastal", "ASSOCIATION": "USA - Oregon", "POINTS": "2", "BONUSPOINTS": "0"}}, {"type": "Feature", "geometry": {"type": "Point", "coordinates": [-123.7836, 42.5524]}, "properties": {"NAME": "W7O/SC-033", "TITLE": "Hobson Horn", "REGION": "OR-South Coastal", "ASSOCIATION": "USA - Oregon", "POINTS": "2", "BONUSPOINTS": "0"}}, {"type": "Feature", "geometry": {"type": "Point", "coordinates": [-123.6663, 42.3315]}, "properties": {"NAME": "W7O/SC-034", "TITLE": "Nihwik Mountain", "REGION": "OR-South Coastal", "ASSOCIATION": "USA - Oregon", "POINTS": "2", "BONUSPOINTS": "0"}}, {"type": "Feature", "geometry": {"type": "Point", "coordinates": [-123.0422, 42.0939]}, "properties": {"NAME": "W7O/SC-035", "TITLE": "Baldy Peak", "REGION": "OR-South Coastal", "ASSOCIATION": "USA - Oregon", "POINTS": "2", "BONUSPOINTS": "0"}}, {"type": "Feature", "geometry": {"type": "Point", "coordinates": [-123.9423, 42.136]}, "properties": {"NAME": "W7O/SC-036", "TITLE": "Chetco Peak", "REGION": "OR-South Coastal", "ASSOCIATION": "USA - Oregon", "POINTS": "2", "BONUSPOINTS": "0"}}, {"type": "Feature", "geometry": {"type": "Point", "coordinates": [-123.9853, 42.181]}, "properties": {"NAME": "W7O/SC-037", "TITLE": "Vulcan Peak", "REGION": "OR-South Coastal", "ASSOCIATION": "USA - Oregon", "POINTS": "2", "BONUSPOINTS": "0"}}, {"type": "Feature", "geometry": {"type": "Point", "coordinates": [-124.0585, 42.3404]}, "properties": {"NAME": "W7O/SC-038", "TITLE": "Big Craggies", "REGION": "OR-South Coastal", "ASSOCIATION": "USA - Oregon", "POINTS": "2", "BONUSPOINTS": "0"}}, {"type": "Feature", "geometry": {"type": "Point", "coordinates": [-123.7191, 42.4932]}, "properties": {"NAME": "W7O/SC-039", "TITLE": "Freeland Mountain", "REGION": "OR-South Coastal", "ASSOCIATION": "USA - Oregon", "POINTS": "2", "BONUSPOINTS": "0"}}, {"type": "Feature", "geometry": {"type": "Point", "coordinates": [-123.4094, 42.2617]}, "properties": {"NAME": "W7O/SC-040", "TITLE": "Murphy Mountain", "REGION": "OR-South Coastal", "ASSOCIATION": "USA - Oregon", "POINTS": "2", "BONUSPOINTS": "0"}}, {"type": "Feature", "geometry": {"type": "Point", "coordinates": [-123.7936, 42.4299]}, "properties": {"NAME": "W7O/SC-041", "TITLE": "Flat Top", "REGION": "OR-South Coastal", "ASSOCIATION": "USA - Oregon", "POINTS": "2", "BONUSPOINTS": "0"}}, {"type": "Feature", "geometry": {"type": "Point", "coordinates": [-123.0688, 42.7225]}, "properties": {"NAME": "W7O/SC-042", "TITLE": "Skeleton Mountain", "REGION": "OR-South Coastal", "ASSOCIATION": "USA - Oregon", "POINTS": "2", "BONUSPOINTS": "0"}}, {"type": "Feature", "geometry": {"type": "Point", "coordinates": [-123.1422, 42.0809]}, "properties": {"NAME": "W7O/SC-043", "TITLE": "Kinney Mountain", "REGION": "OR-South Coastal", "ASSOCIATION": "USA - Oregon", "POINTS": "2", "BONUSPOINTS": "0"}}, {"type": "Feature", "geometry": {"type": "Point", "coordinates": [-123.1047, 42.3029]}, "properties": {"NAME": "W7O/SC-044", "TITLE": "Isabelle, Mount", "REGION": "OR-South Coastal", "ASSOCIATION": "USA - Oregon", "POINTS": "2", "BONUSPOINTS": "0"}}, {"type": "Feature", "geometry": {"type": "Point", "coordinates": [-123.9215, 42.3138]}, "properties": {"NAME": "W7O/SC-045", "TITLE": "Tincup Peak", "REGION": "OR-South Coastal", "ASSOCIATION": "USA - Oregon", "POINTS": "2", "BONUSPOINTS": "0"}}, {"type": "Feature", "geometry": {"type": "Point", "coordinates": [-123.0471, 42.7395]}, "properties": {"NAME": "W7O/SC-046", "TITLE": "Panther Peak", "REGION": "OR-South Coastal", "ASSOCIATION": "USA - Oregon", "POINTS": "2", "BONUSPOINTS": "0"}}, {"type": "Feature", "geometry": {"type": "Point", "coordinates": [-123.4499, 42.3044]}, "properties": {"NAME": "W7O/SC-047", "TITLE": "Round Top Benchmark", "REGION": "OR-South Coastal", "ASSOCIATION": "USA - Oregon", "POINTS": "2", "BONUSPOINTS": "0"}}, {"type": "Feature", "geometry": {"type": "Point", "coordinates": [-123.6161, 42.4545]}, "properties": {"NAME": "W7O/SC-048", "TITLE": "Onion Mountain", "REGION": "OR-South Coastal", "ASSOCIATION": "USA - Oregon", "POINTS": "2", "BONUSPOINTS": "0"}}, {"type": "Feature", "geometry": {"type": "Point", "coordinates": [-123.2474, 42.5411]}, "properties": {"NAME": "W7O/SC-049", "TITLE": "Elk Mountain", "REGION": "OR-South Coastal", "ASSOCIATION": "USA - Oregon", "POINTS": "2", "BONUSPOINTS": "0"}}, {"type": "Feature", "geometry": {"type": "Point", "coordinates": [-123.069, 42.3258]}, "properties": {"NAME": "W7O/SC-050", "TITLE": "Timber Mountain", "REGION": "OR-South Coastal", "ASSOCIATION": "USA - Oregon", "POINTS": "2", "BONUSPOINTS": "0"}}, {"type": "Feature", "geometry": {"type": "Point", "coordinates": [-123.0991, 42.1794]}, "properties": {"NAME": "W7O/SC-051", "TITLE": "Burton Butte", "REGION": "OR-South Coastal", "ASSOCIATION": "USA - Oregon", "POINTS": "2", "BONUSPOINTS": "0"}}, {"type": "Feature", "geometry": {"type": "Point", "coordinates": [-123.1787, 42.1708]}, "properties": {"NAME": "W7O/SC-052", "TITLE": "Jim Mee Peak", "REGION": "OR-South Coastal", "ASSOCIATION": "USA - Oregon", "POINTS": "2", "BONUSPOINTS": "0"}}, {"type": "Feature", "geometry": {"type": "Point", "coordinates": [-124.0926, 42.4306]}, "properties": {"NAME": "W7O/SC-053", "TITLE": "Game Lake Peak", "REGION": "OR-South Coastal", "ASSOCIATION": "USA - Oregon", "POINTS": "2", "BONUSPOINTS": "0"}}, {"type": "Feature", "geometry": {"type": "Point", "coordinates": [-123.8224, 42.2644]}, "properties": {"NAME": "W7O/SC-054", "TITLE": "Eagle Mountain", "REGION": "OR-South Coastal", "ASSOCIATION": "USA - Oregon", "POINTS": "2", "BONUSPOINTS": "0"}}, {"type": "Feature", "geometry": {"type": "Point", "coordinates": [-123.0936, 42.2047]}, "properties": {"NAME": "W7O/SC-055", "TITLE": "Ben Johnson Mountain", "REGION": "OR-South Coastal", "ASSOCIATION": "USA - Oregon", "POINTS": "2", "BONUSPOINTS": "0"}}, {"type": "Feature", "geometry": {"type": "Point", "coordinates": [-123.7274, 42.4512]}, "properties": {"NAME": "W7O/SC-056", "TITLE": "Chrome Ridge", "REGION": "OR-South Coastal", "ASSOCIATION": "USA - Oregon", "POINTS": "2", "BONUSPOINTS": "0"}}, {"type": "Feature", "geometry": {"type": "Point", "coordinates": [-124.1288, 42.3655]}, "properties": {"NAME": "W7O/SC-057", "TITLE": "Collier Butte", "REGION": "OR-South Coastal", "ASSOCIATION": "USA - Oregon", "POINTS": "2", "BONUSPOINTS": "0"}}, {"type": "Feature", "geometry": {"type": "Point", "coordinates": [-123.9235, 42.64]}, "properties": {"NAME": "W7O/SC-058", "TITLE": "Bobs Garden Mountain", "REGION": "OR-South Coastal", "ASSOCIATION": "USA - Oregon", "POINTS": "2", "BONUSPOINTS": "0"}}, {"type": "Feature", "geometry": {"type": "Point", "coordinates": [-123.8364, 42.7919]}, "properties": {"NAME": "W7O/SC-059", "TITLE": "Bolivar, Mount", "REGION": "OR-South Coastal", "ASSOCIATION": "USA - Oregon", "POINTS": "2", "BONUSPOINTS": "0"}}, {"type": "Feature", "geometry": {"type": "Point", "coordinates": [-123.8917, 42.3419]}, "properties": {"NAME": "W7O/SC-060", "TITLE": "Granite Butte", "REGION": "OR-South Coastal", "ASSOCIATION": "USA - Oregon", "POINTS": "2", "BONUSPOINTS": "0"}}, {"type": "Feature", "geometry": {"type": "Point", "coordinates": [-123.9345, 42.3557]}, "properties": {"NAME": "W7O/SC-061", "TITLE": "Hayward Peak", "REGION": "OR-South Coastal", "ASSOCIATION": "USA - Oregon", "POINTS": "2", "BONUSPOINTS": "0"}}, {"type": "Feature", "geometry": {"type": "Point", "coordinates": [-123.2811, 42.6622]}, "properties": {"NAME": "W7O/SC-062", "TITLE": "Saint Paul Mountain", "REGION": "OR-South Coastal", "ASSOCIATION": "USA - Oregon", "POINTS": "2", "BONUSPOINTS": "0"}}, {"type": "Feature", "geometry": {"type": "Point", "coordinates": [-123.7441, 42.2606]}, "properties": {"NAME": "W7O/SC-063", "TITLE": "Pocket Knoll", "REGION": "OR-South Coastal", "ASSOCIATION": "USA - Oregon", "POINTS": "2", "BONUSPOINTS": "0"}}, {"type": "Feature", "geometry": {"type": "Point", "coordinates": [-123.0647, 43.3722]}, "properties": {"NAME": "W7O/SC-064", "TITLE": "Scott Mountain", "REGION": "OR-South Coastal", "ASSOCIATION": "USA - Oregon", "POINTS": "2", "BONUSPOINTS": "0"}}, {"type": "Feature", "geometry": {"type": "Point", "coordinates": [-123.8194, 42.3994]}, "properties": {"NAME": "W7O/SC-065", "TITLE": "York Butte", "REGION": "OR-South Coastal", "ASSOCIATION": "USA - Oregon", "POINTS": "2", "BONUSPOINTS": "0"}}, {"type": "Feature", "geometry": {"type": "Point", "coordinates": [-123.1535, 42.3101]}, "properties": {"NAME": "W7O/SC-066", "TITLE": "Old Blue Mountain", "REGION": "OR-South Coastal", "ASSOCIATION": "USA - Oregon", "POINTS": "2", "BONUSPOINTS": "0"}}, {"type": "Feature", "geometry": {"type": "Point", "coordinates": [-123.915, 42.3467]}, "properties": {"NAME": "W7O/SC-067", "TITLE": "Billingslea, Mount", "REGION": "OR-South Coastal", "ASSOCIATION": "USA - Oregon", "POINTS": "2", "BONUSPOINTS": "0"}}, {"type": "Feature", "geometry": {"type": "Point", "coordinates": [-123.2059, 42.0911]}, "properties": {"NAME": "W7O/SC-068", "TITLE": "Steamboat Mountain", "REGION": "OR-South Coastal", "ASSOCIATION": "USA - Oregon", "POINTS": "2", "BONUSPOINTS": "0"}}, {"type": "Feature", "geometry": {"type": "Point", "coordinates": [-123.8457, 42.3482]}, "properties": {"NAME": "W7O/SC-069", "TITLE": "Nome Peak", "REGION": "OR-South Coastal", "ASSOCIATION": "USA - Oregon", "POINTS": "2", "BONUSPOINTS": "0"}}, {"type": "Feature", "geometry": {"type": "Point", "coordinates": [-123.9591, 42.4793]}, "properties": {"NAME": "W7O/SC-070", "TITLE": "Silver Peak", "REGION": "OR-South Coastal", "ASSOCIATION": "USA - Oregon", "POINTS": "2", "BONUSPOINTS": "0"}}, {"type": "Feature", "geometry": {"type": "Point", "coordinates": [-123.0022, 42.2231]}, "properties": {"NAME": "W7O/SC-071", "TITLE": "Woodrat Mountain", "REGION": "OR-South Coastal", "ASSOCIATION": "USA - Oregon", "POINTS": "2", "BONUSPOINTS": "0"}}, {"type": "Feature", "geometry": {"type": "Point", "coordinates": [-124.1419, 42.6976]}, "properties": {"NAME": "W7O/SC-072", "TITLE": "Iron Mountain", "REGION": "OR-South Coastal", "ASSOCIATION": "USA - Oregon", "POINTS": "2", "BONUSPOINTS": "0"}}, {"type": "Feature", "geometry": {"type": "Point", "coordinates": [-123.8734, 42.768]}, "properties": {"NAME": "W7O/SC-073", "TITLE": "Saddle Peaks, South", "REGION": "OR-South Coastal", "ASSOCIATION": "USA - Oregon", "POINTS": "2", "BONUSPOINTS": "0"}}, {"type": "Feature", "geometry": {"type": "Point", "coordinates": [-123.6421, 42.6018]}, "properties": {"NAME": "W7O/SC-074", "TITLE": "Mount Peavine", "REGION": "OR-South Coastal", "ASSOCIATION": "USA - Oregon", "POINTS": "2", "BONUSPOINTS": "0"}}, {"type": "Feature", "geometry": {"type": "Point", "coordinates": [-123.977, 42.2277]}, "properties": {"NAME": "W7O/SC-075", "TITLE": "Dry Butte", "REGION": "OR-South Coastal", "ASSOCIATION": "USA - Oregon", "POINTS": "2", "BONUSPOINTS": "0"}}, {"type": "Feature", "geometry": {"type": "Point", "coordinates": [-123.9541, 42.3231]}, "properties": {"NAME": "W7O/SC-076", "TITLE": "Heather Mountain", "REGION": "OR-South Coastal", "ASSOCIATION": "USA - Oregon", "POINTS": "2", "BONUSPOINTS": "0"}}, {"type": "Feature", "geometry": {"type": "Point", "coordinates": [-123.0095, 42.6284]}, "properties": {"NAME": "W7O/SC-077", "TITLE": "Spignet Butte", "REGION": "OR-South Coastal", "ASSOCIATION": "USA - Oregon", "POINTS": "2", "BONUSPOINTS": "0"}}, {"type": "Feature", "geometry": {"type": "Point", "coordinates": [-123.4699, 42.7867]}, "properties": {"NAME": "W7O/SC-078", "TITLE": "Grayback", "REGION": "OR-South Coastal", "ASSOCIATION": "USA - Oregon", "POINTS": "2", "BONUSPOINTS": "0"}}, {"type": "Feature", "geometry": {"type": "Point", "coordinates": [-123.0384, 43.1204]}, "properties": {"NAME": "W7O/SC-079", "TITLE": "White Rock", "REGION": "OR-South Coastal", "ASSOCIATION": "USA - Oregon", "POINTS": "2", "BONUSPOINTS": "0"}}, {"type": "Feature", "geometry": {"type": "Point", "coordinates": [-123.5972, 42.7188]}, "properties": {"NAME": "W7O/SC-080", "TITLE": "Reuben, Mount", "REGION": "OR-South Coastal", "ASSOCIATION": "USA - Oregon", "POINTS": "2", "BONUSPOINTS": "0"}}, {"type": "Feature", "geometry": {"type": "Point", "coordinates": [-123.662, 42.258]}, "properties": {"NAME": "W7O/SC-081", "TITLE": "Eight Dollar Mountain", "REGION": "OR-South Coastal", "ASSOCIATION": "USA - Oregon", "POINTS": "2", "BONUSPOINTS": "0"}}, {"type": "Feature", "geometry": {"type": "Point", "coordinates": [-123.2314, 42.4907]}, "properties": {"NAME": "W7O/SC-082", "TITLE": "Old Baldy", "REGION": "OR-South Coastal", "ASSOCIATION": "USA - Oregon", "POINTS": "2", "BONUSPOINTS": "0"}}, {"type": "Feature", "geometry": {"type": "Point", "coordinates": [-123.1142, 42.642]}, "properties": {"NAME": "W7O/SC-083", "TITLE": "Battle Mountain", "REGION": "OR-South Coastal", "ASSOCIATION": "USA - Oregon", "POINTS": "2", "BONUSPOINTS": "0"}}, {"type": "Feature", "geometry": {"type": "Point", "coordinates": [-123.3782, 42.8588]}, "properties": {"NAME": "W7O/SC-084", "TITLE": "Silver Butte", "REGION": "OR-South Coastal", "ASSOCIATION": "USA - Oregon", "POINTS": "2", "BONUSPOINTS": "0"}}, {"type": "Feature", "geometry": {"type": "Point", "coordinates": [-123.9132, 42.4389]}, "properties": {"NAME": "W7O/SC-085", "TITLE": "Bald Mountain", "REGION": "OR-South Coastal", "ASSOCIATION": "USA - Oregon", "POINTS": "2", "BONUSPOINTS": "0"}}, {"type": "Feature", "geometry": {"type": "Point", "coordinates": [-123.8071, 42.7871]}, "properties": {"NAME": "W7O/SC-086", "TITLE": "August Knob", "REGION": "OR-South Coastal", "ASSOCIATION": "USA - Oregon", "POINTS": "2", "BONUSPOINTS": "0"}}, {"type": "Feature", "geometry": {"type": "Point", "coordinates": [-124.1376, 42.6563]}, "properties": {"NAME": "W7O/SC-087", "TITLE": "Ophir Mountain", "REGION": "OR-South Coastal", "ASSOCIATION": "USA - Oregon", "POINTS": "2", "BONUSPOINTS": "0"}}, {"type": "Feature", "geometry": {"type": "Point", "coordinates": [-123.7072, 42.7848]}, "properties": {"NAME": "W7O/SC-088", "TITLE": "Ninemile Mountain", "REGION": "OR-South Coastal", "ASSOCIATION": "USA - Oregon", "POINTS": "2", "BONUSPOINTS": "0"}}, {"type": "Feature", "geometry": {"type": "Point", "coordinates": [-123.8813, 42.205]}, "properties": {"NAME": "W7O/SC-089", "TITLE": "Bailey Mountain", "REGION": "OR-South Coastal", "ASSOCIATION": "USA - Oregon", "POINTS": "2", "BONUSPOINTS": "0"}}, {"type": "Feature", "geometry": {"type": "Point", "coordinates": [-123.9321, 42.7402]}, "properties": {"NAME": "W7O/SC-090", "TITLE": "Hanging Rock", "REGION": "OR-South Coastal", "ASSOCIATION": "USA - Oregon", "POINTS": "2", "BONUSPOINTS": "0"}}, {"type": "Feature", "geometry": {"type": "Point", "coordinates": [-123.6602, 42.8666]}, "properties": {"NAME": "W7O/SC-091", "TITLE": "Dutchman Butte", "REGION": "OR-South Coastal", "ASSOCIATION": "USA - Oregon", "POINTS": "2", "BONUSPOINTS": "0"}}, {"type": "Feature", "geometry": {"type": "Point", "coordinates": [-124.0955, 42.3286]}, "properties": {"NAME": "W7O/SC-092", "TITLE": "Green Craggie", "REGION": "OR-South Coastal", "ASSOCIATION": "USA - Oregon", "POINTS": "2", "BONUSPOINTS": "0"}}, {"type": "Feature", "geometry": {"type": "Point", "coordinates": [-123.3048, 42.8256]}, "properties": {"NAME": "W7O/SC-093", "TITLE": "Buckhorn Mountain", "REGION": "OR-South Coastal", "ASSOCIATION": "USA - Oregon", "POINTS": "2", "BONUSPOINTS": "0"}}, {"type": "Feature", "geometry": {"type": "Point", "coordinates": [-123.3345, 42.5373]}, "properties": {"NAME": "W7O/SC-094", "TITLE": "Walker Mountain", "REGION": "OR-South Coastal", "ASSOCIATION": "USA - Oregon", "POINTS": "2", "BONUSPOINTS": "0"}}, {"type": "Feature", "geometry": {"type": "Point", "coordinates": [-123.3656, 42.6003]}, "properties": {"NAME": "W7O/SC-095", "TITLE": "Sexton Mountain", "REGION": "OR-South Coastal", "ASSOCIATION": "USA - Oregon", "POINTS": "2", "BONUSPOINTS": "0"}}, {"type": "Feature", "geometry": {"type": "Point", "coordinates": [-123.5488, 42.5109]}, "properties": {"NAME": "W7O/SC-096", "TITLE": "Buckhorn Mountain", "REGION": "OR-South Coastal", "ASSOCIATION": "USA - Oregon", "POINTS": "2", "BONUSPOINTS": "0"}}, {"type": "Feature", "geometry": {"type": "Point", "coordinates": [-123.9654, 42.2537]}, "properties": {"NAME": "W7O/SC-097", "TITLE": "Johnson Butte", "REGION": "OR-South Coastal", "ASSOCIATION": "USA - Oregon", "POINTS": "2", "BONUSPOINTS": "0"}}, {"type": "Feature", "geometry": {"type": "Point", "coordinates": [-124.1602, 42.471]}, "properties": {"NAME": "W7O/SC-098", "TITLE": "Wildhorse Lookout", "REGION": "OR-South Coastal", "ASSOCIATION": "USA - Oregon", "POINTS": "2", "BONUSPOINTS": "0"}}, {"type": "Feature", "geometry": {"type": "Point", "coordinates": [-123.2158, 42.4468]}, "properties": {"NAME": "W7O/SC-099", "TITLE": "Fielder Mountain", "REGION": "OR-South Coastal", "ASSOCIATION": "USA - Oregon", "POINTS": "2", "BONUSPOINTS": "0"}}, {"type": "Feature", "geometry": {"type": "Point", "coordinates": [-123.9469, 42.8163]}, "properties": {"NAME": "W7O/SC-100", "TITLE": "Gobblers Knob", "REGION": "OR-South Coastal", "ASSOCIATION": "USA - Oregon", "POINTS": "2", "BONUSPOINTS": "0"}}, {"type": "Feature", "geometry": {"type": "Point", "coordinates": [-123.107, 42.2625]}, "properties": {"NAME": "W7O/SC-101", "TITLE": "Wellington Butte", "REGION": "OR-South Coastal", "ASSOCIATION": "USA - Oregon", "POINTS": "2", "BONUSPOINTS": "0"}}, {"type": "Feature", "geometry": {"type": "Point", "coordinates": [-123.0637, 42.5997]}, "properties": {"NAME": "W7O/SC-102", "TITLE": "Bald Mountain", "REGION": "OR-South Coastal", "ASSOCIATION": "USA - Oregon", "POINTS": "2", "BONUSPOINTS": "0"}}, {"type": "Feature", "geometry": {"type": "Point", "coordinates": [-123.1049, 42.6204]}, "properties": {"NAME": "W7O/SC-103", "TITLE": "Black Butte", "REGION": "OR-South Coastal", "ASSOCIATION": "USA - Oregon", "POINTS": "2", "BONUSPOINTS": "0"}}, {"type": "Feature", "geometry": {"type": "Point", "coordinates": [-123.8473, 42.9169]}, "properties": {"NAME": "W7O/SC-104", "TITLE": "Bone Mountain", "REGION": "OR-South Coastal", "ASSOCIATION": "USA - Oregon", "POINTS": "2", "BONUSPOINTS": "0"}}, {"type": "Feature", "geometry": {"type": "Point", "coordinates": [-124.1322, 42.3068]}, "properties": {"NAME": "W7O/SC-105", "TITLE": "Mineral Hill", "REGION": "OR-South Coastal", "ASSOCIATION": "USA - Oregon", "POINTS": "2", "BONUSPOINTS": "0"}}, {"type": "Feature", "geometry": {"type": "Point", "coordinates": [-123.1765, 42.2832]}, "properties": {"NAME": "W7O/SC-106", "TITLE": "Billy Mountain", "REGION": "OR-South Coastal", "ASSOCIATION": "USA - Oregon", "POINTS": "2", "BONUSPOINTS": "0"}}, {"type": "Feature", "geometry": {"type": "Point", "coordinates": [-123.1513, 42.0492]}, "properties": {"NAME": "W7O/SC-107", "TITLE": "Collings Mountain", "REGION": "OR-South Coastal", "ASSOCIATION": "USA - Oregon", "POINTS": "2", "BONUSPOINTS": "0"}}, {"type": "Feature", "geometry": {"type": "Point", "coordinates": [-124.0398, 42.6938]}, "properties": {"NAME": "W7O/SC-108", "TITLE": "Bald Knob", "REGION": "OR-South Coastal", "ASSOCIATION": "USA - Oregon", "POINTS": "2", "BONUSPOINTS": "0"}}, {"type": "Feature", "geometry": {"type": "Point", "coordinates": [-124.1631, 42.7508]}, "properties": {"NAME": "W7O/SC-109", "TITLE": "Barklow Mountain", "REGION": "OR-South Coastal", "ASSOCIATION": "USA - Oregon", "POINTS": "2", "BONUSPOINTS": "0"}}, {"type": "Feature", "geometry": {"type": "Point", "coordinates": [-124.1734, 42.7188]}, "properties": {"NAME": "W7O/SC-110", "TITLE": "Copper Mountain", "REGION": "OR-South Coastal", "ASSOCIATION": "USA - Oregon", "POINTS": "2", "BONUSPOINTS": "0"}}, {"type": "Feature", "geometry": {"type": "Point", "coordinates": [-123.8692, 42.4316]}, "properties": {"NAME": "W7O/SC-111", "TITLE": "Chinaman Hat", "REGION": "OR-South Coastal", "ASSOCIATION": "USA - Oregon", "POINTS": "2", "BONUSPOINTS": "0"}}, {"type": "Feature", "geometry": {"type": "Point", "coordinates": [-123.0057, 42.5624]}, "properties": {"NAME": "W7O/SC-112", "TITLE": "Elkhorn Butte", "REGION": "OR-South Coastal", "ASSOCIATION": "USA - Oregon", "POINTS": "2", "BONUSPOINTS": "0"}}, {"type": "Feature", "geometry": {"type": "Point", "coordinates": [-123.4352, 42.9687]}, "properties": {"NAME": "W7O/SC-113", "TITLE": "Nickel Mountain", "REGION": "OR-South Coastal", "ASSOCIATION": "USA - Oregon", "POINTS": "2", "BONUSPOINTS": "0"}}, {"type": "Feature", "geometry": {"type": "Point", "coordinates": [-123.7349, 42.3765]}, "properties": {"NAME": "W7O/SC-114", "TITLE": "Horse Mountain", "REGION": "OR-South Coastal", "ASSOCIATION": "USA - Oregon", "POINTS": "2", "BONUSPOINTS": "0"}}, {"type": "Feature", "geometry": {"type": "Point", "coordinates": [-124.2852, 42.4164]}, "properties": {"NAME": "W7O/SC-115", "TITLE": "Signal Buttes", "REGION": "OR-South Coastal", "ASSOCIATION": "USA - Oregon", "POINTS": "2", "BONUSPOINTS": "0"}}, {"type": "Feature", "geometry": {"type": "Point", "coordinates": [-123.7924, 42.8529]}, "properties": {"NAME": "W7O/SC-116", "TITLE": "Gold Mountain", "REGION": "OR-South Coastal", "ASSOCIATION": "USA - Oregon", "POINTS": "2", "BONUSPOINTS": "0"}}, {"type": "Feature", "geometry": {"type": "Point", "coordinates": [-123.311, 42.8977]}, "properties": {"NAME": "W7O/SC-117", "TITLE": "Tellurium Peak", "REGION": "OR-South Coastal", "ASSOCIATION": "USA - Oregon", "POINTS": "2", "BONUSPOINTS": "0"}}, {"type": "Feature", "geometry": {"type": "Point", "coordinates": [-123.1173, 43.1957]}, "properties": {"NAME": "W7O/SC-118", "TITLE": "Lane Mountain", "REGION": "OR-South Coastal", "ASSOCIATION": "USA - Oregon", "POINTS": "2", "BONUSPOINTS": "0"}}, {"type": "Feature", "geometry": {"type": "Point", "coordinates": [-124.2253, 42.2092]}, "properties": {"NAME": "W7O/SC-119", "TITLE": "Bosley Butte", "REGION": "OR-South Coastal", "ASSOCIATION": "USA - Oregon", "POINTS": "2", "BONUSPOINTS": "0"}}, {"type": "Feature", "geometry": {"type": "Point", "coordinates": [-123.6206, 42.9378]}, "properties": {"NAME": "W7O/SC-120", "TITLE": "Live Oak Mountain", "REGION": "OR-South Coastal", "ASSOCIATION": "USA - Oregon", "POINTS": "2", "BONUSPOINTS": "0"}}, {"type": "Feature", "geometry": {"type": "Point", "coordinates": [-123.3213, 42.7291]}, "properties": {"NAME": "W7O/SC-121", "TITLE": "Buckhorn", "REGION": "OR-South Coastal", "ASSOCIATION": "USA - Oregon", "POINTS": "2", "BONUSPOINTS": "0"}}, {"type": "Feature", "geometry": {"type": "Point", "coordinates": [-124.2272, 42.414]}, "properties": {"NAME": "W7O/SC-122", "TITLE": "Quosatana Butte", "REGION": "OR-South Coastal", "ASSOCIATION": "USA - Oregon", "POINTS": "2", "BONUSPOINTS": "0"}}, {"type": "Feature", "geometry": {"type": "Point", "coordinates": [-123.1069, 42.5111]}, "properties": {"NAME": "W7O/SC-123", "TITLE": "Wilcox Peak", "REGION": "OR-South Coastal", "ASSOCIATION": "USA - Oregon", "POINTS": "2", "BONUSPOINTS": "0"}}, {"type": "Feature", "geometry": {"type": "Point", "coordinates": [-123.7, 42.1557]}, "properties": {"NAME": "W7O/SC-124", "TITLE": "Woodcock Mountain", "REGION": "OR-South Coastal", "ASSOCIATION": "USA - Oregon", "POINTS": "2", "BONUSPOINTS": "0"}}, {"type": "Feature", "geometry": {"type": "Point", "coordinates": [-123.0565, 42.6422]}, "properties": {"NAME": "W7O/SC-125", "TITLE": "Little Battle Mountain", "REGION": "OR-South Coastal", "ASSOCIATION": "USA - Oregon", "POINTS": "2", "BONUSPOINTS": "0"}}, {"type": "Feature", "geometry": {"type": "Point", "coordinates": [-123.5608, 42.9313]}, "properties": {"NAME": "W7O/SC-126", "TITLE": "Table Mountain", "REGION": "OR-South Coastal", "ASSOCIATION": "USA - Oregon", "POINTS": "2", "BONUSPOINTS": "0"}}, {"type": "Feature", "geometry": {"type": "Point", "coordinates": [-124.243, 42.6669]}, "properties": {"NAME": "W7O/SC-127", "TITLE": "Panther Mountain", "REGION": "OR-South Coastal", "ASSOCIATION": "USA - Oregon", "POINTS": "2", "BONUSPOINTS": "0"}}, {"type": "Feature", "geometry": {"type": "Point", "coordinates": [-123.7786, 43.0017]}, "properties": {"NAME": "W7O/SC-128", "TITLE": "Kenyon Mountain", "REGION": "OR-South Coastal", "ASSOCIATION": "USA - Oregon", "POINTS": "2", "BONUSPOINTS": "0"}}, {"type": "Feature", "geometry": {"type": "Point", "coordinates": [-123.2439, 43.119]}, "properties": {"NAME": "W7O/SC-129", "TITLE": "Dodson Butte", "REGION": "OR-South Coastal", "ASSOCIATION": "USA - Oregon", "POINTS": "2", "BONUSPOINTS": "0"}}, {"type": "Feature", "geometry": {"type": "Point", "coordinates": [-124.0454, 42.2422]}, "properties": {"NAME": "W7O/SC-130", "TITLE": "Quail Prairie Mountain", "REGION": "OR-South Coastal", "ASSOCIATION": "USA - Oregon", "POINTS": "2", "BONUSPOINTS": "0"}}, {"type": "Feature", "geometry": {"type": "Point", "coordinates": [-123.5885, 42.8435]}, "properties": {"NAME": "W7O/SC-131", "TITLE": "Rabbit Mountain", "REGION": "OR-South Coastal", "ASSOCIATION": "USA - Oregon", "POINTS": "2", "BONUSPOINTS": "0"}}, {"type": "Feature", "geometry": {"type": "Point", "coordinates": [-123.7047, 42.2037]}, "properties": {"NAME": "W7O/SC-132", "TITLE": "Tennessee Mountain", "REGION": "OR-South Coastal", "ASSOCIATION": "USA - Oregon", "POINTS": "2", "BONUSPOINTS": "0"}}, {"type": "Feature", "geometry": {"type": "Point", "coordinates": [-123.651, 43.1888]}, "properties": {"NAME": "W7O/SC-133", "TITLE": "Bear Mountain", "REGION": "OR-South Coastal", "ASSOCIATION": "USA - Oregon", "POINTS": "2", "BONUSPOINTS": "0"}}, {"type": "Feature", "geometry": {"type": "Point", "coordinates": [-124.1673, 42.7716]}, "properties": {"NAME": "W7O/SC-134", "TITLE": "Salmon Mountain", "REGION": "OR-South Coastal", "ASSOCIATION": "USA - Oregon", "POINTS": "2", "BONUSPOINTS": "0"}}, {"type": "Feature", "geometry": {"type": "Point", "coordinates": [-123.4377, 43.0027]}, "properties": {"NAME": "W7O/SC-135", "TITLE": "Big Baldy", "REGION": "OR-South Coastal", "ASSOCIATION": "USA - Oregon", "POINTS": "2", "BONUSPOINTS": "0"}}, {"type": "Feature", "geometry": {"type": "Point", "coordinates": [-123.3844, 42.7301]}, "properties": {"NAME": "W7O/SC-136", "TITLE": "Wolf Benchmark", "REGION": "OR-South Coastal", "ASSOCIATION": "USA - Oregon", "POINTS": "2", "BONUSPOINTS": "0"}}, {"type": "Feature", "geometry": {"type": "Point", "coordinates": [-123.6221, 43.2204]}, "properties": {"NAME": "W7O/SC-137", "TITLE": "Yew Ridge", "REGION": "OR-South Coastal", "ASSOCIATION": "USA - Oregon", "POINTS": "2", "BONUSPOINTS": "0"}}, {"type": "Feature", "geometry": {"type": "Point", "coordinates": [-123.0988, 42.4757]}, "properties": {"NAME": "W7O/SC-138", "TITLE": "Ward Benchmark", "REGION": "OR-South Coastal", "ASSOCIATION": "USA - Oregon", "POINTS": "2", "BONUSPOINTS": "0"}}, {"type": "Feature", "geometry": {"type": "Point", "coordinates": [-124.0999, 42.7988]}, "properties": {"NAME": "W7O/SC-139", "TITLE": "Johnson Mountain", "REGION": "OR-South Coastal", "ASSOCIATION": "USA - Oregon", "POINTS": "2", "BONUSPOINTS": "0"}}, {"type": "Feature", "geometry": {"type": "Point", "coordinates": [-124.3473, 42.6602]}, "properties": {"NAME": "W7O/SC-140", "TITLE": "Rocky Peak", "REGION": "OR-South Coastal", "ASSOCIATION": "USA - Oregon", "POINTS": "2", "BONUSPOINTS": "0"}}, {"type": "Feature", "geometry": {"type": "Point", "coordinates": [-123.4276, 42.6763]}, "properties": {"NAME": "W7O/SC-141", "TITLE": "Malone Peak", "REGION": "OR-South Coastal", "ASSOCIATION": "USA - Oregon", "POINTS": "2", "BONUSPOINTS": "0"}}, {"type": "Feature", "geometry": {"type": "Point", "coordinates": [-123.2064, 43.1347]}, "properties": {"NAME": "W7O/SC-142", "TITLE": "Brushy Butte", "REGION": "OR-South Coastal", "ASSOCIATION": "USA - Oregon", "POINTS": "2", "BONUSPOINTS": "0"}}, {"type": "Feature", "geometry": {"type": "Point", "coordinates": [-123.703, 43.2001]}, "properties": {"NAME": "W7O/SC-143", "TITLE": "Threemile Ridge", "REGION": "OR-South Coastal", "ASSOCIATION": "USA - Oregon", "POINTS": "2", "BONUSPOINTS": "0"}}, {"type": "Feature", "geometry": {"type": "Point", "coordinates": [-123.2107, 42.921]}, "properties": {"NAME": "W7O/SC-144", "TITLE": "Beals Mountain", "REGION": "OR-South Coastal", "ASSOCIATION": "USA - Oregon", "POINTS": "1", "BONUSPOINTS": "0"}}, {"type": "Feature", "geometry": {"type": "Point", "coordinates": [-124.2601, 42.7672]}, "properties": {"NAME": "W7O/SC-145", "TITLE": "Butler, Mount", "REGION": "OR-South Coastal", "ASSOCIATION": "USA - Oregon", "POINTS": "1", "BONUSPOINTS": "0"}}, {"type": "Feature", "geometry": {"type": "Point", "coordinates": [-123.4068, 42.6763]}, "properties": {"NAME": "W7O/SC-146", "TITLE": "London Peak", "REGION": "OR-South Coastal", "ASSOCIATION": "USA - Oregon", "POINTS": "1", "BONUSPOINTS": "0"}}, {"type": "Feature", "geometry": {"type": "Point", "coordinates": [-124.1528, 42.1026]}, "properties": {"NAME": "W7O/SC-147", "TITLE": "Emily, Mount", "REGION": "OR-South Coastal", "ASSOCIATION": "USA - Oregon", "POINTS": "1", "BONUSPOINTS": "0"}}, {"type": "Feature", "geometry": {"type": "Point", "coordinates": [-123.591, 43.2508]}, "properties": {"NAME": "W7O/SC-148", "TITLE": "Long Ridge", "REGION": "OR-South Coastal", "ASSOCIATION": "USA - Oregon", "POINTS": "1", "BONUSPOINTS": "0"}}, {"type": "Feature", "geometry": {"type": "Point", "coordinates": [-124.012, 42.853]}, "properties": {"NAME": "W7O/SC-149", "TITLE": "Woodby Mountain", "REGION": "OR-South Coastal", "ASSOCIATION": "USA - Oregon", "POINTS": "1", "BONUSPOINTS": "0"}}, {"type": "Feature", "geometry": {"type": "Point", "coordinates": [-124.3285, 42.6859]}, "properties": {"NAME": "W7O/SC-150", "TITLE": "Father Mountain", "REGION": "OR-South Coastal", "ASSOCIATION": "USA - Oregon", "POINTS": "1", "BONUSPOINTS": "0"}}, {"type": "Feature", "geometry": {"type": "Point", "coordinates": [-124.2812, 42.3673]}, "properties": {"NAME": "W7O/SC-151", "TITLE": "Pyramid Rock", "REGION": "OR-South Coastal", "ASSOCIATION": "USA - Oregon", "POINTS": "1", "BONUSPOINTS": "0"}}, {"type": "Feature", "geometry": {"type": "Point", "coordinates": [-124.3343, 42.8722]}, "properties": {"NAME": "W7O/SC-152", "TITLE": "Edson Butte", "REGION": "OR-South Coastal", "ASSOCIATION": "USA - Oregon", "POINTS": "1", "BONUSPOINTS": "0"}}, {"type": "Feature", "geometry": {"type": "Point", "coordinates": [-123.2921, 43.0623]}, "properties": {"NAME": "W7O/SC-153", "TITLE": "Myrtle Creek Benchmark", "REGION": "OR-South Coastal", "ASSOCIATION": "USA - Oregon", "POINTS": "1", "BONUSPOINTS": "0"}}, {"type": "Feature", "geometry": {"type": "Point", "coordinates": [-123.305, 42.3769]}, "properties": {"NAME": "W7O/SC-154", "TITLE": "Pickett Mountain", "REGION": "OR-South Coastal", "ASSOCIATION": "USA - Oregon", "POINTS": "1", "BONUSPOINTS": "0"}}, {"type": "Feature", "geometry": {"type": "Point", "coordinates": [-124.0078, 42.0306]}, "properties": {"NAME": "W7O/SC-155", "TITLE": "Packsaddle Mountain", "REGION": "OR-South Coastal", "ASSOCIATION": "USA - Oregon", "POINTS": "1", "BONUSPOINTS": "0"}}, {"type": "Feature", "geometry": {"type": "Point", "coordinates": [-124.2507, 42.7904]}, "properties": {"NAME": "W7O/SC-156", "TITLE": "Avery, Mount", "REGION": "OR-South Coastal", "ASSOCIATION": "USA - Oregon", "POINTS": "1", "BONUSPOINTS": "0"}}, {"type": "Feature", "geometry": {"type": "Point", "coordinates": [-123.1223, 42.9697]}, "properties": {"NAME": "W7O/SC-157", "TITLE": "Bland Mountain", "REGION": "OR-South Coastal", "ASSOCIATION": "USA - Oregon", "POINTS": "1", "BONUSPOINTS": "0"}}, {"type": "Feature", "geometry": {"type": "Point", "coordinates": [-123.0572, 42.4528]}, "properties": {"NAME": "W7O/SC-158", "TITLE": "Nugget Butte", "REGION": "OR-South Coastal", "ASSOCIATION": "USA - Oregon", "POINTS": "1", "BONUSPOINTS": "0"}}, {"type": "Feature", "geometry": {"type": "Point", "coordinates": [-123.6755, 43.3814]}, "properties": {"NAME": "W7O/SC-159", "TITLE": "Bateman Ridge", "REGION": "OR-South Coastal", "ASSOCIATION": "USA - Oregon", "POINTS": "1", "BONUSPOINTS": "0"}}, {"type": "Feature", "geometry": {"type": "Point", "coordinates": [-123.4729, 43.4091]}, "properties": {"NAME": "W7O/SC-160", "TITLE": "Tyee Mountain", "REGION": "OR-South Coastal", "ASSOCIATION": "USA - Oregon", "POINTS": "1", "BONUSPOINTS": "0"}}, {"type": "Feature", "geometry": {"type": "Point", "coordinates": [-124.2872, 42.6394]}, "properties": {"NAME": "W7O/SC-161", "TITLE": "Chismore Butte", "REGION": "OR-South Coastal", "ASSOCIATION": "USA - Oregon", "POINTS": "1", "BONUSPOINTS": "0"}}, {"type": "Feature", "geometry": {"type": "Point", "coordinates": [-124.0611, 42.4864]}, "properties": {"NAME": "W7O/SC-162", "TITLE": "Lawson Butte", "REGION": "OR-South Coastal", "ASSOCIATION": "USA - Oregon", "POINTS": "1", "BONUSPOINTS": "0"}}, {"type": "Feature", "geometry": {"type": "Point", "coordinates": [-124.2349, 42.838]}, "properties": {"NAME": "W7O/SC-163", "TITLE": "Sugarloaf Mountain", "REGION": "OR-South Coastal", "ASSOCIATION": "USA - Oregon", "POINTS": "1", "BONUSPOINTS": "0"}}, {"type": "Feature", "geometry": {"type": "Point", "coordinates": [-124.3232, 42.5442]}, "properties": {"NAME": "W7O/SC-164", "TITLE": "Brushy Bald Mountain", "REGION": "OR-South Coastal", "ASSOCIATION": "USA - Oregon", "POINTS": "1", "BONUSPOINTS": "0"}}, {"type": "Feature", "geometry": {"type": "Point", "coordinates": [-123.7367, 42.0375]}, "properties": {"NAME": "W7O/SC-165", "TITLE": "Lone Mountain", "REGION": "OR-South Coastal", "ASSOCIATION": "USA - Oregon", "POINTS": "1", "BONUSPOINTS": "0"}}, {"type": "Feature", "geometry": {"type": "Point", "coordinates": [-124.2554, 42.5453]}, "properties": {"NAME": "W7O/SC-166", "TITLE": "First Prairie Mountain", "REGION": "OR-South Coastal", "ASSOCIATION": "USA - Oregon", "POINTS": "1", "BONUSPOINTS": "0"}}, {"type": "Feature", "geometry": {"type": "Point", "coordinates": [-124.2625, 42.8933]}, "properties": {"NAME": "W7O/SC-167", "TITLE": "Calf Ranch Mountain", "REGION": "OR-South Coastal", "ASSOCIATION": "USA - Oregon", "POINTS": "1", "BONUSPOINTS": "0"}}, {"type": "Feature", "geometry": {"type": "Point", "coordinates": [-123.8997, 43.2823]}, "properties": {"NAME": "W7O/SC-168", "TITLE": "Coos Mountain", "REGION": "OR-South Coastal", "ASSOCIATION": "USA - Oregon", "POINTS": "1", "BONUSPOINTS": "0"}}, {"type": "Feature", "geometry": {"type": "Point", "coordinates": [-123.6133, 43.0052]}, "properties": {"NAME": "W7O/SC-169", "TITLE": "Chimney Rock", "REGION": "OR-South Coastal", "ASSOCIATION": "USA - Oregon", "POINTS": "1", "BONUSPOINTS": "0"}}, {"type": "Feature", "geometry": {"type": "Point", "coordinates": [-123.8534, 43.404]}, "properties": {"NAME": "W7O/SC-170", "TITLE": "Ivers Peak", "REGION": "OR-South Coastal", "ASSOCIATION": "USA - Oregon", "POINTS": "1", "BONUSPOINTS": "0"}}, {"type": "Feature", "geometry": {"type": "Point", "coordinates": [-124.3653, 42.3972]}, "properties": {"NAME": "W7O/SC-171", "TITLE": "Grizzly Mountain", "REGION": "OR-South Coastal", "ASSOCIATION": "USA - Oregon", "POINTS": "1", "BONUSPOINTS": "0"}}, {"type": "Feature", "geometry": {"type": "Point", "coordinates": [-123.925, 43.1333]}, "properties": {"NAME": "W7O/SC-172", "TITLE": "Sheeps Head", "REGION": "OR-South Coastal", "ASSOCIATION": "USA - Oregon", "POINTS": "1", "BONUSPOINTS": "0"}}, {"type": "Feature", "geometry": {"type": "Point", "coordinates": [-123.1383, 43.3703]}, "properties": {"NAME": "W7O/SC-173", "TITLE": "High Point", "REGION": "OR-South Coastal", "ASSOCIATION": "USA - Oregon", "POINTS": "1", "BONUSPOINTS": "0"}}, {"type": "Feature", "geometry": {"type": "Point", "coordinates": [-123.0, 42.9531]}, "properties": {"NAME": "W7O/SC-174", "TITLE": "O'Neill Butte", "REGION": "OR-South Coastal", "ASSOCIATION": "USA - Oregon", "POINTS": "1", "BONUSPOINTS": "0"}}, {"type": "Feature", "geometry": {"type": "Point", "coordinates": [-124.1046, 42.88]}, "properties": {"NAME": "W7O/SC-175", "TITLE": "Bingham Mountain", "REGION": "OR-South Coastal", "ASSOCIATION": "USA - Oregon", "POINTS": "1", "BONUSPOINTS": "0"}}, {"type": "Feature", "geometry": {"type": "Point", "coordinates": [-123.4109, 42.372]}, "properties": {"NAME": "W7O/SC-176", "TITLE": "Bolt Mountain", "REGION": "OR-South Coastal", "ASSOCIATION": "USA - Oregon", "POINTS": "1", "BONUSPOINTS": "0"}}, {"type": "Feature", "geometry": {"type": "Point", "coordinates": [-123.4281, 43.4839]}, "properties": {"NAME": "W7O/SC-177", "TITLE": "Yellow Creek Mountain", "REGION": "OR-South Coastal", "ASSOCIATION": "USA - Oregon", "POINTS": "1", "BONUSPOINTS": "0"}}, {"type": "Feature", "geometry": {"type": "Point", "coordinates": [-124.2743, 42.9589]}, "properties": {"NAME": "W7O/SC-178", "TITLE": "Bennett Butte", "REGION": "OR-South Coastal", "ASSOCIATION": "USA - Oregon", "POINTS": "1", "BONUSPOINTS": "0"}}, {"type": "Feature", "geometry": {"type": "Point", "coordinates": [-124.2131, 42.4797]}, "properties": {"NAME": "W7O/SC-179", "TITLE": "Skookumhouse Butte", "REGION": "OR-South Coastal", "ASSOCIATION": "USA - Oregon", "POINTS": "1", "BONUSPOINTS": "0"}}, {"type": "Feature", "geometry": {"type": "Point", "coordinates": [-123.2956, 43.1686]}, "properties": {"NAME": "W7O/SC-180", "TITLE": "Burg Mountain", "REGION": "OR-South Coastal", "ASSOCIATION": "USA - Oregon", "POINTS": "1", "BONUSPOINTS": "0"}}, {"type": "Feature", "geometry": {"type": "Point", "coordinates": [-123.021, 42.4425]}, "properties": {"NAME": "W7O/SC-181", "TITLE": "Gold Hill", "REGION": "OR-South Coastal", "ASSOCIATION": "USA - Oregon", "POINTS": "1", "BONUSPOINTS": "0"}}, {"type": "Feature", "geometry": {"type": "Point", "coordinates": [-123.5615, 43.1246]}, "properties": {"NAME": "W7O/SC-182", "TITLE": "Irwin Rocks", "REGION": "OR-South Coastal", "ASSOCIATION": "USA - Oregon", "POINTS": "1", "BONUSPOINTS": "0"}}, {"type": "Feature", "geometry": {"type": "Point", "coordinates": [-123.1181, 43.4569]}, "properties": {"NAME": "W7O/SC-183", "TITLE": "Buttes East, The", "REGION": "OR-South Coastal", "ASSOCIATION": "USA - Oregon", "POINTS": "1", "BONUSPOINTS": "0"}}, {"type": "Feature", "geometry": {"type": "Point", "coordinates": [-124.3375, 42.2004]}, "properties": {"NAME": "W7O/SC-184", "TITLE": "Rocky Benchmark", "REGION": "OR-South Coastal", "ASSOCIATION": "USA - Oregon", "POINTS": "1", "BONUSPOINTS": "0"}}, {"type": "Feature", "geometry": {"type": "Point", "coordinates": [-124.2278, 42.1267]}, "properties": {"NAME": "W7O/SC-185", "TITLE": "Palmer Butte", "REGION": "OR-South Coastal", "ASSOCIATION": "USA - Oregon", "POINTS": "1", "BONUSPOINTS": "0"}}, {"type": "Feature", "geometry": {"type": "Point", "coordinates": [-123.4736, 42.4054]}, "properties": {"NAME": "W7O/SC-186", "TITLE": "Sloan Mountain", "REGION": "OR-South Coastal", "ASSOCIATION": "USA - Oregon", "POINTS": "1", "BONUSPOINTS": "0"}}, {"type": "Feature", "geometry": {"type": "Point", "coordinates": [-123.3897, 42.958]}, "properties": {"NAME": "W7O/SC-187", "TITLE": "Isaac, Mount", "REGION": "OR-South Coastal", "ASSOCIATION": "USA - Oregon", "POINTS": "1", "BONUSPOINTS": "0"}}, {"type": "Feature", "geometry": {"type": "Point", "coordinates": [-124.3648, 42.5947]}, "properties": {"NAME": "W7O/SC-188", "TITLE": "Colebrook Butte", "REGION": "OR-South Coastal", "ASSOCIATION": "USA - Oregon", "POINTS": "1", "BONUSPOINTS": "0"}}, {"type": "Feature", "geometry": {"type": "Point", "coordinates": [-123.2426, 43.2586]}, "properties": {"NAME": "W7O/SC-189", "TITLE": "Round Top", "REGION": "OR-South Coastal", "ASSOCIATION": "USA - Oregon", "POINTS": "1", "BONUSPOINTS": "0"}}, {"type": "Feature", "geometry": {"type": "Point", "coordinates": [-123.675, 42.0787]}, "properties": {"NAME": "W7O/SC-190", "TITLE": "Indian Hill", "REGION": "OR-South Coastal", "ASSOCIATION": "USA - Oregon", "POINTS": "1", "BONUSPOINTS": "0"}}, {"type": "Feature", "geometry": {"type": "Point", "coordinates": [-123.1444, 43.2823]}, "properties": {"NAME": "W7O/SC-191", "TITLE": "Jack Mountain", "REGION": "OR-South Coastal", "ASSOCIATION": "USA - Oregon", "POINTS": "1", "BONUSPOINTS": "0"}}, {"type": "Feature", "geometry": {"type": "Point", "coordinates": [-124.436, 42.6787]}, "properties": {"NAME": "W7O/SC-192", "TITLE": "Humbug Mountain", "REGION": "OR-South Coastal", "ASSOCIATION": "USA - Oregon", "POINTS": "1", "BONUSPOINTS": "0"}}, {"type": "Feature", "geometry": {"type": "Point", "coordinates": [-123.3215, 43.2756]}, "properties": {"NAME": "W7O/SC-193", "TITLE": "Winchester Baldy", "REGION": "OR-South Coastal", "ASSOCIATION": "USA - Oregon", "POINTS": "1", "BONUSPOINTS": "0"}}, {"type": "Feature", "geometry": {"type": "Point", "coordinates": [-123.556, 43.0875]}, "properties": {"NAME": "W7O/SC-194", "TITLE": "Porter Hill", "REGION": "OR-South Coastal", "ASSOCIATION": "USA - Oregon", "POINTS": "1", "BONUSPOINTS": "0"}}, {"type": "Feature", "geometry": {"type": "Point", "coordinates": [-124.0119, 43.3975]}, "properties": {"NAME": "W7O/SC-195", "TITLE": "McKeever Mountain", "REGION": "OR-South Coastal", "ASSOCIATION": "USA - Oregon", "POINTS": "1", "BONUSPOINTS": "0"}}, {"type": "Feature", "geometry": {"type": "Point", "coordinates": [-124.1236, 42.0306]}, "properties": {"NAME": "W7O/SC-196", "TITLE": "Elk Mountain", "REGION": "OR-South Coastal", "ASSOCIATION": "USA - Oregon", "POINTS": "1", "BONUSPOINTS": "0"}}, {"type": "Feature", "geometry": {"type": "Point", "coordinates": [-123.4959, 43.2063]}, "properties": {"NAME": "W7O/SC-197", "TITLE": "White Tail Ridge", "REGION": "OR-South Coastal", "ASSOCIATION": "USA - Oregon", "POINTS": "1", "BONUSPOINTS": "0"}}, {"type": "Feature", "geometry": {"type": "Point", "coordinates": [-124.4063, 42.7259]}, "properties": {"NAME": "W7O/SC-198", "TITLE": "China Mountain", "REGION": "OR-South Coastal", "ASSOCIATION": "USA - Oregon", "POINTS": "1", "BONUSPOINTS": "0"}}, {"type": "Feature", "geometry": {"type": "Point", "coordinates": [-124.0424, 42.9926]}, "properties": {"NAME": "W7O/SC-199", "TITLE": "Samison Mountain", "REGION": "OR-South Coastal", "ASSOCIATION": "USA - Oregon", "POINTS": "1", "BONUSPOINTS": "0"}}, {"type": "Feature", "geometry": {"type": "Point", "coordinates": [-123.4827, 43.3239]}, "properties": {"NAME": "W7O/SC-200", "TITLE": "Woodruff Mountain", "REGION": "OR-South Coastal", "ASSOCIATION": "USA - Oregon", "POINTS": "1", "BONUSPOINTS": "0"}}, {"type": "Feature", "geometry": {"type": "Point", "coordinates": [-123.4855, 43.1261]}, "properties": {"NAME": "W7O/SC-201", "TITLE": "Swan Hill", "REGION": "OR-South Coastal", "ASSOCIATION": "USA - Oregon", "POINTS": "1", "BONUSPOINTS": "0"}}, {"type": "Feature", "geometry": {"type": "Point", "coordinates": [-124.0917, 43.2627]}, "properties": {"NAME": "W7O/SC-202", "TITLE": "Blue Ridge", "REGION": "OR-South Coastal", "ASSOCIATION": "USA - Oregon", "POINTS": "1", "BONUSPOINTS": "0"}}, {"type": "Feature", "geometry": {"type": "Point", "coordinates": [-124.0871, 43.0466]}, "properties": {"NAME": "W7O/SC-203", "TITLE": "Sugarloaf Mountain", "REGION": "OR-South Coastal", "ASSOCIATION": "USA - Oregon", "POINTS": "1", "BONUSPOINTS": "0"}}, {"type": "Feature", "geometry": {"type": "Point", "coordinates": [-123.4397, 43.1853]}, "properties": {"NAME": "W7O/SC-204", "TITLE": "Lookingglass Hill", "REGION": "OR-South Coastal", "ASSOCIATION": "USA - Oregon", "POINTS": "1", "BONUSPOINTS": "0"}}, {"type": "Feature", "geometry": {"type": "Point", "coordinates": [-123.3871, 43.3267]}, "properties": {"NAME": "W7O/SC-205", "TITLE": "Wilbur Benchmark", "REGION": "OR-South Coastal", "ASSOCIATION": "USA - Oregon", "POINTS": "1", "BONUSPOINTS": "0"}}, {"type": "Feature", "geometry": {"type": "Point", "coordinates": [-123.1672, 43.2616]}, "properties": {"NAME": "W7O/SC-206", "TITLE": "Bald Mountain", "REGION": "OR-South Coastal", "ASSOCIATION": "USA - Oregon", "POINTS": "1", "BONUSPOINTS": "0"}}, {"type": "Feature", "geometry": {"type": "Point", "coordinates": [-123.3557, 43.3719]}, "properties": {"NAME": "W7O/SC-207", "TITLE": "Richards Butte", "REGION": "OR-South Coastal", "ASSOCIATION": "USA - Oregon", "POINTS": "1", "BONUSPOINTS": "0"}}, {"type": "Feature", "geometry": {"type": "Point", "coordinates": [-124.3575, 42.5533]}, "properties": {"NAME": "W7O/SC-208", "TITLE": "Cedar Point", "REGION": "OR-South Coastal", "ASSOCIATION": "USA - Oregon", "POINTS": "1", "BONUSPOINTS": "0"}}, {"type": "Feature", "geometry": {"type": "Point", "coordinates": [-123.3953, 43.4497]}, "properties": {"NAME": "W7O/SC-209", "TITLE": "Gross Mountain", "REGION": "OR-South Coastal", "ASSOCIATION": "USA - Oregon", "POINTS": "1", "BONUSPOINTS": "0"}}, {"type": "Feature", "geometry": {"type": "Point", "coordinates": [-124.0125, 43.0391]}, "properties": {"NAME": "W7O/SC-210", "TITLE": "Anderson Mountain", "REGION": "OR-South Coastal", "ASSOCIATION": "USA - Oregon", "POINTS": "1", "BONUSPOINTS": "0"}}, {"type": "Feature", "geometry": {"type": "Point", "coordinates": [-124.1248, 42.9804]}, "properties": {"NAME": "W7O/SC-211", "TITLE": "Whobrey Mountain", "REGION": "OR-South Coastal", "ASSOCIATION": "USA - Oregon", "POINTS": "1", "BONUSPOINTS": "0"}}, {"type": "Feature", "geometry": {"type": "Point", "coordinates": [-123.1899, 43.4545]}, "properties": {"NAME": "W7O/SC-212", "TITLE": "Hall Ridge", "REGION": "OR-South Coastal", "ASSOCIATION": "USA - Oregon", "POINTS": "1", "BONUSPOINTS": "0"}}, {"type": "Feature", "geometry": {"type": "Point", "coordinates": [-124.1336, 43.1605]}, "properties": {"NAME": "W7O/SC-213", "TITLE": "Rink Benchmark", "REGION": "OR-South Coastal", "ASSOCIATION": "USA - Oregon", "POINTS": "1", "BONUSPOINTS": "0"}}, {"type": "Feature", "geometry": {"type": "Point", "coordinates": [-123.3956, 42.1724]}, "properties": {"NAME": "W7O/SC-214", "TITLE": "5288", "REGION": "OR-South Coastal", "ASSOCIATION": "USA - Oregon", "POINTS": "4", "BONUSPOINTS": "3"}}, {"type": "Feature", "geometry": {"type": "Point", "coordinates": [-123.3338, 42.2845]}, "properties": {"NAME": "W7O/SC-215", "TITLE": "4780", "REGION": "OR-South Coastal", "ASSOCIATION": "USA - Oregon", "POINTS": "2", "BONUSPOINTS": "0"}}, {"type": "Feature", "geometry": {"type": "Point", "coordinates": [-123.8502, 42.1452]}, "properties": {"NAME": "W7O/SC-216", "TITLE": "4465", "REGION": "OR-South Coastal", "ASSOCIATION": "USA - Oregon", "POINTS": "2", "BONUSPOINTS": "0"}}, {"type": "Feature", "geometry": {"type": "Point", "coordinates": [-123.1566, 42.6834]}, "properties": {"NAME": "W7O/SC-217", "TITLE": "4374", "REGION": "OR-South Coastal", "ASSOCIATION": "USA - Oregon", "POINTS": "2", "BONUSPOINTS": "0"}}, {"type": "Feature", "geometry": {"type": "Point", "coordinates": [-123.8553, 42.3202]}, "properties": {"NAME": "W7O/SC-218", "TITLE": "4335", "REGION": "OR-South Coastal", "ASSOCIATION": "USA - Oregon", "POINTS": "2", "BONUSPOINTS": "0"}}, {"type": "Feature", "geometry": {"type": "Point", "coordinates": [-123.8401, 42.2248]}, "properties": {"NAME": "W7O/SC-219", "TITLE": "4325", "REGION": "OR-South Coastal", "ASSOCIATION": "USA - Oregon", "POINTS": "2", "BONUSPOINTS": "0"}}, {"type": "Feature", "geometry": {"type": "Point", "coordinates": [-123.7676, 42.6016]}, "properties": {"NAME": "W7O/SC-220", "TITLE": "4300", "REGION": "OR-South Coastal", "ASSOCIATION": "USA - Oregon", "POINTS": "2", "BONUSPOINTS": "0"}}, {"type": "Feature", "geometry": {"type": "Point", "coordinates": [-123.7785, 42.5138]}, "properties": {"NAME": "W7O/SC-221", "TITLE": "4300", "REGION": "OR-South Coastal", "ASSOCIATION": "USA - Oregon", "POINTS": "2", "BONUSPOINTS": "0"}}, {"type": "Feature", "geometry": {"type": "Point", "coordinates": [-123.2537, 42.621]}, "properties": {"NAME": "W7O/SC-222", "TITLE": "4284", "REGION": "OR-South Coastal", "ASSOCIATION": "USA - Oregon", "POINTS": "2", "BONUSPOINTS": "0"}}, {"type": "Feature", "geometry": {"type": "Point", "coordinates": [-123.7333, 42.5474]}, "properties": {"NAME": "W7O/SC-223", "TITLE": "4255", "REGION": "OR-South Coastal", "ASSOCIATION": "USA - Oregon", "POINTS": "2", "BONUSPOINTS": "0"}}, {"type": "Feature", "geometry": {"type": "Point", "coordinates": [-123.9277, 42.2138]}, "properties": {"NAME": "W7O/SC-224", "TITLE": "4165", "REGION": "OR-South Coastal", "ASSOCIATION": "USA - Oregon", "POINTS": "2", "BONUSPOINTS": "0"}}, {"type": "Feature", "geometry": {"type": "Point", "coordinates": [-124.0701, 42.332]}, "properties": {"NAME": "W7O/SC-225", "TITLE": "4150", "REGION": "OR-South Coastal", "ASSOCIATION": "USA - Oregon", "POINTS": "2", "BONUSPOINTS": "0"}}, {"type": "Feature", "geometry": {"type": "Point", "coordinates": [-123.3376, 42.2425]}, "properties": {"NAME": "W7O/SC-226", "TITLE": "4140", "REGION": "OR-South Coastal", "ASSOCIATION": "USA - Oregon", "POINTS": "2", "BONUSPOINTS": "0"}}, {"type": "Feature", "geometry": {"type": "Point", "coordinates": [-123.8428, 42.0498]}, "properties": {"NAME": "W7O/SC-227", "TITLE": "4100", "REGION": "OR-South Coastal", "ASSOCIATION": "USA - Oregon", "POINTS": "2", "BONUSPOINTS": "0"}}, {"type": "Feature", "geometry": {"type": "Point", "coordinates": [-123.2159, 42.3598]}, "properties": {"NAME": "W7O/SC-228", "TITLE": "3980", "REGION": "OR-South Coastal", "ASSOCIATION": "USA - Oregon", "POINTS": "2", "BONUSPOINTS": "0"}}, {"type": "Feature", "geometry": {"type": "Point", "coordinates": [-123.2382, 42.358]}, "properties": {"NAME": "W7O/SC-229", "TITLE": "3980", "REGION": "OR-South Coastal", "ASSOCIATION": "USA - Oregon", "POINTS": "2", "BONUSPOINTS": "0"}}, {"type": "Feature", "geometry": {"type": "Point", "coordinates": [-123.818, 42.4902]}, "properties": {"NAME": "W7O/SC-230", "TITLE": "3950", "REGION": "OR-South Coastal", "ASSOCIATION": "USA - Oregon", "POINTS": "2", "BONUSPOINTS": "0"}}, {"type": "Feature", "geometry": {"type": "Point", "coordinates": [-123.8658, 42.7567]}, "properties": {"NAME": "W7O/SC-231", "TITLE": "3940", "REGION": "OR-South Coastal", "ASSOCIATION": "USA - Oregon", "POINTS": "2", "BONUSPOINTS": "0"}}, {"type": "Feature", "geometry": {"type": "Point", "coordinates": [-123.0033, 43.1084]}, "properties": {"NAME": "W7O/SC-232", "TITLE": "3940", "REGION": "OR-South Coastal", "ASSOCIATION": "USA - Oregon", "POINTS": "2", "BONUSPOINTS": "0"}}, {"type": "Feature", "geometry": {"type": "Point", "coordinates": [-123.1272, 42.8573]}, "properties": {"NAME": "W7O/SC-233", "TITLE": "3940", "REGION": "OR-South Coastal", "ASSOCIATION": "USA - Oregon", "POINTS": "2", "BONUSPOINTS": "0"}}, {"type": "Feature", "geometry": {"type": "Point", "coordinates": [-123.0076, 42.8432]}, "properties": {"NAME": "W7O/SC-234", "TITLE": "3940", "REGION": "OR-South Coastal", "ASSOCIATION": "USA - Oregon", "POINTS": "2", "BONUSPOINTS": "0"}}, {"type": "Feature", "geometry": {"type": "Point", "coordinates": [-123.9003, 42.4823]}, "properties": {"NAME": "W7O/SC-235", "TITLE": "3931", "REGION": "OR-South Coastal", "ASSOCIATION": "USA - Oregon", "POINTS": "2", "BONUSPOINTS": "0"}}, {"type": "Feature", "geometry": {"type": "Point", "coordinates": [-123.0232, 42.1405]}, "properties": {"NAME": "W7O/SC-236", "TITLE": "3924", "REGION": "OR-South Coastal", "ASSOCIATION": "USA - Oregon", "POINTS": "2", "BONUSPOINTS": "0"}}, {"type": "Feature", "geometry": {"type": "Point", "coordinates": [-123.8745, 42.8582]}, "properties": {"NAME": "W7O/SC-237", "TITLE": "3900", "REGION": "OR-South Coastal", "ASSOCIATION": "USA - Oregon", "POINTS": "2", "BONUSPOINTS": "0"}}, {"type": "Feature", "geometry": {"type": "Point", "coordinates": [-123.2883, 42.7342]}, "properties": {"NAME": "W7O/SC-238", "TITLE": "3900", "REGION": "OR-South Coastal", "ASSOCIATION": "USA - Oregon", "POINTS": "2", "BONUSPOINTS": "0"}}, {"type": "Feature", "geometry": {"type": "Point", "coordinates": [-123.669, 42.7373]}, "properties": {"NAME": "W7O/SC-239", "TITLE": "3900", "REGION": "OR-South Coastal", "ASSOCIATION": "USA - Oregon", "POINTS": "2", "BONUSPOINTS": "0"}}, {"type": "Feature", "geometry": {"type": "Point", "coordinates": [-123.9902, 42.6212]}, "properties": {"NAME": "W7O/SC-240", "TITLE": "3860", "REGION": "OR-South Coastal", "ASSOCIATION": "USA - Oregon", "POINTS": "2", "BONUSPOINTS": "0"}}, {"type": "Feature", "geometry": {"type": "Point", "coordinates": [-123.438, 42.8093]}, "properties": {"NAME": "W7O/SC-241", "TITLE": "3860", "REGION": "OR-South Coastal", "ASSOCIATION": "USA - Oregon", "POINTS": "2", "BONUSPOINTS": "0"}}, {"type": "Feature", "geometry": {"type": "Point", "coordinates": [-123.2642, 42.364]}, "properties": {"NAME": "W7O/SC-242", "TITLE": "3842", "REGION": "OR-South Coastal", "ASSOCIATION": "USA - Oregon", "POINTS": "2", "BONUSPOINTS": "0"}}, {"type": "Feature", "geometry": {"type": "Point", "coordinates": [-123.2757, 42.382]}, "properties": {"NAME": "W7O/SC-243", "TITLE": "3792", "REGION": "OR-South Coastal", "ASSOCIATION": "USA - Oregon", "POINTS": "2", "BONUSPOINTS": "0"}}, {"type": "Feature", "geometry": {"type": "Point", "coordinates": [-123.896, 42.7708]}, "properties": {"NAME": "W7O/SC-244", "TITLE": "3780", "REGION": "OR-South Coastal", "ASSOCIATION": "USA - Oregon", "POINTS": "2", "BONUSPOINTS": "0"}}, {"type": "Feature", "geometry": {"type": "Point", "coordinates": [-123.8417, 42.4798]}, "properties": {"NAME": "W7O/SC-245", "TITLE": "3746", "REGION": "OR-South Coastal", "ASSOCIATION": "USA - Oregon", "POINTS": "2", "BONUSPOINTS": "0"}}, {"type": "Feature", "geometry": {"type": "Point", "coordinates": [-123.8123, 42.8138]}, "properties": {"NAME": "W7O/SC-246", "TITLE": "3740", "REGION": "OR-South Coastal", "ASSOCIATION": "USA - Oregon", "POINTS": "2", "BONUSPOINTS": "0"}}, {"type": "Feature", "geometry": {"type": "Point", "coordinates": [-123.1939, 42.6245]}, "properties": {"NAME": "W7O/SC-247", "TITLE": "3740", "REGION": "OR-South Coastal", "ASSOCIATION": "USA - Oregon", "POINTS": "2", "BONUSPOINTS": "0"}}, {"type": "Feature", "geometry": {"type": "Point", "coordinates": [-123.0672, 42.0467]}, "properties": {"NAME": "W7O/SC-248", "TITLE": "3722", "REGION": "OR-South Coastal", "ASSOCIATION": "USA - Oregon", "POINTS": "2", "BONUSPOINTS": "0"}}, {"type": "Feature", "geometry": {"type": "Point", "coordinates": [-123.4836, 42.144]}, "properties": {"NAME": "W7O/SC-249", "TITLE": "3691", "REGION": "OR-South Coastal", "ASSOCIATION": "USA - Oregon", "POINTS": "2", "BONUSPOINTS": "0"}}, {"type": "Feature", "geometry": {"type": "Point", "coordinates": [-123.6361, 42.7254]}, "properties": {"NAME": "W7O/SC-250", "TITLE": "3662", "REGION": "OR-South Coastal", "ASSOCIATION": "USA - Oregon", "POINTS": "2", "BONUSPOINTS": "0"}}, {"type": "Feature", "geometry": {"type": "Point", "coordinates": [-123.6029, 42.674]}, "properties": {"NAME": "W7O/SC-251", "TITLE": "3620", "REGION": "OR-South Coastal", "ASSOCIATION": "USA - Oregon", "POINTS": "2", "BONUSPOINTS": "0"}}, {"type": "Feature", "geometry": {"type": "Point", "coordinates": [-123.2334, 42.8222]}, "properties": {"NAME": "W7O/SC-252", "TITLE": "3605", "REGION": "OR-South Coastal", "ASSOCIATION": "USA - Oregon", "POINTS": "2", "BONUSPOINTS": "0"}}, {"type": "Feature", "geometry": {"type": "Point", "coordinates": [-123.2779, 42.8101]}, "properties": {"NAME": "W7O/SC-253", "TITLE": "3593", "REGION": "OR-South Coastal", "ASSOCIATION": "USA - Oregon", "POINTS": "2", "BONUSPOINTS": "0"}}, {"type": "Feature", "geometry": {"type": "Point", "coordinates": [-123.075, 42.6197]}, "properties": {"NAME": "W7O/SC-254", "TITLE": "3580", "REGION": "OR-South Coastal", "ASSOCIATION": "USA - Oregon", "POINTS": "2", "BONUSPOINTS": "0"}}, {"type": "Feature", "geometry": {"type": "Point", "coordinates": [-123.3581, 42.8267]}, "properties": {"NAME": "W7O/SC-255", "TITLE": "3540", "REGION": "OR-South Coastal", "ASSOCIATION": "USA - Oregon", "POINTS": "2", "BONUSPOINTS": "0"}}, {"type": "Feature", "geometry": {"type": "Point", "coordinates": [-123.5052, 42.6066]}, "properties": {"NAME": "W7O/SC-256", "TITLE": "3540", "REGION": "OR-South Coastal", "ASSOCIATION": "USA - Oregon", "POINTS": "2", "BONUSPOINTS": "0"}}, {"type": "Feature", "geometry": {"type": "Point", "coordinates": [-123.4773, 42.291]}, "properties": {"NAME": "W7O/SC-257", "TITLE": "3527", "REGION": "OR-South Coastal", "ASSOCIATION": "USA - Oregon", "POINTS": "2", "BONUSPOINTS": "0"}}, {"type": "Feature", "geometry": {"type": "Point", "coordinates": [-123.2312, 42.2184]}, "properties": {"NAME": "W7O/SC-258", "TITLE": "3507", "REGION": "OR-South Coastal", "ASSOCIATION": "USA - Oregon", "POINTS": "2", "BONUSPOINTS": "0"}}, {"type": "Feature", "geometry": {"type": "Point", "coordinates": [-124.0329, 42.7563]}, "properties": {"NAME": "W7O/SC-259", "TITLE": "3500", "REGION": "OR-South Coastal", "ASSOCIATION": "USA - Oregon", "POINTS": "2", "BONUSPOINTS": "0"}}, {"type": "Feature", "geometry": {"type": "Point", "coordinates": [-123.4987, 42.2356]}, "properties": {"NAME": "W7O/SC-260", "TITLE": "3500", "REGION": "OR-South Coastal", "ASSOCIATION": "USA - Oregon", "POINTS": "2", "BONUSPOINTS": "0"}}, {"type": "Feature", "geometry": {"type": "Point", "coordinates": [-123.7704, 42.4749]}, "properties": {"NAME": "W7O/SC-261", "TITLE": "3485", "REGION": "OR-South Coastal", "ASSOCIATION": "USA - Oregon", "POINTS": "2", "BONUSPOINTS": "0"}}, {"type": "Feature", "geometry": {"type": "Point", "coordinates": [-124.1903, 42.5677]}, "properties": {"NAME": "W7O/SC-262", "TITLE": "3468", "REGION": "OR-South Coastal", "ASSOCIATION": "USA - Oregon", "POINTS": "2", "BONUSPOINTS": "0"}}, {"type": "Feature", "geometry": {"type": "Point", "coordinates": [-123.2394, 42.4529]}, "properties": {"NAME": "W7O/SC-263", "TITLE": "3420", "REGION": "OR-South Coastal", "ASSOCIATION": "USA - Oregon", "POINTS": "2", "BONUSPOINTS": "0"}}, {"type": "Feature", "geometry": {"type": "Point", "coordinates": [-123.4421, 42.7067]}, "properties": {"NAME": "W7O/SC-264", "TITLE": "3418", "REGION": "OR-South Coastal", "ASSOCIATION": "USA - Oregon", "POINTS": "2", "BONUSPOINTS": "0"}}, {"type": "Feature", "geometry": {"type": "Point", "coordinates": [-123.0552, 42.8492]}, "properties": {"NAME": "W7O/SC-265", "TITLE": "3398", "REGION": "OR-South Coastal", "ASSOCIATION": "USA - Oregon", "POINTS": "2", "BONUSPOINTS": "0"}}, {"type": "Feature", "geometry": {"type": "Point", "coordinates": [-123.5341, 42.1914]}, "properties": {"NAME": "W7O/SC-266", "TITLE": "3340", "REGION": "OR-South Coastal", "ASSOCIATION": "USA - Oregon", "POINTS": "2", "BONUSPOINTS": "0"}}, {"type": "Feature", "geometry": {"type": "Point", "coordinates": [-123.041, 42.494]}, "properties": {"NAME": "W7O/SC-267", "TITLE": "3334", "REGION": "OR-South Coastal", "ASSOCIATION": "USA - Oregon", "POINTS": "2", "BONUSPOINTS": "0"}}, {"type": "Feature", "geometry": {"type": "Point", "coordinates": [-124.1881, 42.278]}, "properties": {"NAME": "W7O/SC-268", "TITLE": "3300", "REGION": "OR-South Coastal", "ASSOCIATION": "USA - Oregon", "POINTS": "2", "BONUSPOINTS": "0"}}, {"type": "Feature", "geometry": {"type": "Point", "coordinates": [-123.1945, 42.3276]}, "properties": {"NAME": "W7O/SC-269", "TITLE": "3300", "REGION": "OR-South Coastal", "ASSOCIATION": "USA - Oregon", "POINTS": "2", "BONUSPOINTS": "0"}}, {"type": "Feature", "geometry": {"type": "Point", "coordinates": [-123.7485, 42.3282]}, "properties": {"NAME": "W7O/SC-270", "TITLE": "3300", "REGION": "OR-South Coastal", "ASSOCIATION": "USA - Oregon", "POINTS": "2", "BONUSPOINTS": "0"}}, {"type": "Feature", "geometry": {"type": "Point", "coordinates": [-123.11, 42.8897]}, "properties": {"NAME": "W7O/SC-271", "TITLE": "3291", "REGION": "OR-South Coastal", "ASSOCIATION": "USA - Oregon", "POINTS": "2", "BONUSPOINTS": "0"}}, {"type": "Feature", "geometry": {"type": "Point", "coordinates": [-123.859, 42.8248]}, "properties": {"NAME": "W7O/SC-272", "TITLE": "3289", "REGION": "OR-South Coastal", "ASSOCIATION": "USA - Oregon", "POINTS": "2", "BONUSPOINTS": "0"}}, {"type": "Feature", "geometry": {"type": "Point", "coordinates": [-123.9278, 42.7824]}, "properties": {"NAME": "W7O/SC-273", "TITLE": "3274", "REGION": "OR-South Coastal", "ASSOCIATION": "USA - Oregon", "POINTS": "2", "BONUSPOINTS": "0"}}, {"type": "Feature", "geometry": {"type": "Point", "coordinates": [-123.5257, 42.8069]}, "properties": {"NAME": "W7O/SC-274", "TITLE": "3260", "REGION": "OR-South Coastal", "ASSOCIATION": "USA - Oregon", "POINTS": "2", "BONUSPOINTS": "0"}}, {"type": "Feature", "geometry": {"type": "Point", "coordinates": [-123.2279, 42.7689]}, "properties": {"NAME": "W7O/SC-275", "TITLE": "3260", "REGION": "OR-South Coastal", "ASSOCIATION": "USA - Oregon", "POINTS": "2", "BONUSPOINTS": "0"}}, {"type": "Feature", "geometry": {"type": "Point", "coordinates": [-123.2095, 42.4936]}, "properties": {"NAME": "W7O/SC-276", "TITLE": "3260", "REGION": "OR-South Coastal", "ASSOCIATION": "USA - Oregon", "POINTS": "2", "BONUSPOINTS": "0"}}, {"type": "Feature", "geometry": {"type": "Point", "coordinates": [-123.3001, 42.4854]}, "properties": {"NAME": "W7O/SC-277", "TITLE": "3220", "REGION": "OR-South Coastal", "ASSOCIATION": "USA - Oregon", "POINTS": "2", "BONUSPOINTS": "0"}}, {"type": "Feature", "geometry": {"type": "Point", "coordinates": [-123.6754, 43.1454]}, "properties": {"NAME": "W7O/SC-278", "TITLE": "3189", "REGION": "OR-South Coastal", "ASSOCIATION": "USA - Oregon", "POINTS": "2", "BONUSPOINTS": "0"}}, {"type": "Feature", "geometry": {"type": "Point", "coordinates": [-123.7273, 43.0954]}, "properties": {"NAME": "W7O/SC-279", "TITLE": "3180", "REGION": "OR-South Coastal", "ASSOCIATION": "USA - Oregon", "POINTS": "2", "BONUSPOINTS": "0"}}, {"type": "Feature", "geometry": {"type": "Point", "coordinates": [-123.3366, 42.6566]}, "properties": {"NAME": "W7O/SC-280", "TITLE": "3380", "REGION": "OR-South Coastal", "ASSOCIATION": "USA - Oregon", "POINTS": "2", "BONUSPOINTS": "0"}}, {"type": "Feature", "geometry": {"type": "Point", "coordinates": [-123.7051, 42.4145]}, "properties": {"NAME": "W7O/SC-281", "TITLE": "3173", "REGION": "OR-South Coastal", "ASSOCIATION": "USA - Oregon", "POINTS": "2", "BONUSPOINTS": "0"}}, {"type": "Feature", "geometry": {"type": "Point", "coordinates": [-123.3247, 42.7964]}, "properties": {"NAME": "W7O/SC-282", "TITLE": "3162", "REGION": "OR-South Coastal", "ASSOCIATION": "USA - Oregon", "POINTS": "2", "BONUSPOINTS": "0"}}, {"type": "Feature", "geometry": {"type": "Point", "coordinates": [-123.3497, 42.6994]}, "properties": {"NAME": "W7O/SC-283", "TITLE": "3140", "REGION": "OR-South Coastal", "ASSOCIATION": "USA - Oregon", "POINTS": "2", "BONUSPOINTS": "0"}}, {"type": "Feature", "geometry": {"type": "Point", "coordinates": [-123.693, 43.1163]}, "properties": {"NAME": "W7O/SC-284", "TITLE": "3132", "REGION": "OR-South Coastal", "ASSOCIATION": "USA - Oregon", "POINTS": "2", "BONUSPOINTS": "0"}}, {"type": "Feature", "geometry": {"type": "Point", "coordinates": [-123.4881, 42.8692]}, "properties": {"NAME": "W7O/SC-285", "TITLE": "3126", "REGION": "OR-South Coastal", "ASSOCIATION": "USA - Oregon", "POINTS": "2", "BONUSPOINTS": "0"}}, {"type": "Feature", "geometry": {"type": "Point", "coordinates": [-124.239, 42.2533]}, "properties": {"NAME": "W7O/SC-286", "TITLE": "3100", "REGION": "OR-South Coastal", "ASSOCIATION": "USA - Oregon", "POINTS": "2", "BONUSPOINTS": "0"}}, {"type": "Feature", "geometry": {"type": "Point", "coordinates": [-123.035, 42.5135]}, "properties": {"NAME": "W7O/SC-287", "TITLE": "3100", "REGION": "OR-South Coastal", "ASSOCIATION": "USA - Oregon", "POINTS": "2", "BONUSPOINTS": "0"}}, {"type": "Feature", "geometry": {"type": "Point", "coordinates": [-123.2469, 42.1747]}, "properties": {"NAME": "W7O/SC-288", "TITLE": "3020", "REGION": "OR-South Coastal", "ASSOCIATION": "USA - Oregon", "POINTS": "2", "BONUSPOINTS": "0"}}, {"type": "Feature", "geometry": {"type": "Point", "coordinates": [-123.8119, 43.0676]}, "properties": {"NAME": "W7O/SC-289", "TITLE": "2982", "REGION": "OR-South Coastal", "ASSOCIATION": "USA - Oregon", "POINTS": "1", "BONUSPOINTS": "0"}}, {"type": "Feature", "geometry": {"type": "Point", "coordinates": [-123.2899, 42.759]}, "properties": {"NAME": "W7O/SC-290", "TITLE": "2961", "REGION": "OR-South Coastal", "ASSOCIATION": "USA - Oregon", "POINTS": "1", "BONUSPOINTS": "0"}}, {"type": "Feature", "geometry": {"type": "Point", "coordinates": [-123.9881, 42.5611]}, "properties": {"NAME": "W7O/SC-291", "TITLE": "2922", "REGION": "OR-South Coastal", "ASSOCIATION": "USA - Oregon", "POINTS": "1", "BONUSPOINTS": "0"}}, {"type": "Feature", "geometry": {"type": "Point", "coordinates": [-123.8415, 42.4636]}, "properties": {"NAME": "W7O/SC-292", "TITLE": "2905", "REGION": "OR-South Coastal", "ASSOCIATION": "USA - Oregon", "POINTS": "1", "BONUSPOINTS": "0"}}, {"type": "Feature", "geometry": {"type": "Point", "coordinates": [-123.5934, 42.9885]}, "properties": {"NAME": "W7O/SC-293", "TITLE": "2884", "REGION": "OR-South Coastal", "ASSOCIATION": "USA - Oregon", "POINTS": "1", "BONUSPOINTS": "0"}}, {"type": "Feature", "geometry": {"type": "Point", "coordinates": [-123.6821, 42.2235]}, "properties": {"NAME": "W7O/SC-294", "TITLE": "2860", "REGION": "OR-South Coastal", "ASSOCIATION": "USA - Oregon", "POINTS": "1", "BONUSPOINTS": "0"}}, {"type": "Feature", "geometry": {"type": "Point", "coordinates": [-124.1211, 42.7449]}, "properties": {"NAME": "W7O/SC-295", "TITLE": "2820", "REGION": "OR-South Coastal", "ASSOCIATION": "USA - Oregon", "POINTS": "1", "BONUSPOINTS": "0"}}, {"type": "Feature", "geometry": {"type": "Point", "coordinates": [-123.0142, 42.9206]}, "properties": {"NAME": "W7O/SC-296", "TITLE": "2785", "REGION": "OR-South Coastal", "ASSOCIATION": "USA - Oregon", "POINTS": "1", "BONUSPOINTS": "0"}}, {"type": "Feature", "geometry": {"type": "Point", "coordinates": [-123.3932, 42.6023]}, "properties": {"NAME": "W7O/SC-297", "TITLE": "2749", "REGION": "OR-South Coastal", "ASSOCIATION": "USA - Oregon", "POINTS": "1", "BONUSPOINTS": "0"}}, {"type": "Feature", "geometry": {"type": "Point", "coordinates": [-123.0336, 42.8724]}, "properties": {"NAME": "W7O/SC-298", "TITLE": "2740", "REGION": "OR-South Coastal", "ASSOCIATION": "USA - Oregon", "POINTS": "1", "BONUSPOINTS": "0"}}, {"type": "Feature", "geometry": {"type": "Point", "coordinates": [-123.5664, 42.6343]}, "properties": {"NAME": "W7O/SC-299", "TITLE": "2740", "REGION": "OR-South Coastal", "ASSOCIATION": "USA - Oregon", "POINTS": "1", "BONUSPOINTS": "0"}}, {"type": "Feature", "geometry": {"type": "Point", "coordinates": [-123.1316, 42.4701]}, "properties": {"NAME": "W7O/SC-300", "TITLE": "2700", "REGION": "OR-South Coastal", "ASSOCIATION": "USA - Oregon", "POINTS": "1", "BONUSPOINTS": "0"}}, {"type": "Feature", "geometry": {"type": "Point", "coordinates": [-124.0166, 42.086]}, "properties": {"NAME": "W7O/SC-301", "TITLE": "2653", "REGION": "OR-South Coastal", "ASSOCIATION": "USA - Oregon", "POINTS": "1", "BONUSPOINTS": "0"}}, {"type": "Feature", "geometry": {"type": "Point", "coordinates": [-124.2999, 42.7361]}, "properties": {"NAME": "W7O/SC-302", "TITLE": "Grassy Knob Wilderness HP", "REGION": "OR-South Coastal", "ASSOCIATION": "USA - Oregon", "POINTS": "1", "BONUSPOINTS": "0"}}, {"type": "Feature", "geometry": {"type": "Point", "coordinates": [-123.5984, 43.3043]}, "properties": {"NAME": "W7O/SC-303", "TITLE": "2613", "REGION": "OR-South Coastal", "ASSOCIATION": "USA - Oregon", "POINTS": "1", "BONUSPOINTS": "0"}}, {"type": "Feature", "geometry": {"type": "Point", "coordinates": [-123.8959, 43.1975]}, "properties": {"NAME": "W7O/SC-304", "TITLE": "2580", "REGION": "OR-South Coastal", "ASSOCIATION": "USA - Oregon", "POINTS": "1", "BONUSPOINTS": "0"}}, {"type": "Feature", "geometry": {"type": "Point", "coordinates": [-123.7513, 43.2752]}, "properties": {"NAME": "W7O/SC-305", "TITLE": "2580", "REGION": "OR-South Coastal", "ASSOCIATION": "USA - Oregon", "POINTS": "1", "BONUSPOINTS": "0"}}, {"type": "Feature", "geometry": {"type": "Point", "coordinates": [-124.3555, 42.7311]}, "properties": {"NAME": "W7O/SC-306", "TITLE": "2566", "REGION": "OR-South Coastal", "ASSOCIATION": "USA - Oregon", "POINTS": "1", "BONUSPOINTS": "0"}}, {"type": "Feature", "geometry": {"type": "Point", "coordinates": [-123.4722, 42.3654]}, "properties": {"NAME": "W7O/SC-307", "TITLE": "2558", "REGION": "OR-South Coastal", "ASSOCIATION": "USA - Oregon", "POINTS": "1", "BONUSPOINTS": "0"}}, {"type": "Feature", "geometry": {"type": "Point", "coordinates": [-123.0508, 42.8984]}, "properties": {"NAME": "W7O/SC-308", "TITLE": "2580", "REGION": "OR-South Coastal", "ASSOCIATION": "USA - Oregon", "POINTS": "1", "BONUSPOINTS": "0"}}, {"type": "Feature", "geometry": {"type": "Point", "coordinates": [-123.534, 42.4033]}, "properties": {"NAME": "W7O/SC-309", "TITLE": "2529", "REGION": "OR-South Coastal", "ASSOCIATION": "USA - Oregon", "POINTS": "1", "BONUSPOINTS": "0"}}, {"type": "Feature", "geometry": {"type": "Point", "coordinates": [-123.1166, 42.4417]}, "properties": {"NAME": "W7O/SC-310", "TITLE": "2466", "REGION": "OR-South Coastal", "ASSOCIATION": "USA - Oregon", "POINTS": "1", "BONUSPOINTS": "0"}}, {"type": "Feature", "geometry": {"type": "Point", "coordinates": [-124.0725, 42.147]}, "properties": {"NAME": "W7O/SC-311", "TITLE": "2380", "REGION": "OR-South Coastal", "ASSOCIATION": "USA - Oregon", "POINTS": "1", "BONUSPOINTS": "0"}}, {"type": "Feature", "geometry": {"type": "Point", "coordinates": [-123.1476, 42.4245]}, "properties": {"NAME": "W7O/SC-312", "TITLE": "2380", "REGION": "OR-South Coastal", "ASSOCIATION": "USA - Oregon", "POINTS": "1", "BONUSPOINTS": "0"}}, {"type": "Feature", "geometry": {"type": "Point", "coordinates": [-124.3181, 42.7367]}, "properties": {"NAME": "W7O/SC-313", "TITLE": "2340", "REGION": "OR-South Coastal", "ASSOCIATION": "USA - Oregon", "POINTS": "1", "BONUSPOINTS": "0"}}, {"type": "Feature", "geometry": {"type": "Point", "coordinates": [-123.8976, 43.1193]}, "properties": {"NAME": "W7O/SC-314", "TITLE": "2298", "REGION": "OR-South Coastal", "ASSOCIATION": "USA - Oregon", "POINTS": "1", "BONUSPOINTS": "0"}}, {"type": "Feature", "geometry": {"type": "Point", "coordinates": [-123.7864, 42.3817]}, "properties": {"NAME": "W7O/SC-315", "TITLE": "2298", "REGION": "OR-South Coastal", "ASSOCIATION": "USA - Oregon", "POINTS": "1", "BONUSPOINTS": "0"}}, {"type": "Feature", "geometry": {"type": "Point", "coordinates": [-123.3372, 42.4832]}, "properties": {"NAME": "W7O/SC-316", "TITLE": "2273", "REGION": "OR-South Coastal", "ASSOCIATION": "USA - Oregon", "POINTS": "1", "BONUSPOINTS": "0"}}, {"type": "Feature", "geometry": {"type": "Point", "coordinates": [-123.8956, 43.3269]}, "properties": {"NAME": "W7O/SC-317", "TITLE": "2260", "REGION": "OR-South Coastal", "ASSOCIATION": "USA - Oregon", "POINTS": "1", "BONUSPOINTS": "0"}}, {"type": "Feature", "geometry": {"type": "Point", "coordinates": [-123.9186, 43.0539]}, "properties": {"NAME": "W7O/SC-318", "TITLE": "2260", "REGION": "OR-South Coastal", "ASSOCIATION": "USA - Oregon", "POINTS": "1", "BONUSPOINTS": "0"}}, {"type": "Feature", "geometry": {"type": "Point", "coordinates": [-123.5924, 42.9639]}, "properties": {"NAME": "W7O/SC-319", "TITLE": "2231", "REGION": "OR-South Coastal", "ASSOCIATION": "USA - Oregon", "POINTS": "1", "BONUSPOINTS": "0"}}, {"type": "Feature", "geometry": {"type": "Point", "coordinates": [-123.5427, 43.0006]}, "properties": {"NAME": "W7O/SC-320", "TITLE": "2223", "REGION": "OR-South Coastal", "ASSOCIATION": "USA - Oregon", "POINTS": "1", "BONUSPOINTS": "0"}}, {"type": "Feature", "geometry": {"type": "Point", "coordinates": [-123.5903, 43.0212]}, "properties": {"NAME": "W7O/SC-321", "TITLE": "2206", "REGION": "OR-South Coastal", "ASSOCIATION": "USA - Oregon", "POINTS": "1", "BONUSPOINTS": "0"}}, {"type": "Feature", "geometry": {"type": "Point", "coordinates": [-123.1857, 43.0108]}, "properties": {"NAME": "W7O/SC-322", "TITLE": "2192", "REGION": "OR-South Coastal", "ASSOCIATION": "USA - Oregon", "POINTS": "1", "BONUSPOINTS": "0"}}, {"type": "Feature", "geometry": {"type": "Point", "coordinates": [-123.1986, 42.951]}, "properties": {"NAME": "W7O/SC-323", "TITLE": "2182", "REGION": "OR-South Coastal", "ASSOCIATION": "USA - Oregon", "POINTS": "1", "BONUSPOINTS": "0"}}, {"type": "Feature", "geometry": {"type": "Point", "coordinates": [-123.8442, 43.4497]}, "properties": {"NAME": "W7O/SC-324", "TITLE": "2180", "REGION": "OR-South Coastal", "ASSOCIATION": "USA - Oregon", "POINTS": "1", "BONUSPOINTS": "0"}}, {"type": "Feature", "geometry": {"type": "Point", "coordinates": [-123.6383, 43.1086]}, "properties": {"NAME": "W7O/SC-325", "TITLE": "2140", "REGION": "OR-South Coastal", "ASSOCIATION": "USA - Oregon", "POINTS": "1", "BONUSPOINTS": "0"}}, {"type": "Feature", "geometry": {"type": "Point", "coordinates": [-123.1404, 42.5584]}, "properties": {"NAME": "W7O/SC-326", "TITLE": "2135", "REGION": "OR-South Coastal", "ASSOCIATION": "USA - Oregon", "POINTS": "1", "BONUSPOINTS": "0"}}, {"type": "Feature", "geometry": {"type": "Point", "coordinates": [-123.5213, 43.4293]}, "properties": {"NAME": "W7O/SC-327", "TITLE": "2127", "REGION": "OR-South Coastal", "ASSOCIATION": "USA - Oregon", "POINTS": "1", "BONUSPOINTS": "0"}}, {"type": "Feature", "geometry": {"type": "Point", "coordinates": [-123.2779, 42.9888]}, "properties": {"NAME": "W7O/SC-328", "TITLE": "2127", "REGION": "OR-South Coastal", "ASSOCIATION": "USA - Oregon", "POINTS": "1", "BONUSPOINTS": "0"}}, {"type": "Feature", "geometry": {"type": "Point", "coordinates": [-123.5787, 43.0605]}, "properties": {"NAME": "W7O/SC-329", "TITLE": "2113", "REGION": "OR-South Coastal", "ASSOCIATION": "USA - Oregon", "POINTS": "1", "BONUSPOINTS": "0"}}, {"type": "Feature", "geometry": {"type": "Point", "coordinates": [-123.942, 43.192]}, "properties": {"NAME": "W7O/SC-330", "TITLE": "2100", "REGION": "OR-South Coastal", "ASSOCIATION": "USA - Oregon", "POINTS": "1", "BONUSPOINTS": "0"}}, {"type": "Feature", "geometry": {"type": "Point", "coordinates": [-124.2986, 42.1503]}, "properties": {"NAME": "W7O/SC-331", "TITLE": "2020", "REGION": "OR-South Coastal", "ASSOCIATION": "USA - Oregon", "POINTS": "1", "BONUSPOINTS": "0"}}, {"type": "Feature", "geometry": {"type": "Point", "coordinates": [-123.6135, 43.03]}, "properties": {"NAME": "W7O/SC-332", "TITLE": "2014", "REGION": "OR-South Coastal", "ASSOCIATION": "USA - Oregon", "POINTS": "1", "BONUSPOINTS": "0"}}, {"type": "Feature", "geometry": {"type": "Point", "coordinates": [-123.9515, 43.3523]}, "properties": {"NAME": "W7O/SC-333", "TITLE": "1980", "REGION": "OR-South Coastal", "ASSOCIATION": "USA - Oregon", "POINTS": "1", "BONUSPOINTS": "0"}}, {"type": "Feature", "geometry": {"type": "Point", "coordinates": [-123.1738, 42.4822]}, "properties": {"NAME": "W7O/SC-334", "TITLE": "1940", "REGION": "OR-South Coastal", "ASSOCIATION": "USA - Oregon", "POINTS": "1", "BONUSPOINTS": "0"}}, {"type": "Feature", "geometry": {"type": "Point", "coordinates": [-123.3067, 42.3302]}, "properties": {"NAME": "W7O/SC-335", "TITLE": "1940", "REGION": "OR-South Coastal", "ASSOCIATION": "USA - Oregon", "POINTS": "1", "BONUSPOINTS": "0"}}, {"type": "Feature", "geometry": {"type": "Point", "coordinates": [-123.2812, 43.3624]}, "properties": {"NAME": "W7O/SC-336", "TITLE": "Wahl Benchmark", "REGION": "OR-South Coastal", "ASSOCIATION": "USA - Oregon", "POINTS": "1", "BONUSPOINTS": "0"}}, {"type": "Feature", "geometry": {"type": "Point", "coordinates": [-123.1123, 42.9504]}, "properties": {"NAME": "W7O/SC-337", "TITLE": "1900", "REGION": "OR-South Coastal", "ASSOCIATION": "USA - Oregon", "POINTS": "1", "BONUSPOINTS": "0"}}, {"type": "Feature", "geometry": {"type": "Point", "coordinates": [-123.3057, 43.1116]}, "properties": {"NAME": "W7O/SC-338", "TITLE": "1886", "REGION": "OR-South Coastal", "ASSOCIATION": "USA - Oregon", "POINTS": "1", "BONUSPOINTS": "0"}}, {"type": "Feature", "geometry": {"type": "Point", "coordinates": [-123.2374, 43.0694]}, "properties": {"NAME": "W7O/SC-339", "TITLE": "1837", "REGION": "OR-South Coastal", "ASSOCIATION": "USA - Oregon", "POINTS": "1", "BONUSPOINTS": "0"}}, {"type": "Feature", "geometry": {"type": "Point", "coordinates": [-123.9238, 43.0028]}, "properties": {"NAME": "W7O/SC-340", "TITLE": "1820", "REGION": "OR-South Coastal", "ASSOCIATION": "USA - Oregon", "POINTS": "1", "BONUSPOINTS": "0"}}, {"type": "Feature", "geometry": {"type": "Point", "coordinates": [-123.3505, 42.3481]}, "properties": {"NAME": "W7O/SC-341", "TITLE": "1820", "REGION": "OR-South Coastal", "ASSOCIATION": "USA - Oregon", "POINTS": "1", "BONUSPOINTS": "0"}}, {"type": "Feature", "geometry": {"type": "Point", "coordinates": [-124.065, 42.9273]}, "properties": {"NAME": "W7O/SC-342", "TITLE": "1818", "REGION": "OR-South Coastal", "ASSOCIATION": "USA - Oregon", "POINTS": "1", "BONUSPOINTS": "0"}}, {"type": "Feature", "geometry": {"type": "Point", "coordinates": [-123.2989, 43.2561]}, "properties": {"NAME": "W7O/SC-343", "TITLE": "1807", "REGION": "OR-South Coastal", "ASSOCIATION": "USA - Oregon", "POINTS": "1", "BONUSPOINTS": "0"}}, {"type": "Feature", "geometry": {"type": "Point", "coordinates": [-123.2069, 43.3753]}, "properties": {"NAME": "W7O/SC-344", "TITLE": "1778", "REGION": "OR-South Coastal", "ASSOCIATION": "USA - Oregon", "POINTS": "1", "BONUSPOINTS": "0"}}, {"type": "Feature", "geometry": {"type": "Point", "coordinates": [-123.5295, 43.129]}, "properties": {"NAME": "W7O/SC-345", "TITLE": "1775", "REGION": "OR-South Coastal", "ASSOCIATION": "USA - Oregon", "POINTS": "1", "BONUSPOINTS": "0"}}, {"type": "Feature", "geometry": {"type": "Point", "coordinates": [-123.3041, 43.3353]}, "properties": {"NAME": "W7O/SC-346", "TITLE": "1770", "REGION": "OR-South Coastal", "ASSOCIATION": "USA - Oregon", "POINTS": "1", "BONUSPOINTS": "0"}}, {"type": "Feature", "geometry": {"type": "Point", "coordinates": [-123.9631, 43.2614]}, "properties": {"NAME": "W7O/SC-347", "TITLE": "1740", "REGION": "OR-South Coastal", "ASSOCIATION": "USA - Oregon", "POINTS": "1", "BONUSPOINTS": "0"}}, {"type": "Feature", "geometry": {"type": "Point", "coordinates": [-123.976, 43.3051]}, "properties": {"NAME": "W7O/SC-348", "TITLE": "1700", "REGION": "OR-South Coastal", "ASSOCIATION": "USA - Oregon", "POINTS": "1", "BONUSPOINTS": "0"}}, {"type": "Feature", "geometry": {"type": "Point", "coordinates": [-124.0186, 43.3327]}, "properties": {"NAME": "W7O/SC-349", "TITLE": "1660", "REGION": "OR-South Coastal", "ASSOCIATION": "USA - Oregon", "POINTS": "1", "BONUSPOINTS": "0"}}, {"type": "Feature", "geometry": {"type": "Point", "coordinates": [-124.0309, 43.0767]}, "properties": {"NAME": "W7O/SC-350", "TITLE": "1660", "REGION": "OR-South Coastal", "ASSOCIATION": "USA - Oregon", "POINTS": "1", "BONUSPOINTS": "0"}}, {"type": "Feature", "geometry": {"type": "Point", "coordinates": [-123.512, 43.4963]}, "properties": {"NAME": "W7O/SC-351", "TITLE": "1660", "REGION": "OR-South Coastal", "ASSOCIATION": "USA - Oregon", "POINTS": "1", "BONUSPOINTS": "0"}}, {"type": "Feature", "geometry": {"type": "Point", "coordinates": [-124.0456, 43.0615]}, "properties": {"NAME": "W7O/SC-352", "TITLE": "1651", "REGION": "OR-South Coastal", "ASSOCIATION": "USA - Oregon", "POINTS": "1", "BONUSPOINTS": "0"}}, {"type": "Feature", "geometry": {"type": "Point", "coordinates": [-123.4173, 43.1875]}, "properties": {"NAME": "W7O/SC-353", "TITLE": "Radio Az Benchmark", "REGION": "OR-South Coastal", "ASSOCIATION": "USA - Oregon", "POINTS": "1", "BONUSPOINTS": "0"}}, {"type": "Feature", "geometry": {"type": "Point", "coordinates": [-123.4411, 43.1478]}, "properties": {"NAME": "W7O/SC-354", "TITLE": "1620", "REGION": "OR-South Coastal", "ASSOCIATION": "USA - Oregon", "POINTS": "1", "BONUSPOINTS": "0"}}, {"type": "Feature", "geometry": {"type": "Point", "coordinates": [-123.9361, 42.6857]}, "properties": {"NAME": "W7O/SC-355", "TITLE": "1614", "REGION": "OR-South Coastal", "ASSOCIATION": "USA - Oregon", "POINTS": "1", "BONUSPOINTS": "0"}}, {"type": "Feature", "geometry": {"type": "Point", "coordinates": [-123.3162, 42.9301]}, "properties": {"NAME": "W7O/SC-356", "TITLE": "1578", "REGION": "OR-South Coastal", "ASSOCIATION": "USA - Oregon", "POINTS": "1", "BONUSPOINTS": "0"}}, {"type": "Feature", "geometry": {"type": "Point", "coordinates": [-123.199, 43.2266]}, "properties": {"NAME": "W7O/SC-357", "TITLE": "1549", "REGION": "OR-South Coastal", "ASSOCIATION": "USA - Oregon", "POINTS": "1", "BONUSPOINTS": "0"}}, {"type": "Feature", "geometry": {"type": "Point", "coordinates": [-123.4711, 42.5088]}, "properties": {"NAME": "W7O/SC-358", "TITLE": "1529", "REGION": "OR-South Coastal", "ASSOCIATION": "USA - Oregon", "POINTS": "1", "BONUSPOINTS": "0"}}, {"type": "Feature", "geometry": {"type": "Point", "coordinates": [-124.029, 43.4614]}, "properties": {"NAME": "W7O/SC-359", "TITLE": "1510", "REGION": "OR-South Coastal", "ASSOCIATION": "USA - Oregon", "POINTS": "1", "BONUSPOINTS": "0"}}, {"type": "Feature", "geometry": {"type": "Point", "coordinates": [-123.4442, 43.2088]}, "properties": {"NAME": "W7O/SC-360", "TITLE": "1481", "REGION": "OR-South Coastal", "ASSOCIATION": "USA - Oregon", "POINTS": "1", "BONUSPOINTS": "0"}}, {"type": "Feature", "geometry": {"type": "Point", "coordinates": [-124.3727, 42.9333]}, "properties": {"NAME": "W7O/SC-361", "TITLE": "1461", "REGION": "OR-South Coastal", "ASSOCIATION": "USA - Oregon", "POINTS": "1", "BONUSPOINTS": "0"}}, {"type": "Feature", "geometry": {"type": "Point", "coordinates": [-123.1846, 43.398]}, "properties": {"NAME": "W7O/SC-362", "TITLE": "1460", "REGION": "OR-South Coastal", "ASSOCIATION": "USA - Oregon", "POINTS": "1", "BONUSPOINTS": "0"}}, {"type": "Feature", "geometry": {"type": "Point", "coordinates": [-123.2751, 43.1484]}, "properties": {"NAME": "W7O/SC-363", "TITLE": "1453", "REGION": "OR-South Coastal", "ASSOCIATION": "USA - Oregon", "POINTS": "1", "BONUSPOINTS": "0"}}, {"type": "Feature", "geometry": {"type": "Point", "coordinates": [-123.4793, 43.1108]}, "properties": {"NAME": "W7O/SC-364", "TITLE": "1420", "REGION": "OR-South Coastal", "ASSOCIATION": "USA - Oregon", "POINTS": "1", "BONUSPOINTS": "0"}}, {"type": "Feature", "geometry": {"type": "Point", "coordinates": [-123.952, 43.1161]}, "properties": {"NAME": "W7O/SC-365", "TITLE": "1402", "REGION": "OR-South Coastal", "ASSOCIATION": "USA - Oregon", "POINTS": "1", "BONUSPOINTS": "0"}}, {"type": "Feature", "geometry": {"type": "Point", "coordinates": [-124.206, 42.0208]}, "properties": {"NAME": "W7O/SC-366", "TITLE": "1380", "REGION": "OR-South Coastal", "ASSOCIATION": "USA - Oregon", "POINTS": "1", "BONUSPOINTS": "0"}}, {"type": "Feature", "geometry": {"type": "Point", "coordinates": [-123.3432, 42.9501]}, "properties": {"NAME": "W7O/SC-367", "TITLE": "1333", "REGION": "OR-South Coastal", "ASSOCIATION": "USA - Oregon", "POINTS": "1", "BONUSPOINTS": "0"}}, {"type": "Feature", "geometry": {"type": "Point", "coordinates": [-123.3709, 43.2568]}, "properties": {"NAME": "W7O/SC-368", "TITLE": "1331", "REGION": "OR-South Coastal", "ASSOCIATION": "USA - Oregon", "POINTS": "1", "BONUSPOINTS": "0"}}, {"type": "Feature", "geometry": {"type": "Point", "coordinates": [-123.1999, 43.2914]}, "properties": {"NAME": "W7O/SC-369", "TITLE": "1323", "REGION": "OR-South Coastal", "ASSOCIATION": "USA - Oregon", "POINTS": "1", "BONUSPOINTS": "0"}}, {"type": "Feature", "geometry": {"type": "Point", "coordinates": [-123.3026, 43.4061]}, "properties": {"NAME": "W7O/SC-370", "TITLE": "1260", "REGION": "OR-South Coastal", "ASSOCIATION": "USA - Oregon", "POINTS": "1", "BONUSPOINTS": "0"}}, {"type": "Feature", "geometry": {"type": "Point", "coordinates": [-123.9741, 42.9945]}, "properties": {"NAME": "W7O/SC-371", "TITLE": "1253", "REGION": "OR-South Coastal", "ASSOCIATION": "USA - Oregon", "POINTS": "1", "BONUSPOINTS": "0"}}, {"type": "Feature", "geometry": {"type": "Point", "coordinates": [-123.3463, 43.4411]}, "properties": {"NAME": "W7O/SC-372", "TITLE": "1237", "REGION": "OR-South Coastal", "ASSOCIATION": "USA - Oregon", "POINTS": "1", "BONUSPOINTS": "0"}}, {"type": "Feature", "geometry": {"type": "Point", "coordinates": [-123.9943, 43.2623]}, "properties": {"NAME": "W7O/SC-373", "TITLE": "1220", "REGION": "OR-South Coastal", "ASSOCIATION": "USA - Oregon", "POINTS": "1", "BONUSPOINTS": "0"}}, {"type": "Feature", "geometry": {"type": "Point", "coordinates": [-123.9679, 43.1395]}, "properties": {"NAME": "W7O/SC-374", "TITLE": "1140", "REGION": "OR-South Coastal", "ASSOCIATION": "USA - Oregon", "POINTS": "1", "BONUSPOINTS": "0"}}, {"type": "Feature", "geometry": {"type": "Point", "coordinates": [-123.323, 43.4024]}, "properties": {"NAME": "W7O/SC-375", "TITLE": "1132", "REGION": "OR-South Coastal", "ASSOCIATION": "USA - Oregon", "POINTS": "1", "BONUSPOINTS": "0"}}, {"type": "Feature", "geometry": {"type": "Point", "coordinates": [-124.2435, 43.1319]}, "properties": {"NAME": "W7O/SC-376", "TITLE": "1031", "REGION": "OR-South Coastal", "ASSOCIATION": "USA - Oregon", "POINTS": "1", "BONUSPOINTS": "0"}}, {"type": "Feature", "geometry": {"type": "Point", "coordinates": [-124.0683, 43.1426]}, "properties": {"NAME": "W7O/SC-377", "TITLE": "1020", "REGION": "OR-South Coastal", "ASSOCIATION": "USA - Oregon", "POINTS": "1", "BONUSPOINTS": "0"}}, {"type": "Feature", "geometry": {"type": "Point", "coordinates": [-124.3778, 42.508]}, "properties": {"NAME": "W7O/SC-378", "TITLE": "975", "REGION": "OR-South Coastal", "ASSOCIATION": "USA - Oregon", "POINTS": "1", "BONUSPOINTS": "0"}}, {"type": "Feature", "geometry": {"type": "Point", "coordinates": [-124.0027, 43.116]}, "properties": {"NAME": "W7O/SC-379", "TITLE": "900", "REGION": "OR-South Coastal", "ASSOCIATION": "USA - Oregon", "POINTS": "1", "BONUSPOINTS": "0"}}, {"type": "Feature", "geometry": {"type": "Point", "coordinates": [-124.2163, 43.0883]}, "properties": {"NAME": "W7O/SC-380", "TITLE": "891", "REGION": "OR-South Coastal", "ASSOCIATION": "USA - Oregon", "POINTS": "1", "BONUSPOINTS": "0"}}, {"type": "Feature", "geometry": {"type": "Point", "coordinates": [-124.4022, 42.4688]}, "properties": {"NAME": "W7O/SC-381", "TITLE": "801", "REGION": "OR-South Coastal", "ASSOCIATION": "USA - Oregon", "POINTS": "1", "BONUSPOINTS": "0"}}, {"type": "Feature", "geometry": {"type": "Point", "coordinates": [-124.2538, 43.2551]}, "properties": {"NAME": "W7O/SC-382", "TITLE": "740", "REGION": "OR-South Coastal", "ASSOCIATION": "USA - Oregon", "POINTS": "1", "BONUSPOINTS": "0"}}, {"type": "Feature", "geometry": {"type": "Point", "coordinates": [-123.3507, 42.0611]}, "properties": {"NAME": "W7O/SC-383", "TITLE": "6355", "REGION": "OR-South Coastal", "ASSOCIATION": "USA - Oregon", "POINTS": "6", "BONUSPOINTS": "3"}}, {"type": "Feature", "geometry": {"type": "Point", "coordinates": [-124.1289, 42.4021]}, "properties": {"NAME": "W7O/SC-384", "TITLE": "Saddle Mountain", "REGION": "OR-South Coastal", "ASSOCIATION": "USA - Oregon", "POINTS": "2", "BONUSPOINTS": "0"}}, {"type": "Feature", "geometry": {"type": "Point", "coordinates": [-123.106, 42.2865]}, "properties": {"NAME": "W7O/SC-385", "TITLE": "3992", "REGION": "OR-South Coastal", "ASSOCIATION": "USA - Oregon", "POINTS": "2", "BONUSPOINTS": "0"}}, {"type": "Feature", "geometry": {"type": "Point", "coordinates": [-123.3246, 42.8849]}, "properties": {"NAME": "W7O/SC-386", "TITLE": "3594", "REGION": "OR-South Coastal", "ASSOCIATION": "USA - Oregon", "POINTS": "2", "BONUSPOINTS": "0"}}, {"type": "Feature", "geometry": {"type": "Point", "coordinates": [-123.9233, 41.9983]}, "properties": {"NAME": "W7O/SC-387", "TITLE": "3434", "REGION": "OR-South Coastal", "ASSOCIATION": "USA - Oregon", "POINTS": "2", "BONUSPOINTS": "0"}}, {"type": "Feature", "geometry": {"type": "Point", "coordinates": [-124.1015, 42.6812]}, "properties": {"NAME": "W7O/SC-388", "TITLE": "3342", "REGION": "OR-South Coastal", "ASSOCIATION": "USA - Oregon", "POINTS": "2", "BONUSPOINTS": "0"}}, {"type": "Feature", "geometry": {"type": "Point", "coordinates": [-123.1851, 42.7975]}, "properties": {"NAME": "W7O/SC-389", "TITLE": "3277", "REGION": "OR-South Coastal", "ASSOCIATION": "USA - Oregon", "POINTS": "2", "BONUSPOINTS": "0"}}, {"type": "Feature", "geometry": {"type": "Point", "coordinates": [-123.429, 42.7756]}, "properties": {"NAME": "W7O/SC-390", "TITLE": "3272", "REGION": "OR-South Coastal", "ASSOCIATION": "USA - Oregon", "POINTS": "2", "BONUSPOINTS": "0"}}, {"type": "Feature", "geometry": {"type": "Point", "coordinates": [-123.4576, 42.8751]}, "properties": {"NAME": "W7O/SC-391", "TITLE": "3140", "REGION": "OR-South Coastal", "ASSOCIATION": "USA - Oregon", "POINTS": "2", "BONUSPOINTS": "0"}}, {"type": "Feature", "geometry": {"type": "Point", "coordinates": [-124.0393, 42.8158]}, "properties": {"NAME": "W7O/SC-392", "TITLE": "Sand Rock Mountain", "REGION": "OR-South Coastal", "ASSOCIATION": "USA - Oregon", "POINTS": "1", "BONUSPOINTS": "0"}}, {"type": "Feature", "geometry": {"type": "Point", "coordinates": [-124.0064, 42.0599]}, "properties": {"NAME": "W7O/SC-393", "TITLE": "2660", "REGION": "OR-South Coastal", "ASSOCIATION": "USA - Oregon", "POINTS": "1", "BONUSPOINTS": "0"}}, {"type": "Feature", "geometry": {"type": "Point", "coordinates": [-123.5561, 43.3306]}, "properties": {"NAME": "W7O/SC-394", "TITLE": "Green Butte", "REGION": "OR-South Coastal", "ASSOCIATION": "USA - Oregon", "POINTS": "1", "BONUSPOINTS": "0"}}, {"type": "Feature", "geometry": {"type": "Point", "coordinates": [-123.1542, 42.5848]}, "properties": {"NAME": "W7O/SC-395", "TITLE": "2340", "REGION": "OR-South Coastal", "ASSOCIATION": "USA - Oregon", "POINTS": "1", "BONUSPOINTS": "0"}}, {"type": "Feature", "geometry": {"type": "Point", "coordinates": [-123.4679, 42.4075]}, "properties": {"NAME": "W7O/SC-396", "TITLE": "Sloan Mountain", "REGION": "OR-South Coastal", "ASSOCIATION": "USA - Oregon", "POINTS": "1", "BONUSPOINTS": "0"}}, {"type": "Feature", "geometry": {"type": "Point", "coordinates": [-123.5173, 43.127]}, "properties": {"NAME": "W7O/SC-397", "TITLE": "1820", "REGION": "OR-South Coastal", "ASSOCIATION": "USA - Oregon", "POINTS": "1", "BONUSPOINTS": "0"}}, {"type": "Feature", "geometry": {"type": "Point", "coordinates": [-124.3792, 42.5121]}, "properties": {"NAME": "W7O/SC-398", "TITLE": "1017", "REGION": "OR-South Coastal", "ASSOCIATION": "USA - Oregon", "POINTS": "1", "BONUSPOINTS": "0"}}]}