{"type": "FeatureCollection", "name": "W4K/PR SUMMITS", "features": [{"type": "Feature", "geometry": {"type": "Point", "coordinates": [-84.8453, 37.1534]}, "properties": {"NAME": "W4K/PR-001", "TITLE": "Green River Knob", "REGION": "Pennyrile Mountains", "ASSOCIATION": "USA - Kentucky", "POINTS": "2", "BONUSPOINTS": "0"}}, {"type": "Feature", "geometry": {"type": "Point", "coordinates": [-85.1061, 36.7201]}, "properties": {"NAME": "W4K/PR-002", "TITLE": "Sewell Mountain", "REGION": "Pennyrile Mountains", "ASSOCIATION": "USA - Kentucky", "POINTS": "2", "BONUSPOINTS": "0"}}, {"type": "Feature", "geometry": {"type": "Point", "coordinates": [-85.0708, 36.7753]}, "properties": {"NAME": "W4K/PR-003", "TITLE": "Short Mountain", "REGION": "Pennyrile Mountains", "ASSOCIATION": "USA - Kentucky", "POINTS": "2", "BONUSPOINTS": "0"}}, {"type": "Feature", "geometry": {"type": "Point", "coordinates": [-84.7739, 36.8448]}, "properties": {"NAME": "W4K/PR-004", "TITLE": "Elk Ridge", "REGION": "Pennyrile Mountains", "ASSOCIATION": "USA - Kentucky", "POINTS": "2", "BONUSPOINTS": "0"}}, {"type": "Feature", "geometry": {"type": "Point", "coordinates": [-84.8978, 36.8078]}, "properties": {"NAME": "W4K/PR-005", "TITLE": "Furnace Mountain", "REGION": "Pennyrile Mountains", "ASSOCIATION": "USA - Kentucky", "POINTS": "1", "BONUSPOINTS": "0"}}]}