{"type": "FeatureCollection", "name": "US-RI POTA PARKS", "features": [{"type": "Feature", "geometry": {"type": "Point", "coordinates": [-71.5724, 41.2133]}, "properties": {"NAME": "US-0513", "TITLE": "Block Island National Wildlife Refuge"}}, {"type": "Feature", "geometry": {"type": "Point", "coordinates": [-71.4707, 41.443]}, "properties": {"NAME": "US-0514", "TITLE": "John H. Chafee National Wildlife Refuge"}}, {"type": "Feature", "geometry": {"type": "Point", "coordinates": [-71.6716, 41.3682]}, "properties": {"NAME": "US-0515", "TITLE": "Ninigret National Wildlife Refuge"}}, {"type": "Feature", "geometry": {"type": "Point", "coordinates": [-71.2436, 41.4798]}, "properties": {"NAME": "US-0516", "TITLE": "Sachuest Point National Wildlife Refuge"}}, {"type": "Feature", "geometry": {"type": "Point", "coordinates": [-71.5846, 41.3834]}, "properties": {"NAME": "US-0517", "TITLE": "Trustom Pond National Wildlife Refuge"}}, {"type": "Feature", "geometry": {"type": "Point", "coordinates": [-71.411, 41.831]}, "properties": {"NAME": "US-0789", "TITLE": "Roger Williams National Memorial"}}, {"type": "Feature", "geometry": {"type": "Point", "coordinates": [-71.3993, 41.446]}, "properties": {"NAME": "US-2868", "TITLE": "Beavertail State Park"}}, {"type": "Feature", "geometry": {"type": "Point", "coordinates": [-71.4343, 41.9379]}, "properties": {"NAME": "US-2869", "TITLE": "Blackstone River State Park"}}, {"type": "Feature", "geometry": {"type": "Point", "coordinates": [-71.3542, 41.452]}, "properties": {"NAME": "US-2870", "TITLE": "Brenton Point State Park"}}, {"type": "Feature", "geometry": {"type": "Point", "coordinates": [-71.6986, 41.3756]}, "properties": {"NAME": "US-2871", "TITLE": "Burlingame State Park"}}, {"type": "Feature", "geometry": {"type": "Point", "coordinates": [-71.2985, 41.6769]}, "properties": {"NAME": "US-2872", "TITLE": "Colt State Park"}}, {"type": "Feature", "geometry": {"type": "Point", "coordinates": [-71.4897, 41.3805]}, "properties": {"NAME": "US-2873", "TITLE": "Fishermen's Memorial State Park"}}, {"type": "Feature", "geometry": {"type": "Point", "coordinates": [-71.3355, 41.4778]}, "properties": {"NAME": "US-2874", "TITLE": "Fort Adams State Park"}}, {"type": "Feature", "geometry": {"type": "Point", "coordinates": [-71.3585, 41.4778]}, "properties": {"NAME": "US-2875", "TITLE": "Fort Wetherill State Park"}}, {"type": "Feature", "geometry": {"type": "Point", "coordinates": [-71.4377, 41.657]}, "properties": {"NAME": "US-2876", "TITLE": "Goddard Memorial State Park"}}, {"type": "Feature", "geometry": {"type": "Point", "coordinates": [-71.3508, 41.7539]}, "properties": {"NAME": "US-2877", "TITLE": "Haines Memorial State Park"}}, {"type": "Feature", "geometry": {"type": "Point", "coordinates": [-71.4329, 41.8975]}, "properties": {"NAME": "US-2878", "TITLE": "Lincoln Woods State Park"}}, {"type": "Feature", "geometry": {"type": "Point", "coordinates": [-71.3634, 41.6915]}, "properties": {"NAME": "US-2879", "TITLE": "Rocky Point State Park"}}, {"type": "Feature", "geometry": {"type": "Point", "coordinates": [-71.5373, 41.8303]}, "properties": {"NAME": "US-2880", "TITLE": "Snake Den State Park"}}, {"type": "Feature", "geometry": {"type": "Point", "coordinates": [-71.5097, 42.0101]}, "properties": {"NAME": "US-2881", "TITLE": "World War II Veterans Memorial State Park"}}, {"type": "Feature", "geometry": {"type": "Point", "coordinates": [-73.9709, 41.312]}, "properties": {"NAME": "US-4582", "TITLE": "Washington-Rochambeau Revolutionary Route National Historic Trail"}}, {"type": "Feature", "geometry": {"type": "Point", "coordinates": [-71.7359, 41.6364]}, "properties": {"NAME": "US-5482", "TITLE": "Wickaboxet Wildlife Management Area"}}, {"type": "Feature", "geometry": {"type": "Point", "coordinates": [-71.4327, 41.8962]}, "properties": {"NAME": "US-5483", "TITLE": "Lincoln Woods State Forest"}}, {"type": "Feature", "geometry": {"type": "Point", "coordinates": [-71.7359, 41.9259]}, "properties": {"NAME": "US-5484", "TITLE": "George Washington Memorial State Forest"}}, {"type": "Feature", "geometry": {"type": "Point", "coordinates": [-71.685, 41.5561]}, "properties": {"NAME": "US-6979", "TITLE": "Arcadia Management Area"}}, {"type": "Feature", "geometry": {"type": "Point", "coordinates": [-71.7864, 41.5739]}, "properties": {"NAME": "US-6980", "TITLE": "Beach Pond Wildlife Management Area"}}, {"type": "Feature", "geometry": {"type": "Point", "coordinates": [-71.5796, 41.4691]}, "properties": {"NAME": "US-6981", "TITLE": "Great Swamp Wildlife Management Area"}}, {"type": "Feature", "geometry": {"type": "Point", "coordinates": [-71.5714, 41.6311]}, "properties": {"NAME": "US-6982", "TITLE": "Big River Wildlife Management Area"}}, {"type": "Feature", "geometry": {"type": "Point", "coordinates": [-71.7448, 41.3694]}, "properties": {"NAME": "US-6983", "TITLE": "Woody Hill Wildlife Management Area"}}, {"type": "Feature", "geometry": {"type": "Point", "coordinates": [-71.6568, 41.9928]}, "properties": {"NAME": "US-6984", "TITLE": "Black Hut Wildlife Management Area"}}, {"type": "Feature", "geometry": {"type": "Point", "coordinates": [-71.7011, 42.0014]}, "properties": {"NAME": "US-6985", "TITLE": "Round Top Wildlife Management Area"}}, {"type": "Feature", "geometry": {"type": "Point", "coordinates": [-71.1341, 41.5358]}, "properties": {"NAME": "US-6986", "TITLE": "Simmons Mill Wildlife Management Area"}}, {"type": "Feature", "geometry": {"type": "Point", "coordinates": [-71.4599, 41.5823]}, "properties": {"NAME": "US-6987", "TITLE": "Cocumcussoc State Park"}}, {"type": "Feature", "geometry": {"type": "Point", "coordinates": [-71.7591, 41.3997]}, "properties": {"NAME": "US-6988", "TITLE": "Grills State Preserve"}}, {"type": "Feature", "geometry": {"type": "Point", "coordinates": [-71.7285, 41.4674]}, "properties": {"NAME": "US-6989", "TITLE": "Black Farm Wildlife Management Area"}}, {"type": "Feature", "geometry": {"type": "Point", "coordinates": [-71.7739, 41.6804]}, "properties": {"NAME": "US-6990", "TITLE": "Nicholas Farm Wildlife Management Area"}}, {"type": "Feature", "geometry": {"type": "Point", "coordinates": [-71.7591, 41.5054]}, "properties": {"NAME": "US-6991", "TITLE": "Rockville Wildlife Management Area"}}, {"type": "Feature", "geometry": {"type": "Point", "coordinates": [-71.5516, 41.7507]}, "properties": {"NAME": "US-6992", "TITLE": "JL Curran State Park"}}, {"type": "Feature", "geometry": {"type": "Point", "coordinates": [-71.7969, 41.9281]}, "properties": {"NAME": "US-7508", "TITLE": "Pulaski State Park"}}, {"type": "Feature", "geometry": {"type": "Point", "coordinates": [-71.6868, 41.3745]}, "properties": {"NAME": "US-7518", "TITLE": "Kimball Wildlife Refuge"}}, {"type": "Feature", "geometry": {"type": "Point", "coordinates": [-71.7893, 41.9851]}, "properties": {"NAME": "US-7714", "TITLE": "Buck Hill Wildlife Management Area"}}, {"type": "Feature", "geometry": {"type": "Point", "coordinates": [-71.7841, 41.9025]}, "properties": {"NAME": "US-7715", "TITLE": "Durfee Hill Wildlife Management Area"}}, {"type": "Feature", "geometry": {"type": "Point", "coordinates": [-71.689, 41.4665]}, "properties": {"NAME": "US-7716", "TITLE": "Carolina Wildlife Management Area"}}, {"type": "Feature", "geometry": {"type": "Point", "coordinates": [-71.6382, 41.3567]}, "properties": {"NAME": "US-7717", "TITLE": "Charlestown Breachway State Park"}}, {"type": "Feature", "geometry": {"type": "Point", "coordinates": [-71.5251, 41.3776]}, "properties": {"NAME": "US-7718", "TITLE": "East Matunuck State Beach"}}, {"type": "Feature", "geometry": {"type": "Point", "coordinates": [-71.8025, 41.3234]}, "properties": {"NAME": "US-7719", "TITLE": "Misquamicut State Beach"}}, {"type": "Feature", "geometry": {"type": "Point", "coordinates": [-71.5004, 41.3735]}, "properties": {"NAME": "US-7720", "TITLE": "Roger W. Wheeler State Beach"}}, {"type": "Feature", "geometry": {"type": "Point", "coordinates": [-71.5127, 41.3761]}, "properties": {"NAME": "US-7721", "TITLE": "Salty Brine State Beach"}}, {"type": "Feature", "geometry": {"type": "Point", "coordinates": [-71.4731, 41.3897]}, "properties": {"NAME": "US-7722", "TITLE": "Scarborough North State Beach"}}, {"type": "Feature", "geometry": {"type": "Point", "coordinates": [-71.4374, 41.5372]}, "properties": {"NAME": "US-7723", "TITLE": "John H. Chaffee Rome Point State Nature Preserve"}}, {"type": "Feature", "geometry": {"type": "Point", "coordinates": [-71.6733, 41.3481]}, "properties": {"NAME": "US-7865", "TITLE": "East State Beach"}}, {"type": "Feature", "geometry": {"type": "Point", "coordinates": [-71.5529, 42.015]}, "properties": {"NAME": "US-7971", "TITLE": "Blackstone River Valley National Historical Park"}}, {"type": "Feature", "geometry": {"type": "Point", "coordinates": [-71.2089, 41.5825]}, "properties": {"NAME": "US-8293", "TITLE": "Sapowet Marsh State Wildlife Area"}}, {"type": "Feature", "geometry": {"type": "Point", "coordinates": [-71.231, 41.6339]}, "properties": {"NAME": "US-10541", "TITLE": "Gull Cove State Recreation Area"}}, {"type": "Feature", "geometry": {"type": "Point", "coordinates": [-71.4873, 41.3625]}, "properties": {"NAME": "US-10542", "TITLE": "Camp Cronin State Recreation Area"}}, {"type": "Feature", "geometry": {"type": "Point", "coordinates": [-71.2583, 41.6018]}, "properties": {"NAME": "US-10543", "TITLE": "Patriots Park State Historic Site"}}, {"type": "Feature", "geometry": {"type": "Point", "coordinates": [-71.7786, 41.8512]}, "properties": {"NAME": "US-10544", "TITLE": "Jerimoth Hill State Recreation Area"}}, {"type": "Feature", "geometry": {"type": "Point", "coordinates": [-71.6411, 41.522]}, "properties": {"NAME": "US-10545", "TITLE": "Hillsdale Preserve Management Area"}}, {"type": "Feature", "geometry": {"type": "Point", "coordinates": [-71.1899, 41.5521]}, "properties": {"NAME": "US-10546", "TITLE": "Eight Rod Farm Wildlife Management Area"}}, {"type": "Feature", "geometry": {"type": "Point", "coordinates": [-71.4705, 41.5388]}, "properties": {"NAME": "US-10547", "TITLE": "Silver Spring State Recreation Area"}}, {"type": "Feature", "geometry": {"type": "Point", "coordinates": [-71.5639, 41.4994]}, "properties": {"NAME": "US-10548", "TITLE": "Barber Pond State Recreation Area"}}]}