{"type": "FeatureCollection", "name": "W5N/BU SUMMITS", "features": [{"type": "Feature", "geometry": {"type": "Point", "coordinates": [-108.4326, 32.5906]}, "properties": {"NAME": "W5N/BU-001", "TITLE": "Burro Peak", "REGION": "Burro Mountains", "ASSOCIATION": "USA - New Mexico", "POINTS": "8", "BONUSPOINTS": "3"}}, {"type": "Feature", "geometry": {"type": "Point", "coordinates": [-108.9612, 32.9887]}, "properties": {"NAME": "W5N/BU-002", "TITLE": "Brushy Mountain", "REGION": "Burro Mountains", "ASSOCIATION": "USA - New Mexico", "POINTS": "6", "BONUSPOINTS": "3"}}, {"type": "Feature", "geometry": {"type": "Point", "coordinates": [-109.041, 33.0194]}, "properties": {"NAME": "W5N/BU-003", "TITLE": "McMullen Peak", "REGION": "Burro Mountains", "ASSOCIATION": "USA - New Mexico", "POINTS": "6", "BONUSPOINTS": "3"}}, {"type": "Feature", "geometry": {"type": "Point", "coordinates": [-109.0049, 32.9857]}, "properties": {"NAME": "W5N/BU-004", "TITLE": "Tillie Hall Peak", "REGION": "Burro Mountains", "ASSOCIATION": "USA - New Mexico", "POINTS": "6", "BONUSPOINTS": "3"}}, {"type": "Feature", "geometry": {"type": "Point", "coordinates": [-108.538, 32.7092]}, "properties": {"NAME": "W5N/BU-005", "TITLE": "Bullard Peak", "REGION": "Burro Mountains", "ASSOCIATION": "USA - New Mexico", "POINTS": "6", "BONUSPOINTS": "3"}}, {"type": "Feature", "geometry": {"type": "Point", "coordinates": [-109.0032, 32.9664]}, "properties": {"NAME": "W5N/BU-006", "TITLE": "Yellowjacket Peak", "REGION": "Burro Mountains", "ASSOCIATION": "USA - New Mexico", "POINTS": "6", "BONUSPOINTS": "3"}}, {"type": "Feature", "geometry": {"type": "Point", "coordinates": [-108.5106, 32.4616]}, "properties": {"NAME": "W5N/BU-007", "TITLE": "Hornbrook Mountain", "REGION": "Burro Mountains", "ASSOCIATION": "USA - New Mexico", "POINTS": "6", "BONUSPOINTS": "3"}}, {"type": "Feature", "geometry": {"type": "Point", "coordinates": [-108.5554, 32.6602]}, "properties": {"NAME": "W5N/BU-008", "TITLE": "7045", "REGION": "Burro Mountains", "ASSOCIATION": "USA - New Mexico", "POINTS": "6", "BONUSPOINTS": "3"}}, {"type": "Feature", "geometry": {"type": "Point", "coordinates": [-108.854, 32.9693]}, "properties": {"NAME": "W5N/BU-009", "TITLE": "Dry Section Mountain", "REGION": "Burro Mountains", "ASSOCIATION": "USA - New Mexico", "POINTS": "6", "BONUSPOINTS": "3"}}, {"type": "Feature", "geometry": {"type": "Point", "coordinates": [-108.5657, 32.4524]}, "properties": {"NAME": "W5N/BU-010", "TITLE": "Apache Mountain", "REGION": "Burro Mountains", "ASSOCIATION": "USA - New Mexico", "POINTS": "6", "BONUSPOINTS": "3"}}, {"type": "Feature", "geometry": {"type": "Point", "coordinates": [-108.7377, 32.857]}, "properties": {"NAME": "W5N/BU-011", "TITLE": "High Peak", "REGION": "Burro Mountains", "ASSOCIATION": "USA - New Mexico", "POINTS": "6", "BONUSPOINTS": "3"}}, {"type": "Feature", "geometry": {"type": "Point", "coordinates": [-108.8148, 32.9788]}, "properties": {"NAME": "W5N/BU-012", "TITLE": "Mud Spring Mountain", "REGION": "Burro Mountains", "ASSOCIATION": "USA - New Mexico", "POINTS": "6", "BONUSPOINTS": "3"}}, {"type": "Feature", "geometry": {"type": "Point", "coordinates": [-108.9971, 32.8519]}, "properties": {"NAME": "W5N/BU-013", "TITLE": "Vanderbilt Peak", "REGION": "Burro Mountains", "ASSOCIATION": "USA - New Mexico", "POINTS": "6", "BONUSPOINTS": "3"}}, {"type": "Feature", "geometry": {"type": "Point", "coordinates": [-108.8302, 33.0226]}, "properties": {"NAME": "W5N/BU-014", "TITLE": "Bear Mountain", "REGION": "Burro Mountains", "ASSOCIATION": "USA - New Mexico", "POINTS": "6", "BONUSPOINTS": "3"}}, {"type": "Feature", "geometry": {"type": "Point", "coordinates": [-108.3318, 32.662]}, "properties": {"NAME": "W5N/BU-015", "TITLE": "Tyrone Benchmark", "REGION": "Burro Mountains", "ASSOCIATION": "USA - New Mexico", "POINTS": "6", "BONUSPOINTS": "3"}}, {"type": "Feature", "geometry": {"type": "Point", "coordinates": [-109.0292, 32.9881]}, "properties": {"NAME": "W5N/BU-016", "TITLE": "Winchester Peak", "REGION": "Burro Mountains", "ASSOCIATION": "USA - New Mexico", "POINTS": "6", "BONUSPOINTS": "3"}}, {"type": "Feature", "geometry": {"type": "Point", "coordinates": [-108.5203, 32.5326]}, "properties": {"NAME": "W5N/BU-017", "TITLE": "Knight Peak", "REGION": "Burro Mountains", "ASSOCIATION": "USA - New Mexico", "POINTS": "6", "BONUSPOINTS": "3"}}, {"type": "Feature", "geometry": {"type": "Point", "coordinates": [-108.9855, 32.8718]}, "properties": {"NAME": "W5N/BU-018", "TITLE": "Summit Peak", "REGION": "Burro Mountains", "ASSOCIATION": "USA - New Mexico", "POINTS": "6", "BONUSPOINTS": "3"}}, {"type": "Feature", "geometry": {"type": "Point", "coordinates": [-108.5333, 32.4235]}, "properties": {"NAME": "W5N/BU-019", "TITLE": "Gold Hill", "REGION": "Burro Mountains", "ASSOCIATION": "USA - New Mexico", "POINTS": "6", "BONUSPOINTS": "3"}}, {"type": "Feature", "geometry": {"type": "Point", "coordinates": [-108.3865, 32.7055]}, "properties": {"NAME": "W5N/BU-020", "TITLE": "Eagle Point", "REGION": "Burro Mountains", "ASSOCIATION": "USA - New Mexico", "POINTS": "6", "BONUSPOINTS": "3"}}, {"type": "Feature", "geometry": {"type": "Point", "coordinates": [-108.5245, 32.5501]}, "properties": {"NAME": "W5N/BU-021", "TITLE": "Brock Ridge", "REGION": "Burro Mountains", "ASSOCIATION": "USA - New Mexico", "POINTS": "6", "BONUSPOINTS": "3"}}, {"type": "Feature", "geometry": {"type": "Point", "coordinates": [-109.0328, 33.206]}, "properties": {"NAME": "W5N/BU-022", "TITLE": "6409", "REGION": "Burro Mountains", "ASSOCIATION": "USA - New Mexico", "POINTS": "6", "BONUSPOINTS": "3"}}, {"type": "Feature", "geometry": {"type": "Point", "coordinates": [-109.0194, 32.8859]}, "properties": {"NAME": "W5N/BU-023", "TITLE": "Saddleback Mountain", "REGION": "Burro Mountains", "ASSOCIATION": "USA - New Mexico", "POINTS": "6", "BONUSPOINTS": "3"}}, {"type": "Feature", "geometry": {"type": "Point", "coordinates": [-108.5524, 32.7889]}, "properties": {"NAME": "W5N/BU-024", "TITLE": "Schoolhouse Mountain", "REGION": "Burro Mountains", "ASSOCIATION": "USA - New Mexico", "POINTS": "6", "BONUSPOINTS": "3"}}, {"type": "Feature", "geometry": {"type": "Point", "coordinates": [-108.8816, 33.1017]}, "properties": {"NAME": "W5N/BU-025", "TITLE": "Mule Mountains (HP)", "REGION": "Burro Mountains", "ASSOCIATION": "USA - New Mexico", "POINTS": "6", "BONUSPOINTS": "3"}}, {"type": "Feature", "geometry": {"type": "Point", "coordinates": [-108.6678, 32.8312]}, "properties": {"NAME": "W5N/BU-026", "TITLE": "Brushy Mountain", "REGION": "Burro Mountains", "ASSOCIATION": "USA - New Mexico", "POINTS": "6", "BONUSPOINTS": "3"}}, {"type": "Feature", "geometry": {"type": "Point", "coordinates": [-108.8994, 32.9043]}, "properties": {"NAME": "W5N/BU-027", "TITLE": "Deer Peak", "REGION": "Burro Mountains", "ASSOCIATION": "USA - New Mexico", "POINTS": "6", "BONUSPOINTS": "3"}}, {"type": "Feature", "geometry": {"type": "Point", "coordinates": [-108.9442, 32.7997]}, "properties": {"NAME": "W5N/BU-028", "TITLE": "Steeple Rock", "REGION": "Burro Mountains", "ASSOCIATION": "USA - New Mexico", "POINTS": "6", "BONUSPOINTS": "3"}}, {"type": "Feature", "geometry": {"type": "Point", "coordinates": [-108.5403, 32.5733]}, "properties": {"NAME": "W5N/BU-029", "TITLE": "Eagle Eye Peak", "REGION": "Burro Mountains", "ASSOCIATION": "USA - New Mexico", "POINTS": "6", "BONUSPOINTS": "3"}}, {"type": "Feature", "geometry": {"type": "Point", "coordinates": [-108.3301, 32.3567]}, "properties": {"NAME": "W5N/BU-030", "TITLE": "Soldiers Farewell Hill", "REGION": "Burro Mountains", "ASSOCIATION": "USA - New Mexico", "POINTS": "6", "BONUSPOINTS": "3"}}, {"type": "Feature", "geometry": {"type": "Point", "coordinates": [-108.7505, 32.8292]}, "properties": {"NAME": "W5N/BU-031", "TITLE": "6170", "REGION": "Burro Mountains", "ASSOCIATION": "USA - New Mexico", "POINTS": "6", "BONUSPOINTS": "3"}}, {"type": "Feature", "geometry": {"type": "Point", "coordinates": [-108.9596, 32.8059]}, "properties": {"NAME": "W5N/BU-032", "TITLE": "Mount Royal", "REGION": "Burro Mountains", "ASSOCIATION": "USA - New Mexico", "POINTS": "6", "BONUSPOINTS": "3"}}, {"type": "Feature", "geometry": {"type": "Point", "coordinates": [-108.6791, 32.7719]}, "properties": {"NAME": "W5N/BU-033", "TITLE": "Clark Peak", "REGION": "Burro Mountains", "ASSOCIATION": "USA - New Mexico", "POINTS": "6", "BONUSPOINTS": "3"}}, {"type": "Feature", "geometry": {"type": "Point", "coordinates": [-108.89, 33.2038]}, "properties": {"NAME": "W5N/BU-034", "TITLE": "Outlaw Mountain", "REGION": "Burro Mountains", "ASSOCIATION": "USA - New Mexico", "POINTS": "6", "BONUSPOINTS": "3"}}, {"type": "Feature", "geometry": {"type": "Point", "coordinates": [-108.7956, 33.066]}, "properties": {"NAME": "W5N/BU-035", "TITLE": "6068", "REGION": "Burro Mountains", "ASSOCIATION": "USA - New Mexico", "POINTS": "6", "BONUSPOINTS": "3"}}, {"type": "Feature", "geometry": {"type": "Point", "coordinates": [-108.9141, 33.1549]}, "properties": {"NAME": "W5N/BU-036", "TITLE": "Wilson Mountain", "REGION": "Burro Mountains", "ASSOCIATION": "USA - New Mexico", "POINTS": "6", "BONUSPOINTS": "3"}}, {"type": "Feature", "geometry": {"type": "Point", "coordinates": [-108.7831, 33.0812]}, "properties": {"NAME": "W5N/BU-037", "TITLE": "6060", "REGION": "Burro Mountains", "ASSOCIATION": "USA - New Mexico", "POINTS": "6", "BONUSPOINTS": "3"}}, {"type": "Feature", "geometry": {"type": "Point", "coordinates": [-108.8827, 32.8403]}, "properties": {"NAME": "W5N/BU-038", "TITLE": "6010", "REGION": "Burro Mountains", "ASSOCIATION": "USA - New Mexico", "POINTS": "6", "BONUSPOINTS": "3"}}, {"type": "Feature", "geometry": {"type": "Point", "coordinates": [-108.8785, 33.2264]}, "properties": {"NAME": "W5N/BU-039", "TITLE": "Sundial Mountain", "REGION": "Burro Mountains", "ASSOCIATION": "USA - New Mexico", "POINTS": "4", "BONUSPOINTS": "3"}}, {"type": "Feature", "geometry": {"type": "Point", "coordinates": [-108.1487, 32.31]}, "properties": {"NAME": "W5N/BU-040", "TITLE": "Grandmother Mountain", "REGION": "Burro Mountains", "ASSOCIATION": "USA - New Mexico", "POINTS": "4", "BONUSPOINTS": "3"}}, {"type": "Feature", "geometry": {"type": "Point", "coordinates": [-109.0181, 32.9072]}, "properties": {"NAME": "W5N/BU-041", "TITLE": "5860", "REGION": "Burro Mountains", "ASSOCIATION": "USA - New Mexico", "POINTS": "4", "BONUSPOINTS": "3"}}, {"type": "Feature", "geometry": {"type": "Point", "coordinates": [-108.819, 32.8535]}, "properties": {"NAME": "W5N/BU-042", "TITLE": "5859", "REGION": "Burro Mountains", "ASSOCIATION": "USA - New Mexico", "POINTS": "4", "BONUSPOINTS": "3"}}, {"type": "Feature", "geometry": {"type": "Point", "coordinates": [-108.3202, 32.3387]}, "properties": {"NAME": "W5N/BU-043", "TITLE": "Bessie Rhoads Mountain", "REGION": "Burro Mountains", "ASSOCIATION": "USA - New Mexico", "POINTS": "4", "BONUSPOINTS": "3"}}, {"type": "Feature", "geometry": {"type": "Point", "coordinates": [-109.0363, 32.9259]}, "properties": {"NAME": "W5N/BU-044", "TITLE": "Twin Peaks", "REGION": "Burro Mountains", "ASSOCIATION": "USA - New Mexico", "POINTS": "4", "BONUSPOINTS": "3"}}, {"type": "Feature", "geometry": {"type": "Point", "coordinates": [-108.6551, 32.782]}, "properties": {"NAME": "W5N/BU-045", "TITLE": "Lead Mountain", "REGION": "Burro Mountains", "ASSOCIATION": "USA - New Mexico", "POINTS": "4", "BONUSPOINTS": "3"}}, {"type": "Feature", "geometry": {"type": "Point", "coordinates": [-108.8887, 32.6949]}, "properties": {"NAME": "W5N/BU-046", "TITLE": "Black Mountain", "REGION": "Burro Mountains", "ASSOCIATION": "USA - New Mexico", "POINTS": "4", "BONUSPOINTS": "3"}}, {"type": "Feature", "geometry": {"type": "Point", "coordinates": [-108.2721, 32.3304]}, "properties": {"NAME": "W5N/BU-047", "TITLE": "Post Benchmark", "REGION": "Burro Mountains", "ASSOCIATION": "USA - New Mexico", "POINTS": "4", "BONUSPOINTS": "3"}}, {"type": "Feature", "geometry": {"type": "Point", "coordinates": [-108.9155, 32.6501]}, "properties": {"NAME": "W5N/BU-048", "TITLE": "Canador Peak", "REGION": "Burro Mountains", "ASSOCIATION": "USA - New Mexico", "POINTS": "4", "BONUSPOINTS": "3"}}, {"type": "Feature", "geometry": {"type": "Point", "coordinates": [-108.8561, 32.9301]}, "properties": {"NAME": "W5N/BU-049", "TITLE": "Applegate Mountain", "REGION": "Burro Mountains", "ASSOCIATION": "USA - New Mexico", "POINTS": "6", "BONUSPOINTS": "3"}}, {"type": "Feature", "geometry": {"type": "Point", "coordinates": [-108.7634, 32.863]}, "properties": {"NAME": "W5N/BU-050", "TITLE": "Wallace Benchmark", "REGION": "Burro Mountains", "ASSOCIATION": "USA - New Mexico", "POINTS": "6", "BONUSPOINTS": "3"}}, {"type": "Feature", "geometry": {"type": "Point", "coordinates": [-108.5002, 32.9291]}, "properties": {"NAME": "W5N/BU-051", "TITLE": "6285", "REGION": "Burro Mountains", "ASSOCIATION": "USA - New Mexico", "POINTS": "6", "BONUSPOINTS": "3"}}, {"type": "Feature", "geometry": {"type": "Point", "coordinates": [-108.7022, 32.979]}, "properties": {"NAME": "W5N/BU-052", "TITLE": "Antelope Ridge", "REGION": "Burro Mountains", "ASSOCIATION": "USA - New Mexico", "POINTS": "6", "BONUSPOINTS": "3"}}, {"type": "Feature", "geometry": {"type": "Point", "coordinates": [-108.953, 32.8249]}, "properties": {"NAME": "W5N/BU-053", "TITLE": "Pinon Mountain", "REGION": "Burro Mountains", "ASSOCIATION": "USA - New Mexico", "POINTS": "4", "BONUSPOINTS": "3"}}]}