{"type": "FeatureCollection", "name": "W5N/CC SUMMITS", "features": [{"type": "Feature", "geometry": {"type": "Point", "coordinates": [-106.734, 36.9605]}, "properties": {"NAME": "W5N/CC-001", "TITLE": "Chromo Mountain", "REGION": "Chama Canyon", "ASSOCIATION": "USA - New Mexico", "POINTS": "8", "BONUSPOINTS": "3"}}, {"type": "Feature", "geometry": {"type": "Point", "coordinates": [-106.7195, 36.9858]}, "properties": {"NAME": "W5N/CC-002", "TITLE": "9431", "REGION": "Chama Canyon", "ASSOCIATION": "USA - New Mexico", "POINTS": "8", "BONUSPOINTS": "3"}}, {"type": "Feature", "geometry": {"type": "Point", "coordinates": [-106.7675, 36.2451]}, "properties": {"NAME": "W5N/CC-003", "TITLE": "Capulin Peak", "REGION": "Chama Canyon", "ASSOCIATION": "USA - New Mexico", "POINTS": "8", "BONUSPOINTS": "3"}}, {"type": "Feature", "geometry": {"type": "Point", "coordinates": [-106.7753, 36.8538]}, "properties": {"NAME": "W5N/CC-004", "TITLE": "Tecolote Rim", "REGION": "Chama Canyon", "ASSOCIATION": "USA - New Mexico", "POINTS": "8", "BONUSPOINTS": "3"}}, {"type": "Feature", "geometry": {"type": "Point", "coordinates": [-106.8101, 36.9679]}, "properties": {"NAME": "W5N/CC-005", "TITLE": "Mesa Diamante", "REGION": "Chama Canyon", "ASSOCIATION": "USA - New Mexico", "POINTS": "8", "BONUSPOINTS": "3"}}, {"type": "Feature", "geometry": {"type": "Point", "coordinates": [-106.816, 36.7566]}, "properties": {"NAME": "W5N/CC-006", "TITLE": "Horse Lake Mesa", "REGION": "Chama Canyon", "ASSOCIATION": "USA - New Mexico", "POINTS": "8", "BONUSPOINTS": "3"}}, {"type": "Feature", "geometry": {"type": "Point", "coordinates": [-106.7679, 36.4922]}, "properties": {"NAME": "W5N/CC-007", "TITLE": "Gallina Peak", "REGION": "Chama Canyon", "ASSOCIATION": "USA - New Mexico", "POINTS": "8", "BONUSPOINTS": "3"}}, {"type": "Feature", "geometry": {"type": "Point", "coordinates": [-106.7487, 36.3399]}, "properties": {"NAME": "W5N/CC-008", "TITLE": "Laguna Peak", "REGION": "Chama Canyon", "ASSOCIATION": "USA - New Mexico", "POINTS": "8", "BONUSPOINTS": "3"}}, {"type": "Feature", "geometry": {"type": "Point", "coordinates": [-106.8094, 36.99]}, "properties": {"NAME": "W5N/CC-009", "TITLE": "Crowley Peak", "REGION": "Chama Canyon", "ASSOCIATION": "USA - New Mexico", "POINTS": "8", "BONUSPOINTS": "3"}}, {"type": "Feature", "geometry": {"type": "Point", "coordinates": [-106.9271, 36.8066]}, "properties": {"NAME": "W5N/CC-010", "TITLE": "Wirt Benchmark", "REGION": "Chama Canyon", "ASSOCIATION": "USA - New Mexico", "POINTS": "8", "BONUSPOINTS": "3"}}, {"type": "Feature", "geometry": {"type": "Point", "coordinates": [-106.8216, 36.918]}, "properties": {"NAME": "W5N/CC-011", "TITLE": "Briggs Mesa", "REGION": "Chama Canyon", "ASSOCIATION": "USA - New Mexico", "POINTS": "8", "BONUSPOINTS": "3"}}, {"type": "Feature", "geometry": {"type": "Point", "coordinates": [-106.8851, 36.4473]}, "properties": {"NAME": "W5N/CC-012", "TITLE": "One Benchmark", "REGION": "Chama Canyon", "ASSOCIATION": "USA - New Mexico", "POINTS": "8", "BONUSPOINTS": "3"}}, {"type": "Feature", "geometry": {"type": "Point", "coordinates": [-106.9554, 36.7171]}, "properties": {"NAME": "W5N/CC-013", "TITLE": "8490", "REGION": "Chama Canyon", "ASSOCIATION": "USA - New Mexico", "POINTS": "8", "BONUSPOINTS": "3"}}, {"type": "Feature", "geometry": {"type": "Point", "coordinates": [-106.8376, 36.46]}, "properties": {"NAME": "W5N/CC-014", "TITLE": "8447", "REGION": "Chama Canyon", "ASSOCIATION": "USA - New Mexico", "POINTS": "8", "BONUSPOINTS": "3"}}, {"type": "Feature", "geometry": {"type": "Point", "coordinates": [-106.8092, 36.671]}, "properties": {"NAME": "W5N/CC-015", "TITLE": "Apache Mesa", "REGION": "Chama Canyon", "ASSOCIATION": "USA - New Mexico", "POINTS": "8", "BONUSPOINTS": "3"}}, {"type": "Feature", "geometry": {"type": "Point", "coordinates": [-106.7859, 36.5846]}, "properties": {"NAME": "W5N/CC-016", "TITLE": "8343", "REGION": "Chama Canyon", "ASSOCIATION": "USA - New Mexico", "POINTS": "8", "BONUSPOINTS": "3"}}, {"type": "Feature", "geometry": {"type": "Point", "coordinates": [-106.9145, 36.8833]}, "properties": {"NAME": "W5N/CC-017", "TITLE": "Dulce Mountain", "REGION": "Chama Canyon", "ASSOCIATION": "USA - New Mexico", "POINTS": "8", "BONUSPOINTS": "3"}}, {"type": "Feature", "geometry": {"type": "Point", "coordinates": [-107.0607, 36.8281]}, "properties": {"NAME": "W5N/CC-018", "TITLE": "Mills Benchmark", "REGION": "Chama Canyon", "ASSOCIATION": "USA - New Mexico", "POINTS": "8", "BONUSPOINTS": "3"}}, {"type": "Feature", "geometry": {"type": "Point", "coordinates": [-106.8634, 36.8999]}, "properties": {"NAME": "W5N/CC-019", "TITLE": "Monero Mountain", "REGION": "Chama Canyon", "ASSOCIATION": "USA - New Mexico", "POINTS": "8", "BONUSPOINTS": "3"}}, {"type": "Feature", "geometry": {"type": "Point", "coordinates": [-106.5709, 36.3356]}, "properties": {"NAME": "W5N/CC-020", "TITLE": "Mesa de Los Viejos", "REGION": "Chama Canyon", "ASSOCIATION": "USA - New Mexico", "POINTS": "8", "BONUSPOINTS": "3"}}, {"type": "Feature", "geometry": {"type": "Point", "coordinates": [-106.8403, 36.2552]}, "properties": {"NAME": "W5N/CC-021", "TITLE": "Cerro Blanco", "REGION": "Chama Canyon", "ASSOCIATION": "USA - New Mexico", "POINTS": "8", "BONUSPOINTS": "3"}}, {"type": "Feature", "geometry": {"type": "Point", "coordinates": [-106.9109, 36.4022]}, "properties": {"NAME": "W5N/CC-022", "TITLE": "8025", "REGION": "Chama Canyon", "ASSOCIATION": "USA - New Mexico", "POINTS": "8", "BONUSPOINTS": "3"}}, {"type": "Feature", "geometry": {"type": "Point", "coordinates": [-106.9281, 36.6008]}, "properties": {"NAME": "W5N/CC-023", "TITLE": "8012", "REGION": "Chama Canyon", "ASSOCIATION": "USA - New Mexico", "POINTS": "8", "BONUSPOINTS": "3"}}, {"type": "Feature", "geometry": {"type": "Point", "coordinates": [-106.8077, 36.4656]}, "properties": {"NAME": "W5N/CC-024", "TITLE": "8008", "REGION": "Chama Canyon", "ASSOCIATION": "USA - New Mexico", "POINTS": "8", "BONUSPOINTS": "3"}}, {"type": "Feature", "geometry": {"type": "Point", "coordinates": [-106.8908, 36.3609]}, "properties": {"NAME": "W5N/CC-025", "TITLE": "7990", "REGION": "Chama Canyon", "ASSOCIATION": "USA - New Mexico", "POINTS": "6", "BONUSPOINTS": "3"}}, {"type": "Feature", "geometry": {"type": "Point", "coordinates": [-107.0293, 36.9587]}, "properties": {"NAME": "W5N/CC-026", "TITLE": "7886", "REGION": "Chama Canyon", "ASSOCIATION": "USA - New Mexico", "POINTS": "6", "BONUSPOINTS": "3"}}, {"type": "Feature", "geometry": {"type": "Point", "coordinates": [-106.8714, 36.5198]}, "properties": {"NAME": "W5N/CC-027", "TITLE": "7825", "REGION": "Chama Canyon", "ASSOCIATION": "USA - New Mexico", "POINTS": "6", "BONUSPOINTS": "3"}}, {"type": "Feature", "geometry": {"type": "Point", "coordinates": [-107.1694, 36.9393]}, "properties": {"NAME": "W5N/CC-028", "TITLE": "7726", "REGION": "Chama Canyon", "ASSOCIATION": "USA - New Mexico", "POINTS": "6", "BONUSPOINTS": "3"}}, {"type": "Feature", "geometry": {"type": "Point", "coordinates": [-106.8452, 36.3645]}, "properties": {"NAME": "W5N/CC-029", "TITLE": "7613", "REGION": "Chama Canyon", "ASSOCIATION": "USA - New Mexico", "POINTS": "6", "BONUSPOINTS": "3"}}, {"type": "Feature", "geometry": {"type": "Point", "coordinates": [-106.4564, 36.316]}, "properties": {"NAME": "W5N/CC-030", "TITLE": "7074", "REGION": "Chama Canyon", "ASSOCIATION": "USA - New Mexico", "POINTS": "6", "BONUSPOINTS": "3"}}]}