{"type": "FeatureCollection", "name": "W5N/SE SUMMITS", "features": [{"type": "Feature", "geometry": {"type": "Point", "coordinates": [-106.3845, 36.0074]}, "properties": {"NAME": "W5N/SE-001", "TITLE": "Chicoma Mountain", "REGION": "Sierra De Las Valles Range", "ASSOCIATION": "USA - New Mexico", "POINTS": "10", "BONUSPOINTS": "3"}}, {"type": "Feature", "geometry": {"type": "Point", "coordinates": [-106.5606, 35.8722]}, "properties": {"NAME": "W5N/SE-002", "TITLE": "Redondo Peak", "REGION": "Sierra De Las Valles Range", "ASSOCIATION": "USA - New Mexico", "POINTS": "10", "BONUSPOINTS": "3"}}, {"type": "Feature", "geometry": {"type": "Point", "coordinates": [-106.4053, 36.0598]}, "properties": {"NAME": "W5N/SE-003", "TITLE": "Polvadera Peak", "REGION": "Sierra De Las Valles Range", "ASSOCIATION": "USA - New Mexico", "POINTS": "10", "BONUSPOINTS": "3"}}, {"type": "Feature", "geometry": {"type": "Point", "coordinates": [-106.4375, 35.9941]}, "properties": {"NAME": "W5N/SE-004", "TITLE": "Cerro Toledo", "REGION": "Sierra De Las Valles Range", "ASSOCIATION": "USA - New Mexico", "POINTS": "10", "BONUSPOINTS": "3"}}, {"type": "Feature", "geometry": {"type": "Point", "coordinates": [-106.5309, 35.9989]}, "properties": {"NAME": "W5N/SE-005", "TITLE": "Cerro de la Garita", "REGION": "Sierra De Las Valles Range", "ASSOCIATION": "USA - New Mexico", "POINTS": "10", "BONUSPOINTS": "3"}}, {"type": "Feature", "geometry": {"type": "Point", "coordinates": [-106.8139, 36.123]}, "properties": {"NAME": "W5N/SE-006", "TITLE": "San Pedro Peaks (HP)", "REGION": "Sierra De Las Valles Range", "ASSOCIATION": "USA - New Mexico", "POINTS": "10", "BONUSPOINTS": "3"}}, {"type": "Feature", "geometry": {"type": "Point", "coordinates": [-106.4045, 35.955]}, "properties": {"NAME": "W5N/SE-007", "TITLE": "Shell Mountain", "REGION": "Sierra De Las Valles Range", "ASSOCIATION": "USA - New Mexico", "POINTS": "10", "BONUSPOINTS": "3"}}, {"type": "Feature", "geometry": {"type": "Point", "coordinates": [-106.3652, 35.9539]}, "properties": {"NAME": "W5N/SE-008", "TITLE": "Caballo Mountain", "REGION": "Sierra De Las Valles Range", "ASSOCIATION": "USA - New Mexico", "POINTS": "10", "BONUSPOINTS": "3"}}, {"type": "Feature", "geometry": {"type": "Point", "coordinates": [-106.4013, 35.888]}, "properties": {"NAME": "W5N/SE-009", "TITLE": "Pajarito Mountain", "REGION": "Sierra De Las Valles Range", "ASSOCIATION": "USA - New Mexico", "POINTS": "10", "BONUSPOINTS": "3"}}, {"type": "Feature", "geometry": {"type": "Point", "coordinates": [-106.4774, 35.9316]}, "properties": {"NAME": "W5N/SE-010", "TITLE": "Cerros del Abrigo", "REGION": "Sierra De Las Valles Range", "ASSOCIATION": "USA - New Mexico", "POINTS": "10", "BONUSPOINTS": "3"}}, {"type": "Feature", "geometry": {"type": "Point", "coordinates": [-106.413, 35.8695]}, "properties": {"NAME": "W5N/SE-011", "TITLE": "Cerro Grande", "REGION": "Sierra De Las Valles Range", "ASSOCIATION": "USA - New Mexico", "POINTS": "10", "BONUSPOINTS": "3"}}, {"type": "Feature", "geometry": {"type": "Point", "coordinates": [-106.5516, 35.7956]}, "properties": {"NAME": "W5N/SE-012", "TITLE": "Los Griegos", "REGION": "Sierra De Las Valles Range", "ASSOCIATION": "USA - New Mexico", "POINTS": "10", "BONUSPOINTS": "3"}}, {"type": "Feature", "geometry": {"type": "Point", "coordinates": [-106.6163, 35.9379]}, "properties": {"NAME": "W5N/SE-013", "TITLE": "San Antonio Mountain", "REGION": "Sierra De Las Valles Range", "ASSOCIATION": "USA - New Mexico", "POINTS": "8", "BONUSPOINTS": "3"}}, {"type": "Feature", "geometry": {"type": "Point", "coordinates": [-106.4639, 35.8312]}, "properties": {"NAME": "W5N/SE-014", "TITLE": "9950", "REGION": "Sierra De Las Valles Range", "ASSOCIATION": "USA - New Mexico", "POINTS": "8", "BONUSPOINTS": "3"}}, {"type": "Feature", "geometry": {"type": "Point", "coordinates": [-106.5273, 35.7857]}, "properties": {"NAME": "W5N/SE-015", "TITLE": "Peralta Ridge", "REGION": "Sierra De Las Valles Range", "ASSOCIATION": "USA - New Mexico", "POINTS": "8", "BONUSPOINTS": "3"}}, {"type": "Feature", "geometry": {"type": "Point", "coordinates": [-106.5747, 35.9498]}, "properties": {"NAME": "W5N/SE-016", "TITLE": "Cerro Seco", "REGION": "Sierra De Las Valles Range", "ASSOCIATION": "USA - New Mexico", "POINTS": "8", "BONUSPOINTS": "3"}}, {"type": "Feature", "geometry": {"type": "Point", "coordinates": [-106.4481, 35.9063]}, "properties": {"NAME": "W5N/SE-017", "TITLE": "Cerro del Medio", "REGION": "Sierra De Las Valles Range", "ASSOCIATION": "USA - New Mexico", "POINTS": "8", "BONUSPOINTS": "3"}}, {"type": "Feature", "geometry": {"type": "Point", "coordinates": [-106.5038, 36.1631]}, "properties": {"NAME": "W5N/SE-018", "TITLE": "Cerro Pedernal", "REGION": "Sierra De Las Valles Range", "ASSOCIATION": "USA - New Mexico", "POINTS": "8", "BONUSPOINTS": "3"}}, {"type": "Feature", "geometry": {"type": "Point", "coordinates": [-106.5312, 35.8376]}, "properties": {"NAME": "W5N/SE-019", "TITLE": "South Mountain", "REGION": "Sierra De Las Valles Range", "ASSOCIATION": "USA - New Mexico", "POINTS": "8", "BONUSPOINTS": "3"}}, {"type": "Feature", "geometry": {"type": "Point", "coordinates": [-106.5068, 35.9426]}, "properties": {"NAME": "W5N/SE-020", "TITLE": "Cerros de Trasquilar", "REGION": "Sierra De Las Valles Range", "ASSOCIATION": "USA - New Mexico", "POINTS": "8", "BONUSPOINTS": "3"}}, {"type": "Feature", "geometry": {"type": "Point", "coordinates": [-106.4379, 35.8465]}, "properties": {"NAME": "W5N/SE-021", "TITLE": "Scooter Peak", "REGION": "Sierra De Las Valles Range", "ASSOCIATION": "USA - New Mexico", "POINTS": "8", "BONUSPOINTS": "3"}}, {"type": "Feature", "geometry": {"type": "Point", "coordinates": [-106.663, 36.0331]}, "properties": {"NAME": "W5N/SE-022", "TITLE": "9599", "REGION": "Sierra De Las Valles Range", "ASSOCIATION": "USA - New Mexico", "POINTS": "8", "BONUSPOINTS": "3"}}, {"type": "Feature", "geometry": {"type": "Point", "coordinates": [-106.5387, 35.9498]}, "properties": {"NAME": "W5N/SE-023", "TITLE": "Cerro San Luis", "REGION": "Sierra De Las Valles Range", "ASSOCIATION": "USA - New Mexico", "POINTS": "8", "BONUSPOINTS": "3"}}, {"type": "Feature", "geometry": {"type": "Point", "coordinates": [-106.8664, 35.8658]}, "properties": {"NAME": "W5N/SE-024", "TITLE": "San Miguel Mountain", "REGION": "Sierra De Las Valles Range", "ASSOCIATION": "USA - New Mexico", "POINTS": "8", "BONUSPOINTS": "3"}}, {"type": "Feature", "geometry": {"type": "Point", "coordinates": [-106.3967, 36.1217]}, "properties": {"NAME": "W5N/SE-025", "TITLE": "Cerro Pelon", "REGION": "Sierra De Las Valles Range", "ASSOCIATION": "USA - New Mexico", "POINTS": "8", "BONUSPOINTS": "3"}}, {"type": "Feature", "geometry": {"type": "Point", "coordinates": [-106.8424, 35.9867]}, "properties": {"NAME": "W5N/SE-026", "TITLE": "Blue Bird Mesa", "REGION": "Sierra De Las Valles Range", "ASSOCIATION": "USA - New Mexico", "POINTS": "8", "BONUSPOINTS": "3"}}, {"type": "Feature", "geometry": {"type": "Point", "coordinates": [-106.855, 35.9344]}, "properties": {"NAME": "W5N/SE-027", "TITLE": "Big Mountain", "REGION": "Sierra De Las Valles Range", "ASSOCIATION": "USA - New Mexico", "POINTS": "8", "BONUSPOINTS": "3"}}, {"type": "Feature", "geometry": {"type": "Point", "coordinates": [-106.8478, 35.7806]}, "properties": {"NAME": "W5N/SE-028", "TITLE": "9114", "REGION": "Sierra De Las Valles Range", "ASSOCIATION": "USA - New Mexico", "POINTS": "8", "BONUSPOINTS": "3"}}, {"type": "Feature", "geometry": {"type": "Point", "coordinates": [-106.8591, 35.6955]}, "properties": {"NAME": "W5N/SE-029", "TITLE": "Pajarito Peak", "REGION": "Sierra De Las Valles Range", "ASSOCIATION": "USA - New Mexico", "POINTS": "8", "BONUSPOINTS": "3"}}, {"type": "Feature", "geometry": {"type": "Point", "coordinates": [-106.6037, 35.7604]}, "properties": {"NAME": "W5N/SE-030", "TITLE": "Cerro del Pino", "REGION": "Sierra De Las Valles Range", "ASSOCIATION": "USA - New Mexico", "POINTS": "8", "BONUSPOINTS": "3"}}, {"type": "Feature", "geometry": {"type": "Point", "coordinates": [-106.2973, 36.0905]}, "properties": {"NAME": "W5N/SE-031", "TITLE": "Lobato Mesa", "REGION": "Sierra De Las Valles Range", "ASSOCIATION": "USA - New Mexico", "POINTS": "8", "BONUSPOINTS": "3"}}, {"type": "Feature", "geometry": {"type": "Point", "coordinates": [-106.4828, 35.7246]}, "properties": {"NAME": "W5N/SE-032", "TITLE": "Bearhead Peak", "REGION": "Sierra De Las Valles Range", "ASSOCIATION": "USA - New Mexico", "POINTS": "8", "BONUSPOINTS": "3"}}, {"type": "Feature", "geometry": {"type": "Point", "coordinates": [-106.2405, 36.0356]}, "properties": {"NAME": "W5N/SE-033", "TITLE": "Clara Peak", "REGION": "Sierra De Las Valles Range", "ASSOCIATION": "USA - New Mexico", "POINTS": "8", "BONUSPOINTS": "3"}}, {"type": "Feature", "geometry": {"type": "Point", "coordinates": [-106.8167, 35.7691]}, "properties": {"NAME": "W5N/SE-034", "TITLE": "Joaquin Mesa", "REGION": "Sierra De Las Valles Range", "ASSOCIATION": "USA - New Mexico", "POINTS": "8", "BONUSPOINTS": "3"}}, {"type": "Feature", "geometry": {"type": "Point", "coordinates": [-106.3707, 35.7574]}, "properties": {"NAME": "W5N/SE-035", "TITLE": "Saint Peters Dome", "REGION": "Sierra De Las Valles Range", "ASSOCIATION": "USA - New Mexico", "POINTS": "8", "BONUSPOINTS": "3"}}, {"type": "Feature", "geometry": {"type": "Point", "coordinates": [-106.9124, 35.8167]}, "properties": {"NAME": "W5N/SE-036", "TITLE": "8012", "REGION": "Sierra De Las Valles Range", "ASSOCIATION": "USA - New Mexico", "POINTS": "8", "BONUSPOINTS": "3"}}, {"type": "Feature", "geometry": {"type": "Point", "coordinates": [-106.1803, 35.6887]}, "properties": {"NAME": "W5N/SE-037", "TITLE": "Caja del Rio Plateau", "REGION": "Sierra De Las Valles Range", "ASSOCIATION": "USA - New Mexico", "POINTS": "6", "BONUSPOINTS": "3"}}, {"type": "Feature", "geometry": {"type": "Point", "coordinates": [-106.2664, 36.1436]}, "properties": {"NAME": "W5N/SE-038", "TITLE": "7463", "REGION": "Sierra De Las Valles Range", "ASSOCIATION": "USA - New Mexico", "POINTS": "6", "BONUSPOINTS": "3"}}, {"type": "Feature", "geometry": {"type": "Point", "coordinates": [-107.0448, 35.8866]}, "properties": {"NAME": "W5N/SE-039", "TITLE": "Mesa Portales", "REGION": "Sierra De Las Valles Range", "ASSOCIATION": "USA - New Mexico", "POINTS": "6", "BONUSPOINTS": "3"}}, {"type": "Feature", "geometry": {"type": "Point", "coordinates": [-106.2126, 35.7415]}, "properties": {"NAME": "W5N/SE-040", "TITLE": "Montoso Peak", "REGION": "Sierra De Las Valles Range", "ASSOCIATION": "USA - New Mexico", "POINTS": "6", "BONUSPOINTS": "3"}}, {"type": "Feature", "geometry": {"type": "Point", "coordinates": [-106.254, 36.1187]}, "properties": {"NAME": "W5N/SE-041", "TITLE": "7315", "REGION": "Sierra De Las Valles Range", "ASSOCIATION": "USA - New Mexico", "POINTS": "6", "BONUSPOINTS": "3"}}, {"type": "Feature", "geometry": {"type": "Point", "coordinates": [-106.8487, 35.5959]}, "properties": {"NAME": "W5N/SE-042", "TITLE": "Red Mesa", "REGION": "Sierra De Las Valles Range", "ASSOCIATION": "USA - New Mexico", "POINTS": "6", "BONUSPOINTS": "3"}}, {"type": "Feature", "geometry": {"type": "Point", "coordinates": [-106.149, 35.7489]}, "properties": {"NAME": "W5N/SE-043", "TITLE": "Ortiz Mountain", "REGION": "Sierra De Las Valles Range", "ASSOCIATION": "USA - New Mexico", "POINTS": "6", "BONUSPOINTS": "3"}}, {"type": "Feature", "geometry": {"type": "Point", "coordinates": [-106.21, 35.6081]}, "properties": {"NAME": "W5N/SE-044", "TITLE": "Tetilla Peak", "REGION": "Sierra De Las Valles Range", "ASSOCIATION": "USA - New Mexico", "POINTS": "6", "BONUSPOINTS": "3"}}, {"type": "Feature", "geometry": {"type": "Point", "coordinates": [-106.751, 35.7173]}, "properties": {"NAME": "W5N/SE-045", "TITLE": "Mesa Garcia", "REGION": "Sierra De Las Valles Range", "ASSOCIATION": "USA - New Mexico", "POINTS": "6", "BONUSPOINTS": "3"}}, {"type": "Feature", "geometry": {"type": "Point", "coordinates": [-106.7186, 35.6964]}, "properties": {"NAME": "W5N/SE-046", "TITLE": "Mesa de las Casas", "REGION": "Sierra De Las Valles Range", "ASSOCIATION": "USA - New Mexico", "POINTS": "6", "BONUSPOINTS": "3"}}, {"type": "Feature", "geometry": {"type": "Point", "coordinates": [-106.8465, 35.419]}, "properties": {"NAME": "W5N/SE-047", "TITLE": "La Ceja", "REGION": "Sierra De Las Valles Range", "ASSOCIATION": "USA - New Mexico", "POINTS": "6", "BONUSPOINTS": "3"}}, {"type": "Feature", "geometry": {"type": "Point", "coordinates": [-106.1478, 35.8541]}, "properties": {"NAME": "W5N/SE-048", "TITLE": "Otowi Benchmark", "REGION": "Sierra De Las Valles Range", "ASSOCIATION": "USA - New Mexico", "POINTS": "6", "BONUSPOINTS": "3"}}, {"type": "Feature", "geometry": {"type": "Point", "coordinates": [-106.2087, 36.0346]}, "properties": {"NAME": "W5N/SE-049", "TITLE": "Cerro Roman", "REGION": "Sierra De Las Valles Range", "ASSOCIATION": "USA - New Mexico", "POINTS": "6", "BONUSPOINTS": "3"}}, {"type": "Feature", "geometry": {"type": "Point", "coordinates": [-106.2233, 35.664]}, "properties": {"NAME": "W5N/SE-050", "TITLE": "Colorado Peak", "REGION": "Sierra De Las Valles Range", "ASSOCIATION": "USA - New Mexico", "POINTS": "6", "BONUSPOINTS": "3"}}]}