{"type": "FeatureCollection", "name": "W5N/BL SUMMITS", "features": [{"type": "Feature", "geometry": {"type": "Point", "coordinates": [-107.8504, 33.052]}, "properties": {"NAME": "W5N/BL-001", "TITLE": "McKnight Mountain", "REGION": "Black Range", "ASSOCIATION": "USA - New Mexico", "POINTS": "10", "BONUSPOINTS": "3"}}, {"type": "Feature", "geometry": {"type": "Point", "coordinates": [-107.7795, 32.9529]}, "properties": {"NAME": "W5N/BL-002", "TITLE": "Hillsboro Peak", "REGION": "Black Range", "ASSOCIATION": "USA - New Mexico", "POINTS": "10", "BONUSPOINTS": "3"}}, {"type": "Feature", "geometry": {"type": "Point", "coordinates": [-107.8546, 33.1428]}, "properties": {"NAME": "W5N/BL-003", "TITLE": "Reeds Peak", "REGION": "Black Range", "ASSOCIATION": "USA - New Mexico", "POINTS": "10", "BONUSPOINTS": "3"}}, {"type": "Feature", "geometry": {"type": "Point", "coordinates": [-107.8756, 33.2039]}, "properties": {"NAME": "W5N/BL-004", "TITLE": "Sheep Mountain", "REGION": "Black Range", "ASSOCIATION": "USA - New Mexico", "POINTS": "8", "BONUSPOINTS": "3"}}, {"type": "Feature", "geometry": {"type": "Point", "coordinates": [-107.8452, 33.2296]}, "properties": {"NAME": "W5N/BL-005", "TITLE": "Diamond Peak", "REGION": "Black Range", "ASSOCIATION": "USA - New Mexico", "POINTS": "8", "BONUSPOINTS": "3"}}, {"type": "Feature", "geometry": {"type": "Point", "coordinates": [-107.8572, 33.2515]}, "properties": {"NAME": "W5N/BL-006", "TITLE": "9715", "REGION": "Black Range", "ASSOCIATION": "USA - New Mexico", "POINTS": "8", "BONUSPOINTS": "3"}}, {"type": "Feature", "geometry": {"type": "Point", "coordinates": [-107.9036, 33.1227]}, "properties": {"NAME": "W5N/BL-007", "TITLE": "Aspen Mountain", "REGION": "Black Range", "ASSOCIATION": "USA - New Mexico", "POINTS": "8", "BONUSPOINTS": "3"}}, {"type": "Feature", "geometry": {"type": "Point", "coordinates": [-107.8237, 32.9771]}, "properties": {"NAME": "W5N/BL-008", "TITLE": "9531", "REGION": "Black Range", "ASSOCIATION": "USA - New Mexico", "POINTS": "8", "BONUSPOINTS": "3"}}, {"type": "Feature", "geometry": {"type": "Point", "coordinates": [-107.7603, 33.0019]}, "properties": {"NAME": "W5N/BL-009", "TITLE": "Granite Peak", "REGION": "Black Range", "ASSOCIATION": "USA - New Mexico", "POINTS": "8", "BONUSPOINTS": "3"}}, {"type": "Feature", "geometry": {"type": "Point", "coordinates": [-107.9692, 33.1183]}, "properties": {"NAME": "W5N/BL-010", "TITLE": "Rocky Point", "REGION": "Black Range", "ASSOCIATION": "USA - New Mexico", "POINTS": "8", "BONUSPOINTS": "3"}}, {"type": "Feature", "geometry": {"type": "Point", "coordinates": [-107.8143, 33.0158]}, "properties": {"NAME": "W5N/BL-011", "TITLE": "9007", "REGION": "Black Range", "ASSOCIATION": "USA - New Mexico", "POINTS": "8", "BONUSPOINTS": "3"}}, {"type": "Feature", "geometry": {"type": "Point", "coordinates": [-107.7787, 33.077]}, "properties": {"NAME": "W5N/BL-012", "TITLE": "Victorio Park Mountain", "REGION": "Black Range", "ASSOCIATION": "USA - New Mexico", "POINTS": "8", "BONUSPOINTS": "3"}}, {"type": "Feature", "geometry": {"type": "Point", "coordinates": [-107.9185, 33.1571]}, "properties": {"NAME": "W5N/BL-013", "TITLE": "8700", "REGION": "Black Range", "ASSOCIATION": "USA - New Mexico", "POINTS": "8", "BONUSPOINTS": "3"}}, {"type": "Feature", "geometry": {"type": "Point", "coordinates": [-107.7957, 33.1577]}, "properties": {"NAME": "W5N/BL-014", "TITLE": "Cherry Mountain", "REGION": "Black Range", "ASSOCIATION": "USA - New Mexico", "POINTS": "8", "BONUSPOINTS": "3"}}, {"type": "Feature", "geometry": {"type": "Point", "coordinates": [-107.774, 33.2222]}, "properties": {"NAME": "W5N/BL-015", "TITLE": "Moccasin John Mountain", "REGION": "Black Range", "ASSOCIATION": "USA - New Mexico", "POINTS": "8", "BONUSPOINTS": "3"}}, {"type": "Feature", "geometry": {"type": "Point", "coordinates": [-107.5889, 33.3265]}, "properties": {"NAME": "W5N/BL-016", "TITLE": "Cuchillo Mountain", "REGION": "Black Range", "ASSOCIATION": "USA - New Mexico", "POINTS": "6", "BONUSPOINTS": "3"}}, {"type": "Feature", "geometry": {"type": "Point", "coordinates": [-107.755, 33.2409]}, "properties": {"NAME": "W5N/BL-017", "TITLE": "7883", "REGION": "Black Range", "ASSOCIATION": "USA - New Mexico", "POINTS": "6", "BONUSPOINTS": "3"}}, {"type": "Feature", "geometry": {"type": "Point", "coordinates": [-107.8739, 32.9091]}, "properties": {"NAME": "W5N/BL-018", "TITLE": "7865", "REGION": "Black Range", "ASSOCIATION": "USA - New Mexico", "POINTS": "6", "BONUSPOINTS": "3"}}, {"type": "Feature", "geometry": {"type": "Point", "coordinates": [-107.7532, 33.1264]}, "properties": {"NAME": "W5N/BL-019", "TITLE": "Lake Mountain", "REGION": "Black Range", "ASSOCIATION": "USA - New Mexico", "POINTS": "6", "BONUSPOINTS": "3"}}, {"type": "Feature", "geometry": {"type": "Point", "coordinates": [-107.9129, 32.895]}, "properties": {"NAME": "W5N/BL-020", "TITLE": "Hendricks Peak", "REGION": "Black Range", "ASSOCIATION": "USA - New Mexico", "POINTS": "6", "BONUSPOINTS": "3"}}, {"type": "Feature", "geometry": {"type": "Point", "coordinates": [-107.7213, 33.3145]}, "properties": {"NAME": "W5N/BL-021", "TITLE": "Hagins Peak", "REGION": "Black Range", "ASSOCIATION": "USA - New Mexico", "POINTS": "6", "BONUSPOINTS": "3"}}, {"type": "Feature", "geometry": {"type": "Point", "coordinates": [-107.7762, 33.1978]}, "properties": {"NAME": "W5N/BL-022", "TITLE": "7725", "REGION": "Black Range", "ASSOCIATION": "USA - New Mexico", "POINTS": "6", "BONUSPOINTS": "3"}}, {"type": "Feature", "geometry": {"type": "Point", "coordinates": [-107.7078, 33.0366]}, "properties": {"NAME": "W5N/BL-023", "TITLE": "Apache Peak", "REGION": "Black Range", "ASSOCIATION": "USA - New Mexico", "POINTS": "6", "BONUSPOINTS": "3"}}, {"type": "Feature", "geometry": {"type": "Point", "coordinates": [-107.7222, 33.2546]}, "properties": {"NAME": "W5N/BL-024", "TITLE": "Dines Benchmark", "REGION": "Black Range", "ASSOCIATION": "USA - New Mexico", "POINTS": "6", "BONUSPOINTS": "3"}}, {"type": "Feature", "geometry": {"type": "Point", "coordinates": [-107.7434, 33.2226]}, "properties": {"NAME": "W5N/BL-025", "TITLE": "Sugarloaf Peak", "REGION": "Black Range", "ASSOCIATION": "USA - New Mexico", "POINTS": "6", "BONUSPOINTS": "3"}}, {"type": "Feature", "geometry": {"type": "Point", "coordinates": [-107.7051, 33.0606]}, "properties": {"NAME": "W5N/BL-026", "TITLE": "7559", "REGION": "Black Range", "ASSOCIATION": "USA - New Mexico", "POINTS": "6", "BONUSPOINTS": "3"}}, {"type": "Feature", "geometry": {"type": "Point", "coordinates": [-107.6843, 33.1918]}, "properties": {"NAME": "W5N/BL-027", "TITLE": "Brushy Mountain", "REGION": "Black Range", "ASSOCIATION": "USA - New Mexico", "POINTS": "6", "BONUSPOINTS": "3"}}, {"type": "Feature", "geometry": {"type": "Point", "coordinates": [-107.7026, 32.9622]}, "properties": {"NAME": "W5N/BL-028", "TITLE": "7355", "REGION": "Black Range", "ASSOCIATION": "USA - New Mexico", "POINTS": "6", "BONUSPOINTS": "3"}}, {"type": "Feature", "geometry": {"type": "Point", "coordinates": [-107.6717, 33.2321]}, "properties": {"NAME": "W5N/BL-029", "TITLE": "Montosa Mountain", "REGION": "Black Range", "ASSOCIATION": "USA - New Mexico", "POINTS": "6", "BONUSPOINTS": "3"}}, {"type": "Feature", "geometry": {"type": "Point", "coordinates": [-107.6841, 33.2952]}, "properties": {"NAME": "W5N/BL-030", "TITLE": "7220", "REGION": "Black Range", "ASSOCIATION": "USA - New Mexico", "POINTS": "6", "BONUSPOINTS": "3"}}, {"type": "Feature", "geometry": {"type": "Point", "coordinates": [-107.7411, 33.1731]}, "properties": {"NAME": "W5N/BL-031", "TITLE": "7112", "REGION": "Black Range", "ASSOCIATION": "USA - New Mexico", "POINTS": "6", "BONUSPOINTS": "3"}}, {"type": "Feature", "geometry": {"type": "Point", "coordinates": [-107.7108, 33.1809]}, "properties": {"NAME": "W5N/BL-032", "TITLE": "7086", "REGION": "Black Range", "ASSOCIATION": "USA - New Mexico", "POINTS": "6", "BONUSPOINTS": "3"}}, {"type": "Feature", "geometry": {"type": "Point", "coordinates": [-107.5846, 33.232]}, "properties": {"NAME": "W5N/BL-033", "TITLE": "Chiz Benchmark", "REGION": "Black Range", "ASSOCIATION": "USA - New Mexico", "POINTS": "6", "BONUSPOINTS": "3"}}, {"type": "Feature", "geometry": {"type": "Point", "coordinates": [-107.7136, 33.1524]}, "properties": {"NAME": "W5N/BL-034", "TITLE": "7062", "REGION": "Black Range", "ASSOCIATION": "USA - New Mexico", "POINTS": "6", "BONUSPOINTS": "3"}}, {"type": "Feature", "geometry": {"type": "Point", "coordinates": [-107.5839, 33.2621]}, "properties": {"NAME": "W5N/BL-035", "TITLE": "North Twin Peaks", "REGION": "Black Range", "ASSOCIATION": "USA - New Mexico", "POINTS": "6", "BONUSPOINTS": "3"}}, {"type": "Feature", "geometry": {"type": "Point", "coordinates": [-107.5208, 33.1214]}, "properties": {"NAME": "W5N/BL-036", "TITLE": "Salado Mountains (HP)", "REGION": "Black Range", "ASSOCIATION": "USA - New Mexico", "POINTS": "6", "BONUSPOINTS": "3"}}, {"type": "Feature", "geometry": {"type": "Point", "coordinates": [-107.5214, 33.1564]}, "properties": {"NAME": "W5N/BL-037", "TITLE": "Panther Peak", "REGION": "Black Range", "ASSOCIATION": "USA - New Mexico", "POINTS": "6", "BONUSPOINTS": "3"}}, {"type": "Feature", "geometry": {"type": "Point", "coordinates": [-107.526, 33.1658]}, "properties": {"NAME": "W5N/BL-038", "TITLE": "Kelly Peak", "REGION": "Black Range", "ASSOCIATION": "USA - New Mexico", "POINTS": "6", "BONUSPOINTS": "3"}}, {"type": "Feature", "geometry": {"type": "Point", "coordinates": [-107.5266, 33.2215]}, "properties": {"NAME": "W5N/BL-039", "TITLE": "North Double S Peaks", "REGION": "Black Range", "ASSOCIATION": "USA - New Mexico", "POINTS": "6", "BONUSPOINTS": "3"}}, {"type": "Feature", "geometry": {"type": "Point", "coordinates": [-107.4956, 33.1478]}, "properties": {"NAME": "W5N/BL-040", "TITLE": "Garcia Peaks", "REGION": "Black Range", "ASSOCIATION": "USA - New Mexico", "POINTS": "6", "BONUSPOINTS": "3"}}, {"type": "Feature", "geometry": {"type": "Point", "coordinates": [-107.9027, 32.928]}, "properties": {"NAME": "W5N/BL-041", "TITLE": "8038", "REGION": "Black Range", "ASSOCIATION": "USA - New Mexico", "POINTS": "8", "BONUSPOINTS": "3"}}, {"type": "Feature", "geometry": {"type": "Point", "coordinates": [-107.7626, 33.006]}, "properties": {"NAME": "W5N/BL-042", "TITLE": "9292", "REGION": "Black Range", "ASSOCIATION": "USA - New Mexico", "POINTS": "8", "BONUSPOINTS": "3"}}, {"type": "Feature", "geometry": {"type": "Point", "coordinates": [-107.6523, 32.9442]}, "properties": {"NAME": "W5N/BL-043", "TITLE": "6512", "REGION": "Black Range", "ASSOCIATION": "USA - New Mexico", "POINTS": "6", "BONUSPOINTS": "3"}}]}