{"type": "FeatureCollection", "name": "W5N/SS SUMMITS", "features": [{"type": "Feature", "geometry": {"type": "Point", "coordinates": [-105.4169, 36.5568]}, "properties": {"NAME": "W5N/SS-001", "TITLE": "Wheeler Peak", "REGION": "Sangre De Cristo Mountains", "ASSOCIATION": "USA - New Mexico", "POINTS": "10", "BONUSPOINTS": "3"}}, {"type": "Feature", "geometry": {"type": "Point", "coordinates": [-105.3323, 36.9036]}, "properties": {"NAME": "W5N/SS-002", "TITLE": "12931", "REGION": "Sangre De Cristo Mountains", "ASSOCIATION": "USA - New Mexico", "POINTS": "10", "BONUSPOINTS": "3"}}, {"type": "Feature", "geometry": {"type": "Point", "coordinates": [-105.3383, 36.9606]}, "properties": {"NAME": "W5N/SS-003", "TITLE": "Vintrero Benchmark", "REGION": "Sangre De Cristo Mountains", "ASSOCIATION": "USA - New Mexico", "POINTS": "10", "BONUSPOINTS": "3"}}, {"type": "Feature", "geometry": {"type": "Point", "coordinates": [-105.4452, 36.5502]}, "properties": {"NAME": "W5N/SS-004", "TITLE": "Lake Fork Peak", "REGION": "Sangre De Cristo Mountains", "ASSOCIATION": "USA - New Mexico", "POINTS": "10", "BONUSPOINTS": "3"}}, {"type": "Feature", "geometry": {"type": "Point", "coordinates": [-105.4934, 36.7917]}, "properties": {"NAME": "W5N/SS-005", "TITLE": "Venado Peak", "REGION": "Sangre De Cristo Mountains", "ASSOCIATION": "USA - New Mexico", "POINTS": "10", "BONUSPOINTS": "3"}}, {"type": "Feature", "geometry": {"type": "Point", "coordinates": [-105.4558, 36.6431]}, "properties": {"NAME": "W5N/SS-006", "TITLE": "Gold Hill", "REGION": "Sangre De Cristo Mountains", "ASSOCIATION": "USA - New Mexico", "POINTS": "10", "BONUSPOINTS": "3"}}, {"type": "Feature", "geometry": {"type": "Point", "coordinates": [-105.4622, 36.5341]}, "properties": {"NAME": "W5N/SS-007", "TITLE": "Vallecito Mountain", "REGION": "Sangre De Cristo Mountains", "ASSOCIATION": "USA - New Mexico", "POINTS": "10", "BONUSPOINTS": "3"}}, {"type": "Feature", "geometry": {"type": "Point", "coordinates": [-105.4831, 36.4911]}, "properties": {"NAME": "W5N/SS-008", "TITLE": "Pueblo Peak", "REGION": "Sangre De Cristo Mountains", "ASSOCIATION": "USA - New Mexico", "POINTS": "10", "BONUSPOINTS": "3"}}, {"type": "Feature", "geometry": {"type": "Point", "coordinates": [-105.5434, 36.6102]}, "properties": {"NAME": "W5N/SS-009", "TITLE": "Lobo Peak", "REGION": "Sangre De Cristo Mountains", "ASSOCIATION": "USA - New Mexico", "POINTS": "10", "BONUSPOINTS": "3"}}, {"type": "Feature", "geometry": {"type": "Point", "coordinates": [-105.4126, 36.234]}, "properties": {"NAME": "W5N/SS-010", "TITLE": "Cerro Vista", "REGION": "Sangre De Cristo Mountains", "ASSOCIATION": "USA - New Mexico", "POINTS": "10", "BONUSPOINTS": "3"}}, {"type": "Feature", "geometry": {"type": "Point", "coordinates": [-105.4998, 36.5496]}, "properties": {"NAME": "W5N/SS-011", "TITLE": "11912", "REGION": "Sangre De Cristo Mountains", "ASSOCIATION": "USA - New Mexico", "POINTS": "10", "BONUSPOINTS": "3"}}, {"type": "Feature", "geometry": {"type": "Point", "coordinates": [-105.4108, 36.6313]}, "properties": {"NAME": "W5N/SS-012", "TITLE": "Relica Peak", "REGION": "Sangre De Cristo Mountains", "ASSOCIATION": "USA - New Mexico", "POINTS": "10", "BONUSPOINTS": "3"}}, {"type": "Feature", "geometry": {"type": "Point", "coordinates": [-105.3566, 36.2707]}, "properties": {"NAME": "W5N/SS-013", "TITLE": "Cuchillo de Fernando", "REGION": "Sangre De Cristo Mountains", "ASSOCIATION": "USA - New Mexico", "POINTS": "10", "BONUSPOINTS": "3"}}, {"type": "Feature", "geometry": {"type": "Point", "coordinates": [-105.4857, 36.8453]}, "properties": {"NAME": "W5N/SS-014", "TITLE": "11312", "REGION": "Sangre De Cristo Mountains", "ASSOCIATION": "USA - New Mexico", "POINTS": "10", "BONUSPOINTS": "3"}}, {"type": "Feature", "geometry": {"type": "Point", "coordinates": [-105.3795, 36.7621]}, "properties": {"NAME": "W5N/SS-015", "TITLE": "Greenie Peak", "REGION": "Sangre De Cristo Mountains", "ASSOCIATION": "USA - New Mexico", "POINTS": "10", "BONUSPOINTS": "3"}}, {"type": "Feature", "geometry": {"type": "Point", "coordinates": [-105.3176, 36.7434]}, "properties": {"NAME": "W5N/SS-016", "TITLE": "Van Diest Peak", "REGION": "Sangre De Cristo Mountains", "ASSOCIATION": "USA - New Mexico", "POINTS": "10", "BONUSPOINTS": "3"}}, {"type": "Feature", "geometry": {"type": "Point", "coordinates": [-105.2942, 36.236]}, "properties": {"NAME": "W5N/SS-017", "TITLE": "11055", "REGION": "Sangre De Cristo Mountains", "ASSOCIATION": "USA - New Mexico", "POINTS": "10", "BONUSPOINTS": "3"}}, {"type": "Feature", "geometry": {"type": "Point", "coordinates": [-105.4249, 36.7291]}, "properties": {"NAME": "W5N/SS-018", "TITLE": "Sawmill Mountain", "REGION": "Sangre De Cristo Mountains", "ASSOCIATION": "USA - New Mexico", "POINTS": "10", "BONUSPOINTS": "3"}}, {"type": "Feature", "geometry": {"type": "Point", "coordinates": [-105.4415, 36.2835]}, "properties": {"NAME": "W5N/SS-019", "TITLE": "10900", "REGION": "Sangre De Cristo Mountains", "ASSOCIATION": "USA - New Mexico", "POINTS": "10", "BONUSPOINTS": "3"}}, {"type": "Feature", "geometry": {"type": "Point", "coordinates": [-105.5065, 36.7191]}, "properties": {"NAME": "W5N/SS-020", "TITLE": "10812", "REGION": "Sangre De Cristo Mountains", "ASSOCIATION": "USA - New Mexico", "POINTS": "10", "BONUSPOINTS": "3"}}, {"type": "Feature", "geometry": {"type": "Point", "coordinates": [-105.6548, 36.2472]}, "properties": {"NAME": "W5N/SS-021", "TITLE": "Picuris Peak", "REGION": "Sangre De Cristo Mountains", "ASSOCIATION": "USA - New Mexico", "POINTS": "10", "BONUSPOINTS": "3"}}, {"type": "Feature", "geometry": {"type": "Point", "coordinates": [-105.301, 36.1326]}, "properties": {"NAME": "W5N/SS-022", "TITLE": "10535", "REGION": "Sangre De Cristo Mountains", "ASSOCIATION": "USA - New Mexico", "POINTS": "10", "BONUSPOINTS": "3"}}, {"type": "Feature", "geometry": {"type": "Point", "coordinates": [-105.4233, 36.4084]}, "properties": {"NAME": "W5N/SS-023", "TITLE": "Capulin Peak", "REGION": "Sangre De Cristo Mountains", "ASSOCIATION": "USA - New Mexico", "POINTS": "10", "BONUSPOINTS": "3"}}, {"type": "Feature", "geometry": {"type": "Point", "coordinates": [-105.4253, 36.3418]}, "properties": {"NAME": "W5N/SS-024", "TITLE": "Sierra de Don Fernando", "REGION": "Sangre De Cristo Mountains", "ASSOCIATION": "USA - New Mexico", "POINTS": "10", "BONUSPOINTS": "3"}}, {"type": "Feature", "geometry": {"type": "Point", "coordinates": [-105.2726, 36.7413]}, "properties": {"NAME": "W5N/SS-025", "TITLE": "10334", "REGION": "Sangre De Cristo Mountains", "ASSOCIATION": "USA - New Mexico", "POINTS": "10", "BONUSPOINTS": "3"}}, {"type": "Feature", "geometry": {"type": "Point", "coordinates": [-105.4347, 36.1151]}, "properties": {"NAME": "W5N/SS-026", "TITLE": "Cerro Picacho", "REGION": "Sangre De Cristo Mountains", "ASSOCIATION": "USA - New Mexico", "POINTS": "10", "BONUSPOINTS": "3"}}, {"type": "Feature", "geometry": {"type": "Point", "coordinates": [-105.2795, 36.2058]}, "properties": {"NAME": "W5N/SS-027", "TITLE": "10220", "REGION": "Sangre De Cristo Mountains", "ASSOCIATION": "USA - New Mexico", "POINTS": "10", "BONUSPOINTS": "3"}}, {"type": "Feature", "geometry": {"type": "Point", "coordinates": [-105.3393, 36.4841]}, "properties": {"NAME": "W5N/SS-028", "TITLE": "10210", "REGION": "Sangre De Cristo Mountains", "ASSOCIATION": "USA - New Mexico", "POINTS": "10", "BONUSPOINTS": "3"}}, {"type": "Feature", "geometry": {"type": "Point", "coordinates": [-105.4548, 36.4097]}, "properties": {"NAME": "W5N/SS-029", "TITLE": "Palo Encebado Peak", "REGION": "Sangre De Cristo Mountains", "ASSOCIATION": "USA - New Mexico", "POINTS": "10", "BONUSPOINTS": "3"}}, {"type": "Feature", "geometry": {"type": "Point", "coordinates": [-105.6843, 36.9377]}, "properties": {"NAME": "W5N/SS-030", "TITLE": "Ute Mountain", "REGION": "Sangre De Cristo Mountains", "ASSOCIATION": "USA - New Mexico", "POINTS": "10", "BONUSPOINTS": "3"}}, {"type": "Feature", "geometry": {"type": "Point", "coordinates": [-105.6224, 36.2205]}, "properties": {"NAME": "W5N/SS-031", "TITLE": "9794", "REGION": "Sangre De Cristo Mountains", "ASSOCIATION": "USA - New Mexico", "POINTS": "8", "BONUSPOINTS": "3"}}, {"type": "Feature", "geometry": {"type": "Point", "coordinates": [-105.2964, 36.601]}, "properties": {"NAME": "W5N/SS-032", "TITLE": "Scully Mountain", "REGION": "Sangre De Cristo Mountains", "ASSOCIATION": "USA - New Mexico", "POINTS": "8", "BONUSPOINTS": "3"}}, {"type": "Feature", "geometry": {"type": "Point", "coordinates": [-105.6543, 36.285]}, "properties": {"NAME": "W5N/SS-033", "TITLE": "9741", "REGION": "Sangre De Cristo Mountains", "ASSOCIATION": "USA - New Mexico", "POINTS": "8", "BONUSPOINTS": "3"}}, {"type": "Feature", "geometry": {"type": "Point", "coordinates": [-105.2923, 36.0349]}, "properties": {"NAME": "W5N/SS-034", "TITLE": "8985", "REGION": "Sangre De Cristo Mountains", "ASSOCIATION": "USA - New Mexico", "POINTS": "8", "BONUSPOINTS": "3"}}, {"type": "Feature", "geometry": {"type": "Point", "coordinates": [-105.3887, 36.0971]}, "properties": {"NAME": "W5N/SS-035", "TITLE": "8890", "REGION": "Sangre De Cristo Mountains", "ASSOCIATION": "USA - New Mexico", "POINTS": "8", "BONUSPOINTS": "3"}}, {"type": "Feature", "geometry": {"type": "Point", "coordinates": [-105.6269, 36.7408]}, "properties": {"NAME": "W5N/SS-036", "TITLE": "North Guadalupe Mountain", "REGION": "Sangre De Cristo Mountains", "ASSOCIATION": "USA - New Mexico", "POINTS": "8", "BONUSPOINTS": "3"}}, {"type": "Feature", "geometry": {"type": "Point", "coordinates": [-105.6492, 36.7169]}, "properties": {"NAME": "W5N/SS-037", "TITLE": "South Guadalupe Mountain", "REGION": "Sangre De Cristo Mountains", "ASSOCIATION": "USA - New Mexico", "POINTS": "8", "BONUSPOINTS": "3"}}, {"type": "Feature", "geometry": {"type": "Point", "coordinates": [-105.3438, 35.9935]}, "properties": {"NAME": "W5N/SS-038", "TITLE": "8260", "REGION": "Sangre De Cristo Mountains", "ASSOCIATION": "USA - New Mexico", "POINTS": "8", "BONUSPOINTS": "3"}}, {"type": "Feature", "geometry": {"type": "Point", "coordinates": [-105.9221, 36.1977]}, "properties": {"NAME": "W5N/SS-039", "TITLE": "La Mesita", "REGION": "Sangre De Cristo Mountains", "ASSOCIATION": "USA - New Mexico", "POINTS": "6", "BONUSPOINTS": "3"}}]}