{"type": "FeatureCollection", "name": "W5N/HT SUMMITS", "features": [{"type": "Feature", "geometry": {"type": "Point", "coordinates": [-108.3987, 31.6353]}, "properties": {"NAME": "W5N/HT-001", "TITLE": "Big Hatchet Peak", "REGION": "Hatchet Mountains", "ASSOCIATION": "USA - New Mexico", "POINTS": "8", "BONUSPOINTS": "3"}}, {"type": "Feature", "geometry": {"type": "Point", "coordinates": [-108.3968, 31.6628]}, "properties": {"NAME": "W5N/HT-002", "TITLE": "Zeller Peak", "REGION": "Hatchet Mountains", "ASSOCIATION": "USA - New Mexico", "POINTS": "6", "BONUSPOINTS": "3"}}, {"type": "Feature", "geometry": {"type": "Point", "coordinates": [-108.3644, 31.4478]}, "properties": {"NAME": "W5N/HT-003", "TITLE": "Alamo Hueco", "REGION": "Hatchet Mountains", "ASSOCIATION": "USA - New Mexico", "POINTS": "6", "BONUSPOINTS": "3"}}, {"type": "Feature", "geometry": {"type": "Point", "coordinates": [-108.4533, 31.8417]}, "properties": {"NAME": "W5N/HT-004", "TITLE": "Hachita Peak", "REGION": "Hatchet Mountains", "ASSOCIATION": "USA - New Mexico", "POINTS": "6", "BONUSPOINTS": "3"}}, {"type": "Feature", "geometry": {"type": "Point", "coordinates": [-108.3632, 31.583]}, "properties": {"NAME": "W5N/HT-005", "TITLE": "6530", "REGION": "Hatchet Mountains", "ASSOCIATION": "USA - New Mexico", "POINTS": "6", "BONUSPOINTS": "3"}}, {"type": "Feature", "geometry": {"type": "Point", "coordinates": [-108.3507, 31.5633]}, "properties": {"NAME": "W5N/HT-006", "TITLE": "6482", "REGION": "Hatchet Mountains", "ASSOCIATION": "USA - New Mexico", "POINTS": "6", "BONUSPOINTS": "3"}}, {"type": "Feature", "geometry": {"type": "Point", "coordinates": [-108.3184, 31.5892]}, "properties": {"NAME": "W5N/HT-007", "TITLE": "6442", "REGION": "Hatchet Mountains", "ASSOCIATION": "USA - New Mexico", "POINTS": "6", "BONUSPOINTS": "3"}}, {"type": "Feature", "geometry": {"type": "Point", "coordinates": [-108.3371, 31.616]}, "properties": {"NAME": "W5N/HT-008", "TITLE": "Bugle Ridge", "REGION": "Hatchet Mountains", "ASSOCIATION": "USA - New Mexico", "POINTS": "6", "BONUSPOINTS": "3"}}, {"type": "Feature", "geometry": {"type": "Point", "coordinates": [-108.3947, 31.6798]}, "properties": {"NAME": "W5N/HT-009", "TITLE": "6340", "REGION": "Hatchet Mountains", "ASSOCIATION": "USA - New Mexico", "POINTS": "6", "BONUSPOINTS": "3"}}, {"type": "Feature", "geometry": {"type": "Point", "coordinates": [-108.3505, 31.5772]}, "properties": {"NAME": "W5N/HT-010", "TITLE": "6332", "REGION": "Hatchet Mountains", "ASSOCIATION": "USA - New Mexico", "POINTS": "6", "BONUSPOINTS": "3"}}, {"type": "Feature", "geometry": {"type": "Point", "coordinates": [-108.2864, 31.5668]}, "properties": {"NAME": "W5N/HT-011", "TITLE": "New Well Peak", "REGION": "Hatchet Mountains", "ASSOCIATION": "USA - New Mexico", "POINTS": "6", "BONUSPOINTS": "3"}}, {"type": "Feature", "geometry": {"type": "Point", "coordinates": [-108.3231, 31.3996]}, "properties": {"NAME": "W5N/HT-012", "TITLE": "Sycamore Benchmark", "REGION": "Hatchet Mountains", "ASSOCIATION": "USA - New Mexico", "POINTS": "6", "BONUSPOINTS": "3"}}, {"type": "Feature", "geometry": {"type": "Point", "coordinates": [-108.3919, 31.475]}, "properties": {"NAME": "W5N/HT-013", "TITLE": "6216", "REGION": "Hatchet Mountains", "ASSOCIATION": "USA - New Mexico", "POINTS": "6", "BONUSPOINTS": "3"}}, {"type": "Feature", "geometry": {"type": "Point", "coordinates": [-108.1821, 31.9703]}, "properties": {"NAME": "W5N/HT-014", "TITLE": "Cedar Mountain", "REGION": "Hatchet Mountains", "ASSOCIATION": "USA - New Mexico", "POINTS": "6", "BONUSPOINTS": "3"}}, {"type": "Feature", "geometry": {"type": "Point", "coordinates": [-108.095, 31.922]}, "properties": {"NAME": "W5N/HT-015", "TITLE": "Flying W Mountain", "REGION": "Hatchet Mountains", "ASSOCIATION": "USA - New Mexico", "POINTS": "6", "BONUSPOINTS": "3"}}, {"type": "Feature", "geometry": {"type": "Point", "coordinates": [-108.3391, 31.3984]}, "properties": {"NAME": "W5N/HT-016", "TITLE": "6100", "REGION": "Hatchet Mountains", "ASSOCIATION": "USA - New Mexico", "POINTS": "6", "BONUSPOINTS": "3"}}, {"type": "Feature", "geometry": {"type": "Point", "coordinates": [-108.4447, 31.7585]}, "properties": {"NAME": "W5N/HT-017", "TITLE": "Lane Benchmark", "REGION": "Hatchet Mountains", "ASSOCIATION": "USA - New Mexico", "POINTS": "4", "BONUSPOINTS": "3"}}, {"type": "Feature", "geometry": {"type": "Point", "coordinates": [-108.4969, 31.8983]}, "properties": {"NAME": "W5N/HT-018", "TITLE": "Playas Peak", "REGION": "Hatchet Mountains", "ASSOCIATION": "USA - New Mexico", "POINTS": "4", "BONUSPOINTS": "3"}}, {"type": "Feature", "geometry": {"type": "Point", "coordinates": [-108.2864, 31.8425]}, "properties": {"NAME": "W5N/HT-019", "TITLE": "Apache Peak", "REGION": "Hatchet Mountains", "ASSOCIATION": "USA - New Mexico", "POINTS": "4", "BONUSPOINTS": "3"}}, {"type": "Feature", "geometry": {"type": "Point", "coordinates": [-108.454, 31.8931]}, "properties": {"NAME": "W5N/HT-020", "TITLE": "East Howells Ridge", "REGION": "Hatchet Mountains", "ASSOCIATION": "USA - New Mexico", "POINTS": "4", "BONUSPOINTS": "3"}}, {"type": "Feature", "geometry": {"type": "Point", "coordinates": [-108.3994, 31.5656]}, "properties": {"NAME": "W5N/HT-021", "TITLE": "U Bar Ridge", "REGION": "Hatchet Mountains", "ASSOCIATION": "USA - New Mexico", "POINTS": "4", "BONUSPOINTS": "3"}}, {"type": "Feature", "geometry": {"type": "Point", "coordinates": [-108.4931, 31.8677]}, "properties": {"NAME": "W5N/HT-022", "TITLE": "5678", "REGION": "Hatchet Mountains", "ASSOCIATION": "USA - New Mexico", "POINTS": "4", "BONUSPOINTS": "3"}}, {"type": "Feature", "geometry": {"type": "Point", "coordinates": [-108.4957, 31.9146]}, "properties": {"NAME": "W5N/HT-023", "TITLE": "West Howells Ridge", "REGION": "Hatchet Mountains", "ASSOCIATION": "USA - New Mexico", "POINTS": "4", "BONUSPOINTS": "3"}}, {"type": "Feature", "geometry": {"type": "Point", "coordinates": [-108.4213, 31.4868]}, "properties": {"NAME": "W5N/HT-024", "TITLE": "5564", "REGION": "Hatchet Mountains", "ASSOCIATION": "USA - New Mexico", "POINTS": "4", "BONUSPOINTS": "3"}}, {"type": "Feature", "geometry": {"type": "Point", "coordinates": [-108.2167, 31.7399]}, "properties": {"NAME": "W5N/HT-025", "TITLE": "5483", "REGION": "Hatchet Mountains", "ASSOCIATION": "USA - New Mexico", "POINTS": "4", "BONUSPOINTS": "3"}}, {"type": "Feature", "geometry": {"type": "Point", "coordinates": [-108.2796, 31.7707]}, "properties": {"NAME": "W5N/HT-026", "TITLE": "Doyle Peak", "REGION": "Hatchet Mountains", "ASSOCIATION": "USA - New Mexico", "POINTS": "4", "BONUSPOINTS": "3"}}, {"type": "Feature", "geometry": {"type": "Point", "coordinates": [-108.279, 31.4072]}, "properties": {"NAME": "W5N/HT-027", "TITLE": "5373", "REGION": "Hatchet Mountains", "ASSOCIATION": "USA - New Mexico", "POINTS": "4", "BONUSPOINTS": "3"}}, {"type": "Feature", "geometry": {"type": "Point", "coordinates": [-108.0626, 31.9723]}, "properties": {"NAME": "W5N/HT-028", "TITLE": "Gap Hill", "REGION": "Hatchet Mountains", "ASSOCIATION": "USA - New Mexico", "POINTS": "4", "BONUSPOINTS": "3"}}, {"type": "Feature", "geometry": {"type": "Point", "coordinates": [-108.2692, 31.5517]}, "properties": {"NAME": "W5N/HT-029", "TITLE": "5340", "REGION": "Hatchet Mountains", "ASSOCIATION": "USA - New Mexico", "POINTS": "4", "BONUSPOINTS": "3"}}, {"type": "Feature", "geometry": {"type": "Point", "coordinates": [-108.4041, 31.509]}, "properties": {"NAME": "W5N/HT-030", "TITLE": "5271", "REGION": "Hatchet Mountains", "ASSOCIATION": "USA - New Mexico", "POINTS": "4", "BONUSPOINTS": "3"}}, {"type": "Feature", "geometry": {"type": "Point", "coordinates": [-108.5117, 32.0163]}, "properties": {"NAME": "W5N/HT-031", "TITLE": "Coyote Peak", "REGION": "Hatchet Mountains", "ASSOCIATION": "USA - New Mexico", "POINTS": "4", "BONUSPOINTS": "3"}}, {"type": "Feature", "geometry": {"type": "Point", "coordinates": [-108.2547, 31.3976]}, "properties": {"NAME": "W5N/HT-032", "TITLE": "Hat Top Mountain", "REGION": "Hatchet Mountains", "ASSOCIATION": "USA - New Mexico", "POINTS": "4", "BONUSPOINTS": "3"}}, {"type": "Feature", "geometry": {"type": "Point", "coordinates": [-108.0565, 31.9002]}, "properties": {"NAME": "W5N/HT-033", "TITLE": "Valiente Peak", "REGION": "Hatchet Mountains", "ASSOCIATION": "USA - New Mexico", "POINTS": "4", "BONUSPOINTS": "3"}}]}