{"type": "FeatureCollection", "name": "W5N/OR SUMMITS", "features": [{"type": "Feature", "geometry": {"type": "Point", "coordinates": [-106.5621, 32.3452]}, "properties": {"NAME": "W5N/OR-001", "TITLE": "Organ Needle", "REGION": "Organ Mountains", "ASSOCIATION": "USA - New Mexico", "POINTS": "8", "BONUSPOINTS": "3"}}, {"type": "Feature", "geometry": {"type": "Point", "coordinates": [-106.5491, 32.33]}, "properties": {"NAME": "W5N/OR-002", "TITLE": "Organ Peak", "REGION": "Organ Mountains", "ASSOCIATION": "USA - New Mexico", "POINTS": "8", "BONUSPOINTS": "3"}}, {"type": "Feature", "geometry": {"type": "Point", "coordinates": [-106.5606, 32.322]}, "properties": {"NAME": "W5N/OR-003", "TITLE": "Baldy Peak", "REGION": "Organ Mountains", "ASSOCIATION": "USA - New Mexico", "POINTS": "8", "BONUSPOINTS": "3"}}, {"type": "Feature", "geometry": {"type": "Point", "coordinates": [-106.5783, 32.3684]}, "properties": {"NAME": "W5N/OR-004", "TITLE": "Rabbit Ears", "REGION": "Organ Mountains", "ASSOCIATION": "USA - New Mexico", "POINTS": "8", "BONUSPOINTS": "3"}}, {"type": "Feature", "geometry": {"type": "Point", "coordinates": [-106.5668, 32.309]}, "properties": {"NAME": "W5N/OR-005", "TITLE": "7974", "REGION": "Organ Mountains", "ASSOCIATION": "USA - New Mexico", "POINTS": "6", "BONUSPOINTS": "3"}}, {"type": "Feature", "geometry": {"type": "Point", "coordinates": [-106.5779, 32.3932]}, "properties": {"NAME": "W5N/OR-006", "TITLE": "Baylor Peak", "REGION": "Organ Mountains", "ASSOCIATION": "USA - New Mexico", "POINTS": "6", "BONUSPOINTS": "3"}}, {"type": "Feature", "geometry": {"type": "Point", "coordinates": [-106.5279, 32.2669]}, "properties": {"NAME": "W5N/OR-007", "TITLE": "7716", "REGION": "Organ Mountains", "ASSOCIATION": "USA - New Mexico", "POINTS": "6", "BONUSPOINTS": "3"}}, {"type": "Feature", "geometry": {"type": "Point", "coordinates": [-106.5629, 32.2701]}, "properties": {"NAME": "W5N/OR-008", "TITLE": "7130", "REGION": "Organ Mountains", "ASSOCIATION": "USA - New Mexico", "POINTS": "6", "BONUSPOINTS": "3"}}, {"type": "Feature", "geometry": {"type": "Point", "coordinates": [-106.5632, 32.4387]}, "properties": {"NAME": "W5N/OR-009", "TITLE": "San Augustin Peak", "REGION": "Organ Mountains", "ASSOCIATION": "USA - New Mexico", "POINTS": "6", "BONUSPOINTS": "3"}}, {"type": "Feature", "geometry": {"type": "Point", "coordinates": [-106.5162, 32.2985]}, "properties": {"NAME": "W5N/OR-010", "TITLE": "Soledad Peak", "REGION": "Organ Mountains", "ASSOCIATION": "USA - New Mexico", "POINTS": "6", "BONUSPOINTS": "3"}}, {"type": "Feature", "geometry": {"type": "Point", "coordinates": [-106.5907, 32.3136]}, "properties": {"NAME": "W5N/OR-011", "TITLE": "Squaw Mountain", "REGION": "Organ Mountains", "ASSOCIATION": "USA - New Mexico", "POINTS": "6", "BONUSPOINTS": "3"}}, {"type": "Feature", "geometry": {"type": "Point", "coordinates": [-106.5153, 32.4536]}, "properties": {"NAME": "W5N/OR-012", "TITLE": "Mineral Hill", "REGION": "Organ Mountains", "ASSOCIATION": "USA - New Mexico", "POINTS": "6", "BONUSPOINTS": "3"}}, {"type": "Feature", "geometry": {"type": "Point", "coordinates": [-106.6042, 32.1904]}, "properties": {"NAME": "W5N/OR-013", "TITLE": "Bishop Cap", "REGION": "Organ Mountains", "ASSOCIATION": "USA - New Mexico", "POINTS": "4", "BONUSPOINTS": "3"}}, {"type": "Feature", "geometry": {"type": "Point", "coordinates": [-106.5337, 32.0393]}, "properties": {"NAME": "W5N/OR-014", "TITLE": "North Anthonys Nose", "REGION": "Organ Mountains", "ASSOCIATION": "USA - New Mexico", "POINTS": "4", "BONUSPOINTS": "3"}}, {"type": "Feature", "geometry": {"type": "Point", "coordinates": [-106.118, 32.4357]}, "properties": {"NAME": "W5N/OR-015", "TITLE": "Jarilla Mountains (HP)", "REGION": "Organ Mountains", "ASSOCIATION": "USA - New Mexico", "POINTS": "4", "BONUSPOINTS": "3"}}, {"type": "Feature", "geometry": {"type": "Point", "coordinates": [-106.5525, 32.0896]}, "properties": {"NAME": "W5N/OR-016", "TITLE": "5050", "REGION": "Organ Mountains", "ASSOCIATION": "USA - New Mexico", "POINTS": "4", "BONUSPOINTS": "3"}}, {"type": "Feature", "geometry": {"type": "Point", "coordinates": [-106.6982, 32.293]}, "properties": {"NAME": "W5N/OR-017", "TITLE": "Tortugas Mountain", "REGION": "Organ Mountains", "ASSOCIATION": "USA - New Mexico", "POINTS": "4", "BONUSPOINTS": "3"}}, {"type": "Feature", "geometry": {"type": "Point", "coordinates": [-106.1115, 32.4931]}, "properties": {"NAME": "W5N/OR-018", "TITLE": "4850", "REGION": "Organ Mountains", "ASSOCIATION": "USA - New Mexico", "POINTS": "4", "BONUSPOINTS": "3"}}, {"type": "Feature", "geometry": {"type": "Point", "coordinates": [-106.4953, 32.4316]}, "properties": {"NAME": "W5N/OR-019", "TITLE": "Antelope Hill", "REGION": "Organ Mountains", "ASSOCIATION": "USA - New Mexico", "POINTS": "4", "BONUSPOINTS": "3"}}]}