{"type": "FeatureCollection", "name": "W2/NJ SUMMITS", "features": [{"type": "Feature", "geometry": {"type": "Point", "coordinates": [-74.6614, 41.3208]}, "properties": {"NAME": "W2/NJ-001", "TITLE": "High Point", "REGION": "New Jersey", "ASSOCIATION": "USA - NJ / NY", "POINTS": "1", "BONUSPOINTS": "0"}}, {"type": "Feature", "geometry": {"type": "Point", "coordinates": [-74.5139, 41.1522]}, "properties": {"NAME": "W2/NJ-002", "TITLE": "Hamburg Mtns. HP", "REGION": "New Jersey", "ASSOCIATION": "USA - NJ / NY", "POINTS": "1", "BONUSPOINTS": "0"}}, {"type": "Feature", "geometry": {"type": "Point", "coordinates": [-74.8847, 41.1169]}, "properties": {"NAME": "W2/NJ-003", "TITLE": "Kittatinny Mtn", "REGION": "New Jersey", "ASSOCIATION": "USA - NJ / NY", "POINTS": "1", "BONUSPOINTS": "0"}}, {"type": "Feature", "geometry": {"type": "Point", "coordinates": [-74.5303, 41.2111]}, "properties": {"NAME": "W2/NJ-004", "TITLE": "Pochuck Mtn. HP", "REGION": "New Jersey", "ASSOCIATION": "USA - NJ / NY", "POINTS": "1", "BONUSPOINTS": "0"}}, {"type": "Feature", "geometry": {"type": "Point", "coordinates": [-75.0672, 40.7736]}, "properties": {"NAME": "W2/NJ-005", "TITLE": "Scotts Mtn.", "REGION": "New Jersey", "ASSOCIATION": "USA - NJ / NY", "POINTS": "1", "BONUSPOINTS": "0"}}, {"type": "Feature", "geometry": {"type": "Point", "coordinates": [-74.2002, 41.1208]}, "properties": {"NAME": "W2/NJ-006", "TITLE": "Bald Hill", "REGION": "New Jersey", "ASSOCIATION": "USA - NJ / NY", "POINTS": "1", "BONUSPOINTS": "0"}}, {"type": "Feature", "geometry": {"type": "Point", "coordinates": [-74.9577, 40.8455]}, "properties": {"NAME": "W2/NJ-007", "TITLE": "Mt. Mohepinoke", "REGION": "New Jersey", "ASSOCIATION": "USA - NJ / NY", "POINTS": "1", "BONUSPOINTS": "0"}}, {"type": "Feature", "geometry": {"type": "Point", "coordinates": [-74.1983, 40.9702]}, "properties": {"NAME": "W2/NJ-008", "TITLE": "High Mtn", "REGION": "New Jersey", "ASSOCIATION": "USA - NJ / NY", "POINTS": "1", "BONUSPOINTS": "0"}}, {"type": "Feature", "geometry": {"type": "Point", "coordinates": [-73.9163, 40.9761]}, "properties": {"NAME": "W2/NJ-009", "TITLE": "Palisades HP", "REGION": "New Jersey", "ASSOCIATION": "USA - NJ / NY", "POINTS": "1", "BONUSPOINTS": "0"}}, {"type": "Feature", "geometry": {"type": "Point", "coordinates": [-74.8247, 40.5986]}, "properties": {"NAME": "W2/NJ-010", "TITLE": "Cushetunk Mtn. S.", "REGION": "New Jersey", "ASSOCIATION": "USA - NJ / NY", "POINTS": "1", "BONUSPOINTS": "0"}}, {"type": "Feature", "geometry": {"type": "Point", "coordinates": [-74.6275, 41.073]}, "properties": {"NAME": "W2/NJ-011", "TITLE": "Pimple Hills", "REGION": "New Jersey", "ASSOCIATION": "USA - NJ / NY", "POINTS": "1", "BONUSPOINTS": "0"}}, {"type": "Feature", "geometry": {"type": "Point", "coordinates": [-74.2994, 41.085]}, "properties": {"NAME": "W2/NJ-012", "TITLE": "Stonetown HP", "REGION": "New Jersey", "ASSOCIATION": "USA - NJ / NY", "POINTS": "1", "BONUSPOINTS": "0"}}]}