{"type": "FeatureCollection", "name": "US-TX POTA PARKS", "features": [{"type": "Feature", "geometry": {"type": "Point", "coordinates": [-103.232, 29.1287]}, "properties": {"NAME": "US-0006", "TITLE": "Big Bend National Park"}}, {"type": "Feature", "geometry": {"type": "Point", "coordinates": [-104.861, 31.9475]}, "properties": {"NAME": "US-0035", "TITLE": "Guadalupe Mountains National Park"}}, {"type": "Feature", "geometry": {"type": "Point", "coordinates": [-94.4729, 29.6002]}, "properties": {"NAME": "US-0540", "TITLE": "Anahuac National Wildlife Refuge"}}, {"type": "Feature", "geometry": {"type": "Point", "coordinates": [-96.916, 28.245]}, "properties": {"NAME": "US-0541", "TITLE": "Aransas National Wildlife Refuge"}}, {"type": "Feature", "geometry": {"type": "Point", "coordinates": [-96.2584, 29.6837]}, "properties": {"NAME": "US-0542", "TITLE": "Attwater Prairie Chicken National Wildlife Refuge"}}, {"type": "Feature", "geometry": {"type": "Point", "coordinates": [-98.0239, 30.5079]}, "properties": {"NAME": "US-0543", "TITLE": "Balcones Canyonlands National Wildlife Refuge"}}, {"type": "Feature", "geometry": {"type": "Point", "coordinates": [-95.8081, 28.7571]}, "properties": {"NAME": "US-0544", "TITLE": "Big Boggy National Wildlife Refuge"}}, {"type": "Feature", "geometry": {"type": "Point", "coordinates": [-95.2458, 29.0667]}, "properties": {"NAME": "US-0545", "TITLE": "Brazoria National Wildlife Refuge"}}, {"type": "Feature", "geometry": {"type": "Point", "coordinates": [-102.111, 34.9097]}, "properties": {"NAME": "US-0546", "TITLE": "Buffalo Lake National Wildlife Refuge"}}, {"type": "Feature", "geometry": {"type": "Point", "coordinates": [-96.7523, 33.7392]}, "properties": {"NAME": "US-0548", "TITLE": "Hagerman National Wildlife Refuge"}}, {"type": "Feature", "geometry": {"type": "Point", "coordinates": [-97.3603, 26.2151]}, "properties": {"NAME": "US-0549", "TITLE": "Laguna Atascosa National Wildlife Refuge"}}, {"type": "Feature", "geometry": {"type": "Point", "coordinates": [-98.167, 26.0734]}, "properties": {"NAME": "US-0550", "TITLE": "Lower Rio Grande Valley National Wildlife Refuge"}}, {"type": "Feature", "geometry": {"type": "Point", "coordinates": [-94.0929, 29.7176]}, "properties": {"NAME": "US-0551", "TITLE": "McFaddin National Wildlife Refuge"}}, {"type": "Feature", "geometry": {"type": "Point", "coordinates": [-102.762, 33.9589]}, "properties": {"NAME": "US-0552", "TITLE": "Muleshoe National Wildlife Refuge"}}, {"type": "Feature", "geometry": {"type": "Point", "coordinates": [-95.5757, 28.911]}, "properties": {"NAME": "US-0553", "TITLE": "San Bernard National Wildlife Refuge"}}, {"type": "Feature", "geometry": {"type": "Point", "coordinates": [-98.1359, 26.0815]}, "properties": {"NAME": "US-0554", "TITLE": "Santa Ana National Wildlife Refuge"}}, {"type": "Feature", "geometry": {"type": "Point", "coordinates": [-93.8869, 29.6975]}, "properties": {"NAME": "US-0555", "TITLE": "Texas Point National Wildlife Refuge"}}, {"type": "Feature", "geometry": {"type": "Point", "coordinates": [-94.7844, 30.0985]}, "properties": {"NAME": "US-0556", "TITLE": "Trinity River National Wildlife Refuge"}}, {"type": "Feature", "geometry": {"type": "Point", "coordinates": [-94.1104, 32.6966]}, "properties": {"NAME": "US-0633", "TITLE": "Caddo Lake National Wildlife Refuge"}}, {"type": "Feature", "geometry": {"type": "Point", "coordinates": [-101.075, 29.5268]}, "properties": {"NAME": "US-0687", "TITLE": "Amistad National Recreation Area"}}, {"type": "Feature", "geometry": {"type": "Point", "coordinates": [-101.691, 35.5705]}, "properties": {"NAME": "US-0688", "TITLE": "Lake Meredith National Recreation Area"}}, {"type": "Feature", "geometry": {"type": "Point", "coordinates": [-94.3854, 30.4591]}, "properties": {"NAME": "US-0689", "TITLE": "Big Thicket Preserve National Conservation Area"}}, {"type": "Feature", "geometry": {"type": "Point", "coordinates": [-97.3917, 27.2772]}, "properties": {"NAME": "US-0690", "TITLE": "Padre Island National Seashore"}}, {"type": "Feature", "geometry": {"type": "Point", "coordinates": [-98.6059, 30.2429]}, "properties": {"NAME": "US-0743", "TITLE": "Lyndon B. Johnson National Historical Park"}}, {"type": "Feature", "geometry": {"type": "Point", "coordinates": [-97.4524, 26.0435]}, "properties": {"NAME": "US-0750", "TITLE": "Palo Alto Battlefield National Historic Site"}}, {"type": "Feature", "geometry": {"type": "Point", "coordinates": [-98.4803, 29.3617]}, "properties": {"NAME": "US-0756", "TITLE": "San Antonio Missions National Historical Park"}}, {"type": "Feature", "geometry": {"type": "Point", "coordinates": [-106.452, 31.7674]}, "properties": {"NAME": "US-0770", "TITLE": "Chamizal National Memorial"}}, {"type": "Feature", "geometry": {"type": "Point", "coordinates": [-103.903, 30.5952]}, "properties": {"NAME": "US-0816", "TITLE": "Fort Davis National Historic Site"}}, {"type": "Feature", "geometry": {"type": "Point", "coordinates": [-101.67, 35.5836]}, "properties": {"NAME": "US-0901", "TITLE": "Alibates Flint Quarries National Monument"}}, {"type": "Feature", "geometry": {"type": "Point", "coordinates": [-97.176, 31.6067]}, "properties": {"NAME": "US-0975", "TITLE": "Waco Mammoth National Monument"}}, {"type": "Feature", "geometry": {"type": "Point", "coordinates": [-102.091, 31.9987]}, "properties": {"NAME": "US-10272", "TITLE": "Bush Family Home State Historic Site"}}, {"type": "Feature", "geometry": {"type": "Point", "coordinates": [-101.183, 35.0306]}, "properties": {"NAME": "US-10273", "TITLE": "Charles and Mary Ann Goodnight Ranch State Historic Site"}}, {"type": "Feature", "geometry": {"type": "Point", "coordinates": [-97.3033, 25.9593]}, "properties": {"NAME": "US-10274", "TITLE": "Palmito Ranch Battlefield State Historic Site"}}, {"type": "Feature", "geometry": {"type": "Point", "coordinates": [-97.3827, 28.6476]}, "properties": {"NAME": "US-10275", "TITLE": "Presidio la Bahia State Historic Site"}}, {"type": "Feature", "geometry": {"type": "Point", "coordinates": [-96.1537, 30.3239]}, "properties": {"NAME": "US-10276", "TITLE": "Star of the Republic Museum State Historic Site"}}, {"type": "Feature", "geometry": {"type": "Point", "coordinates": [-97.6852, 32.4411]}, "properties": {"NAME": "US-10277", "TITLE": "Acton State Historic Site"}}, {"type": "Feature", "geometry": {"type": "Point", "coordinates": [-95.3399, 30.6602]}, "properties": {"NAME": "US-10509", "TITLE": "Sam Houston National Forest Wildlife Management Area"}}, {"type": "Feature", "geometry": {"type": "Point", "coordinates": [-95.4287, 31.8935]}, "properties": {"NAME": "US-11268", "TITLE": "Neches River National Wildlife Refuge"}}, {"type": "Feature", "geometry": {"type": "Point", "coordinates": [-99.8819, 32.2354]}, "properties": {"NAME": "US-2983", "TITLE": "Abilene State Park"}}, {"type": "Feature", "geometry": {"type": "Point", "coordinates": [-94.2438, 33.2292]}, "properties": {"NAME": "US-2984", "TITLE": "Atlanta State Park"}}, {"type": "Feature", "geometry": {"type": "Point", "coordinates": [-103.785, 30.9446]}, "properties": {"NAME": "US-2985", "TITLE": "Balmorhea State Park"}}, {"type": "Feature", "geometry": {"type": "Point", "coordinates": [-97.2869, 30.1102]}, "properties": {"NAME": "US-2986", "TITLE": "Bastrop State Park"}}, {"type": "Feature", "geometry": {"type": "Point", "coordinates": [-98.3804, 26.1842]}, "properties": {"NAME": "US-2987", "TITLE": "Bentsen-Rio Grande Valley State Park"}}, {"type": "Feature", "geometry": {"type": "Point", "coordinates": [-103.961, 29.4637]}, "properties": {"NAME": "US-2988", "TITLE": "Big Bend Ranch State Park"}}, {"type": "Feature", "geometry": {"type": "Point", "coordinates": [-101.49, 32.2297]}, "properties": {"NAME": "US-2989", "TITLE": "Big Spring State Park"}}, {"type": "Feature", "geometry": {"type": "Point", "coordinates": [-98.4238, 30.0902]}, "properties": {"NAME": "US-2990", "TITLE": "Blanco State Park"}}, {"type": "Feature", "geometry": {"type": "Point", "coordinates": [-96.1443, 33.5472]}, "properties": {"NAME": "US-2991", "TITLE": "Bonham State Park"}}, {"type": "Feature", "geometry": {"type": "Point", "coordinates": [-95.6173, 29.3741]}, "properties": {"NAME": "US-2992", "TITLE": "Brazos Bend State Park"}}, {"type": "Feature", "geometry": {"type": "Point", "coordinates": [-97.1583, 30.0392]}, "properties": {"NAME": "US-2993", "TITLE": "Buescher State Park"}}, {"type": "Feature", "geometry": {"type": "Point", "coordinates": [-94.1768, 32.6824]}, "properties": {"NAME": "US-2994", "TITLE": "Caddo Lake State Park"}}, {"type": "Feature", "geometry": {"type": "Point", "coordinates": [-101.06, 34.437]}, "properties": {"NAME": "US-2995", "TITLE": "Caprock Canyons State Park"}}, {"type": "Feature", "geometry": {"type": "Point", "coordinates": [-96.9837, 32.6195]}, "properties": {"NAME": "US-2996", "TITLE": "Cedar Hill State Park"}}, {"type": "Feature", "geometry": {"type": "Point", "coordinates": [-98.339, 28.4726]}, "properties": {"NAME": "US-2997", "TITLE": "Choke Canyon State Park"}}, {"type": "Feature", "geometry": {"type": "Point", "coordinates": [-97.5524, 32.2597]}, "properties": {"NAME": "US-2998", "TITLE": "Cleburne State Park"}}, {"type": "Feature", "geometry": {"type": "Point", "coordinates": [-98.4762, 31.0451]}, "properties": {"NAME": "US-2999", "TITLE": "Colorado Bend State Park"}}, {"type": "Feature", "geometry": {"type": "Point", "coordinates": [-95.6466, 33.2883]}, "properties": {"NAME": "US-3000", "TITLE": "Cooper Lake State Park"}}, {"type": "Feature", "geometry": {"type": "Point", "coordinates": [-99.743, 34.1122]}, "properties": {"NAME": "US-3001", "TITLE": "Copper Breaks State Park"}}, {"type": "Feature", "geometry": {"type": "Point", "coordinates": [-94.6941, 33.0106]}, "properties": {"NAME": "US-3002", "TITLE": "Daingerfield State Park"}}, {"type": "Feature", "geometry": {"type": "Point", "coordinates": [-103.929, 30.5991]}, "properties": {"NAME": "US-3003", "TITLE": "Davis Mountains State Park"}}, {"type": "Feature", "geometry": {"type": "Point", "coordinates": [-97.8097, 32.2534]}, "properties": {"NAME": "US-3004", "TITLE": "Dinosaur Valley State Park"}}, {"type": "Feature", "geometry": {"type": "Point", "coordinates": [-96.6096, 33.8185]}, "properties": {"NAME": "US-3005", "TITLE": "Eisenhower State Park"}}, {"type": "Feature", "geometry": {"type": "Point", "coordinates": [-97.9581, 26.1283]}, "properties": {"NAME": "US-3006", "TITLE": "Estero Llano Grande State Park"}}, {"type": "Feature", "geometry": {"type": "Point", "coordinates": [-99.1376, 26.58]}, "properties": {"NAME": "US-3008", "TITLE": "Falcon State Park"}}, {"type": "Feature", "geometry": {"type": "Point", "coordinates": [-95.9746, 31.1873]}, "properties": {"NAME": "US-3009", "TITLE": "Fort Boggy State Park"}}, {"type": "Feature", "geometry": {"type": "Point", "coordinates": [-96.5305, 31.5917]}, "properties": {"NAME": "US-3010", "TITLE": "Fort Parker State Park"}}, {"type": "Feature", "geometry": {"type": "Point", "coordinates": [-98.1571, 33.2055]}, "properties": {"NAME": "US-3011", "TITLE": "Fort Richardson State Park"}}, {"type": "Feature", "geometry": {"type": "Point", "coordinates": [-106.493, 31.8559]}, "properties": {"NAME": "US-3012", "TITLE": "Franklin Mountains State Park"}}, {"type": "Feature", "geometry": {"type": "Point", "coordinates": [-94.9531, 29.1951]}, "properties": {"NAME": "US-3013", "TITLE": "Galveston Island State Park"}}, {"type": "Feature", "geometry": {"type": "Point", "coordinates": [-99.7386, 29.593]}, "properties": {"NAME": "US-3014", "TITLE": "Garner State Park"}}, {"type": "Feature", "geometry": {"type": "Point", "coordinates": [-97.3847, 28.6555]}, "properties": {"NAME": "US-3015", "TITLE": "Goliad State Park"}}, {"type": "Feature", "geometry": {"type": "Point", "coordinates": [-96.9869, 28.1359]}, "properties": {"NAME": "US-3016", "TITLE": "Goose Island State Park"}}, {"type": "Feature", "geometry": {"type": "Point", "coordinates": [-98.4897, 29.8682]}, "properties": {"NAME": "US-3017", "TITLE": "Guadalupe River State Park"}}, {"type": "Feature", "geometry": {"type": "Point", "coordinates": [-106.043, 31.9164]}, "properties": {"NAME": "US-3018", "TITLE": "Hueco Tanks State Park"}}, {"type": "Feature", "geometry": {"type": "Point", "coordinates": [-95.5224, 30.6209]}, "properties": {"NAME": "US-3019", "TITLE": "Huntsville State Park"}}, {"type": "Feature", "geometry": {"type": "Point", "coordinates": [-98.3641, 30.7324]}, "properties": {"NAME": "US-3020", "TITLE": "Inks Lake State Park"}}, {"type": "Feature", "geometry": {"type": "Point", "coordinates": [-100.451, 29.6183]}, "properties": {"NAME": "US-3021", "TITLE": "Kickapoo Cavern State Park"}}, {"type": "Feature", "geometry": {"type": "Point", "coordinates": [-98.3906, 33.7574]}, "properties": {"NAME": "US-3022", "TITLE": "Lake Arrowhead State Park"}}, {"type": "Feature", "geometry": {"type": "Point", "coordinates": [-95.1034, 33.0551]}, "properties": {"NAME": "US-3023", "TITLE": "Lake Bob Sandlin State Park"}}, {"type": "Feature", "geometry": {"type": "Point", "coordinates": [-99.0222, 31.8556]}, "properties": {"NAME": "US-3024", "TITLE": "Lake Brownwood State Park"}}, {"type": "Feature", "geometry": {"type": "Point", "coordinates": [-99.4513, 27.5393]}, "properties": {"NAME": "US-3025", "TITLE": "Lake Casa Blanca International State Park"}}, {"type": "Feature", "geometry": {"type": "Point", "coordinates": [-100.933, 32.3264]}, "properties": {"NAME": "US-3026", "TITLE": "Lake Colorado City State Park"}}, {"type": "Feature", "geometry": {"type": "Point", "coordinates": [-97.8712, 28.0635]}, "properties": {"NAME": "US-3027", "TITLE": "Lake Corpus Christi State Park"}}, {"type": "Feature", "geometry": {"type": "Point", "coordinates": [-95.0029, 30.6647]}, "properties": {"NAME": "US-3028", "TITLE": "Lake Livingston State Park"}}, {"type": "Feature", "geometry": {"type": "Point", "coordinates": [-98.0267, 32.851]}, "properties": {"NAME": "US-3029", "TITLE": "Lake Mineral Wells State Park"}}, {"type": "Feature", "geometry": {"type": "Point", "coordinates": [-96.6384, 30.3064]}, "properties": {"NAME": "US-3030", "TITLE": "Lake Somerville State Park"}}, {"type": "Feature", "geometry": {"type": "Point", "coordinates": [-95.995, 32.8482]}, "properties": {"NAME": "US-3031", "TITLE": "Lake Tawakoni State Park"}}, {"type": "Feature", "geometry": {"type": "Point", "coordinates": [-97.3597, 31.9244]}, "properties": {"NAME": "US-3032", "TITLE": "Lake Whitney State Park"}}, {"type": "Feature", "geometry": {"type": "Point", "coordinates": [-97.6969, 29.8494]}, "properties": {"NAME": "US-3033", "TITLE": "Lockhart State Park"}}, {"type": "Feature", "geometry": {"type": "Point", "coordinates": [-98.3523, 30.6839]}, "properties": {"NAME": "US-3034", "TITLE": "Longhorn Cavern State Park"}}, {"type": "Feature", "geometry": {"type": "Point", "coordinates": [-98.6292, 30.2374]}, "properties": {"NAME": "US-3035", "TITLE": "Lyndon B. Johnson State Park"}}, {"type": "Feature", "geometry": {"type": "Point", "coordinates": [-94.5659, 32.278]}, "properties": {"NAME": "US-3036", "TITLE": "Martin Creek Lake State Park"}}, {"type": "Feature", "geometry": {"type": "Point", "coordinates": [-94.1673, 30.848]}, "properties": {"NAME": "US-3037", "TITLE": "Martin Dies, Jr. State Park"}}, {"type": "Feature", "geometry": {"type": "Point", "coordinates": [-97.7217, 30.1804]}, "properties": {"NAME": "US-3038", "TITLE": "McKinney Falls State Park"}}, {"type": "Feature", "geometry": {"type": "Point", "coordinates": [-97.6998, 31.8902]}, "properties": {"NAME": "US-3039", "TITLE": "Meridian State Park"}}, {"type": "Feature", "geometry": {"type": "Point", "coordinates": [-95.2368, 31.5497]}, "properties": {"NAME": "US-3040", "TITLE": "Mission Tejas State Park"}}, {"type": "Feature", "geometry": {"type": "Point", "coordinates": [-102.812, 31.6194]}, "properties": {"NAME": "US-3041", "TITLE": "Monahans Sandhills State Park"}}, {"type": "Feature", "geometry": {"type": "Point", "coordinates": [-97.4695, 31.3256]}, "properties": {"NAME": "US-3042", "TITLE": "Mother Neff State Park"}}, {"type": "Feature", "geometry": {"type": "Point", "coordinates": [-97.1844, 27.6859]}, "properties": {"NAME": "US-3043", "TITLE": "Mustang Island State Park"}}, {"type": "Feature", "geometry": {"type": "Point", "coordinates": [-98.8208, 30.1012]}, "properties": {"NAME": "US-3044", "TITLE": "Old Tunnel State Park"}}, {"type": "Feature", "geometry": {"type": "Point", "coordinates": [-97.5856, 29.5928]}, "properties": {"NAME": "US-3045", "TITLE": "Palmetto State Park"}}, {"type": "Feature", "geometry": {"type": "Point", "coordinates": [-101.648, 34.9373]}, "properties": {"NAME": "US-3046", "TITLE": "Palo Duro Canyon State Park"}}, {"type": "Feature", "geometry": {"type": "Point", "coordinates": [-98.5338, 32.5509]}, "properties": {"NAME": "US-3047", "TITLE": "Palo Pinto Mountain State Park"}}, {"type": "Feature", "geometry": {"type": "Point", "coordinates": [-98.2464, 30.3098]}, "properties": {"NAME": "US-3048", "TITLE": "Pedernales Falls State Park"}}, {"type": "Feature", "geometry": {"type": "Point", "coordinates": [-98.5666, 32.8696]}, "properties": {"NAME": "US-3049", "TITLE": "Possum Kingdom State Park"}}, {"type": "Feature", "geometry": {"type": "Point", "coordinates": [-95.9936, 32.3537]}, "properties": {"NAME": "US-3050", "TITLE": "Purtis Creek State Park"}}, {"type": "Feature", "geometry": {"type": "Point", "coordinates": [-97.0094, 33.3688]}, "properties": {"NAME": "US-3051", "TITLE": "Ray Roberts Lake State Park"}}, {"type": "Feature", "geometry": {"type": "Point", "coordinates": [-97.5716, 25.9968]}, "properties": {"NAME": "US-3052", "TITLE": "Resaca De La Palma State Park"}}, {"type": "Feature", "geometry": {"type": "Point", "coordinates": [-100.497, 31.4556]}, "properties": {"NAME": "US-3053", "TITLE": "San Angelo State Park"}}, {"type": "Feature", "geometry": {"type": "Point", "coordinates": [-94.044, 29.6763]}, "properties": {"NAME": "US-3054", "TITLE": "Sea Rim State Park"}}, {"type": "Feature", "geometry": {"type": "Point", "coordinates": [-101.318, 29.6869]}, "properties": {"NAME": "US-3055", "TITLE": "Seminole Canyon State Park"}}, {"type": "Feature", "geometry": {"type": "Point", "coordinates": [-95.1684, 29.8767]}, "properties": {"NAME": "US-3056", "TITLE": "Sheldon Lake State Park"}}, {"type": "Feature", "geometry": {"type": "Point", "coordinates": [-99.8069, 30.4286]}, "properties": {"NAME": "US-3057", "TITLE": "South Llano River State Park"}}, {"type": "Feature", "geometry": {"type": "Point", "coordinates": [-96.1129, 29.8184]}, "properties": {"NAME": "US-3058", "TITLE": "Stephen F. Austin State Park"}}, {"type": "Feature", "geometry": {"type": "Point", "coordinates": [-95.2834, 32.4822]}, "properties": {"NAME": "US-3059", "TITLE": "Tyler State Park"}}, {"type": "Feature", "geometry": {"type": "Point", "coordinates": [-94.1746, 30.2522]}, "properties": {"NAME": "US-3060", "TITLE": "Village Creek State Park"}}, {"type": "Feature", "geometry": {"type": "Point", "coordinates": [-93.899, 29.763]}, "properties": {"NAME": "US-3061", "TITLE": "Walter Umphrey State Park"}}, {"type": "Feature", "geometry": {"type": "Point", "coordinates": [-95.0897, 29.7563]}, "properties": {"NAME": "US-3495", "TITLE": "Battleship Texas State Historic Site"}}, {"type": "Feature", "geometry": {"type": "Point", "coordinates": [-94.8171, 30.3173]}, "properties": {"NAME": "US-3496", "TITLE": "Davis Hill State Park"}}, {"type": "Feature", "geometry": {"type": "Point", "coordinates": [-100.109, 30.0575]}, "properties": {"NAME": "US-3497", "TITLE": "Devil's Sinkhole State Conservation Area"}}, {"type": "Feature", "geometry": {"type": "Point", "coordinates": [-100.97, 29.9402]}, "properties": {"NAME": "US-3498", "TITLE": "Devils River Natural State Conservation Area"}}, {"type": "Feature", "geometry": {"type": "Point", "coordinates": [-98.8201, 30.5061]}, "properties": {"NAME": "US-3499", "TITLE": "Enchanted Rock Natural State Conservation Area"}}, {"type": "Feature", "geometry": {"type": "Point", "coordinates": [-95.9838, 30.4829]}, "properties": {"NAME": "US-3500", "TITLE": "Fanthorp Inn State Historic Site"}}, {"type": "Feature", "geometry": {"type": "Point", "coordinates": [-104.326, 29.5428]}, "properties": {"NAME": "US-3501", "TITLE": "Fort Leaton State Historic Site"}}, {"type": "Feature", "geometry": {"type": "Point", "coordinates": [-97.3856, 28.6566]}, "properties": {"NAME": "US-3502", "TITLE": "Goliad State Historic Site"}}, {"type": "Feature", "geometry": {"type": "Point", "coordinates": [-98.7648, 29.5493]}, "properties": {"NAME": "US-3503", "TITLE": "Government Canyon State Natural Area"}}, {"type": "Feature", "geometry": {"type": "Point", "coordinates": [-99.1885, 29.6271]}, "properties": {"NAME": "US-3504", "TITLE": "Hill Country Natural State Conservation Area"}}, {"type": "Feature", "geometry": {"type": "Point", "coordinates": [-98.4947, 29.8542]}, "properties": {"NAME": "US-3505", "TITLE": "Honey Creek Natural State Conservation Area"}}, {"type": "Feature", "geometry": {"type": "Point", "coordinates": [-97.8175, 27.9647]}, "properties": {"NAME": "US-3506", "TITLE": "Lipantitlan State Historic Site"}}, {"type": "Feature", "geometry": {"type": "Point", "coordinates": [-99.5773, 29.8235]}, "properties": {"NAME": "US-3507", "TITLE": "Lost Maples Natural State Conservation Area"}}, {"type": "Feature", "geometry": {"type": "Point", "coordinates": [-96.8761, 29.888]}, "properties": {"NAME": "US-3508", "TITLE": "Monument Hill and Kreische Brewery State Historic Site"}}, {"type": "Feature", "geometry": {"type": "Point", "coordinates": [-97.2075, 26.0778]}, "properties": {"NAME": "US-3509", "TITLE": "Port Isabel Lighthouse State Historic Site"}}, {"type": "Feature", "geometry": {"type": "Point", "coordinates": [-96.4921, 28.4714]}, "properties": {"NAME": "US-3510", "TITLE": "Powderhorn Ranch State Wildlife Area"}}, {"type": "Feature", "geometry": {"type": "Point", "coordinates": [-95.0779, 29.7382]}, "properties": {"NAME": "US-3511", "TITLE": "San Jacinto Battleground State Historic Site"}}, {"type": "Feature", "geometry": {"type": "Point", "coordinates": [-96.1549, 30.3236]}, "properties": {"NAME": "US-3512", "TITLE": "Washington on the Brazos State Historic Site"}}, {"type": "Feature", "geometry": {"type": "Point", "coordinates": [-96.0084, 33.7258]}, "properties": {"NAME": "US-4370", "TITLE": "Caddo National Grasslands Wildlife Management Area"}}, {"type": "Feature", "geometry": {"type": "Point", "coordinates": [-97.6275, 33.4168]}, "properties": {"NAME": "US-4371", "TITLE": "Lyndon B. Johnson National Grassland"}}, {"type": "Feature", "geometry": {"type": "Point", "coordinates": [-94.3374, 31.1128]}, "properties": {"NAME": "US-4414", "TITLE": "Angelina National Forest"}}, {"type": "Feature", "geometry": {"type": "Point", "coordinates": [-95.1678, 31.3658]}, "properties": {"NAME": "US-4415", "TITLE": "Davy Crockett National Forest"}}, {"type": "Feature", "geometry": {"type": "Point", "coordinates": [-93.765, 31.4498]}, "properties": {"NAME": "US-4416", "TITLE": "Sabine National Forest"}}, {"type": "Feature", "geometry": {"type": "Point", "coordinates": [-95.3192, 30.6411]}, "properties": {"NAME": "US-4417", "TITLE": "Sam Houston National Forest"}}, {"type": "Feature", "geometry": {"type": "Point", "coordinates": [-93.8223, 30.6359]}, "properties": {"NAME": "US-4418", "TITLE": "E.O. Siecke State Forest"}}, {"type": "Feature", "geometry": {"type": "Point", "coordinates": [-95.3538, 31.7866]}, "properties": {"NAME": "US-4419", "TITLE": "I.D. Farichild State Forest"}}, {"type": "Feature", "geometry": {"type": "Point", "coordinates": [-94.4099, 30.5747]}, "properties": {"NAME": "US-4420", "TITLE": "John Henry Kirby Memorial State Forest"}}, {"type": "Feature", "geometry": {"type": "Point", "coordinates": [-93.9234, 30.3785]}, "properties": {"NAME": "US-4421", "TITLE": "Masterson State Forest"}}, {"type": "Feature", "geometry": {"type": "Point", "coordinates": [-95.4915, 30.2178]}, "properties": {"NAME": "US-4422", "TITLE": "W. Goodrich Jones State Forest"}}, {"type": "Feature", "geometry": {"type": "Point", "coordinates": [-96.6572, 32.9642]}, "properties": {"NAME": "US-4423", "TITLE": "Spring Creek Forest State Preserve"}}, {"type": "Feature", "geometry": {"type": "Point", "coordinates": [-106.475, 35.2021]}, "properties": {"NAME": "US-4514", "TITLE": "Cibola National Forest"}}, {"type": "Feature", "geometry": {"type": "Point", "coordinates": [-93.2927, 31.7084]}, "properties": {"NAME": "US-4568", "TITLE": "El Camino Real de los Tejas National Historic Trail"}}, {"type": "Feature", "geometry": {"type": "Point", "coordinates": [-106.563, 31.8203]}, "properties": {"NAME": "US-4569", "TITLE": "El Camino Real de Tierra Adentro National Historic Trail"}}, {"type": "Feature", "geometry": {"type": "Point", "coordinates": [-94.9126, 31.1638]}, "properties": {"NAME": "US-6533", "TITLE": "Alabama Creek Wildlife Management Area"}}, {"type": "Feature", "geometry": {"type": "Point", "coordinates": [-94.7342, 31.4919]}, "properties": {"NAME": "US-6534", "TITLE": "Alazan Bayou Wildlife Management Area"}}, {"type": "Feature", "geometry": {"type": "Point", "coordinates": [-94.1657, 30.8613]}, "properties": {"NAME": "US-6535", "TITLE": "Angelina-Neches/Dam B Wildlife Management Area"}}, {"type": "Feature", "geometry": {"type": "Point", "coordinates": [-94.9746, 29.6831]}, "properties": {"NAME": "US-6536", "TITLE": "Atkinson Island Wildlife Management Area"}}, {"type": "Feature", "geometry": {"type": "Point", "coordinates": [-94.2865, 31.3576]}, "properties": {"NAME": "US-6537", "TITLE": "Bannister Wildlife Management Area"}}, {"type": "Feature", "geometry": {"type": "Point", "coordinates": [-96.1506, 30.3214]}, "properties": {"NAME": "US-6538", "TITLE": "Barrington Plantation State Historic Site"}}, {"type": "Feature", "geometry": {"type": "Point", "coordinates": [-95.8338, 31.6999]}, "properties": {"NAME": "US-6539", "TITLE": "Big Lake Bottom Wildlife Management Area"}}, {"type": "Feature", "geometry": {"type": "Point", "coordinates": [-102.953, 29.5618]}, "properties": {"NAME": "US-6540", "TITLE": "Black Gap Wildlife Management Area"}}, {"type": "Feature", "geometry": {"type": "Point", "coordinates": [-94.1618, 32.7295]}, "properties": {"NAME": "US-6542", "TITLE": "Caddo Lake Wildlife Management Area"}}, {"type": "Feature", "geometry": {"type": "Point", "coordinates": [-95.1488, 31.5966]}, "properties": {"NAME": "US-6543", "TITLE": "Caddo Mounds State Historic Site"}}, {"type": "Feature", "geometry": {"type": "Point", "coordinates": [-94.7653, 29.531]}, "properties": {"NAME": "US-6545", "TITLE": "Candy Cain Abshier Wildlife Management Area"}}, {"type": "Feature", "geometry": {"type": "Point", "coordinates": [-98.4974, 29.4231]}, "properties": {"NAME": "US-6546", "TITLE": "Casa Navarro State Historic Site"}}, {"type": "Feature", "geometry": {"type": "Point", "coordinates": [-99.4227, 28.3196]}, "properties": {"NAME": "US-6548", "TITLE": "Chaparral Wildlife Management Area"}}, {"type": "Feature", "geometry": {"type": "Point", "coordinates": [-96.5617, 31.6323]}, "properties": {"NAME": "US-6549", "TITLE": "Confederate Reunion Grounds State Historic Site"}}, {"type": "Feature", "geometry": {"type": "Point", "coordinates": [-95.6016, 33.3181]}, "properties": {"NAME": "US-6550", "TITLE": "Cooper Wildlife Management Area"}}, {"type": "Feature", "geometry": {"type": "Point", "coordinates": [-96.5342, 33.7498]}, "properties": {"NAME": "US-6553", "TITLE": "Eisenhower Birthplace State Historic Site"}}, {"type": "Feature", "geometry": {"type": "Point", "coordinates": [-103.566, 30.0346]}, "properties": {"NAME": "US-6554", "TITLE": "Elephant Mountain Wildlife Management Area"}}, {"type": "Feature", "geometry": {"type": "Point", "coordinates": [-97.2329, 28.6864]}, "properties": {"NAME": "US-6555", "TITLE": "Fannin Battleground State Historic Site"}}, {"type": "Feature", "geometry": {"type": "Point", "coordinates": [-99.2339, 32.9262]}, "properties": {"NAME": "US-6557", "TITLE": "Fort Griffin State Historic Site"}}, {"type": "Feature", "geometry": {"type": "Point", "coordinates": [-101.695, 30.6651]}, "properties": {"NAME": "US-6558", "TITLE": "Fort Lancaster State Historic Site"}}, {"type": "Feature", "geometry": {"type": "Point", "coordinates": [-100.11, 30.8259]}, "properties": {"NAME": "US-6559", "TITLE": "Fort McKavett State Historic Site"}}, {"type": "Feature", "geometry": {"type": "Point", "coordinates": [-97.732, 30.2668]}, "properties": {"NAME": "US-6560", "TITLE": "French Legation State Historic Site"}}, {"type": "Feature", "geometry": {"type": "Point", "coordinates": [-97.0346, 28.0575]}, "properties": {"NAME": "US-6561", "TITLE": "Fulton Mansion State Historic Site"}}, {"type": "Feature", "geometry": {"type": "Point", "coordinates": [-100.283, 35.9096]}, "properties": {"NAME": "US-6562", "TITLE": "Gene Howe Wildlife Management Area"}}, {"type": "Feature", "geometry": {"type": "Point", "coordinates": [-96.8016, 28.5196]}, "properties": {"NAME": "US-6563", "TITLE": "Guadalupe Delta Wildlife Management Area"}}, {"type": "Feature", "geometry": {"type": "Point", "coordinates": [-95.9054, 31.9043]}, "properties": {"NAME": "US-6564", "TITLE": "Gus Engeling Wildlife Management Area"}}, {"type": "Feature", "geometry": {"type": "Point", "coordinates": [-94.0485, 29.8612]}, "properties": {"NAME": "US-6565", "TITLE": "J.D. Murphree Wildlife Management Area"}}, {"type": "Feature", "geometry": {"type": "Point", "coordinates": [-98.3872, 28.4921]}, "properties": {"NAME": "US-6566", "TITLE": "James E. Daughtrey Wildlife Management Area"}}, {"type": "Feature", "geometry": {"type": "Point", "coordinates": [-95.434, 28.9261]}, "properties": {"NAME": "US-6567", "TITLE": "Justin Hurst Wildlife Management Area"}}, {"type": "Feature", "geometry": {"type": "Point", "coordinates": [-99.5064, 30.0633]}, "properties": {"NAME": "US-6569", "TITLE": "Kerr Wildlife Management Area"}}, {"type": "Feature", "geometry": {"type": "Point", "coordinates": [-98.8746, 29.3546]}, "properties": {"NAME": "US-6570", "TITLE": "Landmark Inn State Historic Site"}}, {"type": "Feature", "geometry": {"type": "Point", "coordinates": [-97.8435, 26.0838]}, "properties": {"NAME": "US-6571", "TITLE": "Las Palomas , Anacua Unit Wildlife Management Area"}}, {"type": "Feature", "geometry": {"type": "Point", "coordinates": [-98.0253, 26.1137]}, "properties": {"NAME": "US-6572", "TITLE": "Las Palomas , Lower Rio Grande Valley Units Wildlife Management Area"}}, {"type": "Feature", "geometry": {"type": "Point", "coordinates": [-95.6478, 28.9983]}, "properties": {"NAME": "US-6573", "TITLE": "Levi Jordan Plantation State Historic Site"}}, {"type": "Feature", "geometry": {"type": "Point", "coordinates": [-93.8472, 30.0016]}, "properties": {"NAME": "US-6574", "TITLE": "Lower Neches Wildlife Management Area"}}, {"type": "Feature", "geometry": {"type": "Point", "coordinates": [-97.6838, 29.5566]}, "properties": {"NAME": "US-6575", "TITLE": "M.O. Neasloney Wildlife Management Area"}}, {"type": "Feature", "geometry": {"type": "Point", "coordinates": [-96.0419, 28.6796]}, "properties": {"NAME": "US-6576", "TITLE": "Mad Island Wildlife Management Area"}}, {"type": "Feature", "geometry": {"type": "Point", "coordinates": [-106.477, 31.7624]}, "properties": {"NAME": "US-6577", "TITLE": "Magoffin Home State Historic Site"}}, {"type": "Feature", "geometry": {"type": "Point", "coordinates": [-99.2237, 30.8197]}, "properties": {"NAME": "US-6578", "TITLE": "Mason Mountain Wildlife Management Area"}}, {"type": "Feature", "geometry": {"type": "Point", "coordinates": [-100.345, 34.1181]}, "properties": {"NAME": "US-6579", "TITLE": "Matador Wildlife Management Area"}}, {"type": "Feature", "geometry": {"type": "Point", "coordinates": [-96.4509, 28.3258]}, "properties": {"NAME": "US-6580", "TITLE": "Matagorda Island Wildlife Management Area"}}, {"type": "Feature", "geometry": {"type": "Point", "coordinates": [-100.877, 35.2095]}, "properties": {"NAME": "US-6581", "TITLE": "McClellan Creek National Nature Reserve"}}, {"type": "Feature", "geometry": {"type": "Point", "coordinates": [-94.1151, 31.5236]}, "properties": {"NAME": "US-6582", "TITLE": "Mission Dolores State Historic Site"}}, {"type": "Feature", "geometry": {"type": "Point", "coordinates": [-93.9319, 31.2505]}, "properties": {"NAME": "US-6584", "TITLE": "Moore Plantation Wildlife Management Area"}}, {"type": "Feature", "geometry": {"type": "Point", "coordinates": [-98.8369, 31.8911]}, "properties": {"NAME": "US-6585", "TITLE": "Muse Wildlife Management Area"}}, {"type": "Feature", "geometry": {"type": "Point", "coordinates": [-95.6229, 28.9606]}, "properties": {"NAME": "US-6586", "TITLE": "Nannie M. Stringfellow Wildlife Management Area"}}, {"type": "Feature", "geometry": {"type": "Point", "coordinates": [-98.8677, 30.2733]}, "properties": {"NAME": "US-6587", "TITLE": "National Museum of the Pacific War State Historic Site"}}, {"type": "Feature", "geometry": {"type": "Point", "coordinates": [-95.2171, 32.3073]}, "properties": {"NAME": "US-6588", "TITLE": "Nature Center Wildlife Management Area"}}, {"type": "Feature", "geometry": {"type": "Point", "coordinates": [-93.9675, 31.9177]}, "properties": {"NAME": "US-6589", "TITLE": "North Toledo Bend Wildlife Management Area"}}, {"type": "Feature", "geometry": {"type": "Point", "coordinates": [-95.3536, 32.5762]}, "properties": {"NAME": "US-6590", "TITLE": "Old Sabine Bottom Wildlife Management Area"}}, {"type": "Feature", "geometry": {"type": "Point", "coordinates": [-95.6763, 33.82]}, "properties": {"NAME": "US-6591", "TITLE": "Pat Mayse Wildlife Management Area"}}, {"type": "Feature", "geometry": {"type": "Point", "coordinates": [-102.385, 34.5543]}, "properties": {"NAME": "US-6593", "TITLE": "Playa Lakes, Dimmitt Unit Wildlife Management Area"}}, {"type": "Feature", "geometry": {"type": "Point", "coordinates": [-100.785, 34.8946]}, "properties": {"NAME": "US-6594", "TITLE": "Playa Lakes, Taylor Lakes Unit Wildlife Management Area"}}, {"type": "Feature", "geometry": {"type": "Point", "coordinates": [-97.2889, 27.6395]}, "properties": {"NAME": "US-6595", "TITLE": "Redhead Pond Wildlife Management Area"}}, {"type": "Feature", "geometry": {"type": "Point", "coordinates": [-96.0974, 31.9531]}, "properties": {"NAME": "US-6596", "TITLE": "Richland Creek Wildlife Management Area"}}, {"type": "Feature", "geometry": {"type": "Point", "coordinates": [-102.823, 29.4509]}, "properties": {"NAME": "US-6597", "TITLE": "Rio Grande National Wild and Scenic River"}}, {"type": "Feature", "geometry": {"type": "Point", "coordinates": [-93.8751, 29.7329]}, "properties": {"NAME": "US-6599", "TITLE": "Sabine Pass Battleground State Historic Site"}}, {"type": "Feature", "geometry": {"type": "Point", "coordinates": [-95.555, 33.6541]}, "properties": {"NAME": "US-6600", "TITLE": "Sam Bell Maxey House State Historic Site"}}, {"type": "Feature", "geometry": {"type": "Point", "coordinates": [-96.2075, 33.57]}, "properties": {"NAME": "US-6601", "TITLE": "Sam Rayburn House State Historic Site"}}, {"type": "Feature", "geometry": {"type": "Point", "coordinates": [-96.0977, 29.807]}, "properties": {"NAME": "US-6602", "TITLE": "San Felipe de Austin State Historic Site"}}, {"type": "Feature", "geometry": {"type": "Point", "coordinates": [-94.371, 32.5418]}, "properties": {"NAME": "US-6604", "TITLE": "Starr Family Home State Historic Site"}}, {"type": "Feature", "geometry": {"type": "Point", "coordinates": [-95.9912, 33.0055]}, "properties": {"NAME": "US-6605", "TITLE": "Tawakoni Wildlife Management Area"}}, {"type": "Feature", "geometry": {"type": "Point", "coordinates": [-93.7172, 30.1583]}, "properties": {"NAME": "US-6606", "TITLE": "Tony Houseman Wildlife Management Area"}}, {"type": "Feature", "geometry": {"type": "Point", "coordinates": [-95.6409, 29.1622]}, "properties": {"NAME": "US-6607", "TITLE": "Varner-Hogg Plantation State Historic Site"}}, {"type": "Feature", "geometry": {"type": "Point", "coordinates": [-100.276, 36.1749]}, "properties": {"NAME": "US-6608", "TITLE": "W.A. \"Pat\" Murphy Unit Wildlife Management Area"}}, {"type": "Feature", "geometry": {"type": "Point", "coordinates": [-96.6805, 28.3337]}, "properties": {"NAME": "US-6610", "TITLE": "Welder Flats Wildlife Management Area"}}, {"type": "Feature", "geometry": {"type": "Point", "coordinates": [-94.7311, 33.2345]}, "properties": {"NAME": "US-6611", "TITLE": "White Oak Creek Wildlife Management Area"}}, {"type": "Feature", "geometry": {"type": "Point", "coordinates": [-102.618, 33.4621]}, "properties": {"NAME": "US-6612", "TITLE": "Yoakum Dunes Wildlife Management Area"}}, {"type": "Feature", "geometry": {"type": "Point", "coordinates": [-99.8981, 35.712]}, "properties": {"NAME": "US-7480", "TITLE": "Black Kettle National Grassland"}}, {"type": "Feature", "geometry": {"type": "Point", "coordinates": [-102.796, 36.3893]}, "properties": {"NAME": "US-7481", "TITLE": "Rita Blanca National Grassland"}}, {"type": "Feature", "geometry": {"type": "Point", "coordinates": [-100.873, 35.2133]}, "properties": {"NAME": "US-7483", "TITLE": "McClellan Creek National Grassland"}}, {"type": "Feature", "geometry": {"type": "Point", "coordinates": [-104.827, 31.896]}, "properties": {"NAME": "US-9757", "TITLE": "Butterfield Overland National Historic Trail"}}]}