{"type": "FeatureCollection", "name": "W5T/FR SUMMITS", "features": [{"type": "Feature", "geometry": {"type": "Point", "coordinates": [-106.4936, 31.9029]}, "properties": {"NAME": "W5T/FR-001", "TITLE": "North Franklin Mountain", "REGION": "Franklin Mountains", "ASSOCIATION": "USA - Texas", "POINTS": "10", "BONUSPOINTS": "3"}}, {"type": "Feature", "geometry": {"type": "Point", "coordinates": [-106.4986, 31.9594]}, "properties": {"NAME": "W5T/FR-002", "TITLE": "Anthonys Nose", "REGION": "Franklin Mountains", "ASSOCIATION": "USA - Texas", "POINTS": "10", "BONUSPOINTS": "3"}}, {"type": "Feature", "geometry": {"type": "Point", "coordinates": [-106.4913, 31.8645]}, "properties": {"NAME": "W5T/FR-003", "TITLE": "South Franklin Mountain", "REGION": "Franklin Mountains", "ASSOCIATION": "USA - Texas", "POINTS": "10", "BONUSPOINTS": "3"}}, {"type": "Feature", "geometry": {"type": "Point", "coordinates": [-105.9708, 31.9454]}, "properties": {"NAME": "W5T/FR-004", "TITLE": "Cerro Alto Mountain", "REGION": "Franklin Mountains", "ASSOCIATION": "USA - Texas", "POINTS": "10", "BONUSPOINTS": "3"}}, {"type": "Feature", "geometry": {"type": "Point", "coordinates": [-106.4913, 31.8287]}, "properties": {"NAME": "W5T/FR-005", "TITLE": "Mount Franklin", "REGION": "Franklin Mountains", "ASSOCIATION": "USA - Texas", "POINTS": "8", "BONUSPOINTS": "3"}}, {"type": "Feature", "geometry": {"type": "Point", "coordinates": [-105.9189, 31.929]}, "properties": {"NAME": "W5T/FR-006", "TITLE": "Naville Mountain", "REGION": "Franklin Mountains", "ASSOCIATION": "USA - Texas", "POINTS": "8", "BONUSPOINTS": "3"}}, {"type": "Feature", "geometry": {"type": "Point", "coordinates": [-105.7588, 31.6223]}, "properties": {"NAME": "W5T/FR-007", "TITLE": "5290", "REGION": "Franklin Mountains", "ASSOCIATION": "USA - Texas", "POINTS": "6", "BONUSPOINTS": "3"}}, {"type": "Feature", "geometry": {"type": "Point", "coordinates": [-106.0886, 31.9596]}, "properties": {"NAME": "W5T/FR-008", "TITLE": "5130", "REGION": "Franklin Mountains", "ASSOCIATION": "USA - Texas", "POINTS": "6", "BONUSPOINTS": "3"}}, {"type": "Feature", "geometry": {"type": "Point", "coordinates": [-106.1252, 31.9064]}, "properties": {"NAME": "W5T/FR-009", "TITLE": "5066", "REGION": "Franklin Mountains", "ASSOCIATION": "USA - Texas", "POINTS": "4", "BONUSPOINTS": "3"}}, {"type": "Feature", "geometry": {"type": "Point", "coordinates": [-106.1077, 31.8557]}, "properties": {"NAME": "W5T/FR-010", "TITLE": "4944", "REGION": "Franklin Mountains", "ASSOCIATION": "USA - Texas", "POINTS": "4", "BONUSPOINTS": "3"}}, {"type": "Feature", "geometry": {"type": "Point", "coordinates": [-106.1161, 31.7902]}, "properties": {"NAME": "W5T/FR-011", "TITLE": "4630", "REGION": "Franklin Mountains", "ASSOCIATION": "USA - Texas", "POINTS": "4", "BONUSPOINTS": "3"}}]}