{"type": "FeatureCollection", "name": "W5T/SB SUMMITS", "features": [{"type": "Feature", "geometry": {"type": "Point", "coordinates": [-103.4341, 29.3809]}, "properties": {"NAME": "W5T/SB-001", "TITLE": "Little Christmas Mountain", "REGION": "Study Butte", "ASSOCIATION": "USA - Texas", "POINTS": "4", "BONUSPOINTS": "3"}}, {"type": "Feature", "geometry": {"type": "Point", "coordinates": [-103.348, 29.3724]}, "properties": {"NAME": "W5T/SB-002", "TITLE": "Croton Peak", "REGION": "Study Butte", "ASSOCIATION": "USA - Texas", "POINTS": "4", "BONUSPOINTS": "3"}}, {"type": "Feature", "geometry": {"type": "Point", "coordinates": [-103.2885, 29.3919]}, "properties": {"NAME": "W5T/SB-003", "TITLE": "Paint Gap Hills", "REGION": "Study Butte", "ASSOCIATION": "USA - Texas", "POINTS": "2", "BONUSPOINTS": "3"}}, {"type": "Feature", "geometry": {"type": "Point", "coordinates": [-103.3994, 29.3919]}, "properties": {"NAME": "W5T/SB-004", "TITLE": "4154", "REGION": "Study Butte", "ASSOCIATION": "USA - Texas", "POINTS": "2", "BONUSPOINTS": "3"}}, {"type": "Feature", "geometry": {"type": "Point", "coordinates": [-103.6885, 29.211]}, "properties": {"NAME": "W5T/SB-005", "TITLE": "Mesa de Anguila", "REGION": "Study Butte", "ASSOCIATION": "USA - Texas", "POINTS": "2", "BONUSPOINTS": "3"}}, {"type": "Feature", "geometry": {"type": "Point", "coordinates": [-103.2077, 29.4045]}, "properties": {"NAME": "W5T/SB-006", "TITLE": "Grapevine Hills", "REGION": "Study Butte", "ASSOCIATION": "USA - Texas", "POINTS": "2", "BONUSPOINTS": "3"}}, {"type": "Feature", "geometry": {"type": "Point", "coordinates": [-103.4771, 29.2644]}, "properties": {"NAME": "W5T/SB-007", "TITLE": "Tule Mountain", "REGION": "Study Butte", "ASSOCIATION": "USA - Texas", "POINTS": "2", "BONUSPOINTS": "3"}}, {"type": "Feature", "geometry": {"type": "Point", "coordinates": [-103.5155, 29.3655]}, "properties": {"NAME": "W5T/SB-008", "TITLE": "Willow Mountain", "REGION": "Study Butte", "ASSOCIATION": "USA - Texas", "POINTS": "2", "BONUSPOINTS": "3"}}, {"type": "Feature", "geometry": {"type": "Point", "coordinates": [-103.6218, 29.3674]}, "properties": {"NAME": "W5T/SB-009", "TITLE": "Sawmill Mountain", "REGION": "Study Butte", "ASSOCIATION": "USA - Texas", "POINTS": "2", "BONUSPOINTS": "3"}}, {"type": "Feature", "geometry": {"type": "Point", "coordinates": [-103.5534, 29.3956]}, "properties": {"NAME": "W5T/SB-010", "TITLE": "3753", "REGION": "Study Butte", "ASSOCIATION": "USA - Texas", "POINTS": "2", "BONUSPOINTS": "3"}}, {"type": "Feature", "geometry": {"type": "Point", "coordinates": [-103.7103, 29.2098]}, "properties": {"NAME": "W5T/SB-011", "TITLE": "3745", "REGION": "Study Butte", "ASSOCIATION": "USA - Texas", "POINTS": "2", "BONUSPOINTS": "3"}}, {"type": "Feature", "geometry": {"type": "Point", "coordinates": [-103.4669, 29.3464]}, "properties": {"NAME": "W5T/SB-012", "TITLE": "Dogie Mountain", "REGION": "Study Butte", "ASSOCIATION": "USA - Texas", "POINTS": "2", "BONUSPOINTS": "3"}}, {"type": "Feature", "geometry": {"type": "Point", "coordinates": [-103.512, 29.3184]}, "properties": {"NAME": "W5T/SB-013", "TITLE": "Maverick Mountain", "REGION": "Study Butte", "ASSOCIATION": "USA - Texas", "POINTS": "1", "BONUSPOINTS": "3"}}, {"type": "Feature", "geometry": {"type": "Point", "coordinates": [-103.5403, 29.3426]}, "properties": {"NAME": "W5T/SB-014", "TITLE": "Bee Mountain", "REGION": "Study Butte", "ASSOCIATION": "USA - Texas", "POINTS": "1", "BONUSPOINTS": "3"}}, {"type": "Feature", "geometry": {"type": "Point", "coordinates": [-103.4862, 29.3661]}, "properties": {"NAME": "W5T/SB-015", "TITLE": "3409", "REGION": "Study Butte", "ASSOCIATION": "USA - Texas", "POINTS": "1", "BONUSPOINTS": "3"}}, {"type": "Feature", "geometry": {"type": "Point", "coordinates": [-103.5824, 29.3334]}, "properties": {"NAME": "W5T/SB-016", "TITLE": "Cigar Mountain", "REGION": "Study Butte", "ASSOCIATION": "USA - Texas", "POINTS": "1", "BONUSPOINTS": "3"}}, {"type": "Feature", "geometry": {"type": "Point", "coordinates": [-103.6393, 29.2272]}, "properties": {"NAME": "W5T/SB-017", "TITLE": "Sierra Aguja", "REGION": "Study Butte", "ASSOCIATION": "USA - Texas", "POINTS": "1", "BONUSPOINTS": "3"}}, {"type": "Feature", "geometry": {"type": "Point", "coordinates": [-103.499, 29.4007]}, "properties": {"NAME": "W5T/SB-018", "TITLE": "Wildhorse Mountain", "REGION": "Study Butte", "ASSOCIATION": "USA - Texas", "POINTS": "2", "BONUSPOINTS": "3"}}, {"type": "Feature", "geometry": {"type": "Point", "coordinates": [-103.4998, 29.4295]}, "properties": {"NAME": "W5T/SB-019", "TITLE": "3879", "REGION": "Study Butte", "ASSOCIATION": "USA - Texas", "POINTS": "2", "BONUSPOINTS": "3"}}]}