{"type": "FeatureCollection", "name": "W5T/ST SUMMITS", "features": [{"type": "Feature", "geometry": {"type": "Point", "coordinates": [-99.9447, 29.6098]}, "properties": {"NAME": "W5T/ST-001", "TITLE": "Rawhide Mountains HP", "REGION": "South Texas", "ASSOCIATION": "USA - Texas", "POINTS": "1", "BONUSPOINTS": "3"}}, {"type": "Feature", "geometry": {"type": "Point", "coordinates": [-99.6128, 29.5853]}, "properties": {"NAME": "W5T/ST-002", "TITLE": "2155", "REGION": "South Texas", "ASSOCIATION": "USA - Texas", "POINTS": "1", "BONUSPOINTS": "3"}}, {"type": "Feature", "geometry": {"type": "Point", "coordinates": [-99.7242, 29.779]}, "properties": {"NAME": "W5T/ST-003", "TITLE": "2130", "REGION": "South Texas", "ASSOCIATION": "USA - Texas", "POINTS": "1", "BONUSPOINTS": "3"}}, {"type": "Feature", "geometry": {"type": "Point", "coordinates": [-99.5078, 29.6619]}, "properties": {"NAME": "W5T/ST-004", "TITLE": "Wernette Mountain", "REGION": "South Texas", "ASSOCIATION": "USA - Texas", "POINTS": "1", "BONUSPOINTS": "3"}}, {"type": "Feature", "geometry": {"type": "Point", "coordinates": [-99.4637, 29.5994]}, "properties": {"NAME": "W5T/ST-005", "TITLE": "2098", "REGION": "South Texas", "ASSOCIATION": "USA - Texas", "POINTS": "1", "BONUSPOINTS": "3"}}, {"type": "Feature", "geometry": {"type": "Point", "coordinates": [-99.7321, 29.6858]}, "properties": {"NAME": "W5T/ST-006", "TITLE": "2056", "REGION": "South Texas", "ASSOCIATION": "USA - Texas", "POINTS": "1", "BONUSPOINTS": "3"}}, {"type": "Feature", "geometry": {"type": "Point", "coordinates": [-100.0157, 29.8228]}, "properties": {"NAME": "W5T/ST-007", "TITLE": "Bullhead Mountain", "REGION": "South Texas", "ASSOCIATION": "USA - Texas", "POINTS": "1", "BONUSPOINTS": "3"}}, {"type": "Feature", "geometry": {"type": "Point", "coordinates": [-99.9741, 29.6694]}, "properties": {"NAME": "W5T/ST-008", "TITLE": "Crown Mountain", "REGION": "South Texas", "ASSOCIATION": "USA - Texas", "POINTS": "1", "BONUSPOINTS": "3"}}, {"type": "Feature", "geometry": {"type": "Point", "coordinates": [-99.5719, 29.5853]}, "properties": {"NAME": "W5T/ST-009", "TITLE": "2030", "REGION": "South Texas", "ASSOCIATION": "USA - Texas", "POINTS": "1", "BONUSPOINTS": "3"}}, {"type": "Feature", "geometry": {"type": "Point", "coordinates": [-100.0942, 29.7108]}, "properties": {"NAME": "W5T/ST-010", "TITLE": "Military Mountain", "REGION": "South Texas", "ASSOCIATION": "USA - Texas", "POINTS": "1", "BONUSPOINTS": "3"}}, {"type": "Feature", "geometry": {"type": "Point", "coordinates": [-99.5678, 29.672]}, "properties": {"NAME": "W5T/ST-011", "TITLE": "2007", "REGION": "South Texas", "ASSOCIATION": "USA - Texas", "POINTS": "1", "BONUSPOINTS": "3"}}, {"type": "Feature", "geometry": {"type": "Point", "coordinates": [-99.2276, 29.6349]}, "properties": {"NAME": "W5T/ST-012", "TITLE": "2002", "REGION": "South Texas", "ASSOCIATION": "USA - Texas", "POINTS": "1", "BONUSPOINTS": "3"}}, {"type": "Feature", "geometry": {"type": "Point", "coordinates": [-99.2417, 29.6225]}, "properties": {"NAME": "W5T/ST-013", "TITLE": "Flag Mountain", "REGION": "South Texas", "ASSOCIATION": "USA - Texas", "POINTS": "1", "BONUSPOINTS": "3"}}, {"type": "Feature", "geometry": {"type": "Point", "coordinates": [-99.4687, 29.5708]}, "properties": {"NAME": "W5T/ST-014", "TITLE": "1990", "REGION": "South Texas", "ASSOCIATION": "USA - Texas", "POINTS": "1", "BONUSPOINTS": "3"}}, {"type": "Feature", "geometry": {"type": "Point", "coordinates": [-99.3152, 29.5734]}, "properties": {"NAME": "W5T/ST-015", "TITLE": "Saathoff Mountain", "REGION": "South Texas", "ASSOCIATION": "USA - Texas", "POINTS": "1", "BONUSPOINTS": "3"}}, {"type": "Feature", "geometry": {"type": "Point", "coordinates": [-100.0527, 29.6759]}, "properties": {"NAME": "W5T/ST-016", "TITLE": "Wildcat Mountain", "REGION": "South Texas", "ASSOCIATION": "USA - Texas", "POINTS": "1", "BONUSPOINTS": "3"}}, {"type": "Feature", "geometry": {"type": "Point", "coordinates": [-99.7086, 29.596]}, "properties": {"NAME": "W5T/ST-017", "TITLE": "1973", "REGION": "South Texas", "ASSOCIATION": "USA - Texas", "POINTS": "1", "BONUSPOINTS": "3"}}, {"type": "Feature", "geometry": {"type": "Point", "coordinates": [-99.9417, 29.4698]}, "properties": {"NAME": "W5T/ST-018", "TITLE": "Sycamore Mountain", "REGION": "South Texas", "ASSOCIATION": "USA - Texas", "POINTS": "1", "BONUSPOINTS": "3"}}, {"type": "Feature", "geometry": {"type": "Point", "coordinates": [-99.2914, 29.5972]}, "properties": {"NAME": "W5T/ST-019", "TITLE": "Texas Mountain", "REGION": "South Texas", "ASSOCIATION": "USA - Texas", "POINTS": "1", "BONUSPOINTS": "3"}}, {"type": "Feature", "geometry": {"type": "Point", "coordinates": [-99.3127, 29.6805]}, "properties": {"NAME": "W5T/ST-020", "TITLE": "Gunsight Mountain", "REGION": "South Texas", "ASSOCIATION": "USA - Texas", "POINTS": "1", "BONUSPOINTS": "3"}}, {"type": "Feature", "geometry": {"type": "Point", "coordinates": [-99.3301, 29.6934]}, "properties": {"NAME": "W5T/ST-021", "TITLE": "1942", "REGION": "South Texas", "ASSOCIATION": "USA - Texas", "POINTS": "1", "BONUSPOINTS": "3"}}, {"type": "Feature", "geometry": {"type": "Point", "coordinates": [-99.3797, 29.5664]}, "properties": {"NAME": "W5T/ST-022", "TITLE": "1935", "REGION": "South Texas", "ASSOCIATION": "USA - Texas", "POINTS": "1", "BONUSPOINTS": "3"}}, {"type": "Feature", "geometry": {"type": "Point", "coordinates": [-99.6955, 29.5734]}, "properties": {"NAME": "W5T/ST-023", "TITLE": "1930", "REGION": "South Texas", "ASSOCIATION": "USA - Texas", "POINTS": "1", "BONUSPOINTS": "3"}}, {"type": "Feature", "geometry": {"type": "Point", "coordinates": [-99.4115, 29.5839]}, "properties": {"NAME": "W5T/ST-024", "TITLE": "1930", "REGION": "South Texas", "ASSOCIATION": "USA - Texas", "POINTS": "1", "BONUSPOINTS": "3"}}, {"type": "Feature", "geometry": {"type": "Point", "coordinates": [-99.4371, 29.556]}, "properties": {"NAME": "W5T/ST-025", "TITLE": "1910", "REGION": "South Texas", "ASSOCIATION": "USA - Texas", "POINTS": "1", "BONUSPOINTS": "3"}}, {"type": "Feature", "geometry": {"type": "Point", "coordinates": [-99.4135, 29.6307]}, "properties": {"NAME": "W5T/ST-026", "TITLE": "1910", "REGION": "South Texas", "ASSOCIATION": "USA - Texas", "POINTS": "1", "BONUSPOINTS": "3"}}, {"type": "Feature", "geometry": {"type": "Point", "coordinates": [-99.2563, 29.6762]}, "properties": {"NAME": "W5T/ST-027", "TITLE": "Sugarloaf Mountain", "REGION": "South Texas", "ASSOCIATION": "USA - Texas", "POINTS": "1", "BONUSPOINTS": "3"}}, {"type": "Feature", "geometry": {"type": "Point", "coordinates": [-100.0228, 29.6255]}, "properties": {"NAME": "W5T/ST-028", "TITLE": "1909", "REGION": "South Texas", "ASSOCIATION": "USA - Texas", "POINTS": "1", "BONUSPOINTS": "3"}}, {"type": "Feature", "geometry": {"type": "Point", "coordinates": [-100.0408, 29.686]}, "properties": {"NAME": "W5T/ST-029", "TITLE": "Pikes Peak", "REGION": "South Texas", "ASSOCIATION": "USA - Texas", "POINTS": "1", "BONUSPOINTS": "3"}}, {"type": "Feature", "geometry": {"type": "Point", "coordinates": [-99.1081, 29.6584]}, "properties": {"NAME": "W5T/ST-030", "TITLE": "Joiner Benchmark", "REGION": "South Texas", "ASSOCIATION": "USA - Texas", "POINTS": "1", "BONUSPOINTS": "3"}}, {"type": "Feature", "geometry": {"type": "Point", "coordinates": [-99.4611, 29.5308]}, "properties": {"NAME": "W5T/ST-031", "TITLE": "1890", "REGION": "South Texas", "ASSOCIATION": "USA - Texas", "POINTS": "1", "BONUSPOINTS": "3"}}, {"type": "Feature", "geometry": {"type": "Point", "coordinates": [-99.3647, 29.5589]}, "properties": {"NAME": "W5T/ST-032", "TITLE": "1870", "REGION": "South Texas", "ASSOCIATION": "USA - Texas", "POINTS": "1", "BONUSPOINTS": "3"}}, {"type": "Feature", "geometry": {"type": "Point", "coordinates": [-99.3463, 29.5617]}, "properties": {"NAME": "W5T/ST-033", "TITLE": "1847", "REGION": "South Texas", "ASSOCIATION": "USA - Texas", "POINTS": "1", "BONUSPOINTS": "3"}}, {"type": "Feature", "geometry": {"type": "Point", "coordinates": [-100.2003, 29.3728]}, "properties": {"NAME": "W5T/ST-034", "TITLE": "Turkey Mountain", "REGION": "South Texas", "ASSOCIATION": "USA - Texas", "POINTS": "1", "BONUSPOINTS": "3"}}, {"type": "Feature", "geometry": {"type": "Point", "coordinates": [-100.032, 29.5308]}, "properties": {"NAME": "W5T/ST-035", "TITLE": "1753", "REGION": "South Texas", "ASSOCIATION": "USA - Texas", "POINTS": "1", "BONUSPOINTS": "3"}}, {"type": "Feature", "geometry": {"type": "Point", "coordinates": [-99.7163, 29.5326]}, "properties": {"NAME": "W5T/ST-036", "TITLE": "Seven Bluff", "REGION": "South Texas", "ASSOCIATION": "USA - Texas", "POINTS": "1", "BONUSPOINTS": "3"}}, {"type": "Feature", "geometry": {"type": "Point", "coordinates": [-100.0068, 29.5658]}, "properties": {"NAME": "W5T/ST-037", "TITLE": "1721", "REGION": "South Texas", "ASSOCIATION": "USA - Texas", "POINTS": "1", "BONUSPOINTS": "3"}}, {"type": "Feature", "geometry": {"type": "Point", "coordinates": [-100.3884, 29.3566]}, "properties": {"NAME": "W5T/ST-038", "TITLE": "Las Moras Mountain", "REGION": "South Texas", "ASSOCIATION": "USA - Texas", "POINTS": "1", "BONUSPOINTS": "3"}}, {"type": "Feature", "geometry": {"type": "Point", "coordinates": [-100.0565, 29.4116]}, "properties": {"NAME": "W5T/ST-039", "TITLE": "Fence Mountain", "REGION": "South Texas", "ASSOCIATION": "USA - Texas", "POINTS": "1", "BONUSPOINTS": "3"}}, {"type": "Feature", "geometry": {"type": "Point", "coordinates": [-99.4881, 29.51]}, "properties": {"NAME": "W5T/ST-040", "TITLE": "1650", "REGION": "South Texas", "ASSOCIATION": "USA - Texas", "POINTS": "1", "BONUSPOINTS": "3"}}, {"type": "Feature", "geometry": {"type": "Point", "coordinates": [-100.0173, 29.4644]}, "properties": {"NAME": "W5T/ST-041", "TITLE": "Round Mountain", "REGION": "South Texas", "ASSOCIATION": "USA - Texas", "POINTS": "1", "BONUSPOINTS": "3"}}, {"type": "Feature", "geometry": {"type": "Point", "coordinates": [-100.1515, 29.2119]}, "properties": {"NAME": "W5T/ST-042", "TITLE": "Anacacho Mountains HP", "REGION": "South Texas", "ASSOCIATION": "USA - Texas", "POINTS": "1", "BONUSPOINTS": "3"}}, {"type": "Feature", "geometry": {"type": "Point", "coordinates": [-98.9638, 27.5254]}, "properties": {"NAME": "W5T/ST-043", "TITLE": "Webb County HP", "REGION": "South Texas", "ASSOCIATION": "USA - Texas", "POINTS": "1", "BONUSPOINTS": "3"}}]}