{"type": "FeatureCollection", "name": "W5T/CH SUMMITS", "features": [{"type": "Feature", "geometry": {"type": "Point", "coordinates": [-104.4778, 29.9534]}, "properties": {"NAME": "W5T/CH-001", "TITLE": "Chinati Peak", "REGION": "Chinati Mountains", "ASSOCIATION": "USA - Texas", "POINTS": "10", "BONUSPOINTS": "3"}}, {"type": "Feature", "geometry": {"type": "Point", "coordinates": [-104.5313, 29.9473]}, "properties": {"NAME": "W5T/CH-002", "TITLE": "Sierra Parda", "REGION": "Chinati Mountains", "ASSOCIATION": "USA - Texas", "POINTS": "10", "BONUSPOINTS": "3"}}, {"type": "Feature", "geometry": {"type": "Point", "coordinates": [-104.4078, 29.8549]}, "properties": {"NAME": "W5T/CH-003", "TITLE": "6620", "REGION": "Chinati Mountains", "ASSOCIATION": "USA - Texas", "POINTS": "8", "BONUSPOINTS": "3"}}, {"type": "Feature", "geometry": {"type": "Point", "coordinates": [-104.4641, 29.905]}, "properties": {"NAME": "W5T/CH-004", "TITLE": "6420", "REGION": "Chinati Mountains", "ASSOCIATION": "USA - Texas", "POINTS": "8", "BONUSPOINTS": "3"}}, {"type": "Feature", "geometry": {"type": "Point", "coordinates": [-104.4353, 29.8935]}, "properties": {"NAME": "W5T/CH-005", "TITLE": "6405", "REGION": "Chinati Mountains", "ASSOCIATION": "USA - Texas", "POINTS": "8", "BONUSPOINTS": "3"}}, {"type": "Feature", "geometry": {"type": "Point", "coordinates": [-104.436, 29.844]}, "properties": {"NAME": "W5T/CH-006", "TITLE": "Cerro Orona", "REGION": "Chinati Mountains", "ASSOCIATION": "USA - Texas", "POINTS": "8", "BONUSPOINTS": "3"}}, {"type": "Feature", "geometry": {"type": "Point", "coordinates": [-104.4465, 29.9382]}, "properties": {"NAME": "W5T/CH-007", "TITLE": "6260", "REGION": "Chinati Mountains", "ASSOCIATION": "USA - Texas", "POINTS": "8", "BONUSPOINTS": "3"}}, {"type": "Feature", "geometry": {"type": "Point", "coordinates": [-104.4532, 29.8498]}, "properties": {"NAME": "W5T/CH-008", "TITLE": "6075", "REGION": "Chinati Mountains", "ASSOCIATION": "USA - Texas", "POINTS": "8", "BONUSPOINTS": "3"}}, {"type": "Feature", "geometry": {"type": "Point", "coordinates": [-104.3825, 29.8376]}, "properties": {"NAME": "W5T/CH-009", "TITLE": "6030", "REGION": "Chinati Mountains", "ASSOCIATION": "USA - Texas", "POINTS": "8", "BONUSPOINTS": "3"}}, {"type": "Feature", "geometry": {"type": "Point", "coordinates": [-104.4046, 29.9559]}, "properties": {"NAME": "W5T/CH-010", "TITLE": "Aguja", "REGION": "Chinati Mountains", "ASSOCIATION": "USA - Texas", "POINTS": "8", "BONUSPOINTS": "3"}}, {"type": "Feature", "geometry": {"type": "Point", "coordinates": [-104.4799, 29.9229]}, "properties": {"NAME": "W5T/CH-011", "TITLE": "5845", "REGION": "Chinati Mountains", "ASSOCIATION": "USA - Texas", "POINTS": "6", "BONUSPOINTS": "3"}}, {"type": "Feature", "geometry": {"type": "Point", "coordinates": [-104.3547, 30.0247]}, "properties": {"NAME": "W5T/CH-012", "TITLE": "5752", "REGION": "Chinati Mountains", "ASSOCIATION": "USA - Texas", "POINTS": "6", "BONUSPOINTS": "3"}}, {"type": "Feature", "geometry": {"type": "Point", "coordinates": [-104.2761, 29.8251]}, "properties": {"NAME": "W5T/CH-013", "TITLE": "5060", "REGION": "Chinati Mountains", "ASSOCIATION": "USA - Texas", "POINTS": "4", "BONUSPOINTS": "3"}}, {"type": "Feature", "geometry": {"type": "Point", "coordinates": [-104.2871, 29.7984]}, "properties": {"NAME": "W5T/CH-014", "TITLE": "Tres Hermanas", "REGION": "Chinati Mountains", "ASSOCIATION": "USA - Texas", "POINTS": "4", "BONUSPOINTS": "3"}}, {"type": "Feature", "geometry": {"type": "Point", "coordinates": [-104.3066, 29.9012]}, "properties": {"NAME": "W5T/CH-015", "TITLE": "Cerro Alto", "REGION": "Chinati Mountains", "ASSOCIATION": "USA - Texas", "POINTS": "4", "BONUSPOINTS": "3"}}, {"type": "Feature", "geometry": {"type": "Point", "coordinates": [-104.2954, 29.7914]}, "properties": {"NAME": "W5T/CH-016", "TITLE": "Cerro Gato", "REGION": "Chinati Mountains", "ASSOCIATION": "USA - Texas", "POINTS": "4", "BONUSPOINTS": "3"}}, {"type": "Feature", "geometry": {"type": "Point", "coordinates": [-104.4698, 30.0139]}, "properties": {"NAME": "W5T/CH-017", "TITLE": "5519", "REGION": "Chinati Mountains", "ASSOCIATION": "USA - Texas", "POINTS": "6", "BONUSPOINTS": "3"}}]}