{"type": "FeatureCollection", "name": "W5T/VH SUMMITS", "features": [{"type": "Feature", "geometry": {"type": "Point", "coordinates": [-104.8731, 30.8405]}, "properties": {"NAME": "W5T/VH-001", "TITLE": "High Lonesome Peak", "REGION": "Van Horn Mountains", "ASSOCIATION": "USA - Texas", "POINTS": "6", "BONUSPOINTS": "3"}}, {"type": "Feature", "geometry": {"type": "Point", "coordinates": [-104.513, 30.7]}, "properties": {"NAME": "W5T/VH-002", "TITLE": "Y-Six Hills", "REGION": "Van Horn Mountains", "ASSOCIATION": "USA - Texas", "POINTS": "6", "BONUSPOINTS": "3"}}, {"type": "Feature", "geometry": {"type": "Point", "coordinates": [-104.8437, 30.7658]}, "properties": {"NAME": "W5T/VH-003", "TITLE": "5460", "REGION": "Van Horn Mountains", "ASSOCIATION": "USA - Texas", "POINTS": "6", "BONUSPOINTS": "3"}}, {"type": "Feature", "geometry": {"type": "Point", "coordinates": [-104.7495, 30.978]}, "properties": {"NAME": "W5T/VH-004", "TITLE": "Wylie Mountains HP", "REGION": "Van Horn Mountains", "ASSOCIATION": "USA - Texas", "POINTS": "6", "BONUSPOINTS": "3"}}, {"type": "Feature", "geometry": {"type": "Point", "coordinates": [-104.9759, 31.0558]}, "properties": {"NAME": "W5T/VH-005", "TITLE": "Carrizo Peak", "REGION": "Van Horn Mountains", "ASSOCIATION": "USA - Texas", "POINTS": "6", "BONUSPOINTS": "3"}}, {"type": "Feature", "geometry": {"type": "Point", "coordinates": [-104.9404, 31.009]}, "properties": {"NAME": "W5T/VH-006", "TITLE": "Hackett Peak", "REGION": "Van Horn Mountains", "ASSOCIATION": "USA - Texas", "POINTS": "6", "BONUSPOINTS": "3"}}, {"type": "Feature", "geometry": {"type": "Point", "coordinates": [-104.7098, 30.8028]}, "properties": {"NAME": "W5T/VH-007", "TITLE": "Chispa Mountain", "REGION": "Van Horn Mountains", "ASSOCIATION": "USA - Texas", "POINTS": "6", "BONUSPOINTS": "3"}}, {"type": "Feature", "geometry": {"type": "Point", "coordinates": [-104.7048, 30.9067]}, "properties": {"NAME": "W5T/VH-008", "TITLE": "5134", "REGION": "Van Horn Mountains", "ASSOCIATION": "USA - Texas", "POINTS": "6", "BONUSPOINTS": "3"}}, {"type": "Feature", "geometry": {"type": "Point", "coordinates": [-104.9106, 30.8676]}, "properties": {"NAME": "W5T/VH-009", "TITLE": "5060", "REGION": "Van Horn Mountains", "ASSOCIATION": "USA - Texas", "POINTS": "4", "BONUSPOINTS": "3"}}, {"type": "Feature", "geometry": {"type": "Point", "coordinates": [-104.6731, 30.8411]}, "properties": {"NAME": "W5T/VH-010", "TITLE": "5018", "REGION": "Van Horn Mountains", "ASSOCIATION": "USA - Texas", "POINTS": "4", "BONUSPOINTS": "3"}}, {"type": "Feature", "geometry": {"type": "Point", "coordinates": [-104.8403, 30.7031]}, "properties": {"NAME": "W5T/VH-011", "TITLE": "Bullet Benchmark", "REGION": "Van Horn Mountains", "ASSOCIATION": "USA - Texas", "POINTS": "4", "BONUSPOINTS": "3"}}, {"type": "Feature", "geometry": {"type": "Point", "coordinates": [-104.5896, 30.8053]}, "properties": {"NAME": "W5T/VH-012", "TITLE": "4930", "REGION": "Van Horn Mountains", "ASSOCIATION": "USA - Texas", "POINTS": "4", "BONUSPOINTS": "3"}}, {"type": "Feature", "geometry": {"type": "Point", "coordinates": [-104.4801, 31.0225]}, "properties": {"NAME": "W5T/VH-013", "TITLE": "Black Peak", "REGION": "Van Horn Mountains", "ASSOCIATION": "USA - Texas", "POINTS": "4", "BONUSPOINTS": "3"}}, {"type": "Feature", "geometry": {"type": "Point", "coordinates": [-104.8678, 30.6826]}, "properties": {"NAME": "W5T/VH-014", "TITLE": "4684", "REGION": "Van Horn Mountains", "ASSOCIATION": "USA - Texas", "POINTS": "4", "BONUSPOINTS": "3"}}, {"type": "Feature", "geometry": {"type": "Point", "coordinates": [-104.9745, 30.6259]}, "properties": {"NAME": "W5T/VH-015", "TITLE": "Sixty Six Benchmark", "REGION": "Van Horn Mountains", "ASSOCIATION": "USA - Texas", "POINTS": "2", "BONUSPOINTS": "3"}}, {"type": "Feature", "geometry": {"type": "Point", "coordinates": [-104.9234, 30.9799]}, "properties": {"NAME": "W5T/VH-016", "TITLE": "4868", "REGION": "Van Horn Mountains", "ASSOCIATION": "USA - Texas", "POINTS": "4", "BONUSPOINTS": "3"}}]}