{"type": "FeatureCollection", "name": "W5T/NT SUMMITS", "features": [{"type": "Feature", "geometry": {"type": "Point", "coordinates": [-103.5971, 30.7889]}, "properties": {"NAME": "W5T/NT-001", "TITLE": "4820", "REGION": "North Texas", "ASSOCIATION": "USA - Texas", "POINTS": "4", "BONUSPOINTS": "3"}}, {"type": "Feature", "geometry": {"type": "Point", "coordinates": [-103.7542, 30.8847]}, "properties": {"NAME": "W5T/NT-002", "TITLE": "4348", "REGION": "North Texas", "ASSOCIATION": "USA - Texas", "POINTS": "4", "BONUSPOINTS": "3"}}, {"type": "Feature", "geometry": {"type": "Point", "coordinates": [-103.7106, 30.8889]}, "properties": {"NAME": "W5T/NT-003", "TITLE": "Saddle Back Mountains", "REGION": "North Texas", "ASSOCIATION": "USA - Texas", "POINTS": "2", "BONUSPOINTS": "3"}}, {"type": "Feature", "geometry": {"type": "Point", "coordinates": [-103.5351, 30.8511]}, "properties": {"NAME": "W5T/NT-004", "TITLE": "4214", "REGION": "North Texas", "ASSOCIATION": "USA - Texas", "POINTS": "2", "BONUSPOINTS": "3"}}, {"type": "Feature", "geometry": {"type": "Point", "coordinates": [-103.6471, 30.8579]}, "properties": {"NAME": "W5T/NT-005", "TITLE": "4184", "REGION": "North Texas", "ASSOCIATION": "USA - Texas", "POINTS": "2", "BONUSPOINTS": "3"}}, {"type": "Feature", "geometry": {"type": "Point", "coordinates": [-103.7506, 30.9226]}, "properties": {"NAME": "W5T/NT-006", "TITLE": "3910", "REGION": "North Texas", "ASSOCIATION": "USA - Texas", "POINTS": "2", "BONUSPOINTS": "3"}}, {"type": "Feature", "geometry": {"type": "Point", "coordinates": [-101.3638, 34.8524]}, "properties": {"NAME": "W5T/NT-007", "TITLE": "3264", "REGION": "North Texas", "ASSOCIATION": "USA - Texas", "POINTS": "1", "BONUSPOINTS": "3"}}, {"type": "Feature", "geometry": {"type": "Point", "coordinates": [-102.274, 31.2846]}, "properties": {"NAME": "W5T/NT-008", "TITLE": "King Mountain", "REGION": "North Texas", "ASSOCIATION": "USA - Texas", "POINTS": "1", "BONUSPOINTS": "3"}}, {"type": "Feature", "geometry": {"type": "Point", "coordinates": [-102.0987, 31.0717]}, "properties": {"NAME": "W5T/NT-009", "TITLE": "Southwest Mesa", "REGION": "North Texas", "ASSOCIATION": "USA - Texas", "POINTS": "1", "BONUSPOINTS": "3"}}, {"type": "Feature", "geometry": {"type": "Point", "coordinates": [-101.9297, 31.1272]}, "properties": {"NAME": "W5T/NT-010", "TITLE": "3035", "REGION": "North Texas", "ASSOCIATION": "USA - Texas", "POINTS": "1", "BONUSPOINTS": "3"}}, {"type": "Feature", "geometry": {"type": "Point", "coordinates": [-100.9737, 32.9787]}, "properties": {"NAME": "W5T/NT-011", "TITLE": "McKenzie Mountains HP", "REGION": "North Texas", "ASSOCIATION": "USA - Texas", "POINTS": "1", "BONUSPOINTS": "3"}}, {"type": "Feature", "geometry": {"type": "Point", "coordinates": [-101.0657, 32.966]}, "properties": {"NAME": "W5T/NT-012", "TITLE": "Flat Top Mountain", "REGION": "North Texas", "ASSOCIATION": "USA - Texas", "POINTS": "1", "BONUSPOINTS": "3"}}, {"type": "Feature", "geometry": {"type": "Point", "coordinates": [-100.8428, 33.0113]}, "properties": {"NAME": "W5T/NT-013", "TITLE": "Cooper Mountain", "REGION": "North Texas", "ASSOCIATION": "USA - Texas", "POINTS": "1", "BONUSPOINTS": "3"}}, {"type": "Feature", "geometry": {"type": "Point", "coordinates": [-100.4381, 33.0649]}, "properties": {"NAME": "W5T/NT-014", "TITLE": "East Double Mountains", "REGION": "North Texas", "ASSOCIATION": "USA - Texas", "POINTS": "1", "BONUSPOINTS": "3"}}, {"type": "Feature", "geometry": {"type": "Point", "coordinates": [-100.4588, 33.0628]}, "properties": {"NAME": "W5T/NT-015", "TITLE": "West Double Mountains", "REGION": "North Texas", "ASSOCIATION": "USA - Texas", "POINTS": "1", "BONUSPOINTS": "3"}}, {"type": "Feature", "geometry": {"type": "Point", "coordinates": [-100.585, 31.8454]}, "properties": {"NAME": "W5T/NT-016", "TITLE": "East Millican Mountains", "REGION": "North Texas", "ASSOCIATION": "USA - Texas", "POINTS": "1", "BONUSPOINTS": "3"}}, {"type": "Feature", "geometry": {"type": "Point", "coordinates": [-100.3361, 31.9638]}, "properties": {"NAME": "W5T/NT-017", "TITLE": "Kickapoo Mountain", "REGION": "North Texas", "ASSOCIATION": "USA - Texas", "POINTS": "1", "BONUSPOINTS": "3"}}, {"type": "Feature", "geometry": {"type": "Point", "coordinates": [-100.5506, 31.8304]}, "properties": {"NAME": "W5T/NT-018", "TITLE": "Lone Mountain", "REGION": "North Texas", "ASSOCIATION": "USA - Texas", "POINTS": "1", "BONUSPOINTS": "3"}}, {"type": "Feature", "geometry": {"type": "Point", "coordinates": [-99.7346, 32.2821]}, "properties": {"NAME": "W5T/NT-019", "TITLE": "Callahan Divide", "REGION": "North Texas", "ASSOCIATION": "USA - Texas", "POINTS": "1", "BONUSPOINTS": "3"}}, {"type": "Feature", "geometry": {"type": "Point", "coordinates": [-99.7923, 32.2905]}, "properties": {"NAME": "W5T/NT-020", "TITLE": "Cedar Benchmark", "REGION": "North Texas", "ASSOCIATION": "USA - Texas", "POINTS": "1", "BONUSPOINTS": "3"}}, {"type": "Feature", "geometry": {"type": "Point", "coordinates": [-99.885, 32.0499]}, "properties": {"NAME": "W5T/NT-021", "TITLE": "Moro Mountain", "REGION": "North Texas", "ASSOCIATION": "USA - Texas", "POINTS": "1", "BONUSPOINTS": "3"}}, {"type": "Feature", "geometry": {"type": "Point", "coordinates": [-99.7832, 32.0214]}, "properties": {"NAME": "W5T/NT-022", "TITLE": "Bald Knob", "REGION": "North Texas", "ASSOCIATION": "USA - Texas", "POINTS": "1", "BONUSPOINTS": "3"}}, {"type": "Feature", "geometry": {"type": "Point", "coordinates": [-100.2954, 31.7456]}, "properties": {"NAME": "W5T/NT-023", "TITLE": "Mount Margaret", "REGION": "North Texas", "ASSOCIATION": "USA - Texas", "POINTS": "1", "BONUSPOINTS": "3"}}, {"type": "Feature", "geometry": {"type": "Point", "coordinates": [-99.2787, 32.2621]}, "properties": {"NAME": "W5T/NT-024", "TITLE": "2182", "REGION": "North Texas", "ASSOCIATION": "USA - Texas", "POINTS": "1", "BONUSPOINTS": "3"}}, {"type": "Feature", "geometry": {"type": "Point", "coordinates": [-101.5586, 30.1351]}, "properties": {"NAME": "W5T/NT-025", "TITLE": "2022", "REGION": "North Texas", "ASSOCIATION": "USA - Texas", "POINTS": "1", "BONUSPOINTS": "3"}}, {"type": "Feature", "geometry": {"type": "Point", "coordinates": [-98.6541, 30.5176]}, "properties": {"NAME": "W5T/NT-026", "TITLE": "Cedar Mountain", "REGION": "North Texas", "ASSOCIATION": "USA - Texas", "POINTS": "1", "BONUSPOINTS": "3"}}, {"type": "Feature", "geometry": {"type": "Point", "coordinates": [-98.9062, 30.8596]}, "properties": {"NAME": "W5T/NT-027", "TITLE": "Smoothingiron Mountain", "REGION": "North Texas", "ASSOCIATION": "USA - Texas", "POINTS": "1", "BONUSPOINTS": "3"}}, {"type": "Feature", "geometry": {"type": "Point", "coordinates": [-98.9212, 30.5924]}, "properties": {"NAME": "W5T/NT-028", "TITLE": "House Mountain", "REGION": "North Texas", "ASSOCIATION": "USA - Texas", "POINTS": "1", "BONUSPOINTS": "3"}}, {"type": "Feature", "geometry": {"type": "Point", "coordinates": [-98.6485, 30.6094]}, "properties": {"NAME": "W5T/NT-029", "TITLE": "Riley Mountains HP", "REGION": "North Texas", "ASSOCIATION": "USA - Texas", "POINTS": "1", "BONUSPOINTS": "3"}}, {"type": "Feature", "geometry": {"type": "Point", "coordinates": [-98.5095, 30.6273]}, "properties": {"NAME": "W5T/NT-030", "TITLE": "Packsaddle Mountain", "REGION": "North Texas", "ASSOCIATION": "USA - Texas", "POINTS": "1", "BONUSPOINTS": "3"}}, {"type": "Feature", "geometry": {"type": "Point", "coordinates": [-98.6456, 30.6888]}, "properties": {"NAME": "W5T/NT-031", "TITLE": "Sharp Mountain", "REGION": "North Texas", "ASSOCIATION": "USA - Texas", "POINTS": "1", "BONUSPOINTS": "3"}}, {"type": "Feature", "geometry": {"type": "Point", "coordinates": [-98.5998, 30.5563]}, "properties": {"NAME": "W5T/NT-032", "TITLE": "Walker Peak", "REGION": "North Texas", "ASSOCIATION": "USA - Texas", "POINTS": "1", "BONUSPOINTS": "3"}}, {"type": "Feature", "geometry": {"type": "Point", "coordinates": [-98.2488, 30.4422]}, "properties": {"NAME": "W5T/NT-033", "TITLE": "Shovel Mountain", "REGION": "North Texas", "ASSOCIATION": "USA - Texas", "POINTS": "1", "BONUSPOINTS": "3"}}, {"type": "Feature", "geometry": {"type": "Point", "coordinates": [-98.4249, 33.217]}, "properties": {"NAME": "W5T/NT-034", "TITLE": "Young County HP", "REGION": "North Texas", "ASSOCIATION": "USA - Texas", "POINTS": "1", "BONUSPOINTS": "3"}}, {"type": "Feature", "geometry": {"type": "Point", "coordinates": [-98.3711, 32.7808]}, "properties": {"NAME": "W5T/NT-035", "TITLE": "Crawford Mountain", "REGION": "North Texas", "ASSOCIATION": "USA - Texas", "POINTS": "1", "BONUSPOINTS": "3"}}, {"type": "Feature", "geometry": {"type": "Point", "coordinates": [-98.4549, 30.7164]}, "properties": {"NAME": "W5T/NT-036", "TITLE": "Long Mountain", "REGION": "North Texas", "ASSOCIATION": "USA - Texas", "POINTS": "1", "BONUSPOINTS": "3"}}, {"type": "Feature", "geometry": {"type": "Point", "coordinates": [-98.4787, 32.8809]}, "properties": {"NAME": "W5T/NT-037", "TITLE": "Johnson Peak", "REGION": "North Texas", "ASSOCIATION": "USA - Texas", "POINTS": "1", "BONUSPOINTS": "3"}}, {"type": "Feature", "geometry": {"type": "Point", "coordinates": [-98.3505, 32.8438]}, "properties": {"NAME": "W5T/NT-038", "TITLE": "1344", "REGION": "North Texas", "ASSOCIATION": "USA - Texas", "POINTS": "1", "BONUSPOINTS": "3"}}, {"type": "Feature", "geometry": {"type": "Point", "coordinates": [-93.8393, 31.083]}, "properties": {"NAME": "W5T/NT-039", "TITLE": "Newton County HP", "REGION": "North Texas", "ASSOCIATION": "USA - Texas", "POINTS": "1", "BONUSPOINTS": "3"}}]}