{"type": "FeatureCollection", "name": "W5T/GL SUMMITS", "features": [{"type": "Feature", "geometry": {"type": "Point", "coordinates": [-103.3024, 30.3663]}, "properties": {"NAME": "W5T/GL-001", "TITLE": "Gilliland Peak", "REGION": "Glass Mountains", "ASSOCIATION": "USA - Texas", "POINTS": "8", "BONUSPOINTS": "3"}}, {"type": "Feature", "geometry": {"type": "Point", "coordinates": [-103.3652, 30.3292]}, "properties": {"NAME": "W5T/GL-002", "TITLE": "6300", "REGION": "Glass Mountains", "ASSOCIATION": "USA - Texas", "POINTS": "8", "BONUSPOINTS": "3"}}, {"type": "Feature", "geometry": {"type": "Point", "coordinates": [-103.2364, 30.3269]}, "properties": {"NAME": "W5T/GL-003", "TITLE": "Leonard Mountain", "REGION": "Glass Mountains", "ASSOCIATION": "USA - Texas", "POINTS": "6", "BONUSPOINTS": "3"}}, {"type": "Feature", "geometry": {"type": "Point", "coordinates": [-103.2366, 30.39]}, "properties": {"NAME": "W5T/GL-004", "TITLE": "5850", "REGION": "Glass Mountains", "ASSOCIATION": "USA - Texas", "POINTS": "6", "BONUSPOINTS": "3"}}, {"type": "Feature", "geometry": {"type": "Point", "coordinates": [-103.2567, 30.3519]}, "properties": {"NAME": "W5T/GL-005", "TITLE": "5820", "REGION": "Glass Mountains", "ASSOCIATION": "USA - Texas", "POINTS": "6", "BONUSPOINTS": "3"}}, {"type": "Feature", "geometry": {"type": "Point", "coordinates": [-103.1378, 30.3734]}, "properties": {"NAME": "W5T/GL-006", "TITLE": "5810", "REGION": "Glass Mountains", "ASSOCIATION": "USA - Texas", "POINTS": "6", "BONUSPOINTS": "3"}}, {"type": "Feature", "geometry": {"type": "Point", "coordinates": [-103.2635, 30.4231]}, "properties": {"NAME": "W5T/GL-007", "TITLE": "5791", "REGION": "Glass Mountains", "ASSOCIATION": "USA - Texas", "POINTS": "6", "BONUSPOINTS": "3"}}, {"type": "Feature", "geometry": {"type": "Point", "coordinates": [-103.4251, 30.2881]}, "properties": {"NAME": "W5T/GL-008", "TITLE": "5700", "REGION": "Glass Mountains", "ASSOCIATION": "USA - Texas", "POINTS": "6", "BONUSPOINTS": "3"}}, {"type": "Feature", "geometry": {"type": "Point", "coordinates": [-103.4223, 30.3808]}, "properties": {"NAME": "W5T/GL-009", "TITLE": "Bissett Mountain", "REGION": "Glass Mountains", "ASSOCIATION": "USA - Texas", "POINTS": "6", "BONUSPOINTS": "3"}}, {"type": "Feature", "geometry": {"type": "Point", "coordinates": [-103.2654, 30.3066]}, "properties": {"NAME": "W5T/GL-010", "TITLE": "Iron Mountain", "REGION": "Glass Mountains", "ASSOCIATION": "USA - Texas", "POINTS": "6", "BONUSPOINTS": "3"}}, {"type": "Feature", "geometry": {"type": "Point", "coordinates": [-102.983, 30.271]}, "properties": {"NAME": "W5T/GL-011", "TITLE": "5350", "REGION": "Glass Mountains", "ASSOCIATION": "USA - Texas", "POINTS": "6", "BONUSPOINTS": "3"}}, {"type": "Feature", "geometry": {"type": "Point", "coordinates": [-103.3355, 30.2706]}, "properties": {"NAME": "W5T/GL-012", "TITLE": "5300", "REGION": "Glass Mountains", "ASSOCIATION": "USA - Texas", "POINTS": "6", "BONUSPOINTS": "3"}}, {"type": "Feature", "geometry": {"type": "Point", "coordinates": [-103.2807, 30.302]}, "properties": {"NAME": "W5T/GL-013", "TITLE": "5275", "REGION": "Glass Mountains", "ASSOCIATION": "USA - Texas", "POINTS": "6", "BONUSPOINTS": "3"}}, {"type": "Feature", "geometry": {"type": "Point", "coordinates": [-103.2717, 30.4558]}, "properties": {"NAME": "W5T/GL-014", "TITLE": "Little Blue Mountain", "REGION": "Glass Mountains", "ASSOCIATION": "USA - Texas", "POINTS": "6", "BONUSPOINTS": "3"}}, {"type": "Feature", "geometry": {"type": "Point", "coordinates": [-103.3051, 30.2807]}, "properties": {"NAME": "W5T/GL-015", "TITLE": "5020", "REGION": "Glass Mountains", "ASSOCIATION": "USA - Texas", "POINTS": "6", "BONUSPOINTS": "3"}}, {"type": "Feature", "geometry": {"type": "Point", "coordinates": [-102.9643, 30.401]}, "properties": {"NAME": "W5T/GL-016", "TITLE": "Nation Benchmark", "REGION": "Glass Mountains", "ASSOCIATION": "USA - Texas", "POINTS": "6", "BONUSPOINTS": "3"}}, {"type": "Feature", "geometry": {"type": "Point", "coordinates": [-103.3709, 30.3791]}, "properties": {"NAME": "W5T/GL-017", "TITLE": "5086", "REGION": "Glass Mountains", "ASSOCIATION": "USA - Texas", "POINTS": "4", "BONUSPOINTS": "3"}}, {"type": "Feature", "geometry": {"type": "Point", "coordinates": [-102.9164, 30.3002]}, "properties": {"NAME": "W5T/GL-018", "TITLE": "5070", "REGION": "Glass Mountains", "ASSOCIATION": "USA - Texas", "POINTS": "4", "BONUSPOINTS": "3"}}, {"type": "Feature", "geometry": {"type": "Point", "coordinates": [-103.2309, 30.4626]}, "properties": {"NAME": "W5T/GL-019", "TITLE": "Goat Pasture Mountain", "REGION": "Glass Mountains", "ASSOCIATION": "USA - Texas", "POINTS": "4", "BONUSPOINTS": "3"}}, {"type": "Feature", "geometry": {"type": "Point", "coordinates": [-102.8516, 30.3924]}, "properties": {"NAME": "W5T/GL-020", "TITLE": "4870", "REGION": "Glass Mountains", "ASSOCIATION": "USA - Texas", "POINTS": "4", "BONUSPOINTS": "3"}}, {"type": "Feature", "geometry": {"type": "Point", "coordinates": [-102.8905, 30.3308]}, "properties": {"NAME": "W5T/GL-021", "TITLE": "4815", "REGION": "Glass Mountains", "ASSOCIATION": "USA - Texas", "POINTS": "4", "BONUSPOINTS": "3"}}, {"type": "Feature", "geometry": {"type": "Point", "coordinates": [-102.9455, 30.3346]}, "properties": {"NAME": "W5T/GL-022", "TITLE": "Dimple Hills", "REGION": "Glass Mountains", "ASSOCIATION": "USA - Texas", "POINTS": "4", "BONUSPOINTS": "3"}}, {"type": "Feature", "geometry": {"type": "Point", "coordinates": [-102.9037, 30.3909]}, "properties": {"NAME": "W5T/GL-023", "TITLE": "Clark Butte", "REGION": "Glass Mountains", "ASSOCIATION": "USA - Texas", "POINTS": "4", "BONUSPOINTS": "3"}}, {"type": "Feature", "geometry": {"type": "Point", "coordinates": [-102.9134, 30.5928]}, "properties": {"NAME": "W5T/GL-024", "TITLE": "Sierra Madera", "REGION": "Glass Mountains", "ASSOCIATION": "USA - Texas", "POINTS": "4", "BONUSPOINTS": "3"}}, {"type": "Feature", "geometry": {"type": "Point", "coordinates": [-102.7511, 30.3278]}, "properties": {"NAME": "W5T/GL-025", "TITLE": "4437", "REGION": "Glass Mountains", "ASSOCIATION": "USA - Texas", "POINTS": "4", "BONUSPOINTS": "3"}}]}