{"type": "FeatureCollection", "name": "W5T/HA SUMMITS", "features": [{"type": "Feature", "geometry": {"type": "Point", "coordinates": [-102.9528, 30.1547]}, "properties": {"NAME": "W5T/HA-001", "TITLE": "Housetop Mountain", "REGION": "Haymond Mountains", "ASSOCIATION": "USA - Texas", "POINTS": "6", "BONUSPOINTS": "3"}}, {"type": "Feature", "geometry": {"type": "Point", "coordinates": [-102.9419, 30.0128]}, "properties": {"NAME": "W5T/HA-002", "TITLE": "Shely Peaks HP", "REGION": "Haymond Mountains", "ASSOCIATION": "USA - Texas", "POINTS": "6", "BONUSPOINTS": "3"}}, {"type": "Feature", "geometry": {"type": "Point", "coordinates": [-102.9545, 30.0144]}, "properties": {"NAME": "W5T/HA-003", "TITLE": "West Shely Peaks", "REGION": "Haymond Mountains", "ASSOCIATION": "USA - Texas", "POINTS": "6", "BONUSPOINTS": "3"}}, {"type": "Feature", "geometry": {"type": "Point", "coordinates": [-102.9344, 30.1852]}, "properties": {"NAME": "W5T/HA-004", "TITLE": "5150", "REGION": "Haymond Mountains", "ASSOCIATION": "USA - Texas", "POINTS": "6", "BONUSPOINTS": "3"}}, {"type": "Feature", "geometry": {"type": "Point", "coordinates": [-102.8858, 30.0207]}, "properties": {"NAME": "W5T/HA-005", "TITLE": "4855", "REGION": "Haymond Mountains", "ASSOCIATION": "USA - Texas", "POINTS": "4", "BONUSPOINTS": "3"}}, {"type": "Feature", "geometry": {"type": "Point", "coordinates": [-102.8976, 30.0389]}, "properties": {"NAME": "W5T/HA-006", "TITLE": "4730", "REGION": "Haymond Mountains", "ASSOCIATION": "USA - Texas", "POINTS": "4", "BONUSPOINTS": "3"}}, {"type": "Feature", "geometry": {"type": "Point", "coordinates": [-102.8773, 30.0126]}, "properties": {"NAME": "W5T/HA-007", "TITLE": "4635", "REGION": "Haymond Mountains", "ASSOCIATION": "USA - Texas", "POINTS": "4", "BONUSPOINTS": "3"}}, {"type": "Feature", "geometry": {"type": "Point", "coordinates": [-102.9196, 30.0928]}, "properties": {"NAME": "W5T/HA-008", "TITLE": "Castle Mountain", "REGION": "Haymond Mountains", "ASSOCIATION": "USA - Texas", "POINTS": "4", "BONUSPOINTS": "3"}}, {"type": "Feature", "geometry": {"type": "Point", "coordinates": [-102.9441, 30.0598]}, "properties": {"NAME": "W5T/HA-009", "TITLE": "Panther Peaks East", "REGION": "Haymond Mountains", "ASSOCIATION": "USA - Texas", "POINTS": "4", "BONUSPOINTS": "3"}}, {"type": "Feature", "geometry": {"type": "Point", "coordinates": [-102.8773, 29.9615]}, "properties": {"NAME": "W5T/HA-010", "TITLE": "4370", "REGION": "Haymond Mountains", "ASSOCIATION": "USA - Texas", "POINTS": "4", "BONUSPOINTS": "3"}}, {"type": "Feature", "geometry": {"type": "Point", "coordinates": [-102.9701, 29.9564]}, "properties": {"NAME": "W5T/HA-011", "TITLE": "4330", "REGION": "Haymond Mountains", "ASSOCIATION": "USA - Texas", "POINTS": "4", "BONUSPOINTS": "3"}}, {"type": "Feature", "geometry": {"type": "Point", "coordinates": [-102.9921, 29.9973]}, "properties": {"NAME": "W5T/HA-012", "TITLE": "4325", "REGION": "Haymond Mountains", "ASSOCIATION": "USA - Texas", "POINTS": "4", "BONUSPOINTS": "3"}}, {"type": "Feature", "geometry": {"type": "Point", "coordinates": [-102.8254, 29.9082]}, "properties": {"NAME": "W5T/HA-013", "TITLE": "Pine Mountain", "REGION": "Haymond Mountains", "ASSOCIATION": "USA - Texas", "POINTS": "2", "BONUSPOINTS": "3"}}, {"type": "Feature", "geometry": {"type": "Point", "coordinates": [-102.85, 29.9847]}, "properties": {"NAME": "W5T/HA-014", "TITLE": "4182", "REGION": "Haymond Mountains", "ASSOCIATION": "USA - Texas", "POINTS": "2", "BONUSPOINTS": "3"}}, {"type": "Feature", "geometry": {"type": "Point", "coordinates": [-102.8584, 29.9396]}, "properties": {"NAME": "W5T/HA-015", "TITLE": "4132", "REGION": "Haymond Mountains", "ASSOCIATION": "USA - Texas", "POINTS": "2", "BONUSPOINTS": "3"}}, {"type": "Feature", "geometry": {"type": "Point", "coordinates": [-102.8221, 29.8694]}, "properties": {"NAME": "W5T/HA-016", "TITLE": "Horseshoe Mesa", "REGION": "Haymond Mountains", "ASSOCIATION": "USA - Texas", "POINTS": "2", "BONUSPOINTS": "3"}}, {"type": "Feature", "geometry": {"type": "Point", "coordinates": [-102.784, 29.9375]}, "properties": {"NAME": "W5T/HA-017", "TITLE": "3812", "REGION": "Haymond Mountains", "ASSOCIATION": "USA - Texas", "POINTS": "2", "BONUSPOINTS": "3"}}, {"type": "Feature", "geometry": {"type": "Point", "coordinates": [-102.8012, 29.9652]}, "properties": {"NAME": "W5T/HA-018", "TITLE": "3740", "REGION": "Haymond Mountains", "ASSOCIATION": "USA - Texas", "POINTS": "2", "BONUSPOINTS": "3"}}, {"type": "Feature", "geometry": {"type": "Point", "coordinates": [-102.9493, 29.9157]}, "properties": {"NAME": "W5T/HA-019", "TITLE": "3952", "REGION": "Haymond Mountains", "ASSOCIATION": "USA - Texas", "POINTS": "2", "BONUSPOINTS": "3"}}, {"type": "Feature", "geometry": {"type": "Point", "coordinates": [-102.8802, 29.8268]}, "properties": {"NAME": "W5T/HA-020", "TITLE": "Yellow House Peak", "REGION": "Haymond Mountains", "ASSOCIATION": "USA - Texas", "POINTS": "1", "BONUSPOINTS": "3"}}]}