{"type": "FeatureCollection", "name": "W5T/QU SUMMITS", "features": [{"type": "Feature", "geometry": {"type": "Point", "coordinates": [-105.4359, 31.252]}, "properties": {"NAME": "W5T/QU-001", "TITLE": "Sierra Blanca", "REGION": "Quitman Mountains", "ASSOCIATION": "USA - Texas", "POINTS": "10", "BONUSPOINTS": "3"}}, {"type": "Feature", "geometry": {"type": "Point", "coordinates": [-105.4966, 31.1498]}, "properties": {"NAME": "W5T/QU-002", "TITLE": "Quitman Mountains HP", "REGION": "Quitman Mountains", "ASSOCIATION": "USA - Texas", "POINTS": "8", "BONUSPOINTS": "3"}}, {"type": "Feature", "geometry": {"type": "Point", "coordinates": [-105.5022, 31.1191]}, "properties": {"NAME": "W5T/QU-003", "TITLE": "6510", "REGION": "Quitman Mountains", "ASSOCIATION": "USA - Texas", "POINTS": "8", "BONUSPOINTS": "3"}}, {"type": "Feature", "geometry": {"type": "Point", "coordinates": [-105.5003, 31.1734]}, "properties": {"NAME": "W5T/QU-004", "TITLE": "6305", "REGION": "Quitman Mountains", "ASSOCIATION": "USA - Texas", "POINTS": "8", "BONUSPOINTS": "3"}}, {"type": "Feature", "geometry": {"type": "Point", "coordinates": [-105.4385, 31.2845]}, "properties": {"NAME": "W5T/QU-005", "TITLE": "Little Blanca Mountain", "REGION": "Quitman Mountains", "ASSOCIATION": "USA - Texas", "POINTS": "8", "BONUSPOINTS": "3"}}, {"type": "Feature", "geometry": {"type": "Point", "coordinates": [-105.3888, 31.0004]}, "properties": {"NAME": "W5T/QU-006", "TITLE": "6030", "REGION": "Quitman Mountains", "ASSOCIATION": "USA - Texas", "POINTS": "8", "BONUSPOINTS": "3"}}, {"type": "Feature", "geometry": {"type": "Point", "coordinates": [-105.376, 30.9731]}, "properties": {"NAME": "W5T/QU-007", "TITLE": "5925", "REGION": "Quitman Mountains", "ASSOCIATION": "USA - Texas", "POINTS": "8", "BONUSPOINTS": "3"}}, {"type": "Feature", "geometry": {"type": "Point", "coordinates": [-105.4729, 31.1975]}, "properties": {"NAME": "W5T/QU-008", "TITLE": "5921", "REGION": "Quitman Mountains", "ASSOCIATION": "USA - Texas", "POINTS": "8", "BONUSPOINTS": "3"}}, {"type": "Feature", "geometry": {"type": "Point", "coordinates": [-105.4747, 31.2774]}, "properties": {"NAME": "W5T/QU-009", "TITLE": "Round Top", "REGION": "Quitman Mountains", "ASSOCIATION": "USA - Texas", "POINTS": "6", "BONUSPOINTS": "3"}}, {"type": "Feature", "geometry": {"type": "Point", "coordinates": [-105.5878, 31.3555]}, "properties": {"NAME": "W5T/QU-010", "TITLE": "Finlay Mountains HP", "REGION": "Quitman Mountains", "ASSOCIATION": "USA - Texas", "POINTS": "6", "BONUSPOINTS": "3"}}, {"type": "Feature", "geometry": {"type": "Point", "coordinates": [-105.3591, 30.9464]}, "properties": {"NAME": "W5T/QU-011", "TITLE": "5693", "REGION": "Quitman Mountains", "ASSOCIATION": "USA - Texas", "POINTS": "6", "BONUSPOINTS": "3"}}, {"type": "Feature", "geometry": {"type": "Point", "coordinates": [-105.4358, 31.0533]}, "properties": {"NAME": "W5T/QU-012", "TITLE": "Soto Benchmark", "REGION": "Quitman Mountains", "ASSOCIATION": "USA - Texas", "POINTS": "6", "BONUSPOINTS": "3"}}, {"type": "Feature", "geometry": {"type": "Point", "coordinates": [-105.5714, 31.3364]}, "properties": {"NAME": "W5T/QU-013", "TITLE": "5569", "REGION": "Quitman Mountains", "ASSOCIATION": "USA - Texas", "POINTS": "6", "BONUSPOINTS": "3"}}, {"type": "Feature", "geometry": {"type": "Point", "coordinates": [-105.4043, 31.1616]}, "properties": {"NAME": "W5T/QU-014", "TITLE": "5544", "REGION": "Quitman Mountains", "ASSOCIATION": "USA - Texas", "POINTS": "6", "BONUSPOINTS": "3"}}, {"type": "Feature", "geometry": {"type": "Point", "coordinates": [-105.4232, 31.0193]}, "properties": {"NAME": "W5T/QU-015", "TITLE": "5530", "REGION": "Quitman Mountains", "ASSOCIATION": "USA - Texas", "POINTS": "6", "BONUSPOINTS": "3"}}, {"type": "Feature", "geometry": {"type": "Point", "coordinates": [-105.4639, 31.2854]}, "properties": {"NAME": "W5T/QU-016", "TITLE": "Little Round Top", "REGION": "Quitman Mountains", "ASSOCIATION": "USA - Texas", "POINTS": "6", "BONUSPOINTS": "3"}}, {"type": "Feature", "geometry": {"type": "Point", "coordinates": [-105.3922, 31.2718]}, "properties": {"NAME": "W5T/QU-017", "TITLE": "Triple Hill", "REGION": "Quitman Mountains", "ASSOCIATION": "USA - Texas", "POINTS": "6", "BONUSPOINTS": "3"}}, {"type": "Feature", "geometry": {"type": "Point", "coordinates": [-105.454, 31.1519]}, "properties": {"NAME": "W5T/QU-018", "TITLE": "5350", "REGION": "Quitman Mountains", "ASSOCIATION": "USA - Texas", "POINTS": "6", "BONUSPOINTS": "3"}}, {"type": "Feature", "geometry": {"type": "Point", "coordinates": [-105.3499, 31.1142]}, "properties": {"NAME": "W5T/QU-019", "TITLE": "Yucca Mesa", "REGION": "Quitman Mountains", "ASSOCIATION": "USA - Texas", "POINTS": "6", "BONUSPOINTS": "3"}}, {"type": "Feature", "geometry": {"type": "Point", "coordinates": [-105.5482, 31.2351]}, "properties": {"NAME": "W5T/QU-020", "TITLE": "Malone Mountains HP", "REGION": "Quitman Mountains", "ASSOCIATION": "USA - Texas", "POINTS": "4", "BONUSPOINTS": "3"}}]}