{"type": "FeatureCollection", "name": "W5T/EA SUMMITS", "features": [{"type": "Feature", "geometry": {"type": "Point", "coordinates": [-105.0852, 30.9213]}, "properties": {"NAME": "W5T/EA-001", "TITLE": "Eagle Peak", "REGION": "Eagle Mountains", "ASSOCIATION": "USA - Texas", "POINTS": "10", "BONUSPOINTS": "3"}}, {"type": "Feature", "geometry": {"type": "Point", "coordinates": [-105.1384, 30.9596]}, "properties": {"NAME": "W5T/EA-002", "TITLE": "6915", "REGION": "Eagle Mountains", "ASSOCIATION": "USA - Texas", "POINTS": "10", "BONUSPOINTS": "3"}}, {"type": "Feature", "geometry": {"type": "Point", "coordinates": [-105.0598, 30.891]}, "properties": {"NAME": "W5T/EA-003", "TITLE": "6881", "REGION": "Eagle Mountains", "ASSOCIATION": "USA - Texas", "POINTS": "10", "BONUSPOINTS": "3"}}, {"type": "Feature", "geometry": {"type": "Point", "coordinates": [-105.1287, 30.9781]}, "properties": {"NAME": "W5T/EA-004", "TITLE": "6700", "REGION": "Eagle Mountains", "ASSOCIATION": "USA - Texas", "POINTS": "10", "BONUSPOINTS": "3"}}, {"type": "Feature", "geometry": {"type": "Point", "coordinates": [-105.1103, 30.9512]}, "properties": {"NAME": "W5T/EA-005", "TITLE": "6525", "REGION": "Eagle Mountains", "ASSOCIATION": "USA - Texas", "POINTS": "8", "BONUSPOINTS": "3"}}, {"type": "Feature", "geometry": {"type": "Point", "coordinates": [-105.0374, 30.8723]}, "properties": {"NAME": "W5T/EA-006", "TITLE": "5985", "REGION": "Eagle Mountains", "ASSOCIATION": "USA - Texas", "POINTS": "8", "BONUSPOINTS": "3"}}, {"type": "Feature", "geometry": {"type": "Point", "coordinates": [-105.1672, 30.9615]}, "properties": {"NAME": "W5T/EA-007", "TITLE": "5885", "REGION": "Eagle Mountains", "ASSOCIATION": "USA - Texas", "POINTS": "6", "BONUSPOINTS": "3"}}, {"type": "Feature", "geometry": {"type": "Point", "coordinates": [-105.0166, 30.8201]}, "properties": {"NAME": "W5T/EA-008", "TITLE": "Squaw Peak", "REGION": "Eagle Mountains", "ASSOCIATION": "USA - Texas", "POINTS": "6", "BONUSPOINTS": "3"}}, {"type": "Feature", "geometry": {"type": "Point", "coordinates": [-104.9857, 30.7645]}, "properties": {"NAME": "W5T/EA-009", "TITLE": "Green Benchmark", "REGION": "Eagle Mountains", "ASSOCIATION": "USA - Texas", "POINTS": "6", "BONUSPOINTS": "3"}}, {"type": "Feature", "geometry": {"type": "Point", "coordinates": [-105.2047, 31.0076]}, "properties": {"NAME": "W5T/EA-010", "TITLE": "Love Hogback", "REGION": "Eagle Mountains", "ASSOCIATION": "USA - Texas", "POINTS": "4", "BONUSPOINTS": "3"}}]}