{"type": "FeatureCollection", "name": "W5T/CI SUMMITS", "features": [{"type": "Feature", "geometry": {"type": "Point", "coordinates": [-103.3051, 29.246]}, "properties": {"NAME": "W5T/CI-001", "TITLE": "Emory Peak", "REGION": "Chisos Mountains", "ASSOCIATION": "USA - Texas", "POINTS": "10", "BONUSPOINTS": "3"}}, {"type": "Feature", "geometry": {"type": "Point", "coordinates": [-103.2584, 29.2755]}, "properties": {"NAME": "W5T/CI-002", "TITLE": "Lost Mine Peak", "REGION": "Chisos Mountains", "ASSOCIATION": "USA - Texas", "POINTS": "10", "BONUSPOINTS": "3"}}, {"type": "Feature", "geometry": {"type": "Point", "coordinates": [-103.2873, 29.2677]}, "properties": {"NAME": "W5T/CI-003", "TITLE": "Casa Grande Peak", "REGION": "Chisos Mountains", "ASSOCIATION": "USA - Texas", "POINTS": "10", "BONUSPOINTS": "3"}}, {"type": "Feature", "geometry": {"type": "Point", "coordinates": [-103.2487, 29.2573]}, "properties": {"NAME": "W5T/CI-004", "TITLE": "East Crown Mountain", "REGION": "Chisos Mountains", "ASSOCIATION": "USA - Texas", "POINTS": "10", "BONUSPOINTS": "3"}}, {"type": "Feature", "geometry": {"type": "Point", "coordinates": [-103.2599, 29.2605]}, "properties": {"NAME": "W5T/CI-005", "TITLE": "West Crown Mountain", "REGION": "Chisos Mountains", "ASSOCIATION": "USA - Texas", "POINTS": "10", "BONUSPOINTS": "3"}}, {"type": "Feature", "geometry": {"type": "Point", "coordinates": [-103.293, 29.2875]}, "properties": {"NAME": "W5T/CI-006", "TITLE": "6905", "REGION": "Chisos Mountains", "ASSOCIATION": "USA - Texas", "POINTS": "10", "BONUSPOINTS": "3"}}, {"type": "Feature", "geometry": {"type": "Point", "coordinates": [-103.324, 29.2238]}, "properties": {"NAME": "W5T/CI-007", "TITLE": "6728", "REGION": "Chisos Mountains", "ASSOCIATION": "USA - Texas", "POINTS": "10", "BONUSPOINTS": "3"}}, {"type": "Feature", "geometry": {"type": "Point", "coordinates": [-103.321, 29.2837]}, "properties": {"NAME": "W5T/CI-008", "TITLE": "Vernon Bailey Peak", "REGION": "Chisos Mountains", "ASSOCIATION": "USA - Texas", "POINTS": "8", "BONUSPOINTS": "3"}}, {"type": "Feature", "geometry": {"type": "Point", "coordinates": [-103.2179, 29.2872]}, "properties": {"NAME": "W5T/CI-009", "TITLE": "Pummel Peak", "REGION": "Chisos Mountains", "ASSOCIATION": "USA - Texas", "POINTS": "8", "BONUSPOINTS": "3"}}, {"type": "Feature", "geometry": {"type": "Point", "coordinates": [-103.2391, 29.2983]}, "properties": {"NAME": "W5T/CI-010", "TITLE": "Panther Peak", "REGION": "Chisos Mountains", "ASSOCIATION": "USA - Texas", "POINTS": "8", "BONUSPOINTS": "3"}}, {"type": "Feature", "geometry": {"type": "Point", "coordinates": [-103.2333, 29.289]}, "properties": {"NAME": "W5T/CI-011", "TITLE": "6282", "REGION": "Chisos Mountains", "ASSOCIATION": "USA - Texas", "POINTS": "8", "BONUSPOINTS": "3"}}, {"type": "Feature", "geometry": {"type": "Point", "coordinates": [-103.3097, 29.1892]}, "properties": {"NAME": "W5T/CI-012", "TITLE": "Sierra Quemada", "REGION": "Chisos Mountains", "ASSOCIATION": "USA - Texas", "POINTS": "8", "BONUSPOINTS": "3"}}, {"type": "Feature", "geometry": {"type": "Point", "coordinates": [-103.3274, 29.2003]}, "properties": {"NAME": "W5T/CI-013", "TITLE": "5917", "REGION": "Chisos Mountains", "ASSOCIATION": "USA - Texas", "POINTS": "8", "BONUSPOINTS": "3"}}, {"type": "Feature", "geometry": {"type": "Point", "coordinates": [-103.3329, 29.1575]}, "properties": {"NAME": "W5T/CI-014", "TITLE": "5500", "REGION": "Chisos Mountains", "ASSOCIATION": "USA - Texas", "POINTS": "6", "BONUSPOINTS": "3"}}, {"type": "Feature", "geometry": {"type": "Point", "coordinates": [-103.3605, 29.2297]}, "properties": {"NAME": "W5T/CI-015", "TITLE": "5285", "REGION": "Chisos Mountains", "ASSOCIATION": "USA - Texas", "POINTS": "6", "BONUSPOINTS": "3"}}, {"type": "Feature", "geometry": {"type": "Point", "coordinates": [-103.2677, 29.1573]}, "properties": {"NAME": "W5T/CI-016", "TITLE": "Elephant Tusk", "REGION": "Chisos Mountains", "ASSOCIATION": "USA - Texas", "POINTS": "6", "BONUSPOINTS": "3"}}, {"type": "Feature", "geometry": {"type": "Point", "coordinates": [-103.3222, 29.1261]}, "properties": {"NAME": "W5T/CI-017", "TITLE": "5168", "REGION": "Chisos Mountains", "ASSOCIATION": "USA - Texas", "POINTS": "6", "BONUSPOINTS": "3"}}, {"type": "Feature", "geometry": {"type": "Point", "coordinates": [-103.2971, 29.142]}, "properties": {"NAME": "W5T/CI-018", "TITLE": "Dominguez Mountain", "REGION": "Chisos Mountains", "ASSOCIATION": "USA - Texas", "POINTS": "6", "BONUSPOINTS": "3"}}, {"type": "Feature", "geometry": {"type": "Point", "coordinates": [-103.2525, 29.1981]}, "properties": {"NAME": "W5T/CI-019", "TITLE": "5140", "REGION": "Chisos Mountains", "ASSOCIATION": "USA - Texas", "POINTS": "6", "BONUSPOINTS": "3"}}, {"type": "Feature", "geometry": {"type": "Point", "coordinates": [-103.3177, 29.106]}, "properties": {"NAME": "W5T/CI-020", "TITLE": "Punta de la Sierra", "REGION": "Chisos Mountains", "ASSOCIATION": "USA - Texas", "POINTS": "4", "BONUSPOINTS": "3"}}, {"type": "Feature", "geometry": {"type": "Point", "coordinates": [-103.1718, 29.2627]}, "properties": {"NAME": "W5T/CI-021", "TITLE": "Nugent Mountain", "REGION": "Chisos Mountains", "ASSOCIATION": "USA - Texas", "POINTS": "4", "BONUSPOINTS": "3"}}, {"type": "Feature", "geometry": {"type": "Point", "coordinates": [-103.2731, 29.1431]}, "properties": {"NAME": "W5T/CI-022", "TITLE": "Backbone Ridge", "REGION": "Chisos Mountains", "ASSOCIATION": "USA - Texas", "POINTS": "4", "BONUSPOINTS": "3"}}, {"type": "Feature", "geometry": {"type": "Point", "coordinates": [-103.3674, 29.1701]}, "properties": {"NAME": "W5T/CI-023", "TITLE": "4685", "REGION": "Chisos Mountains", "ASSOCIATION": "USA - Texas", "POINTS": "4", "BONUSPOINTS": "3"}}, {"type": "Feature", "geometry": {"type": "Point", "coordinates": [-103.4063, 29.1878]}, "properties": {"NAME": "W5T/CI-024", "TITLE": "Goat Mountain", "REGION": "Chisos Mountains", "ASSOCIATION": "USA - Texas", "POINTS": "4", "BONUSPOINTS": "3"}}, {"type": "Feature", "geometry": {"type": "Point", "coordinates": [-103.4126, 29.2472]}, "properties": {"NAME": "W5T/CI-025", "TITLE": "Burro Mesa", "REGION": "Chisos Mountains", "ASSOCIATION": "USA - Texas", "POINTS": "4", "BONUSPOINTS": "3"}}, {"type": "Feature", "geometry": {"type": "Point", "coordinates": [-103.3871, 29.1834]}, "properties": {"NAME": "W5T/CI-026", "TITLE": "4358", "REGION": "Chisos Mountains", "ASSOCIATION": "USA - Texas", "POINTS": "4", "BONUSPOINTS": "3"}}, {"type": "Feature", "geometry": {"type": "Point", "coordinates": [-103.4278, 29.1719]}, "properties": {"NAME": "W5T/CI-027", "TITLE": "Trap Mountain", "REGION": "Chisos Mountains", "ASSOCIATION": "USA - Texas", "POINTS": "2", "BONUSPOINTS": "3"}}, {"type": "Feature", "geometry": {"type": "Point", "coordinates": [-103.154, 29.2045]}, "properties": {"NAME": "W5T/CI-028", "TITLE": "Chilicotal Mountain", "REGION": "Chisos Mountains", "ASSOCIATION": "USA - Texas", "POINTS": "2", "BONUSPOINTS": "3"}}, {"type": "Feature", "geometry": {"type": "Point", "coordinates": [-103.1495, 29.0254]}, "properties": {"NAME": "W5T/CI-029", "TITLE": "Mariscal Mountain", "REGION": "Chisos Mountains", "ASSOCIATION": "USA - Texas", "POINTS": "2", "BONUSPOINTS": "3"}}, {"type": "Feature", "geometry": {"type": "Point", "coordinates": [-103.4023, 29.1435]}, "properties": {"NAME": "W5T/CI-030", "TITLE": "South Mule Ear Peaks", "REGION": "Chisos Mountains", "ASSOCIATION": "USA - Texas", "POINTS": "2", "BONUSPOINTS": "3"}}, {"type": "Feature", "geometry": {"type": "Point", "coordinates": [-103.4508, 29.2038]}, "properties": {"NAME": "W5T/CI-031", "TITLE": "Kit Mountain", "REGION": "Chisos Mountains", "ASSOCIATION": "USA - Texas", "POINTS": "2", "BONUSPOINTS": "3"}}, {"type": "Feature", "geometry": {"type": "Point", "coordinates": [-103.1668, 29.1359]}, "properties": {"NAME": "W5T/CI-032", "TITLE": "Talley Mountain", "REGION": "Chisos Mountains", "ASSOCIATION": "USA - Texas", "POINTS": "2", "BONUSPOINTS": "3"}}, {"type": "Feature", "geometry": {"type": "Point", "coordinates": [-103.4124, 29.1388]}, "properties": {"NAME": "W5T/CI-033", "TITLE": "3625", "REGION": "Chisos Mountains", "ASSOCIATION": "USA - Texas", "POINTS": "2", "BONUSPOINTS": "3"}}, {"type": "Feature", "geometry": {"type": "Point", "coordinates": [-103.4862, 29.1878]}, "properties": {"NAME": "W5T/CI-034", "TITLE": "Bee Mountain", "REGION": "Chisos Mountains", "ASSOCIATION": "USA - Texas", "POINTS": "1", "BONUSPOINTS": "3"}}, {"type": "Feature", "geometry": {"type": "Point", "coordinates": [-103.4508, 29.1703]}, "properties": {"NAME": "W5T/CI-035", "TITLE": "3402", "REGION": "Chisos Mountains", "ASSOCIATION": "USA - Texas", "POINTS": "1", "BONUSPOINTS": "3"}}, {"type": "Feature", "geometry": {"type": "Point", "coordinates": [-103.4974, 29.1445]}, "properties": {"NAME": "W5T/CI-036", "TITLE": "Cerro Castellan", "REGION": "Chisos Mountains", "ASSOCIATION": "USA - Texas", "POINTS": "1", "BONUSPOINTS": "3"}}, {"type": "Feature", "geometry": {"type": "Point", "coordinates": [-103.3182, 29.2134]}, "properties": {"NAME": "W5T/CI-037", "TITLE": "6395", "REGION": "Chisos Mountains", "ASSOCIATION": "USA - Texas", "POINTS": "8", "BONUSPOINTS": "3"}}]}