{"type": "FeatureCollection", "name": "W5T/CR SUMMITS", "features": [{"type": "Feature", "geometry": {"type": "Point", "coordinates": [-103.4424, 29.4253]}, "properties": {"NAME": "W5T/CR-001", "TITLE": "Christmas Mountains HP", "REGION": "Christmas Mountains", "ASSOCIATION": "USA - Texas", "POINTS": "6", "BONUSPOINTS": "3"}}, {"type": "Feature", "geometry": {"type": "Point", "coordinates": [-103.4621, 29.6554]}, "properties": {"NAME": "W5T/CR-002", "TITLE": "Nine Point Mesa", "REGION": "Christmas Mountains", "ASSOCIATION": "USA - Texas", "POINTS": "6", "BONUSPOINTS": "3"}}, {"type": "Feature", "geometry": {"type": "Point", "coordinates": [-103.4596, 29.4542]}, "properties": {"NAME": "W5T/CR-003", "TITLE": "Paisano Peak", "REGION": "Christmas Mountains", "ASSOCIATION": "USA - Texas", "POINTS": "6", "BONUSPOINTS": "3"}}, {"type": "Feature", "geometry": {"type": "Point", "coordinates": [-103.2442, 29.5308]}, "properties": {"NAME": "W5T/CR-004", "TITLE": "Rosillo Peak", "REGION": "Christmas Mountains", "ASSOCIATION": "USA - Texas", "POINTS": "6", "BONUSPOINTS": "3"}}, {"type": "Feature", "geometry": {"type": "Point", "coordinates": [-103.4288, 29.4919]}, "properties": {"NAME": "W5T/CR-005", "TITLE": "West Corazon Peak", "REGION": "Christmas Mountains", "ASSOCIATION": "USA - Texas", "POINTS": "6", "BONUSPOINTS": "3"}}, {"type": "Feature", "geometry": {"type": "Point", "coordinates": [-103.239, 29.513]}, "properties": {"NAME": "W5T/CR-006", "TITLE": "5217", "REGION": "Christmas Mountains", "ASSOCIATION": "USA - Texas", "POINTS": "6", "BONUSPOINTS": "3"}}, {"type": "Feature", "geometry": {"type": "Point", "coordinates": [-103.4034, 29.4973]}, "properties": {"NAME": "W5T/CR-007", "TITLE": "East Corazon Peak", "REGION": "Christmas Mountains", "ASSOCIATION": "USA - Texas", "POINTS": "4", "BONUSPOINTS": "3"}}, {"type": "Feature", "geometry": {"type": "Point", "coordinates": [-103.5913, 29.4738]}, "properties": {"NAME": "W5T/CR-008", "TITLE": "Hen Egg Mountain", "REGION": "Christmas Mountains", "ASSOCIATION": "USA - Texas", "POINTS": "4", "BONUSPOINTS": "3"}}, {"type": "Feature", "geometry": {"type": "Point", "coordinates": [-103.4629, 29.4765]}, "properties": {"NAME": "W5T/CR-009", "TITLE": "Mount Williams", "REGION": "Christmas Mountains", "ASSOCIATION": "USA - Texas", "POINTS": "4", "BONUSPOINTS": "3"}}, {"type": "Feature", "geometry": {"type": "Point", "coordinates": [-103.4217, 29.4578]}, "properties": {"NAME": "W5T/CR-010", "TITLE": "4859", "REGION": "Christmas Mountains", "ASSOCIATION": "USA - Texas", "POINTS": "4", "BONUSPOINTS": "3"}}, {"type": "Feature", "geometry": {"type": "Point", "coordinates": [-103.6441, 29.5155]}, "properties": {"NAME": "W5T/CR-011", "TITLE": "Aqua Fria Mountain", "REGION": "Christmas Mountains", "ASSOCIATION": "USA - Texas", "POINTS": "4", "BONUSPOINTS": "3"}}, {"type": "Feature", "geometry": {"type": "Point", "coordinates": [-103.4549, 29.499]}, "properties": {"NAME": "W5T/CR-012", "TITLE": "4765", "REGION": "Christmas Mountains", "ASSOCIATION": "USA - Texas", "POINTS": "4", "BONUSPOINTS": "3"}}, {"type": "Feature", "geometry": {"type": "Point", "coordinates": [-103.4156, 29.5112]}, "properties": {"NAME": "W5T/CR-013", "TITLE": "4661", "REGION": "Christmas Mountains", "ASSOCIATION": "USA - Texas", "POINTS": "4", "BONUSPOINTS": "3"}}, {"type": "Feature", "geometry": {"type": "Point", "coordinates": [-103.5614, 29.5147]}, "properties": {"NAME": "W5T/CR-014", "TITLE": "Packsaddle Mountain", "REGION": "Christmas Mountains", "ASSOCIATION": "USA - Texas", "POINTS": "4", "BONUSPOINTS": "3"}}, {"type": "Feature", "geometry": {"type": "Point", "coordinates": [-103.5978, 29.4891]}, "properties": {"NAME": "W5T/CR-015", "TITLE": "4625", "REGION": "Christmas Mountains", "ASSOCIATION": "USA - Texas", "POINTS": "4", "BONUSPOINTS": "3"}}, {"type": "Feature", "geometry": {"type": "Point", "coordinates": [-103.2955, 29.5122]}, "properties": {"NAME": "W5T/CR-016", "TITLE": "4522", "REGION": "Christmas Mountains", "ASSOCIATION": "USA - Texas", "POINTS": "4", "BONUSPOINTS": "3"}}, {"type": "Feature", "geometry": {"type": "Point", "coordinates": [-103.5032, 29.4883]}, "properties": {"NAME": "W5T/CR-017", "TITLE": "Adobe Walls Mountain", "REGION": "Christmas Mountains", "ASSOCIATION": "USA - Texas", "POINTS": "4", "BONUSPOINTS": "3"}}, {"type": "Feature", "geometry": {"type": "Point", "coordinates": [-103.5742, 29.4915]}, "properties": {"NAME": "W5T/CR-018", "TITLE": "4506", "REGION": "Christmas Mountains", "ASSOCIATION": "USA - Texas", "POINTS": "4", "BONUSPOINTS": "3"}}, {"type": "Feature", "geometry": {"type": "Point", "coordinates": [-103.4744, 29.4969]}, "properties": {"NAME": "W5T/CR-019", "TITLE": "4488", "REGION": "Christmas Mountains", "ASSOCIATION": "USA - Texas", "POINTS": "4", "BONUSPOINTS": "3"}}, {"type": "Feature", "geometry": {"type": "Point", "coordinates": [-103.2824, 29.5086]}, "properties": {"NAME": "W5T/CR-020", "TITLE": "4462", "REGION": "Christmas Mountains", "ASSOCIATION": "USA - Texas", "POINTS": "4", "BONUSPOINTS": "3"}}, {"type": "Feature", "geometry": {"type": "Point", "coordinates": [-103.4846, 29.5121]}, "properties": {"NAME": "W5T/CR-021", "TITLE": "Eastwood Mesa", "REGION": "Christmas Mountains", "ASSOCIATION": "USA - Texas", "POINTS": "4", "BONUSPOINTS": "3"}}, {"type": "Feature", "geometry": {"type": "Point", "coordinates": [-103.3883, 29.4502]}, "properties": {"NAME": "W5T/CR-022", "TITLE": "Whitehouse Mountain", "REGION": "Christmas Mountains", "ASSOCIATION": "USA - Texas", "POINTS": "4", "BONUSPOINTS": "3"}}, {"type": "Feature", "geometry": {"type": "Point", "coordinates": [-103.3863, 29.4577]}, "properties": {"NAME": "W5T/CR-023", "TITLE": "4220", "REGION": "Christmas Mountains", "ASSOCIATION": "USA - Texas", "POINTS": "4", "BONUSPOINTS": "3"}}, {"type": "Feature", "geometry": {"type": "Point", "coordinates": [-103.3551, 29.4724]}, "properties": {"NAME": "W5T/CR-024", "TITLE": "4390", "REGION": "Christmas Mountains", "ASSOCIATION": "USA - Texas", "POINTS": "4", "BONUSPOINTS": "3"}}, {"type": "Feature", "geometry": {"type": "Point", "coordinates": [-103.5077, 29.4611]}, "properties": {"NAME": "W5T/CR-025", "TITLE": "4375", "REGION": "Christmas Mountains", "ASSOCIATION": "USA - Texas", "POINTS": "4", "BONUSPOINTS": "3"}}, {"type": "Feature", "geometry": {"type": "Point", "coordinates": [-103.6045, 29.5118]}, "properties": {"NAME": "W5T/CR-026", "TITLE": "Panther Mountain", "REGION": "Christmas Mountains", "ASSOCIATION": "USA - Texas", "POINTS": "4", "BONUSPOINTS": "3"}}, {"type": "Feature", "geometry": {"type": "Point", "coordinates": [-103.6028, 29.5018]}, "properties": {"NAME": "W5T/CR-027", "TITLE": "4295", "REGION": "Christmas Mountains", "ASSOCIATION": "USA - Texas", "POINTS": "2", "BONUSPOINTS": "3"}}, {"type": "Feature", "geometry": {"type": "Point", "coordinates": [-103.5022, 29.4408]}, "properties": {"NAME": "W5T/CR-028", "TITLE": "4234", "REGION": "Christmas Mountains", "ASSOCIATION": "USA - Texas", "POINTS": "2", "BONUSPOINTS": "3"}}, {"type": "Feature", "geometry": {"type": "Point", "coordinates": [-103.3241, 29.4921]}, "properties": {"NAME": "W5T/CR-029", "TITLE": "Sombrero Peak", "REGION": "Christmas Mountains", "ASSOCIATION": "USA - Texas", "POINTS": "2", "BONUSPOINTS": "3"}}, {"type": "Feature", "geometry": {"type": "Point", "coordinates": [-103.5068, 29.5854]}, "properties": {"NAME": "W5T/CR-030", "TITLE": "Red Bluff", "REGION": "Christmas Mountains", "ASSOCIATION": "USA - Texas", "POINTS": "2", "BONUSPOINTS": "3"}}, {"type": "Feature", "geometry": {"type": "Point", "coordinates": [-103.5174, 29.6277]}, "properties": {"NAME": "W5T/CR-031", "TITLE": "Black Hill", "REGION": "Christmas Mountains", "ASSOCIATION": "USA - Texas", "POINTS": "2", "BONUSPOINTS": "3"}}, {"type": "Feature", "geometry": {"type": "Point", "coordinates": [-103.4125, 29.574]}, "properties": {"NAME": "W5T/CR-032", "TITLE": "3922", "REGION": "Christmas Mountains", "ASSOCIATION": "USA - Texas", "POINTS": "2", "BONUSPOINTS": "3"}}, {"type": "Feature", "geometry": {"type": "Point", "coordinates": [-103.2976, 29.5533]}, "properties": {"NAME": "W5T/CR-033", "TITLE": "3853", "REGION": "Christmas Mountains", "ASSOCIATION": "USA - Texas", "POINTS": "2", "BONUSPOINTS": "3"}}]}