{"type": "FeatureCollection", "name": "US-PA POTA PARKS", "features": [{"type": "Feature", "geometry": {"type": "Point", "coordinates": [-77.2245, 39.8107]}, "properties": {"NAME": "US-0027", "TITLE": "Gettysburg National Military Park"}}, {"type": "Feature", "geometry": {"type": "Point", "coordinates": [-79.9598, 41.6267]}, "properties": {"NAME": "US-0511", "TITLE": "Erie National Wildlife Refuge"}}, {"type": "Feature", "geometry": {"type": "Point", "coordinates": [-75.2575, 39.8929]}, "properties": {"NAME": "US-0512", "TITLE": "John Heinz National Wildlife Refuge"}}, {"type": "Feature", "geometry": {"type": "Point", "coordinates": [-79.1022, 41.4864]}, "properties": {"NAME": "US-0619", "TITLE": "Allegheny National Forest"}}, {"type": "Feature", "geometry": {"type": "Point", "coordinates": [-79.9056, 40.543]}, "properties": {"NAME": "US-0620", "TITLE": "Beechwood Farms State Conservation Area"}}, {"type": "Feature", "geometry": {"type": "Point", "coordinates": [-79.6974, 40.7324]}, "properties": {"NAME": "US-0621", "TITLE": "Todd Sanctuary State Conservation Area"}}, {"type": "Feature", "geometry": {"type": "Point", "coordinates": [-79.461, 39.9057]}, "properties": {"NAME": "US-0622", "TITLE": "Bear Run State Conservation Area"}}, {"type": "Feature", "geometry": {"type": "Point", "coordinates": [-79.2719, 40.1603]}, "properties": {"NAME": "US-0623", "TITLE": "Powdermill State Conservation Area"}}, {"type": "Feature", "geometry": {"type": "Point", "coordinates": [-79.2721, 40.0666]}, "properties": {"NAME": "US-0624", "TITLE": "Roaring Run State Conservation Area"}}, {"type": "Feature", "geometry": {"type": "Point", "coordinates": [-79.1783, 39.7862]}, "properties": {"NAME": "US-0625", "TITLE": "Mount Davis State Conservation Area"}}, {"type": "Feature", "geometry": {"type": "Point", "coordinates": [-78.5006, 39.8321]}, "properties": {"NAME": "US-0626", "TITLE": "Sweet Root State Conservation Area"}}, {"type": "Feature", "geometry": {"type": "Point", "coordinates": [-78.478, 39.7925]}, "properties": {"NAME": "US-0627", "TITLE": "Pine Ridge State Conservation Area"}}, {"type": "Feature", "geometry": {"type": "Point", "coordinates": [-78.9853, 40.411]}, "properties": {"NAME": "US-0628", "TITLE": "Charles F. Lewis State Conservation Area"}}, {"type": "Feature", "geometry": {"type": "Point", "coordinates": [-74.923, 41.4801]}, "properties": {"NAME": "US-0681", "TITLE": "Upper Delaware National Wild and Scenic River"}}, {"type": "Feature", "geometry": {"type": "Point", "coordinates": [-74.872, 40.297]}, "properties": {"NAME": "US-0684", "TITLE": "Lower Delaware National Wild and Scenic River"}}, {"type": "Feature", "geometry": {"type": "Point", "coordinates": [-79.5861, 39.8141]}, "properties": {"NAME": "US-0704", "TITLE": "Fort Necessity National Battlefield"}}, {"type": "Feature", "geometry": {"type": "Point", "coordinates": [-75.1498, 39.9514]}, "properties": {"NAME": "US-0738", "TITLE": "Independence National Historical Park"}}, {"type": "Feature", "geometry": {"type": "Point", "coordinates": [-75.4252, 40.1016]}, "properties": {"NAME": "US-0761", "TITLE": "Valley Forge National Historical Park"}}, {"type": "Feature", "geometry": {"type": "Point", "coordinates": [-78.9057, 40.0577]}, "properties": {"NAME": "US-0774", "TITLE": "Flight 93 National Memorial"}}, {"type": "Feature", "geometry": {"type": "Point", "coordinates": [-78.7703, 40.3495]}, "properties": {"NAME": "US-0781", "TITLE": "Johnstown Flood National Memorial"}}, {"type": "Feature", "geometry": {"type": "Point", "coordinates": [-75.1473, 39.9434]}, "properties": {"NAME": "US-0790", "TITLE": "Thaddeus Kosciuszko National Memorial"}}, {"type": "Feature", "geometry": {"type": "Point", "coordinates": [-78.5491, 40.4573]}, "properties": {"NAME": "US-0798", "TITLE": "Allegheny Portage Railroad National Historic Site"}}, {"type": "Feature", "geometry": {"type": "Point", "coordinates": [-75.1498, 39.962]}, "properties": {"NAME": "US-0809", "TITLE": "Edgar Allan Poe National Historic Site"}}, {"type": "Feature", "geometry": {"type": "Point", "coordinates": [-77.2633, 39.7939]}, "properties": {"NAME": "US-0810", "TITLE": "Eisenhower National Historic Site"}}, {"type": "Feature", "geometry": {"type": "Point", "coordinates": [-79.932, 39.7781]}, "properties": {"NAME": "US-0827", "TITLE": "Friendship Hill National Historic Site"}}, {"type": "Feature", "geometry": {"type": "Point", "coordinates": [-75.7734, 40.2069]}, "properties": {"NAME": "US-0834", "TITLE": "Hopewell Furnace National Historic Site"}}, {"type": "Feature", "geometry": {"type": "Point", "coordinates": [-75.672, 41.4079]}, "properties": {"NAME": "US-0864", "TITLE": "Steamtown National Historic Site"}}, {"type": "Feature", "geometry": {"type": "Point", "coordinates": [-75.7736, 39.7504]}, "properties": {"NAME": "US-0898", "TITLE": "White Clay Creek National Wild and Scenic River"}}, {"type": "Feature", "geometry": {"type": "Point", "coordinates": [-79.8216, 40.5373]}, "properties": {"NAME": "US-1327", "TITLE": "Allegheny Islands State Park"}}, {"type": "Feature", "geometry": {"type": "Point", "coordinates": [-75.5757, 41.513]}, "properties": {"NAME": "US-1328", "TITLE": "Archbald Pothole State Park"}}, {"type": "Feature", "geometry": {"type": "Point", "coordinates": [-77.6512, 41.0341]}, "properties": {"NAME": "US-1329", "TITLE": "Bald Eagle State Park"}}, {"type": "Feature", "geometry": {"type": "Point", "coordinates": [-75.6179, 40.8634]}, "properties": {"NAME": "US-1330", "TITLE": "Beltzville State Park"}}, {"type": "Feature", "geometry": {"type": "Point", "coordinates": [-78.6289, 41.5282]}, "properties": {"NAME": "US-1331", "TITLE": "Bendigo State Park"}}, {"type": "Feature", "geometry": {"type": "Point", "coordinates": [-74.9779, 40.1167]}, "properties": {"NAME": "US-1332", "TITLE": "Benjamin Rush State Park"}}, {"type": "Feature", "geometry": {"type": "Point", "coordinates": [-75.3497, 41.0426]}, "properties": {"NAME": "US-1333", "TITLE": "Big Pocono State Park"}}, {"type": "Feature", "geometry": {"type": "Point", "coordinates": [-78.0588, 40.9147]}, "properties": {"NAME": "US-1334", "TITLE": "Black Moshannon State Park"}}, {"type": "Feature", "geometry": {"type": "Point", "coordinates": [-78.5624, 40.2881]}, "properties": {"NAME": "US-1335", "TITLE": "Blue Knob State Park"}}, {"type": "Feature", "geometry": {"type": "Point", "coordinates": [-77.9535, 39.8708]}, "properties": {"NAME": "US-1336", "TITLE": "Buchanan's Birthplace State Park"}}, {"type": "Feature", "geometry": {"type": "Point", "coordinates": [-77.4783, 39.9087]}, "properties": {"NAME": "US-1337", "TITLE": "Caledonia State Park"}}, {"type": "Feature", "geometry": {"type": "Point", "coordinates": [-78.2838, 40.4841]}, "properties": {"NAME": "US-1338", "TITLE": "Canoe Creek State Park"}}, {"type": "Feature", "geometry": {"type": "Point", "coordinates": [-79.1705, 41.7536]}, "properties": {"NAME": "US-1339", "TITLE": "Chapman State Park"}}, {"type": "Feature", "geometry": {"type": "Point", "coordinates": [-77.8228, 41.6634]}, "properties": {"NAME": "US-1340", "TITLE": "Cherry Springs State Park"}}, {"type": "Feature", "geometry": {"type": "Point", "coordinates": [-79.0769, 41.3229]}, "properties": {"NAME": "US-1341", "TITLE": "Clear Creek State Park"}}, {"type": "Feature", "geometry": {"type": "Point", "coordinates": [-76.9027, 39.7926]}, "properties": {"NAME": "US-1342", "TITLE": "Codorus State Park"}}, {"type": "Feature", "geometry": {"type": "Point", "coordinates": [-77.4156, 40.2819]}, "properties": {"NAME": "US-1343", "TITLE": "Colonel Denning State Park"}}, {"type": "Feature", "geometry": {"type": "Point", "coordinates": [-77.4653, 41.7083]}, "properties": {"NAME": "US-1344", "TITLE": "Colton Point State Park"}}, {"type": "Feature", "geometry": {"type": "Point", "coordinates": [-79.2211, 41.3527]}, "properties": {"NAME": "US-1345", "TITLE": "Cook Forest State Park"}}, {"type": "Feature", "geometry": {"type": "Point", "coordinates": [-77.9216, 39.9993]}, "properties": {"NAME": "US-1346", "TITLE": "Cowans Gap State Park"}}, {"type": "Feature", "geometry": {"type": "Point", "coordinates": [-75.0606, 40.4176]}, "properties": {"NAME": "US-1347", "TITLE": "Delaware Canal State Park"}}, {"type": "Feature", "geometry": {"type": "Point", "coordinates": [-77.8284, 41.7773]}, "properties": {"NAME": "US-1348", "TITLE": "Denton Hill State Park"}}, {"type": "Feature", "geometry": {"type": "Point", "coordinates": [-78.5598, 41.6061]}, "properties": {"NAME": "US-1349", "TITLE": "Elk State Park"}}, {"type": "Feature", "geometry": {"type": "Point", "coordinates": [-80.376, 42.0153]}, "properties": {"NAME": "US-1350", "TITLE": "Erie Bluffs State Park"}}, {"type": "Feature", "geometry": {"type": "Point", "coordinates": [-75.404, 40.2007]}, "properties": {"NAME": "US-1351", "TITLE": "Evansburg State Park"}}, {"type": "Feature", "geometry": {"type": "Point", "coordinates": [-75.2237, 40.1209]}, "properties": {"NAME": "US-1352", "TITLE": "Fort Washington State Park"}}, {"type": "Feature", "geometry": {"type": "Point", "coordinates": [-77.5833, 40.2705]}, "properties": {"NAME": "US-1353", "TITLE": "Fowlers Hollow State Park"}}, {"type": "Feature", "geometry": {"type": "Point", "coordinates": [-75.8914, 41.34]}, "properties": {"NAME": "US-1354", "TITLE": "Frances Slocum State Park"}}, {"type": "Feature", "geometry": {"type": "Point", "coordinates": [-75.7898, 40.1999]}, "properties": {"NAME": "US-1355", "TITLE": "French Creek State Park"}}, {"type": "Feature", "geometry": {"type": "Point", "coordinates": [-76.8881, 40.087]}, "properties": {"NAME": "US-1356", "TITLE": "Gifford Pinchot State Park"}}, {"type": "Feature", "geometry": {"type": "Point", "coordinates": [-75.4579, 41.2258]}, "properties": {"NAME": "US-1357", "TITLE": "Gouldsboro State Park"}}, {"type": "Feature", "geometry": {"type": "Point", "coordinates": [-77.7542, 40.6507]}, "properties": {"NAME": "US-1358", "TITLE": "Greenwood Furnace State Park"}}, {"type": "Feature", "geometry": {"type": "Point", "coordinates": [-75.6885, 41.029]}, "properties": {"NAME": "US-1359", "TITLE": "Hickory Run State Park"}}, {"type": "Feature", "geometry": {"type": "Point", "coordinates": [-80.4177, 40.4548]}, "properties": {"NAME": "US-1360", "TITLE": "Hillman State Park"}}, {"type": "Feature", "geometry": {"type": "Point", "coordinates": [-77.1968, 41.8077]}, "properties": {"NAME": "US-1361", "TITLE": "Hills Creek State Park"}}, {"type": "Feature", "geometry": {"type": "Point", "coordinates": [-77.6256, 41.3602]}, "properties": {"NAME": "US-1362", "TITLE": "Hyner Run State Park"}}, {"type": "Feature", "geometry": {"type": "Point", "coordinates": [-77.6236, 41.3266]}, "properties": {"NAME": "US-1363", "TITLE": "Hyner View State Park"}}, {"type": "Feature", "geometry": {"type": "Point", "coordinates": [-77.9323, 41.3754]}, "properties": {"NAME": "US-1364", "TITLE": "Kettle Creek State Park"}}, {"type": "Feature", "geometry": {"type": "Point", "coordinates": [-79.3803, 40.3753]}, "properties": {"NAME": "US-1365", "TITLE": "Keystone State Park"}}, {"type": "Feature", "geometry": {"type": "Point", "coordinates": [-78.587, 41.7589]}, "properties": {"NAME": "US-1366", "TITLE": "Kinzua Bridge State Park"}}, {"type": "Feature", "geometry": {"type": "Point", "coordinates": [-79.226, 40.0591]}, "properties": {"NAME": "US-1367", "TITLE": "Kooser State Park"}}, {"type": "Feature", "geometry": {"type": "Point", "coordinates": [-75.7084, 41.5644]}, "properties": {"NAME": "US-1368", "TITLE": "Lackawanna State Park"}}, {"type": "Feature", "geometry": {"type": "Point", "coordinates": [-79.2395, 39.9984]}, "properties": {"NAME": "US-1369", "TITLE": "Laurel Hill State Park"}}, {"type": "Feature", "geometry": {"type": "Point", "coordinates": [-79.1651, 40.1635]}, "properties": {"NAME": "US-1370", "TITLE": "Laurel Mountain State Park"}}, {"type": "Feature", "geometry": {"type": "Point", "coordinates": [-79.3634, 39.9573]}, "properties": {"NAME": "US-1371", "TITLE": "Laurel Ridge State Park"}}, {"type": "Feature", "geometry": {"type": "Point", "coordinates": [-79.1762, 40.1184]}, "properties": {"NAME": "US-1372", "TITLE": "Laurel Summit State Park"}}, {"type": "Feature", "geometry": {"type": "Point", "coordinates": [-75.7448, 40.875]}, "properties": {"NAME": "US-1373", "TITLE": "Lehigh Gorge State Park"}}, {"type": "Feature", "geometry": {"type": "Point", "coordinates": [-77.4547, 41.6963]}, "properties": {"NAME": "US-1374", "TITLE": "Leonard Harrison State Park"}}, {"type": "Feature", "geometry": {"type": "Point", "coordinates": [-79.2132, 40.1545]}, "properties": {"NAME": "US-1375", "TITLE": "Linn Run State Park"}}, {"type": "Feature", "geometry": {"type": "Point", "coordinates": [-77.1926, 40.4523]}, "properties": {"NAME": "US-1376", "TITLE": "Little Buffalo State Park"}}, {"type": "Feature", "geometry": {"type": "Point", "coordinates": [-77.3565, 41.3641]}, "properties": {"NAME": "US-1377", "TITLE": "Little Pine State Park"}}, {"type": "Feature", "geometry": {"type": "Point", "coordinates": [-76.1191, 40.7857]}, "properties": {"NAME": "US-1378", "TITLE": "Locust Lake State Park"}}, {"type": "Feature", "geometry": {"type": "Point", "coordinates": [-77.7606, 41.7248]}, "properties": {"NAME": "US-1379", "TITLE": "Lyman Run State Park"}}, {"type": "Feature", "geometry": {"type": "Point", "coordinates": [-75.7204, 40.0671]}, "properties": {"NAME": "US-1380", "TITLE": "Marsh Creek State Park"}}, {"type": "Feature", "geometry": {"type": "Point", "coordinates": [-80.1469, 41.4269]}, "properties": {"NAME": "US-1381", "TITLE": "Maurice K Goddard State Park"}}, {"type": "Feature", "geometry": {"type": "Point", "coordinates": [-77.1797, 41.0176]}, "properties": {"NAME": "US-1382", "TITLE": "McCalls Dam State Park"}}, {"type": "Feature", "geometry": {"type": "Point", "coordinates": [-80.1683, 40.9517]}, "properties": {"NAME": "US-1383", "TITLE": "McConnells Mill State Park"}}, {"type": "Feature", "geometry": {"type": "Point", "coordinates": [-76.5962, 40.4227]}, "properties": {"NAME": "US-1384", "TITLE": "Memorial Lake State Park"}}, {"type": "Feature", "geometry": {"type": "Point", "coordinates": [-76.8613, 41.0186]}, "properties": {"NAME": "US-1385", "TITLE": "Milton State Park"}}, {"type": "Feature", "geometry": {"type": "Point", "coordinates": [-77.5373, 39.839]}, "properties": {"NAME": "US-1386", "TITLE": "Mont Alto State Park"}}, {"type": "Feature", "geometry": {"type": "Point", "coordinates": [-80.0968, 40.9437]}, "properties": {"NAME": "US-1387", "TITLE": "Moraine State Park"}}, {"type": "Feature", "geometry": {"type": "Point", "coordinates": [-76.6674, 41.8049]}, "properties": {"NAME": "US-1388", "TITLE": "Mt. Pisgah State Park"}}, {"type": "Feature", "geometry": {"type": "Point", "coordinates": [-75.8798, 41.0911]}, "properties": {"NAME": "US-1389", "TITLE": "Nescopeck State Park"}}, {"type": "Feature", "geometry": {"type": "Point", "coordinates": [-74.919, 40.0792]}, "properties": {"NAME": "US-1390", "TITLE": "Neshaminy State Park"}}, {"type": "Feature", "geometry": {"type": "Point", "coordinates": [-75.2346, 40.4617]}, "properties": {"NAME": "US-1391", "TITLE": "Nockamixon State Park"}}, {"type": "Feature", "geometry": {"type": "Point", "coordinates": [-79.4944, 39.868]}, "properties": {"NAME": "US-1392", "TITLE": "Ohiopyle State Park"}}, {"type": "Feature", "geometry": {"type": "Point", "coordinates": [-79.6805, 41.5151]}, "properties": {"NAME": "US-1393", "TITLE": "Oil Creek State Park"}}, {"type": "Feature", "geometry": {"type": "Point", "coordinates": [-77.7147, 41.5387]}, "properties": {"NAME": "US-1394", "TITLE": "Ole Bull State Park"}}, {"type": "Feature", "geometry": {"type": "Point", "coordinates": [-78.5107, 41.1942]}, "properties": {"NAME": "US-1395", "TITLE": "Parker Dam State Park"}}, {"type": "Feature", "geometry": {"type": "Point", "coordinates": [-77.8932, 41.6958]}, "properties": {"NAME": "US-1396", "TITLE": "Patterson State Park"}}, {"type": "Feature", "geometry": {"type": "Point", "coordinates": [-77.7028, 40.7269]}, "properties": {"NAME": "US-1397", "TITLE": "Penn-Roosevelt State Park"}}, {"type": "Feature", "geometry": {"type": "Point", "coordinates": [-77.3011, 40.0319]}, "properties": {"NAME": "US-1398", "TITLE": "Pine Grove Furnace State Park"}}, {"type": "Feature", "geometry": {"type": "Point", "coordinates": [-77.4168, 40.8347]}, "properties": {"NAME": "US-1399", "TITLE": "Poe Paddy State Park"}}, {"type": "Feature", "geometry": {"type": "Point", "coordinates": [-77.4719, 40.8197]}, "properties": {"NAME": "US-1400", "TITLE": "Poe Valley State Park"}}, {"type": "Feature", "geometry": {"type": "Point", "coordinates": [-80.0096, 40.4407]}, "properties": {"NAME": "US-1401", "TITLE": "Point State Park"}}, {"type": "Feature", "geometry": {"type": "Point", "coordinates": [-80.1518, 42.1163]}, "properties": {"NAME": "US-1402", "TITLE": "Presque Isle State Park"}}, {"type": "Feature", "geometry": {"type": "Point", "coordinates": [-78.5701, 40.6651]}, "properties": {"NAME": "US-1403", "TITLE": "Prince Gallitzin State Park"}}, {"type": "Feature", "geometry": {"type": "Point", "coordinates": [-75.2069, 41.3183]}, "properties": {"NAME": "US-1404", "TITLE": "Promised Land State Park"}}, {"type": "Feature", "geometry": {"type": "Point", "coordinates": [-75.342, 41.6119]}, "properties": {"NAME": "US-1405", "TITLE": "Prompton State Park"}}, {"type": "Feature", "geometry": {"type": "Point", "coordinates": [-77.9126, 41.6581]}, "properties": {"NAME": "US-1406", "TITLE": "Prouty Place State Park"}}, {"type": "Feature", "geometry": {"type": "Point", "coordinates": [-80.4589, 41.6564]}, "properties": {"NAME": "US-1407", "TITLE": "Pymatuning State Park"}}, {"type": "Feature", "geometry": {"type": "Point", "coordinates": [-77.1903, 40.9903]}, "properties": {"NAME": "US-1408", "TITLE": "Raymond B Winter State Park"}}, {"type": "Feature", "geometry": {"type": "Point", "coordinates": [-80.4247, 40.5036]}, "properties": {"NAME": "US-1409", "TITLE": "Raccoon Creek State Park"}}, {"type": "Feature", "geometry": {"type": "Point", "coordinates": [-75.1008, 40.4356]}, "properties": {"NAME": "US-1410", "TITLE": "Ralph Stover State Park"}}, {"type": "Feature", "geometry": {"type": "Point", "coordinates": [-77.244, 41.102]}, "properties": {"NAME": "US-1411", "TITLE": "Ravensburg State Park"}}, {"type": "Feature", "geometry": {"type": "Point", "coordinates": [-77.4756, 40.7219]}, "properties": {"NAME": "US-1412", "TITLE": "Reeds Gap State Park"}}, {"type": "Feature", "geometry": {"type": "Point", "coordinates": [-76.3015, 41.3351]}, "properties": {"NAME": "US-1413", "TITLE": "Ricketts Glen State Park"}}, {"type": "Feature", "geometry": {"type": "Point", "coordinates": [-75.452, 39.9512]}, "properties": {"NAME": "US-1414", "TITLE": "Ridley Creek State Park"}}, {"type": "Feature", "geometry": {"type": "Point", "coordinates": [-80.4504, 39.8838]}, "properties": {"NAME": "US-1415", "TITLE": "Ryerson Station State Park"}}, {"type": "Feature", "geometry": {"type": "Point", "coordinates": [-78.5259, 41.1128]}, "properties": {"NAME": "US-1416", "TITLE": "S B Elliott State Park"}}, {"type": "Feature", "geometry": {"type": "Point", "coordinates": [-75.8656, 41.9125]}, "properties": {"NAME": "US-1417", "TITLE": "Salt Springs State Park"}}, {"type": "Feature", "geometry": {"type": "Point", "coordinates": [-76.5497, 39.9963]}, "properties": {"NAME": "US-1418", "TITLE": "Samuel S Lewis State Park"}}, {"type": "Feature", "geometry": {"type": "Point", "coordinates": [-77.1273, 40.9879]}, "properties": {"NAME": "US-1419", "TITLE": "Sand Bridge State Park"}}, {"type": "Feature", "geometry": {"type": "Point", "coordinates": [-78.6381, 40.0249]}, "properties": {"NAME": "US-1420", "TITLE": "Shawnee State Park"}}, {"type": "Feature", "geometry": {"type": "Point", "coordinates": [-76.8017, 40.8818]}, "properties": {"NAME": "US-1421", "TITLE": "Shikellamy State Park"}}, {"type": "Feature", "geometry": {"type": "Point", "coordinates": [-78.0567, 41.4733]}, "properties": {"NAME": "US-1422", "TITLE": "Sinnemahoning State Park"}}, {"type": "Feature", "geometry": {"type": "Point", "coordinates": [-78.1812, 41.5965]}, "properties": {"NAME": "US-1423", "TITLE": "Sizerville State Park"}}, {"type": "Feature", "geometry": {"type": "Point", "coordinates": [-77.0526, 41.2246]}, "properties": {"NAME": "US-1424", "TITLE": "Susquehanna State Park"}}, {"type": "Feature", "geometry": {"type": "Point", "coordinates": [-76.2841, 39.806]}, "properties": {"NAME": "US-1425", "TITLE": "Susquehannock State Park"}}, {"type": "Feature", "geometry": {"type": "Point", "coordinates": [-76.5457, 40.483]}, "properties": {"NAME": "US-1426", "TITLE": "Swatara State Park"}}, {"type": "Feature", "geometry": {"type": "Point", "coordinates": [-75.4027, 41.2044]}, "properties": {"NAME": "US-1427", "TITLE": "Tobyhanna State Park"}}, {"type": "Feature", "geometry": {"type": "Point", "coordinates": [-78.1299, 40.3119]}, "properties": {"NAME": "US-1428", "TITLE": "Trough Creek State Park"}}, {"type": "Feature", "geometry": {"type": "Point", "coordinates": [-76.021, 40.8091]}, "properties": {"NAME": "US-1429", "TITLE": "Tuscarora State Park"}}, {"type": "Feature", "geometry": {"type": "Point", "coordinates": [-74.9728, 40.2327]}, "properties": {"NAME": "US-1430", "TITLE": "Tyler State Park"}}, {"type": "Feature", "geometry": {"type": "Point", "coordinates": [-77.4211, 41.3191]}, "properties": {"NAME": "US-1431", "TITLE": "Upper Pine Bottom State Park"}}, {"type": "Feature", "geometry": {"type": "Point", "coordinates": [-78.2521, 40.1961]}, "properties": {"NAME": "US-1432", "TITLE": "Warriors' Path State Park"}}, {"type": "Feature", "geometry": {"type": "Point", "coordinates": [-77.8636, 40.6846]}, "properties": {"NAME": "US-1433", "TITLE": "Whipple Dam State Park"}}, {"type": "Feature", "geometry": {"type": "Point", "coordinates": [-76.5816, 41.4717]}, "properties": {"NAME": "US-1434", "TITLE": "Worlds End State Park"}}, {"type": "Feature", "geometry": {"type": "Point", "coordinates": [-79.0131, 40.5734]}, "properties": {"NAME": "US-1435", "TITLE": "Yellow Creek State Park"}}, {"type": "Feature", "geometry": {"type": "Point", "coordinates": [-75.0169, 41.0706]}, "properties": {"NAME": "US-3379", "TITLE": "Delaware Water Gap National Recreation Area"}}, {"type": "Feature", "geometry": {"type": "Point", "coordinates": [-101.453, 47.5195]}, "properties": {"NAME": "US-4239", "TITLE": "North Country Trail National Scenic Trail"}}, {"type": "Feature", "geometry": {"type": "Point", "coordinates": [-77.661, 40.2626]}, "properties": {"NAME": "US-4355", "TITLE": "Big Spring State Park"}}, {"type": "Feature", "geometry": {"type": "Point", "coordinates": [-76.8676, 40.3588]}, "properties": {"NAME": "US-4356", "TITLE": "Boyd Big Tree State Preserve"}}, {"type": "Feature", "geometry": {"type": "Point", "coordinates": [-78.1507, 41.3811]}, "properties": {"NAME": "US-4357", "TITLE": "Bucktail State Park"}}, {"type": "Feature", "geometry": {"type": "Point", "coordinates": [-75.293, 40.783]}, "properties": {"NAME": "US-4358", "TITLE": "Jacobsburg Environmental State Park"}}, {"type": "Feature", "geometry": {"type": "Point", "coordinates": [-80.004, 41.0091]}, "properties": {"NAME": "US-4359", "TITLE": "Jennings Environmental State Park"}}, {"type": "Feature", "geometry": {"type": "Point", "coordinates": [-76.8596, 40.4424]}, "properties": {"NAME": "US-4360", "TITLE": "Joseph E. Ibberson State Conservation Area"}}, {"type": "Feature", "geometry": {"type": "Point", "coordinates": [-77.2659, 40.0926]}, "properties": {"NAME": "US-4361", "TITLE": "Kings Gap Environmental State Park"}}, {"type": "Feature", "geometry": {"type": "Point", "coordinates": [-75.9491, 40.2768]}, "properties": {"NAME": "US-4362", "TITLE": "Nolde Forest Environmental State Park"}}, {"type": "Feature", "geometry": {"type": "Point", "coordinates": [-75.3416, 40.1462]}, "properties": {"NAME": "US-4363", "TITLE": "Norristown Farm State Park"}}, {"type": "Feature", "geometry": {"type": "Point", "coordinates": [-75.405, 41.4803]}, "properties": {"NAME": "US-4364", "TITLE": "Varden Conservation Area"}}, {"type": "Feature", "geometry": {"type": "Point", "coordinates": [-84.1937, 34.6267]}, "properties": {"NAME": "US-4556", "TITLE": "Appalachian Trail National Scenic Trail"}}, {"type": "Feature", "geometry": {"type": "Point", "coordinates": [-77.2748, 38.6148]}, "properties": {"NAME": "US-4564", "TITLE": "Potomac Heritage Trail National Scenic Trail"}}, {"type": "Feature", "geometry": {"type": "Point", "coordinates": [-77.0681, 38.9049]}, "properties": {"NAME": "US-4567", "TITLE": "Captain John Smith Chesapeake National Historic Trail"}}, {"type": "Feature", "geometry": {"type": "Point", "coordinates": [-95.9246, 41.2646]}, "properties": {"NAME": "US-4572", "TITLE": "Lewis and Clark National Historic Trail"}}, {"type": "Feature", "geometry": {"type": "Point", "coordinates": [-73.9709, 41.312]}, "properties": {"NAME": "US-4582", "TITLE": "Washington-Rochambeau Revolutionary Route National Historic Trail"}}, {"type": "Feature", "geometry": {"type": "Point", "coordinates": [-77.6709, 40.8836]}, "properties": {"NAME": "US-5462", "TITLE": "Bald Eagle State Forest"}}, {"type": "Feature", "geometry": {"type": "Point", "coordinates": [-78.1522, 40.017]}, "properties": {"NAME": "US-5463", "TITLE": "Buchanan State Forest"}}, {"type": "Feature", "geometry": {"type": "Point", "coordinates": [-79.0811, 41.3138]}, "properties": {"NAME": "US-5464", "TITLE": "Clear Creek State Forest"}}, {"type": "Feature", "geometry": {"type": "Point", "coordinates": [-79.8533, 41.6755]}, "properties": {"NAME": "US-5465", "TITLE": "Cornplanter State Forest"}}, {"type": "Feature", "geometry": {"type": "Point", "coordinates": [-75.2042, 41.3583]}, "properties": {"NAME": "US-5466", "TITLE": "Delaware State Forest"}}, {"type": "Feature", "geometry": {"type": "Point", "coordinates": [-78.2859, 41.3254]}, "properties": {"NAME": "US-5467", "TITLE": "Elk State Forest"}}, {"type": "Feature", "geometry": {"type": "Point", "coordinates": [-79.1914, 40.1298]}, "properties": {"NAME": "US-5468", "TITLE": "Forbes State Forest"}}, {"type": "Feature", "geometry": {"type": "Point", "coordinates": [-78.6982, 40.1991]}, "properties": {"NAME": "US-5469", "TITLE": "Gallitzin State Forest"}}, {"type": "Feature", "geometry": {"type": "Point", "coordinates": [-76.8018, 41.4926]}, "properties": {"NAME": "US-5470", "TITLE": "Loyalsock State Forest"}}, {"type": "Feature", "geometry": {"type": "Point", "coordinates": [-77.4445, 39.9729]}, "properties": {"NAME": "US-5471", "TITLE": "Michaux State Forest"}}, {"type": "Feature", "geometry": {"type": "Point", "coordinates": [-78.4523, 41.199]}, "properties": {"NAME": "US-5472", "TITLE": "Moshannon State Forest"}}, {"type": "Feature", "geometry": {"type": "Point", "coordinates": [-75.6302, 41.2]}, "properties": {"NAME": "US-5473", "TITLE": "Pinchot State Forest"}}, {"type": "Feature", "geometry": {"type": "Point", "coordinates": [-77.8192, 40.7113]}, "properties": {"NAME": "US-5474", "TITLE": "Rothrock State Forest"}}, {"type": "Feature", "geometry": {"type": "Point", "coordinates": [-77.7079, 41.2471]}, "properties": {"NAME": "US-5475", "TITLE": "Sproul State Forest"}}, {"type": "Feature", "geometry": {"type": "Point", "coordinates": [-77.6815, 41.5]}, "properties": {"NAME": "US-5476", "TITLE": "Susquehannock State Forest"}}, {"type": "Feature", "geometry": {"type": "Point", "coordinates": [-77.0851, 41.1384]}, "properties": {"NAME": "US-5477", "TITLE": "Tiadaghton State Forest"}}, {"type": "Feature", "geometry": {"type": "Point", "coordinates": [-77.547, 41.7486]}, "properties": {"NAME": "US-5478", "TITLE": "Tioga State Forest"}}, {"type": "Feature", "geometry": {"type": "Point", "coordinates": [-77.5556, 40.3617]}, "properties": {"NAME": "US-5479", "TITLE": "Tuscarora State Forest"}}, {"type": "Feature", "geometry": {"type": "Point", "coordinates": [-76.3346, 40.8306]}, "properties": {"NAME": "US-5480", "TITLE": "Weiser State Forest"}}, {"type": "Feature", "geometry": {"type": "Point", "coordinates": [-75.8108, 40.2016]}, "properties": {"NAME": "US-5481", "TITLE": "William Penn State Forest"}}, {"type": "Feature", "geometry": {"type": "Point", "coordinates": [-74.8722, 40.2951]}, "properties": {"NAME": "US-6432", "TITLE": "Washington Crossing State Historical Park"}}, {"type": "Feature", "geometry": {"type": "Point", "coordinates": [-75.771, 39.7496]}, "properties": {"NAME": "US-6433", "TITLE": "White Clay Creek State Preserve"}}, {"type": "Feature", "geometry": {"type": "Point", "coordinates": [-76.6991, 41.6474]}, "properties": {"NAME": "US-8722", "TITLE": "PA 012 State Game Land"}}, {"type": "Feature", "geometry": {"type": "Point", "coordinates": [-76.3491, 41.315]}, "properties": {"NAME": "US-8723", "TITLE": "PA 013 State Game Land"}}, {"type": "Feature", "geometry": {"type": "Point", "coordinates": [-78.4191, 41.4681]}, "properties": {"NAME": "US-8724", "TITLE": "PA 014 State Game Land"}}, {"type": "Feature", "geometry": {"type": "Point", "coordinates": [-79.1988, 41.4343]}, "properties": {"NAME": "US-8725", "TITLE": "PA 024 State Game Land"}}, {"type": "Feature", "geometry": {"type": "Point", "coordinates": [-78.6063, 41.4604]}, "properties": {"NAME": "US-8726", "TITLE": "PA 025 State Game Land"}}, {"type": "Feature", "geometry": {"type": "Point", "coordinates": [-78.6639, 40.236]}, "properties": {"NAME": "US-8727", "TITLE": "PA 026 State Game Land"}}, {"type": "Feature", "geometry": {"type": "Point", "coordinates": [-78.9485, 41.4158]}, "properties": {"NAME": "US-8728", "TITLE": "PA 028 State Game Land"}}, {"type": "Feature", "geometry": {"type": "Point", "coordinates": [-79.1911, 41.744]}, "properties": {"NAME": "US-8729", "TITLE": "PA 029 State Game Land"}}, {"type": "Feature", "geometry": {"type": "Point", "coordinates": [-78.3686, 41.6539]}, "properties": {"NAME": "US-8730", "TITLE": "PA 030 State Game Land"}}, {"type": "Feature", "geometry": {"type": "Point", "coordinates": [-79.045, 41.0173]}, "properties": {"NAME": "US-8731", "TITLE": "PA 031 State Game Land"}}, {"type": "Feature", "geometry": {"type": "Point", "coordinates": [-78.1599, 40.8571]}, "properties": {"NAME": "US-8732", "TITLE": "PA 033 State Game Land"}}, {"type": "Feature", "geometry": {"type": "Point", "coordinates": [-78.3297, 41.2437]}, "properties": {"NAME": "US-8733", "TITLE": "PA 034 State Game Land"}}, {"type": "Feature", "geometry": {"type": "Point", "coordinates": [-75.6592, 41.9587]}, "properties": {"NAME": "US-8734", "TITLE": "PA 035 State Game Land"}}, {"type": "Feature", "geometry": {"type": "Point", "coordinates": [-76.5375, 41.62]}, "properties": {"NAME": "US-8735", "TITLE": "PA 036 State Game Land"}}, {"type": "Feature", "geometry": {"type": "Point", "coordinates": [-77.0936, 41.8976]}, "properties": {"NAME": "US-8736", "TITLE": "PA 037 State Game Land"}}, {"type": "Feature", "geometry": {"type": "Point", "coordinates": [-75.3726, 41.0445]}, "properties": {"NAME": "US-8737", "TITLE": "PA 038 State Game Land"}}, {"type": "Feature", "geometry": {"type": "Point", "coordinates": [-79.9334, 41.2858]}, "properties": {"NAME": "US-8738", "TITLE": "PA 039 State Game Land"}}, {"type": "Feature", "geometry": {"type": "Point", "coordinates": [-75.7356, 41.0674]}, "properties": {"NAME": "US-8739", "TITLE": "PA 040 State Game Land"}}, {"type": "Feature", "geometry": {"type": "Point", "coordinates": [-78.381, 40.2695]}, "properties": {"NAME": "US-8740", "TITLE": "PA 041 State Game Land"}}, {"type": "Feature", "geometry": {"type": "Point", "coordinates": [-79.0522, 40.3672]}, "properties": {"NAME": "US-8741", "TITLE": "PA 042 State Game Land"}}, {"type": "Feature", "geometry": {"type": "Point", "coordinates": [-75.7797, 40.1742]}, "properties": {"NAME": "US-8742", "TITLE": "PA 043 State Game Land"}}, {"type": "Feature", "geometry": {"type": "Point", "coordinates": [-78.6966, 41.3968]}, "properties": {"NAME": "US-8743", "TITLE": "PA 044 State Game Land"}}, {"type": "Feature", "geometry": {"type": "Point", "coordinates": [-79.5882, 41.3104]}, "properties": {"NAME": "US-8744", "TITLE": "PA 045 State Game Land"}}, {"type": "Feature", "geometry": {"type": "Point", "coordinates": [-76.2505, 40.271]}, "properties": {"NAME": "US-8745", "TITLE": "PA 046 State Game Land"}}, {"type": "Feature", "geometry": {"type": "Point", "coordinates": [-79.6228, 41.4211]}, "properties": {"NAME": "US-8746", "TITLE": "PA 047 State Game Land"}}, {"type": "Feature", "geometry": {"type": "Point", "coordinates": [-78.6114, 39.9012]}, "properties": {"NAME": "US-8747", "TITLE": "PA 048 State Game Land"}}, {"type": "Feature", "geometry": {"type": "Point", "coordinates": [-78.2988, 39.8047]}, "properties": {"NAME": "US-8748", "TITLE": "PA 049 State Game Land"}}, {"type": "Feature", "geometry": {"type": "Point", "coordinates": [-79.0507, 39.9902]}, "properties": {"NAME": "US-8749", "TITLE": "PA 050 State Game Land"}}, {"type": "Feature", "geometry": {"type": "Point", "coordinates": [-79.5895, 39.8667]}, "properties": {"NAME": "US-8750", "TITLE": "PA 051 State Game Land"}}, {"type": "Feature", "geometry": {"type": "Point", "coordinates": [-75.9539, 40.1873]}, "properties": {"NAME": "US-8751", "TITLE": "PA 052 State Game Land"}}, {"type": "Feature", "geometry": {"type": "Point", "coordinates": [-78.0328, 39.9695]}, "properties": {"NAME": "US-8752", "TITLE": "PA 053 State Game Land"}}, {"type": "Feature", "geometry": {"type": "Point", "coordinates": [-78.817, 41.2701]}, "properties": {"NAME": "US-8753", "TITLE": "PA 054 State Game Land"}}, {"type": "Feature", "geometry": {"type": "Point", "coordinates": [-76.2751, 41.124]}, "properties": {"NAME": "US-8754", "TITLE": "PA 055 State Game Land"}}, {"type": "Feature", "geometry": {"type": "Point", "coordinates": [-75.1541, 40.5159]}, "properties": {"NAME": "US-8755", "TITLE": "PA 056 State Game Land"}}, {"type": "Feature", "geometry": {"type": "Point", "coordinates": [-76.2732, 41.3872]}, "properties": {"NAME": "US-8756", "TITLE": "PA 057 State Game Land"}}, {"type": "Feature", "geometry": {"type": "Point", "coordinates": [-76.2769, 40.9176]}, "properties": {"NAME": "US-8757", "TITLE": "PA 058 State Game Land"}}, {"type": "Feature", "geometry": {"type": "Point", "coordinates": [-78.2141, 41.8773]}, "properties": {"NAME": "US-8758", "TITLE": "PA 059 State Game Land"}}, {"type": "Feature", "geometry": {"type": "Point", "coordinates": [-78.2355, 40.7883]}, "properties": {"NAME": "US-8759", "TITLE": "PA 060 State Game Land"}}, {"type": "Feature", "geometry": {"type": "Point", "coordinates": [-78.2619, 41.761]}, "properties": {"NAME": "US-8760", "TITLE": "PA 061 State Game Land"}}, {"type": "Feature", "geometry": {"type": "Point", "coordinates": [-78.572, 41.7552]}, "properties": {"NAME": "US-8761", "TITLE": "PA 062 State Game Land"}}, {"type": "Feature", "geometry": {"type": "Point", "coordinates": [-79.4761, 41.2607]}, "properties": {"NAME": "US-8762", "TITLE": "PA 063 State Game Land"}}, {"type": "Feature", "geometry": {"type": "Point", "coordinates": [-77.6095, 41.7672]}, "properties": {"NAME": "US-8763", "TITLE": "PA 064 State Game Land"}}, {"type": "Feature", "geometry": {"type": "Point", "coordinates": [-78.2287, 39.8942]}, "properties": {"NAME": "US-8764", "TITLE": "PA 065 State Game Land"}}, {"type": "Feature", "geometry": {"type": "Point", "coordinates": [-76.2837, 41.4517]}, "properties": {"NAME": "US-8765", "TITLE": "PA 066 State Game Land"}}, {"type": "Feature", "geometry": {"type": "Point", "coordinates": [-78.1829, 40.2188]}, "properties": {"NAME": "US-8766", "TITLE": "PA 067 State Game Land"}}, {"type": "Feature", "geometry": {"type": "Point", "coordinates": [-77.4433, 41.4796]}, "properties": {"NAME": "US-8767", "TITLE": "PA 068 State Game Land"}}, {"type": "Feature", "geometry": {"type": "Point", "coordinates": [-79.9169, 41.6212]}, "properties": {"NAME": "US-8768", "TITLE": "PA 069 State Game Land"}}, {"type": "Feature", "geometry": {"type": "Point", "coordinates": [-75.4924, 41.9621]}, "properties": {"NAME": "US-8769", "TITLE": "PA 070 State Game Land"}}, {"type": "Feature", "geometry": {"type": "Point", "coordinates": [-77.9611, 40.3668]}, "properties": {"NAME": "US-8770", "TITLE": "PA 071 State Game Land"}}, {"type": "Feature", "geometry": {"type": "Point", "coordinates": [-79.3908, 41.2567]}, "properties": {"NAME": "US-8771", "TITLE": "PA 072 State Game Land"}}, {"type": "Feature", "geometry": {"type": "Point", "coordinates": [-78.2607, 40.2699]}, "properties": {"NAME": "US-8772", "TITLE": "PA 073 State Game Land"}}, {"type": "Feature", "geometry": {"type": "Point", "coordinates": [-79.3178, 41.2186]}, "properties": {"NAME": "US-8773", "TITLE": "PA 074 State Game Land"}}, {"type": "Feature", "geometry": {"type": "Point", "coordinates": [-77.4143, 41.4159]}, "properties": {"NAME": "US-8774", "TITLE": "PA 075 State Game Land"}}, {"type": "Feature", "geometry": {"type": "Point", "coordinates": [-77.7264, 40.1231]}, "properties": {"NAME": "US-8775", "TITLE": "PA 076 State Game Land"}}, {"type": "Feature", "geometry": {"type": "Point", "coordinates": [-78.7714, 41.17]}, "properties": {"NAME": "US-8776", "TITLE": "PA 077 State Game Land"}}, {"type": "Feature", "geometry": {"type": "Point", "coordinates": [-78.2579, 40.9846]}, "properties": {"NAME": "US-8777", "TITLE": "PA 078 State Game Land"}}, {"type": "Feature", "geometry": {"type": "Point", "coordinates": [-78.8918, 40.5055]}, "properties": {"NAME": "US-8778", "TITLE": "PA 079 State Game Land"}}, {"type": "Feature", "geometry": {"type": "Point", "coordinates": [-76.4186, 40.5163]}, "properties": {"NAME": "US-8779", "TITLE": "PA 080 State Game Land"}}, {"type": "Feature", "geometry": {"type": "Point", "coordinates": [-77.946, 40.1138]}, "properties": {"NAME": "US-8780", "TITLE": "PA 081 State Game Land"}}, {"type": "Feature", "geometry": {"type": "Point", "coordinates": [-78.9335, 39.7888]}, "properties": {"NAME": "US-8781", "TITLE": "PA 082 State Game Land"}}, {"type": "Feature", "geometry": {"type": "Point", "coordinates": [-76.4065, 39.8665]}, "properties": {"NAME": "US-8782", "TITLE": "PA 083 State Game Land"}}, {"type": "Feature", "geometry": {"type": "Point", "coordinates": [-76.7896, 40.7495]}, "properties": {"NAME": "US-8783", "TITLE": "PA 084 State Game Land"}}, {"type": "Feature", "geometry": {"type": "Point", "coordinates": [-79.9854, 41.8024]}, "properties": {"NAME": "US-8784", "TITLE": "PA 085 State Game Land"}}, {"type": "Feature", "geometry": {"type": "Point", "coordinates": [-79.3, 41.755]}, "properties": {"NAME": "US-8785", "TITLE": "PA 086 State Game Land"}}, {"type": "Feature", "geometry": {"type": "Point", "coordinates": [-78.6734, 40.937]}, "properties": {"NAME": "US-8786", "TITLE": "PA 087 State Game Land"}}, {"type": "Feature", "geometry": {"type": "Point", "coordinates": [-77.389, 40.4753]}, "properties": {"NAME": "US-8787", "TITLE": "PA 088 State Game Land"}}, {"type": "Feature", "geometry": {"type": "Point", "coordinates": [-77.4789, 41.308]}, "properties": {"NAME": "US-8788", "TITLE": "PA 089 State Game Land"}}, {"type": "Feature", "geometry": {"type": "Point", "coordinates": [-78.4182, 41.1022]}, "properties": {"NAME": "US-8789", "TITLE": "PA 090 State Game Land"}}, {"type": "Feature", "geometry": {"type": "Point", "coordinates": [-75.6368, 41.1359]}, "properties": {"NAME": "US-8790", "TITLE": "PA 091 State Game Land"}}, {"type": "Feature", "geometry": {"type": "Point", "coordinates": [-77.7079, 41.0166]}, "properties": {"NAME": "US-8791", "TITLE": "PA 092 State Game Land"}}, {"type": "Feature", "geometry": {"type": "Point", "coordinates": [-78.8868, 40.0844]}, "properties": {"NAME": "US-8792", "TITLE": "PA 093 State Game Land"}}, {"type": "Feature", "geometry": {"type": "Point", "coordinates": [-78.3806, 41.1572]}, "properties": {"NAME": "US-8793", "TITLE": "PA 094 State Game Land"}}, {"type": "Feature", "geometry": {"type": "Point", "coordinates": [-79.7048, 41.0812]}, "properties": {"NAME": "US-8794", "TITLE": "PA 095 State Game Land"}}, {"type": "Feature", "geometry": {"type": "Point", "coordinates": [-79.8222, 41.5815]}, "properties": {"NAME": "US-8795", "TITLE": "PA 096 State Game Land"}}, {"type": "Feature", "geometry": {"type": "Point", "coordinates": [-78.3888, 39.9966]}, "properties": {"NAME": "US-8796", "TITLE": "PA 097 State Game Land"}}, {"type": "Feature", "geometry": {"type": "Point", "coordinates": [-78.3463, 40.9338]}, "properties": {"NAME": "US-8797", "TITLE": "PA 098 State Game Land"}}, {"type": "Feature", "geometry": {"type": "Point", "coordinates": [-77.9987, 40.204]}, "properties": {"NAME": "US-8798", "TITLE": "PA 099 State Game Land"}}, {"type": "Feature", "geometry": {"type": "Point", "coordinates": [-77.9832, 41.0779]}, "properties": {"NAME": "US-8799", "TITLE": "PA 100 State Game Land"}}, {"type": "Feature", "geometry": {"type": "Point", "coordinates": [-80.488, 41.8596]}, "properties": {"NAME": "US-8800", "TITLE": "PA 101 State Game Land"}}, {"type": "Feature", "geometry": {"type": "Point", "coordinates": [-79.8034, 41.927]}, "properties": {"NAME": "US-8801", "TITLE": "PA 102 State Game Land"}}, {"type": "Feature", "geometry": {"type": "Point", "coordinates": [-77.8935, 40.9996]}, "properties": {"NAME": "US-8802", "TITLE": "PA 103 State Game Land"}}, {"type": "Feature", "geometry": {"type": "Point", "coordinates": [-78.7679, 39.8823]}, "properties": {"NAME": "US-8803", "TITLE": "PA 104 State Game Land"}}, {"type": "Feature", "geometry": {"type": "Point", "coordinates": [-79.6447, 40.9788]}, "properties": {"NAME": "US-8804", "TITLE": "PA 105 State Game Land"}}, {"type": "Feature", "geometry": {"type": "Point", "coordinates": [-75.9497, 40.6332]}, "properties": {"NAME": "US-8805", "TITLE": "PA 106 State Game Land"}}, {"type": "Feature", "geometry": {"type": "Point", "coordinates": [-77.4642, 40.6435]}, "properties": {"NAME": "US-8806", "TITLE": "PA 107 State Game Land"}}, {"type": "Feature", "geometry": {"type": "Point", "coordinates": [-78.4983, 40.6534]}, "properties": {"NAME": "US-8807", "TITLE": "PA 108 State Game Land"}}, {"type": "Feature", "geometry": {"type": "Point", "coordinates": [-79.9945, 41.9815]}, "properties": {"NAME": "US-8808", "TITLE": "PA 109 State Game Land"}}, {"type": "Feature", "geometry": {"type": "Point", "coordinates": [-76.1241, 40.5313]}, "properties": {"NAME": "US-8809", "TITLE": "PA 110 State Game Land"}}, {"type": "Feature", "geometry": {"type": "Point", "coordinates": [-79.3201, 39.8587]}, "properties": {"NAME": "US-8810", "TITLE": "PA 111 State Game Land"}}, {"type": "Feature", "geometry": {"type": "Point", "coordinates": [-77.9145, 40.3918]}, "properties": {"NAME": "US-8811", "TITLE": "PA 112 State Game Land"}}, {"type": "Feature", "geometry": {"type": "Point", "coordinates": [-77.7073, 40.538]}, "properties": {"NAME": "US-8812", "TITLE": "PA 113 State Game Land"}}, {"type": "Feature", "geometry": {"type": "Point", "coordinates": [-77.2034, 41.3906]}, "properties": {"NAME": "US-8813", "TITLE": "PA 114 State Game Land"}}, {"type": "Feature", "geometry": {"type": "Point", "coordinates": [-76.6859, 40.9645]}, "properties": {"NAME": "US-8814", "TITLE": "PA 115 State Game Land"}}, {"type": "Feature", "geometry": {"type": "Point", "coordinates": [-74.9713, 41.4252]}, "properties": {"NAME": "US-8815", "TITLE": "PA 116 State Game Land"}}, {"type": "Feature", "geometry": {"type": "Point", "coordinates": [-80.3767, 40.4152]}, "properties": {"NAME": "US-8816", "TITLE": "PA 117 State Game Land"}}, {"type": "Feature", "geometry": {"type": "Point", "coordinates": [-78.1639, 40.4565]}, "properties": {"NAME": "US-8817", "TITLE": "PA 118 State Game Land"}}, {"type": "Feature", "geometry": {"type": "Point", "coordinates": [-75.8359, 41.1226]}, "properties": {"NAME": "US-8818", "TITLE": "PA 119 State Game Land"}}, {"type": "Feature", "geometry": {"type": "Point", "coordinates": [-78.5695, 40.7927]}, "properties": {"NAME": "US-8819", "TITLE": "PA 120 State Game Land"}}, {"type": "Feature", "geometry": {"type": "Point", "coordinates": [-78.0511, 40.2037]}, "properties": {"NAME": "US-8820", "TITLE": "PA 121 State Game Land"}}, {"type": "Feature", "geometry": {"type": "Point", "coordinates": [-79.8104, 41.7058]}, "properties": {"NAME": "US-8821", "TITLE": "PA 122 State Game Land"}}, {"type": "Feature", "geometry": {"type": "Point", "coordinates": [-76.7842, 41.8954]}, "properties": {"NAME": "US-8822", "TITLE": "PA 123 State Game Land"}}, {"type": "Feature", "geometry": {"type": "Point", "coordinates": [-77.9733, 39.8343]}, "properties": {"NAME": "US-8823", "TITLE": "PA 124 State Game Land"}}, {"type": "Feature", "geometry": {"type": "Point", "coordinates": [-77.0574, 41.2178]}, "properties": {"NAME": "US-8824", "TITLE": "PA 126 State Game Land"}}, {"type": "Feature", "geometry": {"type": "Point", "coordinates": [-75.4347, 41.1688]}, "properties": {"NAME": "US-8825", "TITLE": "PA 127 State Game Land"}}, {"type": "Feature", "geometry": {"type": "Point", "coordinates": [-78.2413, 39.7992]}, "properties": {"NAME": "US-8826", "TITLE": "PA 128 State Game Land"}}, {"type": "Feature", "geometry": {"type": "Point", "coordinates": [-75.5841, 41.0358]}, "properties": {"NAME": "US-8827", "TITLE": "PA 129 State Game Land"}}, {"type": "Feature", "geometry": {"type": "Point", "coordinates": [-80.0128, 41.3393]}, "properties": {"NAME": "US-8828", "TITLE": "PA 130 State Game Land"}}, {"type": "Feature", "geometry": {"type": "Point", "coordinates": [-78.1807, 40.6501]}, "properties": {"NAME": "US-8829", "TITLE": "PA 131 State Game Land"}}, {"type": "Feature", "geometry": {"type": "Point", "coordinates": [-76.5182, 40.6739]}, "properties": {"NAME": "US-8830", "TITLE": "PA 132 State Game Land"}}, {"type": "Feature", "geometry": {"type": "Point", "coordinates": [-77.0391, 41.4095]}, "properties": {"NAME": "US-8831", "TITLE": "PA 133 State Game Land"}}, {"type": "Feature", "geometry": {"type": "Point", "coordinates": [-76.8092, 41.3851]}, "properties": {"NAME": "US-8832", "TITLE": "PA 134 State Game Land"}}, {"type": "Feature", "geometry": {"type": "Point", "coordinates": [-75.5517, 41.2484]}, "properties": {"NAME": "US-8833", "TITLE": "PA 135 State Game Land"}}, {"type": "Feature", "geometry": {"type": "Point", "coordinates": [-76.1103, 39.8513]}, "properties": {"NAME": "US-8834", "TITLE": "PA 136 State Game Land"}}, {"type": "Feature", "geometry": {"type": "Point", "coordinates": [-79.3431, 40.9768]}, "properties": {"NAME": "US-8835", "TITLE": "PA 137 State Game Land"}}, {"type": "Feature", "geometry": {"type": "Point", "coordinates": [-79.7447, 39.7937]}, "properties": {"NAME": "US-8836", "TITLE": "PA 138 State Game Land"}}, {"type": "Feature", "geometry": {"type": "Point", "coordinates": [-75.3119, 40.3918]}, "properties": {"NAME": "US-8837", "TITLE": "PA 139 State Game Land"}}, {"type": "Feature", "geometry": {"type": "Point", "coordinates": [-76.0872, 41.9428]}, "properties": {"NAME": "US-8838", "TITLE": "PA 140 State Game Land"}}, {"type": "Feature", "geometry": {"type": "Point", "coordinates": [-75.6576, 40.9691]}, "properties": {"NAME": "US-8839", "TITLE": "PA 141 State Game Land"}}, {"type": "Feature", "geometry": {"type": "Point", "coordinates": [-76.3521, 41.5898]}, "properties": {"NAME": "US-8840", "TITLE": "PA 142 State Game Land"}}, {"type": "Feature", "geometry": {"type": "Point", "coordinates": [-79.4715, 41.8427]}, "properties": {"NAME": "US-8841", "TITLE": "PA 143 State Game Land"}}, {"type": "Feature", "geometry": {"type": "Point", "coordinates": [-79.7441, 41.8778]}, "properties": {"NAME": "US-8842", "TITLE": "PA 144 State Game Land"}}, {"type": "Feature", "geometry": {"type": "Point", "coordinates": [-76.5219, 40.2379]}, "properties": {"NAME": "US-8843", "TITLE": "PA 145 State Game Land"}}, {"type": "Feature", "geometry": {"type": "Point", "coordinates": [-79.9755, 41.7325]}, "properties": {"NAME": "US-8844", "TITLE": "PA 146 State Game Land"}}, {"type": "Feature", "geometry": {"type": "Point", "coordinates": [-78.3494, 40.3941]}, "properties": {"NAME": "US-8845", "TITLE": "PA 147 State Game Land"}}, {"type": "Feature", "geometry": {"type": "Point", "coordinates": [-80.3572, 40.8597]}, "properties": {"NAME": "US-8846", "TITLE": "PA 148 State Game Land"}}, {"type": "Feature", "geometry": {"type": "Point", "coordinates": [-75.7708, 41.0235]}, "properties": {"NAME": "US-8847", "TITLE": "PA 149 State Game Land"}}, {"type": "Feature", "geometry": {"type": "Point", "coordinates": [-80.4655, 41.0937]}, "properties": {"NAME": "US-8848", "TITLE": "PA 150 State Game Land"}}, {"type": "Feature", "geometry": {"type": "Point", "coordinates": [-80.1315, 41.1027]}, "properties": {"NAME": "US-8849", "TITLE": "PA 151 State Game Land"}}, {"type": "Feature", "geometry": {"type": "Point", "coordinates": [-80.2266, 41.8473]}, "properties": {"NAME": "US-8850", "TITLE": "PA 152 State Game Land"}}, {"type": "Feature", "geometry": {"type": "Point", "coordinates": [-79.1607, 40.3921]}, "properties": {"NAME": "US-8851", "TITLE": "PA 153 State Game Land"}}, {"type": "Feature", "geometry": {"type": "Point", "coordinates": [-79.6775, 41.9891]}, "properties": {"NAME": "US-8852", "TITLE": "PA 154 State Game Land"}}, {"type": "Feature", "geometry": {"type": "Point", "coordinates": [-79.8766, 42.0085]}, "properties": {"NAME": "US-8853", "TITLE": "PA 155 State Game Land"}}, {"type": "Feature", "geometry": {"type": "Point", "coordinates": [-76.3576, 40.2469]}, "properties": {"NAME": "US-8854", "TITLE": "PA 156 State Game Land"}}, {"type": "Feature", "geometry": {"type": "Point", "coordinates": [-75.2067, 40.4925]}, "properties": {"NAME": "US-8855", "TITLE": "PA 157 State Game Land"}}, {"type": "Feature", "geometry": {"type": "Point", "coordinates": [-78.3398, 40.7263]}, "properties": {"NAME": "US-8856", "TITLE": "PA 158 State Game Land"}}, {"type": "Feature", "geometry": {"type": "Point", "coordinates": [-75.2593, 41.7254]}, "properties": {"NAME": "US-8857", "TITLE": "PA 159 State Game Land"}}, {"type": "Feature", "geometry": {"type": "Point", "coordinates": [-76.3402, 40.5415]}, "properties": {"NAME": "US-8858", "TITLE": "PA 160 State Game Land"}}, {"type": "Feature", "geometry": {"type": "Point", "coordinates": [-79.9189, 41.9985]}, "properties": {"NAME": "US-8859", "TITLE": "PA 161 State Game Land"}}, {"type": "Feature", "geometry": {"type": "Point", "coordinates": [-79.8412, 41.9786]}, "properties": {"NAME": "US-8860", "TITLE": "PA 162 State Game Land"}}, {"type": "Feature", "geometry": {"type": "Point", "coordinates": [-79.8421, 42.145]}, "properties": {"NAME": "US-8861", "TITLE": "PA 163 State Game Land"}}, {"type": "Feature", "geometry": {"type": "Point", "coordinates": [-79.765, 40.8945]}, "properties": {"NAME": "US-8862", "TITLE": "PA 164 State Game Land"}}, {"type": "Feature", "geometry": {"type": "Point", "coordinates": [-76.6667, 40.7865]}, "properties": {"NAME": "US-8863", "TITLE": "PA 165 State Game Land"}}, {"type": "Feature", "geometry": {"type": "Point", "coordinates": [-78.2072, 40.5319]}, "properties": {"NAME": "US-8864", "TITLE": "PA 166 State Game Land"}}, {"type": "Feature", "geometry": {"type": "Point", "coordinates": [-79.7786, 41.9987]}, "properties": {"NAME": "US-8865", "TITLE": "PA 167 State Game Land"}}, {"type": "Feature", "geometry": {"type": "Point", "coordinates": [-75.3564, 40.8305]}, "properties": {"NAME": "US-8866", "TITLE": "PA 168 State Game Land"}}, {"type": "Feature", "geometry": {"type": "Point", "coordinates": [-77.5093, 40.1637]}, "properties": {"NAME": "US-8867", "TITLE": "PA 169 State Game Land"}}, {"type": "Feature", "geometry": {"type": "Point", "coordinates": [-77.0709, 40.3227]}, "properties": {"NAME": "US-8868", "TITLE": "PA 170 State Game Land"}}, {"type": "Feature", "geometry": {"type": "Point", "coordinates": [-77.2126, 40.5541]}, "properties": {"NAME": "US-8869", "TITLE": "PA 171 State Game Land"}}, {"type": "Feature", "geometry": {"type": "Point", "coordinates": [-76.3052, 41.622]}, "properties": {"NAME": "US-8870", "TITLE": "PA 172 State Game Land"}}, {"type": "Feature", "geometry": {"type": "Point", "coordinates": [-80.4811, 40.6754]}, "properties": {"NAME": "US-8871", "TITLE": "PA 173 State Game Land"}}, {"type": "Feature", "geometry": {"type": "Point", "coordinates": [-78.8454, 40.8662]}, "properties": {"NAME": "US-8872", "TITLE": "PA 174 State Game Land"}}, {"type": "Feature", "geometry": {"type": "Point", "coordinates": [-75.7512, 41.8889]}, "properties": {"NAME": "US-8873", "TITLE": "PA 175 State Game Land"}}, {"type": "Feature", "geometry": {"type": "Point", "coordinates": [-77.9726, 40.7556]}, "properties": {"NAME": "US-8874", "TITLE": "PA 176 State Game Land"}}, {"type": "Feature", "geometry": {"type": "Point", "coordinates": [-80.318, 41.0527]}, "properties": {"NAME": "US-8875", "TITLE": "PA 178 State Game Land"}}, {"type": "Feature", "geometry": {"type": "Point", "coordinates": [-80.3432, 39.8469]}, "properties": {"NAME": "US-8876", "TITLE": "PA 179 State Game Land"}}, {"type": "Feature", "geometry": {"type": "Point", "coordinates": [-75.0109, 41.3967]}, "properties": {"NAME": "US-8877", "TITLE": "PA 180 State Game Land"}}, {"type": "Feature", "geometry": {"type": "Point", "coordinates": [-76.3799, 39.8405]}, "properties": {"NAME": "US-8878", "TITLE": "PA 181 State Game Land"}}, {"type": "Feature", "geometry": {"type": "Point", "coordinates": [-75.8054, 40.5299]}, "properties": {"NAME": "US-8879", "TITLE": "PA 182 State Game Land"}}, {"type": "Feature", "geometry": {"type": "Point", "coordinates": [-75.1537, 41.4362]}, "properties": {"NAME": "US-8880", "TITLE": "PA 183 State Game Land"}}, {"type": "Feature", "geometry": {"type": "Point", "coordinates": [-78.5232, 40.5804]}, "properties": {"NAME": "US-8881", "TITLE": "PA 184 State Game Land"}}, {"type": "Feature", "geometry": {"type": "Point", "coordinates": [-78.8628, 40.6836]}, "properties": {"NAME": "US-8882", "TITLE": "PA 185 State Game Land"}}, {"type": "Feature", "geometry": {"type": "Point", "coordinates": [-75.3353, 40.9784]}, "properties": {"NAME": "US-8883", "TITLE": "PA 186 State Game Land"}}, {"type": "Feature", "geometry": {"type": "Point", "coordinates": [-75.8663, 41.0993]}, "properties": {"NAME": "US-8884", "TITLE": "PA 187 State Game Land"}}, {"type": "Feature", "geometry": {"type": "Point", "coordinates": [-77.1829, 40.7958]}, "properties": {"NAME": "US-8885", "TITLE": "PA 188 State Game Land"}}, {"type": "Feature", "geometry": {"type": "Point", "coordinates": [-80.3579, 40.5227]}, "properties": {"NAME": "US-8886", "TITLE": "PA 189 State Game Land"}}, {"type": "Feature", "geometry": {"type": "Point", "coordinates": [-79.8915, 41.9578]}, "properties": {"NAME": "US-8887", "TITLE": "PA 190 State Game Land"}}, {"type": "Feature", "geometry": {"type": "Point", "coordinates": [-79.8084, 42.0718]}, "properties": {"NAME": "US-8888", "TITLE": "PA 191 State Game Land"}}, {"type": "Feature", "geometry": {"type": "Point", "coordinates": [-80.0456, 41.9051]}, "properties": {"NAME": "US-8889", "TITLE": "PA 192 State Game Land"}}, {"type": "Feature", "geometry": {"type": "Point", "coordinates": [-76.8892, 40.9051]}, "properties": {"NAME": "US-8890", "TITLE": "PA 193 State Game Land"}}, {"type": "Feature", "geometry": {"type": "Point", "coordinates": [-76.9856, 40.6613]}, "properties": {"NAME": "US-8891", "TITLE": "PA 194 State Game Land"}}, {"type": "Feature", "geometry": {"type": "Point", "coordinates": [-78.8522, 40.9602]}, "properties": {"NAME": "US-8892", "TITLE": "PA 195 State Game Land"}}, {"type": "Feature", "geometry": {"type": "Point", "coordinates": [-75.3586, 40.3737]}, "properties": {"NAME": "US-8893", "TITLE": "PA 196 State Game Land"}}, {"type": "Feature", "geometry": {"type": "Point", "coordinates": [-79.5789, 41.9701]}, "properties": {"NAME": "US-8894", "TITLE": "PA 197 State Game Land"}}, {"type": "Feature", "geometry": {"type": "Point", "coordinates": [-78.519, 40.4342]}, "properties": {"NAME": "US-8895", "TITLE": "PA 198 State Game Land"}}, {"type": "Feature", "geometry": {"type": "Point", "coordinates": [-79.8204, 41.7702]}, "properties": {"NAME": "US-8896", "TITLE": "PA 199 State Game Land"}}, {"type": "Feature", "geometry": {"type": "Point", "coordinates": [-79.9528, 41.7076]}, "properties": {"NAME": "US-8897", "TITLE": "PA 200 State Game Land"}}, {"type": "Feature", "geometry": {"type": "Point", "coordinates": [-77.0539, 40.8838]}, "properties": {"NAME": "US-8898", "TITLE": "PA 201 State Game Land"}}, {"type": "Feature", "geometry": {"type": "Point", "coordinates": [-79.8404, 41.8459]}, "properties": {"NAME": "US-8899", "TITLE": "PA 202 State Game Land"}}, {"type": "Feature", "geometry": {"type": "Point", "coordinates": [-80.1172, 40.6205]}, "properties": {"NAME": "US-8900", "TITLE": "PA 203 State Game Land"}}, {"type": "Feature", "geometry": {"type": "Point", "coordinates": [-78.075, 41.8557]}, "properties": {"NAME": "US-8901", "TITLE": "PA 204 State Game Land"}}, {"type": "Feature", "geometry": {"type": "Point", "coordinates": [-75.6604, 40.6708]}, "properties": {"NAME": "US-8902", "TITLE": "PA 205 State Game Land"}}, {"type": "Feature", "geometry": {"type": "Point", "coordinates": [-76.1986, 41.3013]}, "properties": {"NAME": "US-8903", "TITLE": "PA 206 State Game Land"}}, {"type": "Feature", "geometry": {"type": "Point", "coordinates": [-75.9441, 41.1576]}, "properties": {"NAME": "US-8904", "TITLE": "PA 207 State Game Land"}}, {"type": "Feature", "geometry": {"type": "Point", "coordinates": [-77.5632, 41.776]}, "properties": {"NAME": "US-8905", "TITLE": "PA 208 State Game Land"}}, {"type": "Feature", "geometry": {"type": "Point", "coordinates": [-74.8247, 41.4298]}, "properties": {"NAME": "US-8906", "TITLE": "PA 209 State Game Land"}}, {"type": "Feature", "geometry": {"type": "Point", "coordinates": [-76.6938, 40.5309]}, "properties": {"NAME": "US-8907", "TITLE": "PA 210 State Game Land"}}, {"type": "Feature", "geometry": {"type": "Point", "coordinates": [-76.5253, 40.5236]}, "properties": {"NAME": "US-8908", "TITLE": "PA 211 State Game Land"}}, {"type": "Feature", "geometry": {"type": "Point", "coordinates": [-76.8753, 40.7592]}, "properties": {"NAME": "US-8909", "TITLE": "PA 212 State Game Land"}}, {"type": "Feature", "geometry": {"type": "Point", "coordinates": [-80.1854, 41.55]}, "properties": {"NAME": "US-8910", "TITLE": "PA 213 State Game Land"}}, {"type": "Feature", "geometry": {"type": "Point", "coordinates": [-80.3792, 41.605]}, "properties": {"NAME": "US-8911", "TITLE": "PA 214 State Game Land"}}, {"type": "Feature", "geometry": {"type": "Point", "coordinates": [-77.6292, 40.4038]}, "properties": {"NAME": "US-8912", "TITLE": "PA 215 State Game Land"}}, {"type": "Feature", "geometry": {"type": "Point", "coordinates": [-80.1965, 41.011]}, "properties": {"NAME": "US-8913", "TITLE": "PA 216 State Game Land"}}, {"type": "Feature", "geometry": {"type": "Point", "coordinates": [-75.6412, 40.7689]}, "properties": {"NAME": "US-8914", "TITLE": "PA 217 State Game Land"}}, {"type": "Feature", "geometry": {"type": "Point", "coordinates": [-79.9158, 42.0582]}, "properties": {"NAME": "US-8915", "TITLE": "PA 218 State Game Land"}}, {"type": "Feature", "geometry": {"type": "Point", "coordinates": [-76.2054, 41.9417]}, "properties": {"NAME": "US-8916", "TITLE": "PA 219 State Game Land"}}, {"type": "Feature", "geometry": {"type": "Point", "coordinates": [-76.1213, 40.2787]}, "properties": {"NAME": "US-8917", "TITLE": "PA 220 State Game Land"}}, {"type": "Feature", "geometry": {"type": "Point", "coordinates": [-75.2888, 41.1545]}, "properties": {"NAME": "US-8918", "TITLE": "PA 221 State Game Land"}}, {"type": "Feature", "geometry": {"type": "Point", "coordinates": [-76.0293, 40.7198]}, "properties": {"NAME": "US-8919", "TITLE": "PA 222 State Game Land"}}, {"type": "Feature", "geometry": {"type": "Point", "coordinates": [-80.0969, 39.8086]}, "properties": {"NAME": "US-8920", "TITLE": "PA 223 State Game Land"}}, {"type": "Feature", "geometry": {"type": "Point", "coordinates": [-75.9802, 41.247]}, "properties": {"NAME": "US-8921", "TITLE": "PA 224 State Game Land"}}, {"type": "Feature", "geometry": {"type": "Point", "coordinates": [-76.1978, 40.3157]}, "properties": {"NAME": "US-8922", "TITLE": "PA 225 State Game Land"}}, {"type": "Feature", "geometry": {"type": "Point", "coordinates": [-76.5598, 41.1156]}, "properties": {"NAME": "US-8923", "TITLE": "PA 226 State Game Land"}}, {"type": "Feature", "geometry": {"type": "Point", "coordinates": [-75.9909, 40.8105]}, "properties": {"NAME": "US-8924", "TITLE": "PA 227 State Game Land"}}, {"type": "Feature", "geometry": {"type": "Point", "coordinates": [-78.7641, 40.0973]}, "properties": {"NAME": "US-8925", "TITLE": "PA 228 State Game Land"}}, {"type": "Feature", "geometry": {"type": "Point", "coordinates": [-76.4331, 40.5844]}, "properties": {"NAME": "US-8926", "TITLE": "PA 229 State Game Land"}}, {"type": "Feature", "geometry": {"type": "Point", "coordinates": [-77.1782, 40.2723]}, "properties": {"NAME": "US-8927", "TITLE": "PA 230 State Game Land"}}, {"type": "Feature", "geometry": {"type": "Point", "coordinates": [-79.0211, 39.7741]}, "properties": {"NAME": "US-8928", "TITLE": "PA 231 State Game Land"}}, {"type": "Feature", "geometry": {"type": "Point", "coordinates": [-80.3898, 40.1955]}, "properties": {"NAME": "US-8929", "TITLE": "PA 232 State Game Land"}}, {"type": "Feature", "geometry": {"type": "Point", "coordinates": [-76.8582, 40.7503]}, "properties": {"NAME": "US-8930", "TITLE": "PA 233 State Game Land"}}, {"type": "Feature", "geometry": {"type": "Point", "coordinates": [-75.5119, 40.2544]}, "properties": {"NAME": "US-8931", "TITLE": "PA 234 State Game Land"}}, {"type": "Feature", "geometry": {"type": "Point", "coordinates": [-77.8501, 39.9893]}, "properties": {"NAME": "US-8932", "TITLE": "PA 235 State Game Land"}}, {"type": "Feature", "geometry": {"type": "Point", "coordinates": [-75.5111, 41.761]}, "properties": {"NAME": "US-8933", "TITLE": "PA 236 State Game Land"}}, {"type": "Feature", "geometry": {"type": "Point", "coordinates": [-76.2788, 41.6681]}, "properties": {"NAME": "US-8934", "TITLE": "PA 237 State Game Land"}}, {"type": "Feature", "geometry": {"type": "Point", "coordinates": [-79.8957, 39.8771]}, "properties": {"NAME": "US-8935", "TITLE": "PA 238 State Game Land"}}, {"type": "Feature", "geometry": {"type": "Point", "coordinates": [-76.6015, 41.9166]}, "properties": {"NAME": "US-8936", "TITLE": "PA 239 State Game Land"}}, {"type": "Feature", "geometry": {"type": "Point", "coordinates": [-76.9488, 40.0895]}, "properties": {"NAME": "US-8937", "TITLE": "PA 242 State Game Land"}}, {"type": "Feature", "geometry": {"type": "Point", "coordinates": [-77.05, 40.0712]}, "properties": {"NAME": "US-8938", "TITLE": "PA 243 State Game Land"}}, {"type": "Feature", "geometry": {"type": "Point", "coordinates": [-78.9665, 41.1122]}, "properties": {"NAME": "US-8939", "TITLE": "PA 244 State Game Land"}}, {"type": "Feature", "geometry": {"type": "Point", "coordinates": [-80.4274, 40.0942]}, "properties": {"NAME": "US-8940", "TITLE": "PA 245 State Game Land"}}, {"type": "Feature", "geometry": {"type": "Point", "coordinates": [-76.6826, 40.2119]}, "properties": {"NAME": "US-8941", "TITLE": "PA 246 State Game Land"}}, {"type": "Feature", "geometry": {"type": "Point", "coordinates": [-79.574, 40.7777]}, "properties": {"NAME": "US-8942", "TITLE": "PA 247 State Game Land"}}, {"type": "Feature", "geometry": {"type": "Point", "coordinates": [-79.0718, 40.6101]}, "properties": {"NAME": "US-8943", "TITLE": "PA 248 State Game Land"}}, {"type": "Feature", "geometry": {"type": "Point", "coordinates": [-77.119, 39.9593]}, "properties": {"NAME": "US-8944", "TITLE": "PA 249 State Game Land"}}, {"type": "Feature", "geometry": {"type": "Point", "coordinates": [-76.3422, 41.6442]}, "properties": {"NAME": "US-8945", "TITLE": "PA 250 State Game Land"}}, {"type": "Feature", "geometry": {"type": "Point", "coordinates": [-77.8155, 40.2261]}, "properties": {"NAME": "US-8946", "TITLE": "PA 251 State Game Land"}}, {"type": "Feature", "geometry": {"type": "Point", "coordinates": [-76.9505, 41.1699]}, "properties": {"NAME": "US-8947", "TITLE": "PA 252 State Game Land"}}, {"type": "Feature", "geometry": {"type": "Point", "coordinates": [-79.6212, 41.4768]}, "properties": {"NAME": "US-8948", "TITLE": "PA 253 State Game Land"}}, {"type": "Feature", "geometry": {"type": "Point", "coordinates": [-76.9515, 40.4655]}, "properties": {"NAME": "US-8949", "TITLE": "PA 254 State Game Land"}}, {"type": "Feature", "geometry": {"type": "Point", "coordinates": [-77.5501, 41.077]}, "properties": {"NAME": "US-8950", "TITLE": "PA 255 State Game Land"}}, {"type": "Feature", "geometry": {"type": "Point", "coordinates": [-77.1284, 40.3943]}, "properties": {"NAME": "US-8951", "TITLE": "PA 256 State Game Land"}}, {"type": "Feature", "geometry": {"type": "Point", "coordinates": [-75.9377, 40.7677]}, "properties": {"NAME": "US-8952", "TITLE": "PA 257 State Game Land"}}, {"type": "Feature", "geometry": {"type": "Point", "coordinates": [-76.9534, 40.6128]}, "properties": {"NAME": "US-8953", "TITLE": "PA 258 State Game Land"}}, {"type": "Feature", "geometry": {"type": "Point", "coordinates": [-79.6323, 40.8988]}, "properties": {"NAME": "US-8954", "TITLE": "PA 259 State Game Land"}}, {"type": "Feature", "geometry": {"type": "Point", "coordinates": [-76.145, 41.1314]}, "properties": {"NAME": "US-8955", "TITLE": "PA 260 State Game Land"}}, {"type": "Feature", "geometry": {"type": "Point", "coordinates": [-78.2396, 40.1233]}, "properties": {"NAME": "US-8956", "TITLE": "PA 261 State Game Land"}}, {"type": "Feature", "geometry": {"type": "Point", "coordinates": [-78.8977, 40.8208]}, "properties": {"NAME": "US-8957", "TITLE": "PA 262 State Game Land"}}, {"type": "Feature", "geometry": {"type": "Point", "coordinates": [-79.6117, 41.9577]}, "properties": {"NAME": "US-8958", "TITLE": "PA 263 State Game Land"}}, {"type": "Feature", "geometry": {"type": "Point", "coordinates": [-76.6135, 40.5858]}, "properties": {"NAME": "US-8959", "TITLE": "PA 264 State Game Land"}}, {"type": "Feature", "geometry": {"type": "Point", "coordinates": [-79.4952, 39.7761]}, "properties": {"NAME": "US-8960", "TITLE": "PA 265 State Game Land"}}, {"type": "Feature", "geometry": {"type": "Point", "coordinates": [-79.1984, 41.1673]}, "properties": {"NAME": "US-8961", "TITLE": "PA 266 State Game Land"}}, {"type": "Feature", "geometry": {"type": "Point", "coordinates": [-78.4658, 40.5544]}, "properties": {"NAME": "US-8962", "TITLE": "PA 267 State Game Land"}}, {"type": "Feature", "geometry": {"type": "Point", "coordinates": [-77.3375, 41.6264]}, "properties": {"NAME": "US-8963", "TITLE": "PA 268 State Game Land"}}, {"type": "Feature", "geometry": {"type": "Point", "coordinates": [-80.2318, 41.7908]}, "properties": {"NAME": "US-8964", "TITLE": "PA 269 State Game Land"}}, {"type": "Feature", "geometry": {"type": "Point", "coordinates": [-80.1815, 41.446]}, "properties": {"NAME": "US-8965", "TITLE": "PA 270 State Game Land"}}, {"type": "Feature", "geometry": {"type": "Point", "coordinates": [-79.2633, 39.7864]}, "properties": {"NAME": "US-8966", "TITLE": "PA 271 State Game Land"}}, {"type": "Feature", "geometry": {"type": "Point", "coordinates": [-79.6061, 41.7374]}, "properties": {"NAME": "US-8967", "TITLE": "PA 272 State Game Land"}}, {"type": "Feature", "geometry": {"type": "Point", "coordinates": [-79.1266, 40.5686]}, "properties": {"NAME": "US-8968", "TITLE": "PA 273 State Game Land"}}, {"type": "Feature", "geometry": {"type": "Point", "coordinates": [-76.0711, 40.2782]}, "properties": {"NAME": "US-8969", "TITLE": "PA 274 State Game Land"}}, {"type": "Feature", "geometry": {"type": "Point", "coordinates": [-79.1816, 40.4493]}, "properties": {"NAME": "US-8970", "TITLE": "PA 276 State Game Land"}}, {"type": "Feature", "geometry": {"type": "Point", "coordinates": [-80.0447, 41.8215]}, "properties": {"NAME": "US-8971", "TITLE": "PA 277 State Game Land"}}, {"type": "Feature", "geometry": {"type": "Point", "coordinates": [-78.2253, 40.6867]}, "properties": {"NAME": "US-8972", "TITLE": "PA 278 State Game Land"}}, {"type": "Feature", "geometry": {"type": "Point", "coordinates": [-78.5791, 40.4899]}, "properties": {"NAME": "US-8973", "TITLE": "PA 279 State Game Land"}}, {"type": "Feature", "geometry": {"type": "Point", "coordinates": [-76.0782, 40.4099]}, "properties": {"NAME": "US-8974", "TITLE": "PA 280 State Game Land"}}, {"type": "Feature", "geometry": {"type": "Point", "coordinates": [-77.0488, 40.4758]}, "properties": {"NAME": "US-8975", "TITLE": "PA 281 State Game Land"}}, {"type": "Feature", "geometry": {"type": "Point", "coordinates": [-79.1247, 41.9888]}, "properties": {"NAME": "US-8976", "TITLE": "PA 282 State Game Land"}}, {"type": "Feature", "geometry": {"type": "Point", "coordinates": [-79.1991, 41.3027]}, "properties": {"NAME": "US-8977", "TITLE": "PA 283 State Game Land"}}, {"type": "Feature", "geometry": {"type": "Point", "coordinates": [-80.2162, 41.1363]}, "properties": {"NAME": "US-8978", "TITLE": "PA 284 State Game Land"}}, {"type": "Feature", "geometry": {"type": "Point", "coordinates": [-80.4882, 40.8084]}, "properties": {"NAME": "US-8979", "TITLE": "PA 285 State Game Land"}}, {"type": "Feature", "geometry": {"type": "Point", "coordinates": [-76.1543, 40.636]}, "properties": {"NAME": "US-8980", "TITLE": "PA 286 State Game Land"}}, {"type": "Feature", "geometry": {"type": "Point", "coordinates": [-79.4505, 40.9607]}, "properties": {"NAME": "US-8981", "TITLE": "PA 287 State Game Land"}}, {"type": "Feature", "geometry": {"type": "Point", "coordinates": [-76.6584, 41.7946]}, "properties": {"NAME": "US-8982", "TITLE": "PA 289 State Game Land"}}, {"type": "Feature", "geometry": {"type": "Point", "coordinates": [-77.0041, 40.4274]}, "properties": {"NAME": "US-8983", "TITLE": "PA 290 State Game Land"}}, {"type": "Feature", "geometry": {"type": "Point", "coordinates": [-79.5884, 41.8727]}, "properties": {"NAME": "US-8984", "TITLE": "PA 291 State Game Land"}}, {"type": "Feature", "geometry": {"type": "Point", "coordinates": [-75.8336, 41.2034]}, "properties": {"NAME": "US-8985", "TITLE": "PA 292 State Game Land"}}, {"type": "Feature", "geometry": {"type": "Point", "coordinates": [-78.4409, 41.4866]}, "properties": {"NAME": "US-8986", "TITLE": "PA 293 State Game Land"}}, {"type": "Feature", "geometry": {"type": "Point", "coordinates": [-80.2393, 41.3184]}, "properties": {"NAME": "US-8987", "TITLE": "PA 294 State Game Land"}}, {"type": "Feature", "geometry": {"type": "Point", "coordinates": [-77.3939, 41.03]}, "properties": {"NAME": "US-8988", "TITLE": "PA 295 State Game Land"}}, {"type": "Feature", "geometry": {"type": "Point", "coordinates": [-79.7152, 40.1011]}, "properties": {"NAME": "US-8989", "TITLE": "PA 296 State Game Land"}}, {"type": "Feature", "geometry": {"type": "Point", "coordinates": [-80.1329, 40.0915]}, "properties": {"NAME": "US-8990", "TITLE": "PA 297 State Game Land"}}, {"type": "Feature", "geometry": {"type": "Point", "coordinates": [-76.9741, 41.353]}, "properties": {"NAME": "US-8991", "TITLE": "PA 298 State Game Land"}}, {"type": "Feature", "geometry": {"type": "Point", "coordinates": [-75.3786, 41.9852]}, "properties": {"NAME": "US-8992", "TITLE": "PA 299 State Game Land"}}, {"type": "Feature", "geometry": {"type": "Point", "coordinates": [-75.511, 41.4939]}, "properties": {"NAME": "US-8993", "TITLE": "PA 300 State Game Land"}}, {"type": "Feature", "geometry": {"type": "Point", "coordinates": [-78.3978, 41.8831]}, "properties": {"NAME": "US-8994", "TITLE": "PA 301 State Game Land"}}, {"type": "Feature", "geometry": {"type": "Point", "coordinates": [-80.4791, 39.9642]}, "properties": {"NAME": "US-8995", "TITLE": "PA 302 State Game Land"}}, {"type": "Feature", "geometry": {"type": "Point", "coordinates": [-79.7048, 40.8802]}, "properties": {"NAME": "US-8996", "TITLE": "PA 304 State Game Land"}}, {"type": "Feature", "geometry": {"type": "Point", "coordinates": [-77.1189, 40.1204]}, "properties": {"NAME": "US-8997", "TITLE": "PA 305 State Game Land"}}, {"type": "Feature", "geometry": {"type": "Point", "coordinates": [-79.5001, 41.9304]}, "properties": {"NAME": "US-8998", "TITLE": "PA 306 State Game Land"}}, {"type": "Feature", "geometry": {"type": "Point", "coordinates": [-75.5563, 41.5317]}, "properties": {"NAME": "US-8999", "TITLE": "PA 307 State Game Land"}}, {"type": "Feature", "geometry": {"type": "Point", "coordinates": [-79.4439, 41.67]}, "properties": {"NAME": "US-9000", "TITLE": "PA 309 State Game Land"}}, {"type": "Feature", "geometry": {"type": "Point", "coordinates": [-75.4115, 41.4648]}, "properties": {"NAME": "US-9001", "TITLE": "PA 310 State Game Land"}}, {"type": "Feature", "geometry": {"type": "Point", "coordinates": [-78.3689, 41.3411]}, "properties": {"NAME": "US-9002", "TITLE": "PA 311 State Game Land"}}, {"type": "Feature", "geometry": {"type": "Point", "coordinates": [-75.4288, 41.2555]}, "properties": {"NAME": "US-9003", "TITLE": "PA 312 State Game Land"}}, {"type": "Feature", "geometry": {"type": "Point", "coordinates": [-77.2994, 41.7973]}, "properties": {"NAME": "US-9004", "TITLE": "PA 313 State Game Land"}}, {"type": "Feature", "geometry": {"type": "Point", "coordinates": [-80.4723, 41.9764]}, "properties": {"NAME": "US-9005", "TITLE": "PA 314 State Game Land"}}, {"type": "Feature", "geometry": {"type": "Point", "coordinates": [-75.6132, 40.405]}, "properties": {"NAME": "US-9006", "TITLE": "PA 315 State Game Land"}}, {"type": "Feature", "geometry": {"type": "Point", "coordinates": [-75.0768, 41.5552]}, "properties": {"NAME": "US-9007", "TITLE": "PA 316 State Game Land"}}, {"type": "Feature", "geometry": {"type": "Point", "coordinates": [-77.1921, 40.8786]}, "properties": {"NAME": "US-9008", "TITLE": "PA 317 State Game Land"}}, {"type": "Feature", "geometry": {"type": "Point", "coordinates": [-75.4927, 41.0978]}, "properties": {"NAME": "US-9009", "TITLE": "PA 318 State Game Land"}}, {"type": "Feature", "geometry": {"type": "Point", "coordinates": [-79.1625, 40.9465]}, "properties": {"NAME": "US-9010", "TITLE": "PA 320 State Game Land"}}, {"type": "Feature", "geometry": {"type": "Point", "coordinates": [-78.0162, 41.185]}, "properties": {"NAME": "US-9011", "TITLE": "PA 321 State Game Land"}}, {"type": "Feature", "geometry": {"type": "Point", "coordinates": [-78.0166, 40.5225]}, "properties": {"NAME": "US-9012", "TITLE": "PA 322 State Game Land"}}, {"type": "Feature", "geometry": {"type": "Point", "coordinates": [-77.7123, 40.9766]}, "properties": {"NAME": "US-9013", "TITLE": "PA 323 State Game Land"}}, {"type": "Feature", "geometry": {"type": "Point", "coordinates": [-75.9211, 40.3062]}, "properties": {"NAME": "US-9014", "TITLE": "PA 324 State Game Land"}}, {"type": "Feature", "geometry": {"type": "Point", "coordinates": [-76.7613, 41.1628]}, "properties": {"NAME": "US-9015", "TITLE": "PA 325 State Game Land"}}, {"type": "Feature", "geometry": {"type": "Point", "coordinates": [-76.2108, 40.7661]}, "properties": {"NAME": "US-9016", "TITLE": "PA 326 State Game Land"}}, {"type": "Feature", "geometry": {"type": "Point", "coordinates": [-76.438, 39.7863]}, "properties": {"NAME": "US-9017", "TITLE": "PA 327 State Game Land"}}, {"type": "Feature", "geometry": {"type": "Point", "coordinates": [-79.3842, 40.4757]}, "properties": {"NAME": "US-9018", "TITLE": "PA 328 State Game Land"}}, {"type": "Feature", "geometry": {"type": "Point", "coordinates": [-76.2999, 40.8344]}, "properties": {"NAME": "US-9019", "TITLE": "PA 329 State Game Land"}}, {"type": "Feature", "geometry": {"type": "Point", "coordinates": [-79.4992, 41.1471]}, "properties": {"NAME": "US-9020", "TITLE": "PA 330 State Game Land"}}, {"type": "Feature", "geometry": {"type": "Point", "coordinates": [-78.6533, 41.1495]}, "properties": {"NAME": "US-9021", "TITLE": "PA 331 State Game Land"}}, {"type": "Feature", "geometry": {"type": "Point", "coordinates": [-77.8148, 40.871]}, "properties": {"NAME": "US-9022", "TITLE": "PA 333 State Game Land"}}, {"type": "Feature", "geometry": {"type": "Point", "coordinates": [-78.695, 40.7041]}, "properties": {"NAME": "US-9023", "TITLE": "PA 334 State Game Land"}}, {"type": "Feature", "geometry": {"type": "Point", "coordinates": [-76.9829, 41.6331]}, "properties": {"NAME": "US-9024", "TITLE": "PA 335 State Game Land"}}, {"type": "Feature", "geometry": {"type": "Point", "coordinates": [-76.6447, 40.0539]}, "properties": {"NAME": "US-9719", "TITLE": "Susquehanna Riverlands State Park"}}, {"type": "Feature", "geometry": {"type": "Point", "coordinates": [-76.0097, 41.55]}, "properties": {"NAME": "US-9720", "TITLE": "Vosburg Neck State Park"}}, {"type": "Feature", "geometry": {"type": "Point", "coordinates": [-75.8357, 39.731]}, "properties": {"NAME": "US-9721", "TITLE": "Big Elk Creek State Park"}}, {"type": "Feature", "geometry": {"type": "Point", "coordinates": [-75.1442, 39.9337]}, "properties": {"NAME": "US-10802", "TITLE": "Gloria Dei Church National Historic Site"}}, {"type": "Feature", "geometry": {"type": "Point", "coordinates": [-79.2862, 40.5216]}, "properties": {"NAME": "US-11247", "TITLE": "PA 332 State Game Land"}}, {"type": "Feature", "geometry": {"type": "Point", "coordinates": [-80.3481, 40.9516]}, "properties": {"NAME": "US-11824", "TITLE": "PA 336 State Game Land"}}, {"type": "Feature", "geometry": {"type": "Point", "coordinates": [-74.9909, 40.12]}, "properties": {"NAME": "US-11977", "TITLE": "PA 339 State Game Land"}}]}