{"type": "FeatureCollection", "name": "W3/PO SUMMITS", "features": [{"type": "Feature", "geometry": {"type": "Point", "coordinates": [-75.5606, 41.7153]}, "properties": {"NAME": "W3/PO-001", "TITLE": "North Knob", "REGION": "Pocono", "ASSOCIATION": "USA - DE / MD / PA", "POINTS": "8", "BONUSPOINTS": "3"}}, {"type": "Feature", "geometry": {"type": "Point", "coordinates": [-75.4558, 41.7916]}, "properties": {"NAME": "W3/PO-002", "TITLE": "Mt Ararat", "REGION": "Pocono", "ASSOCIATION": "USA - DE / MD / PA", "POINTS": "8", "BONUSPOINTS": "3"}}, {"type": "Feature", "geometry": {"type": "Point", "coordinates": [-76.5545, 41.3195]}, "properties": {"NAME": "W3/PO-003", "TITLE": "North Mtn", "REGION": "Pocono", "ASSOCIATION": "USA - DE / MD / PA", "POINTS": "8", "BONUSPOINTS": "3"}}, {"type": "Feature", "geometry": {"type": "Point", "coordinates": [-75.5779, 41.749]}, "properties": {"NAME": "W3/PO-004", "TITLE": "East Mtn", "REGION": "Pocono", "ASSOCIATION": "USA - DE / MD / PA", "POINTS": "6", "BONUSPOINTS": "3"}}, {"type": "Feature", "geometry": {"type": "Point", "coordinates": [-76.261, 41.5479]}, "properties": {"NAME": "W3/PO-005", "TITLE": "Tyler Mtn", "REGION": "Pocono", "ASSOCIATION": "USA - DE / MD / PA", "POINTS": "6", "BONUSPOINTS": "3"}}, {"type": "Feature", "geometry": {"type": "Point", "coordinates": [-76.4105, 41.6526]}, "properties": {"NAME": "W3/PO-006", "TITLE": "Robwood Mtn", "REGION": "Pocono", "ASSOCIATION": "USA - DE / MD / PA", "POINTS": "6", "BONUSPOINTS": "3"}}, {"type": "Feature", "geometry": {"type": "Point", "coordinates": [-75.7517, 41.4286]}, "properties": {"NAME": "W3/PO-007", "TITLE": "Bald Mtn", "REGION": "Pocono", "ASSOCIATION": "USA - DE / MD / PA", "POINTS": "6", "BONUSPOINTS": "3"}}, {"type": "Feature", "geometry": {"type": "Point", "coordinates": [-76.7161, 41.8101]}, "properties": {"NAME": "W3/PO-008", "TITLE": "Mt Pisgah", "REGION": "Pocono", "ASSOCIATION": "USA - DE / MD / PA", "POINTS": "6", "BONUSPOINTS": "3"}}, {"type": "Feature", "geometry": {"type": "Point", "coordinates": [-75.6361, 41.2359]}, "properties": {"NAME": "W3/PO-009", "TITLE": "Big Pine Hill", "REGION": "Pocono", "ASSOCIATION": "USA - DE / MD / PA", "POINTS": "6", "BONUSPOINTS": "3"}}, {"type": "Feature", "geometry": {"type": "Point", "coordinates": [-75.9519, 41.4892]}, "properties": {"NAME": "W3/PO-010", "TITLE": "Miller Mtn", "REGION": "Pocono", "ASSOCIATION": "USA - DE / MD / PA", "POINTS": "6", "BONUSPOINTS": "3"}}, {"type": "Feature", "geometry": {"type": "Point", "coordinates": [-76.6779, 41.3726]}, "properties": {"NAME": "W3/PO-011", "TITLE": "2190", "REGION": "Pocono", "ASSOCIATION": "USA - DE / MD / PA", "POINTS": "6", "BONUSPOINTS": "3"}}, {"type": "Feature", "geometry": {"type": "Point", "coordinates": [-76.2172, 41.5354]}, "properties": {"NAME": "W3/PO-012", "TITLE": "Round Top", "REGION": "Pocono", "ASSOCIATION": "USA - DE / MD / PA", "POINTS": "6", "BONUSPOINTS": "3"}}, {"type": "Feature", "geometry": {"type": "Point", "coordinates": [-75.6304, 41.492]}, "properties": {"NAME": "W3/PO-013", "TITLE": "2069", "REGION": "Pocono", "ASSOCIATION": "USA - DE / MD / PA", "POINTS": "6", "BONUSPOINTS": "3"}}, {"type": "Feature", "geometry": {"type": "Point", "coordinates": [-76.009, 41.4519]}, "properties": {"NAME": "W3/PO-014", "TITLE": "Brier Mtn", "REGION": "Pocono", "ASSOCIATION": "USA - DE / MD / PA", "POINTS": "6", "BONUSPOINTS": "3"}}, {"type": "Feature", "geometry": {"type": "Point", "coordinates": [-75.2344, 41.7618]}, "properties": {"NAME": "W3/PO-015", "TITLE": "Big Hickory", "REGION": "Pocono", "ASSOCIATION": "USA - DE / MD / PA", "POINTS": "6", "BONUSPOINTS": "3"}}, {"type": "Feature", "geometry": {"type": "Point", "coordinates": [-76.6758, 41.4887]}, "properties": {"NAME": "W3/PO-016", "TITLE": "Bear Mtn", "REGION": "Pocono", "ASSOCIATION": "USA - DE / MD / PA", "POINTS": "6", "BONUSPOINTS": "3"}}, {"type": "Feature", "geometry": {"type": "Point", "coordinates": [-75.9559, 41.9252]}, "properties": {"NAME": "W3/PO-017", "TITLE": "Silver Lake Mtn", "REGION": "Pocono", "ASSOCIATION": "USA - DE / MD / PA", "POINTS": "4", "BONUSPOINTS": "3"}}, {"type": "Feature", "geometry": {"type": "Point", "coordinates": [-76.1569, 41.5506]}, "properties": {"NAME": "W3/PO-018", "TITLE": "Douglas Hill", "REGION": "Pocono", "ASSOCIATION": "USA - DE / MD / PA", "POINTS": "4", "BONUSPOINTS": "3"}}, {"type": "Feature", "geometry": {"type": "Point", "coordinates": [-75.8986, 41.5369]}, "properties": {"NAME": "W3/PO-019", "TITLE": "Osterhout Mtn", "REGION": "Pocono", "ASSOCIATION": "USA - DE / MD / PA", "POINTS": "4", "BONUSPOINTS": "3"}}, {"type": "Feature", "geometry": {"type": "Point", "coordinates": [-76.7675, 41.8204]}, "properties": {"NAME": "W3/PO-020", "TITLE": "Oak Hill", "REGION": "Pocono", "ASSOCIATION": "USA - DE / MD / PA", "POINTS": "4", "BONUSPOINTS": "3"}}, {"type": "Feature", "geometry": {"type": "Point", "coordinates": [-76.1797, 41.9714]}, "properties": {"NAME": "W3/PO-021", "TITLE": "1890", "REGION": "Pocono", "ASSOCIATION": "USA - DE / MD / PA", "POINTS": "4", "BONUSPOINTS": "3"}}, {"type": "Feature", "geometry": {"type": "Point", "coordinates": [-75.6304, 41.6477]}, "properties": {"NAME": "W3/PO-022", "TITLE": "Thorn Hill", "REGION": "Pocono", "ASSOCIATION": "USA - DE / MD / PA", "POINTS": "4", "BONUSPOINTS": "3"}}, {"type": "Feature", "geometry": {"type": "Point", "coordinates": [-75.8291, 40.8959]}, "properties": {"NAME": "W3/PO-023", "TITLE": "Broad Mtn", "REGION": "Pocono", "ASSOCIATION": "USA - DE / MD / PA", "POINTS": "4", "BONUSPOINTS": "3"}}, {"type": "Feature", "geometry": {"type": "Point", "coordinates": [-75.6372, 41.9714]}, "properties": {"NAME": "W3/PO-024", "TITLE": "Smokey Mtn North", "REGION": "Pocono", "ASSOCIATION": "USA - DE / MD / PA", "POINTS": "4", "BONUSPOINTS": "3"}}, {"type": "Feature", "geometry": {"type": "Point", "coordinates": [-75.2605, 40.8845]}, "properties": {"NAME": "W3/PO-025", "TITLE": "Blue Mtn 1690", "REGION": "Pocono", "ASSOCIATION": "USA - DE / MD / PA", "POINTS": "2", "BONUSPOINTS": "3"}}, {"type": "Feature", "geometry": {"type": "Point", "coordinates": [-76.433, 41.9717]}, "properties": {"NAME": "W3/PO-026", "TITLE": "1690", "REGION": "Pocono", "ASSOCIATION": "USA - DE / MD / PA", "POINTS": "2", "BONUSPOINTS": "3"}}, {"type": "Feature", "geometry": {"type": "Point", "coordinates": [-76.0058, 41.5203]}, "properties": {"NAME": "W3/PO-027", "TITLE": "1670", "REGION": "Pocono", "ASSOCIATION": "USA - DE / MD / PA", "POINTS": "2", "BONUSPOINTS": "3"}}, {"type": "Feature", "geometry": {"type": "Point", "coordinates": [-76.0153, 41.2387]}, "properties": {"NAME": "W3/PO-028", "TITLE": "1610", "REGION": "Pocono", "ASSOCIATION": "USA - DE / MD / PA", "POINTS": "2", "BONUSPOINTS": "3"}}, {"type": "Feature", "geometry": {"type": "Point", "coordinates": [-75.4224, 40.8227]}, "properties": {"NAME": "W3/PO-029", "TITLE": "Smiths Gap Benchmark", "REGION": "Pocono", "ASSOCIATION": "USA - DE / MD / PA", "POINTS": "2", "BONUSPOINTS": "3"}}, {"type": "Feature", "geometry": {"type": "Point", "coordinates": [-76.1521, 41.1665]}, "properties": {"NAME": "W3/PO-030", "TITLE": "Shickshinny Mtn South", "REGION": "Pocono", "ASSOCIATION": "USA - DE / MD / PA", "POINTS": "2", "BONUSPOINTS": "3"}}, {"type": "Feature", "geometry": {"type": "Point", "coordinates": [-75.364, 40.8612]}, "properties": {"NAME": "W3/PO-031", "TITLE": "Chestnut Ridge 1250", "REGION": "Pocono", "ASSOCIATION": "USA - DE / MD / PA", "POINTS": "1", "BONUSPOINTS": "0"}}, {"type": "Feature", "geometry": {"type": "Point", "coordinates": [-75.0726, 41.0339]}, "properties": {"NAME": "W3/PO-032", "TITLE": "Shawnee Mtn", "REGION": "Pocono", "ASSOCIATION": "USA - DE / MD / PA", "POINTS": "1", "BONUSPOINTS": "0"}}, {"type": "Feature", "geometry": {"type": "Point", "coordinates": [-75.4564, 41.8222]}, "properties": {"NAME": "W3/PO-033", "TITLE": "Sugarloaf Mountain", "REGION": "Pocono", "ASSOCIATION": "USA - DE / MD / PA", "POINTS": "8", "BONUSPOINTS": "3"}}, {"type": "Feature", "geometry": {"type": "Point", "coordinates": [-75.4735, 41.4953]}, "properties": {"NAME": "W3/PO-034", "TITLE": "Lackawanna County HP", "REGION": "Pocono", "ASSOCIATION": "USA - DE / MD / PA", "POINTS": "6", "BONUSPOINTS": "3"}}, {"type": "Feature", "geometry": {"type": "Point", "coordinates": [-76.4628, 41.6307]}, "properties": {"NAME": "W3/PO-035", "TITLE": "Hatch Mountain", "REGION": "Pocono", "ASSOCIATION": "USA - DE / MD / PA", "POINTS": "6", "BONUSPOINTS": "3"}}, {"type": "Feature", "geometry": {"type": "Point", "coordinates": [-75.5934, 41.3815]}, "properties": {"NAME": "W3/PO-036", "TITLE": "Scrub Oak Benchmark", "REGION": "Pocono", "ASSOCIATION": "USA - DE / MD / PA", "POINTS": "6", "BONUSPOINTS": "3"}}, {"type": "Feature", "geometry": {"type": "Point", "coordinates": [-75.5965, 41.5149]}, "properties": {"NAME": "W3/PO-037", "TITLE": "Hubbard Mountain", "REGION": "Pocono", "ASSOCIATION": "USA - DE / MD / PA", "POINTS": "6", "BONUSPOINTS": "3"}}, {"type": "Feature", "geometry": {"type": "Point", "coordinates": [-75.9651, 41.9326]}, "properties": {"NAME": "W3/PO-038", "TITLE": "1970", "REGION": "Pocono", "ASSOCIATION": "USA - DE / MD / PA", "POINTS": "4", "BONUSPOINTS": "3"}}, {"type": "Feature", "geometry": {"type": "Point", "coordinates": [-75.8334, 41.0707]}, "properties": {"NAME": "W3/PO-039", "TITLE": "Yeager, Mount", "REGION": "Pocono", "ASSOCIATION": "USA - DE / MD / PA", "POINTS": "4", "BONUSPOINTS": "3"}}, {"type": "Feature", "geometry": {"type": "Point", "coordinates": [-76.0739, 41.9916]}, "properties": {"NAME": "W3/PO-040", "TITLE": "Cork Hill", "REGION": "Pocono", "ASSOCIATION": "USA - DE / MD / PA", "POINTS": "4", "BONUSPOINTS": "3"}}, {"type": "Feature", "geometry": {"type": "Point", "coordinates": [-76.779, 41.921]}, "properties": {"NAME": "W3/PO-041", "TITLE": "Thompson Hill", "REGION": "Pocono", "ASSOCIATION": "USA - DE / MD / PA", "POINTS": "4", "BONUSPOINTS": "3"}}, {"type": "Feature", "geometry": {"type": "Point", "coordinates": [-76.0499, 41.344]}, "properties": {"NAME": "W3/PO-042", "TITLE": "1710", "REGION": "Pocono", "ASSOCIATION": "USA - DE / MD / PA", "POINTS": "4", "BONUSPOINTS": "3"}}, {"type": "Feature", "geometry": {"type": "Point", "coordinates": [-75.8878, 41.3246]}, "properties": {"NAME": "W3/PO-043", "TITLE": "1649", "REGION": "Pocono", "ASSOCIATION": "USA - DE / MD / PA", "POINTS": "2", "BONUSPOINTS": "3"}}, {"type": "Feature", "geometry": {"type": "Point", "coordinates": [-75.9522, 41.28]}, "properties": {"NAME": "W3/PO-044", "TITLE": "Larksville Mountain", "REGION": "Pocono", "ASSOCIATION": "USA - DE / MD / PA", "POINTS": "2", "BONUSPOINTS": "3"}}, {"type": "Feature", "geometry": {"type": "Point", "coordinates": [-76.1392, 41.1757]}, "properties": {"NAME": "W3/PO-045", "TITLE": "Shickshinny Mountain", "REGION": "Pocono", "ASSOCIATION": "USA - DE / MD / PA", "POINTS": "2", "BONUSPOINTS": "3"}}, {"type": "Feature", "geometry": {"type": "Point", "coordinates": [-76.0041, 41.5931]}, "properties": {"NAME": "W3/PO-046", "TITLE": "Florey Knob", "REGION": "Pocono", "ASSOCIATION": "USA - DE / MD / PA", "POINTS": "2", "BONUSPOINTS": "3"}}]}