{"type": "FeatureCollection", "name": "W3/PH SUMMITS", "features": [{"type": "Feature", "geometry": {"type": "Point", "coordinates": [-76.2538, 40.5176]}, "properties": {"NAME": "W3/PH-001", "TITLE": "Berks County HP", "REGION": "Philadelphia", "ASSOCIATION": "USA - DE / MD / PA", "POINTS": "2", "BONUSPOINTS": "3"}}, {"type": "Feature", "geometry": {"type": "Point", "coordinates": [-75.9288, 40.6634]}, "properties": {"NAME": "W3/PH-002", "TITLE": "Dan's Pulpit East", "REGION": "Philadelphia", "ASSOCIATION": "USA - DE / MD / PA", "POINTS": "2", "BONUSPOINTS": "3"}}, {"type": "Feature", "geometry": {"type": "Point", "coordinates": [-75.6826, 40.4771]}, "properties": {"NAME": "W3/PH-003", "TITLE": "Topton Mtn", "REGION": "Philadelphia", "ASSOCIATION": "USA - DE / MD / PA", "POINTS": "1", "BONUSPOINTS": "0"}}, {"type": "Feature", "geometry": {"type": "Point", "coordinates": [-75.255, 40.626]}, "properties": {"NAME": "W3/PH-004", "TITLE": "Gaffney Hill", "REGION": "Philadelphia", "ASSOCIATION": "USA - DE / MD / PA", "POINTS": "1", "BONUSPOINTS": "0"}}, {"type": "Feature", "geometry": {"type": "Point", "coordinates": [-75.8892, 40.6782]}, "properties": {"NAME": "W3/PH-005", "TITLE": "Lehigh County HP", "REGION": "Philadelphia", "ASSOCIATION": "USA - DE / MD / PA", "POINTS": "2", "BONUSPOINTS": "3"}}, {"type": "Feature", "geometry": {"type": "Point", "coordinates": [-75.9747, 40.267]}, "properties": {"NAME": "W3/PH-006", "TITLE": "1070", "REGION": "Philadelphia", "ASSOCIATION": "USA - DE / MD / PA", "POINTS": "1", "BONUSPOINTS": "0"}}]}