{"type": "FeatureCollection", "name": "W3/PW SUMMITS", "features": [{"type": "Feature", "geometry": {"type": "Point", "coordinates": [-77.7028, 41.9055]}, "properties": {"NAME": "W3/PW-001", "TITLE": "White Knob South", "REGION": "Pennsylvania Wilds", "ASSOCIATION": "USA - DE / MD / PA", "POINTS": "8", "BONUSPOINTS": "3"}}, {"type": "Feature", "geometry": {"type": "Point", "coordinates": [-78.1943, 41.6826]}, "properties": {"NAME": "W3/PW-002", "TITLE": "2450", "REGION": "Pennsylvania Wilds", "ASSOCIATION": "USA - DE / MD / PA", "POINTS": "6", "BONUSPOINTS": "3"}}, {"type": "Feature", "geometry": {"type": "Point", "coordinates": [-76.9244, 41.761]}, "properties": {"NAME": "W3/PW-003", "TITLE": "Armenia Mtn", "REGION": "Pennsylvania Wilds", "ASSOCIATION": "USA - DE / MD / PA", "POINTS": "6", "BONUSPOINTS": "3"}}, {"type": "Feature", "geometry": {"type": "Point", "coordinates": [-77.7554, 40.7519]}, "properties": {"NAME": "W3/PW-004", "TITLE": "Little Flat", "REGION": "Pennsylvania Wilds", "ASSOCIATION": "USA - DE / MD / PA", "POINTS": "6", "BONUSPOINTS": "3"}}, {"type": "Feature", "geometry": {"type": "Point", "coordinates": [-76.8094, 41.5651]}, "properties": {"NAME": "W3/PW-005", "TITLE": "Lycoming County HP", "REGION": "Pennsylvania Wilds", "ASSOCIATION": "USA - DE / MD / PA", "POINTS": "6", "BONUSPOINTS": "3"}}, {"type": "Feature", "geometry": {"type": "Point", "coordinates": [-78.568, 41.0642]}, "properties": {"NAME": "W3/PW-006", "TITLE": "Clearfield County HP", "REGION": "Pennsylvania Wilds", "ASSOCIATION": "USA - DE / MD / PA", "POINTS": "6", "BONUSPOINTS": "3"}}, {"type": "Feature", "geometry": {"type": "Point", "coordinates": [-78.6452, 41.2473]}, "properties": {"NAME": "W3/PW-007", "TITLE": "Boone Mtn", "REGION": "Pennsylvania Wilds", "ASSOCIATION": "USA - DE / MD / PA", "POINTS": "6", "BONUSPOINTS": "3"}}, {"type": "Feature", "geometry": {"type": "Point", "coordinates": [-77.8355, 41.2107]}, "properties": {"NAME": "W3/PW-008", "TITLE": "Clinton County HP", "REGION": "Pennsylvania Wilds", "ASSOCIATION": "USA - DE / MD / PA", "POINTS": "6", "BONUSPOINTS": "3"}}, {"type": "Feature", "geometry": {"type": "Point", "coordinates": [-78.1084, 41.4289]}, "properties": {"NAME": "W3/PW-009", "TITLE": "2366", "REGION": "Pennsylvania Wilds", "ASSOCIATION": "USA - DE / MD / PA", "POINTS": "6", "BONUSPOINTS": "3"}}, {"type": "Feature", "geometry": {"type": "Point", "coordinates": [-77.4685, 40.9622]}, "properties": {"NAME": "W3/PW-010", "TITLE": "Big Kettle Mtn", "REGION": "Pennsylvania Wilds", "ASSOCIATION": "USA - DE / MD / PA", "POINTS": "6", "BONUSPOINTS": "3"}}, {"type": "Feature", "geometry": {"type": "Point", "coordinates": [-77.4617, 41.8292]}, "properties": {"NAME": "W3/PW-011", "TITLE": "2370", "REGION": "Pennsylvania Wilds", "ASSOCIATION": "USA - DE / MD / PA", "POINTS": "6", "BONUSPOINTS": "3"}}, {"type": "Feature", "geometry": {"type": "Point", "coordinates": [-77.0108, 41.9101]}, "properties": {"NAME": "W3/PW-012", "TITLE": "Tower Hill", "REGION": "Pennsylvania Wilds", "ASSOCIATION": "USA - DE / MD / PA", "POINTS": "6", "BONUSPOINTS": "3"}}, {"type": "Feature", "geometry": {"type": "Point", "coordinates": [-77.3798, 41.0514]}, "properties": {"NAME": "W3/PW-013", "TITLE": "Riansares Mtn", "REGION": "Pennsylvania Wilds", "ASSOCIATION": "USA - DE / MD / PA", "POINTS": "6", "BONUSPOINTS": "3"}}, {"type": "Feature", "geometry": {"type": "Point", "coordinates": [-77.0817, 41.5158]}, "properties": {"NAME": "W3/PW-014", "TITLE": "Laurel Hill", "REGION": "Pennsylvania Wilds", "ASSOCIATION": "USA - DE / MD / PA", "POINTS": "6", "BONUSPOINTS": "3"}}, {"type": "Feature", "geometry": {"type": "Point", "coordinates": [-77.4071, 41.745]}, "properties": {"NAME": "W3/PW-015", "TITLE": "Mt Tom", "REGION": "Pennsylvania Wilds", "ASSOCIATION": "USA - DE / MD / PA", "POINTS": "6", "BONUSPOINTS": "3"}}, {"type": "Feature", "geometry": {"type": "Point", "coordinates": [-77.6951, 40.8599]}, "properties": {"NAME": "W3/PW-016", "TITLE": "Nittanny Mtn 2302", "REGION": "Pennsylvania Wilds", "ASSOCIATION": "USA - DE / MD / PA", "POINTS": "6", "BONUSPOINTS": "3"}}, {"type": "Feature", "geometry": {"type": "Point", "coordinates": [-77.1564, 41.8473]}, "properties": {"NAME": "W3/PW-017", "TITLE": "Pat Jr Benchmark", "REGION": "Pennsylvania Wilds", "ASSOCIATION": "USA - DE / MD / PA", "POINTS": "6", "BONUSPOINTS": "3"}}, {"type": "Feature", "geometry": {"type": "Point", "coordinates": [-77.2191, 41.691]}, "properties": {"NAME": "W3/PW-018", "TITLE": "Maple Hill West", "REGION": "Pennsylvania Wilds", "ASSOCIATION": "USA - DE / MD / PA", "POINTS": "6", "BONUSPOINTS": "3"}}, {"type": "Feature", "geometry": {"type": "Point", "coordinates": [-77.1584, 41.4746]}, "properties": {"NAME": "W3/PW-019", "TITLE": "2264", "REGION": "Pennsylvania Wilds", "ASSOCIATION": "USA - DE / MD / PA", "POINTS": "6", "BONUSPOINTS": "3"}}, {"type": "Feature", "geometry": {"type": "Point", "coordinates": [-78.7623, 40.96]}, "properties": {"NAME": "W3/PW-020", "TITLE": "2266", "REGION": "Pennsylvania Wilds", "ASSOCIATION": "USA - DE / MD / PA", "POINTS": "6", "BONUSPOINTS": "3"}}, {"type": "Feature", "geometry": {"type": "Point", "coordinates": [-79.0278, 41.9884]}, "properties": {"NAME": "W3/PW-021", "TITLE": "Warren County HP", "REGION": "Pennsylvania Wilds", "ASSOCIATION": "USA - DE / MD / PA", "POINTS": "6", "BONUSPOINTS": "3"}}, {"type": "Feature", "geometry": {"type": "Point", "coordinates": [-77.3397, 41.6504]}, "properties": {"NAME": "W3/PW-022", "TITLE": "East Hill", "REGION": "Pennsylvania Wilds", "ASSOCIATION": "USA - DE / MD / PA", "POINTS": "6", "BONUSPOINTS": "3"}}, {"type": "Feature", "geometry": {"type": "Point", "coordinates": [-77.245, 41.8388]}, "properties": {"NAME": "W3/PW-023", "TITLE": "2227", "REGION": "Pennsylvania Wilds", "ASSOCIATION": "USA - DE / MD / PA", "POINTS": "6", "BONUSPOINTS": "3"}}, {"type": "Feature", "geometry": {"type": "Point", "coordinates": [-77.2668, 40.9305]}, "properties": {"NAME": "W3/PW-024", "TITLE": "Buffalo Mtn 2224", "REGION": "Pennsylvania Wilds", "ASSOCIATION": "USA - DE / MD / PA", "POINTS": "6", "BONUSPOINTS": "3"}}, {"type": "Feature", "geometry": {"type": "Point", "coordinates": [-78.4288, 41.9998]}, "properties": {"NAME": "W3/PW-025", "TITLE": "Drake Hollow mtn", "REGION": "Pennsylvania Wilds", "ASSOCIATION": "USA - DE / MD / PA", "POINTS": "6", "BONUSPOINTS": "3"}}, {"type": "Feature", "geometry": {"type": "Point", "coordinates": [-77.1785, 41.5054]}, "properties": {"NAME": "W3/PW-026", "TITLE": "Sugar Hill", "REGION": "Pennsylvania Wilds", "ASSOCIATION": "USA - DE / MD / PA", "POINTS": "6", "BONUSPOINTS": "3"}}, {"type": "Feature", "geometry": {"type": "Point", "coordinates": [-77.2958, 41.3823]}, "properties": {"NAME": "W3/PW-027", "TITLE": "English Benchmark", "REGION": "Pennsylvania Wilds", "ASSOCIATION": "USA - DE / MD / PA", "POINTS": "6", "BONUSPOINTS": "3"}}, {"type": "Feature", "geometry": {"type": "Point", "coordinates": [-77.4221, 41.9874]}, "properties": {"NAME": "W3/PW-028", "TITLE": "Knoxville Mtn", "REGION": "Pennsylvania Wilds", "ASSOCIATION": "USA - DE / MD / PA", "POINTS": "6", "BONUSPOINTS": "3"}}, {"type": "Feature", "geometry": {"type": "Point", "coordinates": [-77.3545, 40.8809]}, "properties": {"NAME": "W3/PW-029", "TITLE": "Thick Mtn", "REGION": "Pennsylvania Wilds", "ASSOCIATION": "USA - DE / MD / PA", "POINTS": "6", "BONUSPOINTS": "3"}}, {"type": "Feature", "geometry": {"type": "Point", "coordinates": [-77.204, 41.0851]}, "properties": {"NAME": "W3/PW-030", "TITLE": "Jumbo Benchmark", "REGION": "Pennsylvania Wilds", "ASSOCIATION": "USA - DE / MD / PA", "POINTS": "6", "BONUSPOINTS": "3"}}, {"type": "Feature", "geometry": {"type": "Point", "coordinates": [-78.3279, 40.9408]}, "properties": {"NAME": "W3/PW-031", "TITLE": "2190", "REGION": "Pennsylvania Wilds", "ASSOCIATION": "USA - DE / MD / PA", "POINTS": "6", "BONUSPOINTS": "3"}}, {"type": "Feature", "geometry": {"type": "Point", "coordinates": [-77.2144, 41.467]}, "properties": {"NAME": "W3/PW-032", "TITLE": "2178", "REGION": "Pennsylvania Wilds", "ASSOCIATION": "USA - DE / MD / PA", "POINTS": "6", "BONUSPOINTS": "3"}}, {"type": "Feature", "geometry": {"type": "Point", "coordinates": [-77.4735, 41.4701]}, "properties": {"NAME": "W3/PW-033", "TITLE": "Beulahland Mtn", "REGION": "Pennsylvania Wilds", "ASSOCIATION": "USA - DE / MD / PA", "POINTS": "6", "BONUSPOINTS": "3"}}, {"type": "Feature", "geometry": {"type": "Point", "coordinates": [-77.0056, 41.4139]}, "properties": {"NAME": "W3/PW-034", "TITLE": "Shoe Benchmark", "REGION": "Pennsylvania Wilds", "ASSOCIATION": "USA - DE / MD / PA", "POINTS": "6", "BONUSPOINTS": "3"}}, {"type": "Feature", "geometry": {"type": "Point", "coordinates": [-77.0954, 41.8591]}, "properties": {"NAME": "W3/PW-035", "TITLE": "Big Hill", "REGION": "Pennsylvania Wilds", "ASSOCIATION": "USA - DE / MD / PA", "POINTS": "6", "BONUSPOINTS": "3"}}, {"type": "Feature", "geometry": {"type": "Point", "coordinates": [-78.1644, 41.3509]}, "properties": {"NAME": "W3/PW-036", "TITLE": "Mason Hill", "REGION": "Pennsylvania Wilds", "ASSOCIATION": "USA - DE / MD / PA", "POINTS": "6", "BONUSPOINTS": "3"}}, {"type": "Feature", "geometry": {"type": "Point", "coordinates": [-77.8892, 40.9726]}, "properties": {"NAME": "W3/PW-037", "TITLE": "Ganderstep Knob", "REGION": "Pennsylvania Wilds", "ASSOCIATION": "USA - DE / MD / PA", "POINTS": "6", "BONUSPOINTS": "3"}}, {"type": "Feature", "geometry": {"type": "Point", "coordinates": [-78.8437, 41.304]}, "properties": {"NAME": "W3/PW-038", "TITLE": "Jefferson County HP", "REGION": "Pennsylvania Wilds", "ASSOCIATION": "USA - DE / MD / PA", "POINTS": "6", "BONUSPOINTS": "3"}}, {"type": "Feature", "geometry": {"type": "Point", "coordinates": [-77.0363, 41.4386]}, "properties": {"NAME": "W3/PW-039", "TITLE": "Sugarcamp Mtn", "REGION": "Pennsylvania Wilds", "ASSOCIATION": "USA - DE / MD / PA", "POINTS": "6", "BONUSPOINTS": "3"}}, {"type": "Feature", "geometry": {"type": "Point", "coordinates": [-77.8017, 41.0275]}, "properties": {"NAME": "W3/PW-040", "TITLE": "2150", "REGION": "Pennsylvania Wilds", "ASSOCIATION": "USA - DE / MD / PA", "POINTS": "6", "BONUSPOINTS": "3"}}, {"type": "Feature", "geometry": {"type": "Point", "coordinates": [-77.2777, 41.859]}, "properties": {"NAME": "W3/PW-041", "TITLE": "Keeney Benchmark", "REGION": "Pennsylvania Wilds", "ASSOCIATION": "USA - DE / MD / PA", "POINTS": "6", "BONUSPOINTS": "3"}}, {"type": "Feature", "geometry": {"type": "Point", "coordinates": [-77.0985, 41.4236]}, "properties": {"NAME": "W3/PW-042", "TITLE": "Green Mtn North", "REGION": "Pennsylvania Wilds", "ASSOCIATION": "USA - DE / MD / PA", "POINTS": "6", "BONUSPOINTS": "3"}}, {"type": "Feature", "geometry": {"type": "Point", "coordinates": [-77.0582, 41.4302]}, "properties": {"NAME": "W3/PW-043", "TITLE": "Narrow Mtn", "REGION": "Pennsylvania Wilds", "ASSOCIATION": "USA - DE / MD / PA", "POINTS": "6", "BONUSPOINTS": "3"}}, {"type": "Feature", "geometry": {"type": "Point", "coordinates": [-77.5837, 40.883]}, "properties": {"NAME": "W3/PW-044", "TITLE": "Brush Mtn 2094", "REGION": "Pennsylvania Wilds", "ASSOCIATION": "USA - DE / MD / PA", "POINTS": "6", "BONUSPOINTS": "3"}}, {"type": "Feature", "geometry": {"type": "Point", "coordinates": [-77.782, 41.0381]}, "properties": {"NAME": "W3/PW-045", "TITLE": "2090", "REGION": "Pennsylvania Wilds", "ASSOCIATION": "USA - DE / MD / PA", "POINTS": "6", "BONUSPOINTS": "3"}}, {"type": "Feature", "geometry": {"type": "Point", "coordinates": [-77.3512, 41.1269]}, "properties": {"NAME": "W3/PW-046", "TITLE": "Bald Eagle Mtn 2080", "REGION": "Pennsylvania Wilds", "ASSOCIATION": "USA - DE / MD / PA", "POINTS": "6", "BONUSPOINTS": "3"}}, {"type": "Feature", "geometry": {"type": "Point", "coordinates": [-77.2147, 41.3874]}, "properties": {"NAME": "W3/PW-047", "TITLE": "2073", "REGION": "Pennsylvania Wilds", "ASSOCIATION": "USA - DE / MD / PA", "POINTS": "6", "BONUSPOINTS": "3"}}, {"type": "Feature", "geometry": {"type": "Point", "coordinates": [-79.0766, 41.6958]}, "properties": {"NAME": "W3/PW-048", "TITLE": "2050", "REGION": "Pennsylvania Wilds", "ASSOCIATION": "USA - DE / MD / PA", "POINTS": "6", "BONUSPOINTS": "3"}}, {"type": "Feature", "geometry": {"type": "Point", "coordinates": [-76.9628, 41.4406]}, "properties": {"NAME": "W3/PW-049", "TITLE": "Batys Mtn", "REGION": "Pennsylvania Wilds", "ASSOCIATION": "USA - DE / MD / PA", "POINTS": "6", "BONUSPOINTS": "3"}}, {"type": "Feature", "geometry": {"type": "Point", "coordinates": [-79.0073, 41.0469]}, "properties": {"NAME": "W3/PW-050", "TITLE": "2027", "REGION": "Pennsylvania Wilds", "ASSOCIATION": "USA - DE / MD / PA", "POINTS": "6", "BONUSPOINTS": "3"}}, {"type": "Feature", "geometry": {"type": "Point", "coordinates": [-77.3271, 41.1375]}, "properties": {"NAME": "W3/PW-051", "TITLE": "Bald Eagle Mtn 2008", "REGION": "Pennsylvania Wilds", "ASSOCIATION": "USA - DE / MD / PA", "POINTS": "6", "BONUSPOINTS": "3"}}, {"type": "Feature", "geometry": {"type": "Point", "coordinates": [-77.0539, 41.357]}, "properties": {"NAME": "W3/PW-052", "TITLE": "Nail Factory Mtn", "REGION": "Pennsylvania Wilds", "ASSOCIATION": "USA - DE / MD / PA", "POINTS": "4", "BONUSPOINTS": "3"}}, {"type": "Feature", "geometry": {"type": "Point", "coordinates": [-76.7591, 41.4239]}, "properties": {"NAME": "W3/PW-053", "TITLE": "Camp Mtn", "REGION": "Pennsylvania Wilds", "ASSOCIATION": "USA - DE / MD / PA", "POINTS": "4", "BONUSPOINTS": "3"}}, {"type": "Feature", "geometry": {"type": "Point", "coordinates": [-76.8268, 41.3971]}, "properties": {"NAME": "W3/PW-054", "TITLE": "1986", "REGION": "Pennsylvania Wilds", "ASSOCIATION": "USA - DE / MD / PA", "POINTS": "4", "BONUSPOINTS": "3"}}, {"type": "Feature", "geometry": {"type": "Point", "coordinates": [-77.6021, 40.8318]}, "properties": {"NAME": "W3/PW-055", "TITLE": "Egg Hill", "REGION": "Pennsylvania Wilds", "ASSOCIATION": "USA - DE / MD / PA", "POINTS": "4", "BONUSPOINTS": "3"}}, {"type": "Feature", "geometry": {"type": "Point", "coordinates": [-79.4727, 41.906]}, "properties": {"NAME": "W3/PW-056", "TITLE": "Miles Benchmark", "REGION": "Pennsylvania Wilds", "ASSOCIATION": "USA - DE / MD / PA", "POINTS": "4", "BONUSPOINTS": "3"}}, {"type": "Feature", "geometry": {"type": "Point", "coordinates": [-79.3638, 41.7906]}, "properties": {"NAME": "W3/PW-057", "TITLE": "1945", "REGION": "Pennsylvania Wilds", "ASSOCIATION": "USA - DE / MD / PA", "POINTS": "4", "BONUSPOINTS": "3"}}, {"type": "Feature", "geometry": {"type": "Point", "coordinates": [-79.2164, 41.9428]}, "properties": {"NAME": "W3/PW-058", "TITLE": "Skinner Hill West", "REGION": "Pennsylvania Wilds", "ASSOCIATION": "USA - DE / MD / PA", "POINTS": "4", "BONUSPOINTS": "3"}}, {"type": "Feature", "geometry": {"type": "Point", "coordinates": [-76.9725, 41.3726]}, "properties": {"NAME": "W3/PW-059", "TITLE": "The Wells Mtn", "REGION": "Pennsylvania Wilds", "ASSOCIATION": "USA - DE / MD / PA", "POINTS": "4", "BONUSPOINTS": "3"}}, {"type": "Feature", "geometry": {"type": "Point", "coordinates": [-76.978, 41.4247]}, "properties": {"NAME": "W3/PW-060", "TITLE": "1931", "REGION": "Pennsylvania Wilds", "ASSOCIATION": "USA - DE / MD / PA", "POINTS": "4", "BONUSPOINTS": "3"}}, {"type": "Feature", "geometry": {"type": "Point", "coordinates": [-76.9115, 41.2163]}, "properties": {"NAME": "W3/PW-061", "TITLE": "Bald Eagle Mtn 1894", "REGION": "Pennsylvania Wilds", "ASSOCIATION": "USA - DE / MD / PA", "POINTS": "4", "BONUSPOINTS": "3"}}, {"type": "Feature", "geometry": {"type": "Point", "coordinates": [-77.9802, 40.8261]}, "properties": {"NAME": "W3/PW-062", "TITLE": "Bald Eagle Mtn 1834", "REGION": "Pennsylvania Wilds", "ASSOCIATION": "USA - DE / MD / PA", "POINTS": "4", "BONUSPOINTS": "3"}}, {"type": "Feature", "geometry": {"type": "Point", "coordinates": [-77.6325, 41.1077]}, "properties": {"NAME": "W3/PW-063", "TITLE": "Bear Swamp Hill", "REGION": "Pennsylvania Wilds", "ASSOCIATION": "USA - DE / MD / PA", "POINTS": "4", "BONUSPOINTS": "3"}}, {"type": "Feature", "geometry": {"type": "Point", "coordinates": [-77.5306, 41.0668]}, "properties": {"NAME": "W3/PW-064", "TITLE": "Peters Hollow Hill", "REGION": "Pennsylvania Wilds", "ASSOCIATION": "USA - DE / MD / PA", "POINTS": "4", "BONUSPOINTS": "3"}}, {"type": "Feature", "geometry": {"type": "Point", "coordinates": [-77.6842, 40.9743]}, "properties": {"NAME": "W3/PW-065", "TITLE": "Bald Eagle Mtn 1730", "REGION": "Pennsylvania Wilds", "ASSOCIATION": "USA - DE / MD / PA", "POINTS": "4", "BONUSPOINTS": "3"}}, {"type": "Feature", "geometry": {"type": "Point", "coordinates": [-77.2008, 41.9952]}, "properties": {"NAME": "W3/PW-066", "TITLE": "Cowanesque Lake Hill", "REGION": "Pennsylvania Wilds", "ASSOCIATION": "USA - DE / MD / PA", "POINTS": "4", "BONUSPOINTS": "3"}}, {"type": "Feature", "geometry": {"type": "Point", "coordinates": [-77.3103, 41.2382]}, "properties": {"NAME": "W3/PW-067", "TITLE": "Short Mtn", "REGION": "Pennsylvania Wilds", "ASSOCIATION": "USA - DE / MD / PA", "POINTS": "4", "BONUSPOINTS": "3"}}, {"type": "Feature", "geometry": {"type": "Point", "coordinates": [-77.761, 40.9328]}, "properties": {"NAME": "W3/PW-068", "TITLE": "Trcziyulny Mtn", "REGION": "Pennsylvania Wilds", "ASSOCIATION": "USA - DE / MD / PA", "POINTS": "2", "BONUSPOINTS": "3"}}, {"type": "Feature", "geometry": {"type": "Point", "coordinates": [-77.8894, 41.7839]}, "properties": {"NAME": "W3/PW-069", "TITLE": "Lyon Hill", "REGION": "Pennsylvania Wilds", "ASSOCIATION": "USA - DE / MD / PA", "POINTS": "8", "BONUSPOINTS": "3"}}, {"type": "Feature", "geometry": {"type": "Point", "coordinates": [-77.503, 41.6573]}, "properties": {"NAME": "W3/PW-070", "TITLE": "Cedar Mountain", "REGION": "Pennsylvania Wilds", "ASSOCIATION": "USA - DE / MD / PA", "POINTS": "8", "BONUSPOINTS": "3"}}, {"type": "Feature", "geometry": {"type": "Point", "coordinates": [-78.1759, 40.7926]}, "properties": {"NAME": "W3/PW-071", "TITLE": "Sandy Ridge", "REGION": "Pennsylvania Wilds", "ASSOCIATION": "USA - DE / MD / PA", "POINTS": "8", "BONUSPOINTS": "3"}}, {"type": "Feature", "geometry": {"type": "Point", "coordinates": [-78.3848, 41.8106]}, "properties": {"NAME": "W3/PW-072", "TITLE": "Prospect Hill", "REGION": "Pennsylvania Wilds", "ASSOCIATION": "USA - DE / MD / PA", "POINTS": "6", "BONUSPOINTS": "3"}}, {"type": "Feature", "geometry": {"type": "Point", "coordinates": [-77.1032, 41.4733]}, "properties": {"NAME": "W3/PW-073", "TITLE": "Laurel Mountain", "REGION": "Pennsylvania Wilds", "ASSOCIATION": "USA - DE / MD / PA", "POINTS": "6", "BONUSPOINTS": "3"}}, {"type": "Feature", "geometry": {"type": "Point", "coordinates": [-77.234, 41.6864]}, "properties": {"NAME": "W3/PW-074", "TITLE": "2290", "REGION": "Pennsylvania Wilds", "ASSOCIATION": "USA - DE / MD / PA", "POINTS": "6", "BONUSPOINTS": "3"}}, {"type": "Feature", "geometry": {"type": "Point", "coordinates": [-77.1571, 41.7131]}, "properties": {"NAME": "W3/PW-075", "TITLE": "Maple Hill", "REGION": "Pennsylvania Wilds", "ASSOCIATION": "USA - DE / MD / PA", "POINTS": "6", "BONUSPOINTS": "3"}}, {"type": "Feature", "geometry": {"type": "Point", "coordinates": [-78.3366, 41.4293]}, "properties": {"NAME": "W3/PW-076", "TITLE": "2265", "REGION": "Pennsylvania Wilds", "ASSOCIATION": "USA - DE / MD / PA", "POINTS": "6", "BONUSPOINTS": "3"}}, {"type": "Feature", "geometry": {"type": "Point", "coordinates": [-77.4461, 41.6138]}, "properties": {"NAME": "W3/PW-077", "TITLE": "2250", "REGION": "Pennsylvania Wilds", "ASSOCIATION": "USA - DE / MD / PA", "POINTS": "6", "BONUSPOINTS": "3"}}, {"type": "Feature", "geometry": {"type": "Point", "coordinates": [-78.2598, 41.4812]}, "properties": {"NAME": "W3/PW-078", "TITLE": "Whittimore Hill", "REGION": "Pennsylvania Wilds", "ASSOCIATION": "USA - DE / MD / PA", "POINTS": "6", "BONUSPOINTS": "3"}}, {"type": "Feature", "geometry": {"type": "Point", "coordinates": [-77.8542, 41.3981]}, "properties": {"NAME": "W3/PW-079", "TITLE": "Tamarack Benchmark", "REGION": "Pennsylvania Wilds", "ASSOCIATION": "USA - DE / MD / PA", "POINTS": "6", "BONUSPOINTS": "3"}}, {"type": "Feature", "geometry": {"type": "Point", "coordinates": [-77.4618, 41.4828]}, "properties": {"NAME": "W3/PW-080", "TITLE": "2210", "REGION": "Pennsylvania Wilds", "ASSOCIATION": "USA - DE / MD / PA", "POINTS": "6", "BONUSPOINTS": "3"}}, {"type": "Feature", "geometry": {"type": "Point", "coordinates": [-77.4075, 41.988]}, "properties": {"NAME": "W3/PW-081", "TITLE": "2210", "REGION": "Pennsylvania Wilds", "ASSOCIATION": "USA - DE / MD / PA", "POINTS": "6", "BONUSPOINTS": "3"}}, {"type": "Feature", "geometry": {"type": "Point", "coordinates": [-77.3693, 40.9403]}, "properties": {"NAME": "W3/PW-082", "TITLE": "Shriner Mountain", "REGION": "Pennsylvania Wilds", "ASSOCIATION": "USA - DE / MD / PA", "POINTS": "6", "BONUSPOINTS": "3"}}, {"type": "Feature", "geometry": {"type": "Point", "coordinates": [-77.1236, 41.417]}, "properties": {"NAME": "W3/PW-083", "TITLE": "Green Mountain", "REGION": "Pennsylvania Wilds", "ASSOCIATION": "USA - DE / MD / PA", "POINTS": "6", "BONUSPOINTS": "3"}}, {"type": "Feature", "geometry": {"type": "Point", "coordinates": [-76.7736, 41.3397]}, "properties": {"NAME": "W3/PW-084", "TITLE": "2110", "REGION": "Pennsylvania Wilds", "ASSOCIATION": "USA - DE / MD / PA", "POINTS": "6", "BONUSPOINTS": "3"}}, {"type": "Feature", "geometry": {"type": "Point", "coordinates": [-79.3907, 41.9263]}, "properties": {"NAME": "W3/PW-085", "TITLE": "Pikes Rocks", "REGION": "Pennsylvania Wilds", "ASSOCIATION": "USA - DE / MD / PA", "POINTS": "4", "BONUSPOINTS": "3"}}, {"type": "Feature", "geometry": {"type": "Point", "coordinates": [-76.9939, 41.3665]}, "properties": {"NAME": "W3/PW-086", "TITLE": "Mill Creek Mountain", "REGION": "Pennsylvania Wilds", "ASSOCIATION": "USA - DE / MD / PA", "POINTS": "4", "BONUSPOINTS": "3"}}, {"type": "Feature", "geometry": {"type": "Point", "coordinates": [-76.8847, 41.3876]}, "properties": {"NAME": "W3/PW-087", "TITLE": "1839", "REGION": "Pennsylvania Wilds", "ASSOCIATION": "USA - DE / MD / PA", "POINTS": "4", "BONUSPOINTS": "3"}}, {"type": "Feature", "geometry": {"type": "Point", "coordinates": [-77.5316, 41.1495]}, "properties": {"NAME": "W3/PW-088", "TITLE": "1810", "REGION": "Pennsylvania Wilds", "ASSOCIATION": "USA - DE / MD / PA", "POINTS": "4", "BONUSPOINTS": "3"}}, {"type": "Feature", "geometry": {"type": "Point", "coordinates": [-76.9158, 41.3916]}, "properties": {"NAME": "W3/PW-089", "TITLE": "Jacoby Mountain", "REGION": "Pennsylvania Wilds", "ASSOCIATION": "USA - DE / MD / PA", "POINTS": "4", "BONUSPOINTS": "3"}}, {"type": "Feature", "geometry": {"type": "Point", "coordinates": [-77.6136, 41.0239]}, "properties": {"NAME": "W3/PW-090", "TITLE": "1750", "REGION": "Pennsylvania Wilds", "ASSOCIATION": "USA - DE / MD / PA", "POINTS": "4", "BONUSPOINTS": "3"}}, {"type": "Feature", "geometry": {"type": "Point", "coordinates": [-77.7589, 41.0421]}, "properties": {"NAME": "W3/PW-091", "TITLE": "1744", "REGION": "Pennsylvania Wilds", "ASSOCIATION": "USA - DE / MD / PA", "POINTS": "4", "BONUSPOINTS": "3"}}, {"type": "Feature", "geometry": {"type": "Point", "coordinates": [-77.8926, 41.2896]}, "properties": {"NAME": "W3/PW-092", "TITLE": "Round Top Mountain", "REGION": "Pennsylvania Wilds", "ASSOCIATION": "USA - DE / MD / PA", "POINTS": "1", "BONUSPOINTS": "0"}}]}