{"type": "FeatureCollection", "name": "W7A/YV SUMMITS", "features": [{"type": "Feature", "geometry": {"type": "Point", "coordinates": [-112.4432, 34.4169]}, "properties": {"NAME": "W7A/YV-001", "TITLE": "Tritle, Mount", "REGION": "Yavapai County", "ASSOCIATION": "USA - Arizona", "POINTS": "10", "BONUSPOINTS": "3"}}, {"type": "Feature", "geometry": {"type": "Point", "coordinates": [-112.5536, 34.6378]}, "properties": {"NAME": "W7A/YV-002", "TITLE": "Granite Mountain", "REGION": "Yavapai County", "ASSOCIATION": "USA - Arizona", "POINTS": "10", "BONUSPOINTS": "3"}}, {"type": "Feature", "geometry": {"type": "Point", "coordinates": [-112.1863, 34.7]}, "properties": {"NAME": "W7A/YV-003", "TITLE": "Hickey Mountain", "REGION": "Yavapai County", "ASSOCIATION": "USA - Arizona", "POINTS": "10", "BONUSPOINTS": "3"}}, {"type": "Feature", "geometry": {"type": "Point", "coordinates": [-113.2988, 34.949]}, "properties": {"NAME": "W7A/YV-004", "TITLE": "Mohon Peak", "REGION": "Yavapai County", "ASSOCIATION": "USA - Arizona", "POINTS": "8", "BONUSPOINTS": "3"}}, {"type": "Feature", "geometry": {"type": "Point", "coordinates": [-113.1109, 34.9393]}, "properties": {"NAME": "W7A/YV-005", "TITLE": "Hope, Mount", "REGION": "Yavapai County", "ASSOCIATION": "USA - Arizona", "POINTS": "8", "BONUSPOINTS": "3"}}, {"type": "Feature", "geometry": {"type": "Point", "coordinates": [-112.9347, 34.8283]}, "properties": {"NAME": "W7A/YV-006", "TITLE": "Camp Wood Mountain", "REGION": "Yavapai County", "ASSOCIATION": "USA - Arizona", "POINTS": "8", "BONUSPOINTS": "3"}}, {"type": "Feature", "geometry": {"type": "Point", "coordinates": [-112.975, 34.9132]}, "properties": {"NAME": "W7A/YV-007", "TITLE": "Bear Mountain", "REGION": "Yavapai County", "ASSOCIATION": "USA - Arizona", "POINTS": "8", "BONUSPOINTS": "3"}}, {"type": "Feature", "geometry": {"type": "Point", "coordinates": [-112.3199, 34.1534]}, "properties": {"NAME": "W7A/YV-008", "TITLE": "Lane Mountain", "REGION": "Yavapai County", "ASSOCIATION": "USA - Arizona", "POINTS": "8", "BONUSPOINTS": "3"}}, {"type": "Feature", "geometry": {"type": "Point", "coordinates": [-112.7408, 35.2299]}, "properties": {"NAME": "W7A/YV-009", "TITLE": "Picacho Butte", "REGION": "Yavapai County", "ASSOCIATION": "USA - Arizona", "POINTS": "8", "BONUSPOINTS": "3"}}, {"type": "Feature", "geometry": {"type": "Point", "coordinates": [-112.9341, 34.9487]}, "properties": {"NAME": "W7A/YV-010", "TITLE": "Juniper Mesa", "REGION": "Yavapai County", "ASSOCIATION": "USA - Arizona", "POINTS": "8", "BONUSPOINTS": "3"}}, {"type": "Feature", "geometry": {"type": "Point", "coordinates": [-112.5746, 34.6092]}, "properties": {"NAME": "W7A/YV-011", "TITLE": "Little Granite Mountain", "REGION": "Yavapai County", "ASSOCIATION": "USA - Arizona", "POINTS": "8", "BONUSPOINTS": "3"}}, {"type": "Feature", "geometry": {"type": "Point", "coordinates": [-112.4111, 34.2362]}, "properties": {"NAME": "W7A/YV-012", "TITLE": "Horse Mountain", "REGION": "Yavapai County", "ASSOCIATION": "USA - Arizona", "POINTS": "8", "BONUSPOINTS": "3"}}, {"type": "Feature", "geometry": {"type": "Point", "coordinates": [-112.3366, 34.5071]}, "properties": {"NAME": "W7A/YV-013", "TITLE": "Bighorn Mtn", "REGION": "Yavapai County", "ASSOCIATION": "USA - Arizona", "POINTS": "8", "BONUSPOINTS": "3"}}, {"type": "Feature", "geometry": {"type": "Point", "coordinates": [-112.1039, 34.6444]}, "properties": {"NAME": "W7A/YV-014", "TITLE": "Trick Tank Peak", "REGION": "Yavapai County", "ASSOCIATION": "USA - Arizona", "POINTS": "8", "BONUSPOINTS": "3"}}, {"type": "Feature", "geometry": {"type": "Point", "coordinates": [-112.5649, 34.5989]}, "properties": {"NAME": "W7A/YV-015", "TITLE": "Two Rock Mountain", "REGION": "Yavapai County", "ASSOCIATION": "USA - Arizona", "POINTS": "8", "BONUSPOINTS": "3"}}, {"type": "Feature", "geometry": {"type": "Point", "coordinates": [-112.2647, 34.1927]}, "properties": {"NAME": "W7A/YV-016", "TITLE": "Twin Peaks West", "REGION": "Yavapai County", "ASSOCIATION": "USA - Arizona", "POINTS": "8", "BONUSPOINTS": "3"}}, {"type": "Feature", "geometry": {"type": "Point", "coordinates": [-111.9866, 34.9487]}, "properties": {"NAME": "W7A/YV-017", "TITLE": "Casner Mountain", "REGION": "Yavapai County", "ASSOCIATION": "USA - Arizona", "POINTS": "8", "BONUSPOINTS": "3"}}, {"type": "Feature", "geometry": {"type": "Point", "coordinates": [-112.8679, 35.0192]}, "properties": {"NAME": "W7A/YV-018", "TITLE": "Red Mountain East", "REGION": "Yavapai County", "ASSOCIATION": "USA - Arizona", "POINTS": "8", "BONUSPOINTS": "3"}}, {"type": "Feature", "geometry": {"type": "Point", "coordinates": [-112.7623, 35.2199]}, "properties": {"NAME": "W7A/YV-019", "TITLE": "6765", "REGION": "Yavapai County", "ASSOCIATION": "USA - Arizona", "POINTS": "8", "BONUSPOINTS": "3"}}, {"type": "Feature", "geometry": {"type": "Point", "coordinates": [-113.0988, 35.3118]}, "properties": {"NAME": "W7A/YV-020", "TITLE": "Black Mountain", "REGION": "Yavapai County", "ASSOCIATION": "USA - Arizona", "POINTS": "8", "BONUSPOINTS": "3"}}, {"type": "Feature", "geometry": {"type": "Point", "coordinates": [-111.8415, 34.9434]}, "properties": {"NAME": "W7A/YV-021", "TITLE": "Maroon Mountain", "REGION": "Yavapai County", "ASSOCIATION": "USA - Arizona", "POINTS": "8", "BONUSPOINTS": "3"}}, {"type": "Feature", "geometry": {"type": "Point", "coordinates": [-113.102, 35.2155]}, "properties": {"NAME": "W7A/YV-022", "TITLE": "Squaw Peak", "REGION": "Yavapai County", "ASSOCIATION": "USA - Arizona", "POINTS": "8", "BONUSPOINTS": "3"}}, {"type": "Feature", "geometry": {"type": "Point", "coordinates": [-112.8538, 34.767]}, "properties": {"NAME": "W7A/YV-023", "TITLE": "Denny Mountain", "REGION": "Yavapai County", "ASSOCIATION": "USA - Arizona", "POINTS": "8", "BONUSPOINTS": "3"}}, {"type": "Feature", "geometry": {"type": "Point", "coordinates": [-112.8099, 34.3272]}, "properties": {"NAME": "W7A/YV-024", "TITLE": "Weaver Peak", "REGION": "Yavapai County", "ASSOCIATION": "USA - Arizona", "POINTS": "8", "BONUSPOINTS": "3"}}, {"type": "Feature", "geometry": {"type": "Point", "coordinates": [-111.8806, 34.9309]}, "properties": {"NAME": "W7A/YV-025", "TITLE": "Bear Mountain", "REGION": "Yavapai County", "ASSOCIATION": "USA - Arizona", "POINTS": "8", "BONUSPOINTS": "3"}}, {"type": "Feature", "geometry": {"type": "Point", "coordinates": [-111.8752, 34.4695]}, "properties": {"NAME": "W7A/YV-026", "TITLE": "Squaw Peak", "REGION": "Yavapai County", "ASSOCIATION": "USA - Arizona", "POINTS": "8", "BONUSPOINTS": "3"}}, {"type": "Feature", "geometry": {"type": "Point", "coordinates": [-111.9082, 34.9409]}, "properties": {"NAME": "W7A/YV-027", "TITLE": "6523", "REGION": "Yavapai County", "ASSOCIATION": "USA - Arizona", "POINTS": "8", "BONUSPOINTS": "3"}}, {"type": "Feature", "geometry": {"type": "Point", "coordinates": [-111.8398, 34.9357]}, "properties": {"NAME": "W7A/YV-028", "TITLE": "6510", "REGION": "Yavapai County", "ASSOCIATION": "USA - Arizona", "POINTS": "8", "BONUSPOINTS": "3"}}, {"type": "Feature", "geometry": {"type": "Point", "coordinates": [-113.2428, 35.1593]}, "properties": {"NAME": "W7A/YV-029", "TITLE": "Cross Mountain", "REGION": "Yavapai County", "ASSOCIATION": "USA - Arizona", "POINTS": "8", "BONUSPOINTS": "3"}}, {"type": "Feature", "geometry": {"type": "Point", "coordinates": [-112.773, 34.5232]}, "properties": {"NAME": "W7A/YV-030", "TITLE": "Martin Mountain", "REGION": "Yavapai County", "ASSOCIATION": "USA - Arizona", "POINTS": "8", "BONUSPOINTS": "3"}}, {"type": "Feature", "geometry": {"type": "Point", "coordinates": [-113.0636, 35.2517]}, "properties": {"NAME": "W7A/YV-031", "TITLE": "6432", "REGION": "Yavapai County", "ASSOCIATION": "USA - Arizona", "POINTS": "8", "BONUSPOINTS": "3"}}, {"type": "Feature", "geometry": {"type": "Point", "coordinates": [-112.8194, 34.7621]}, "properties": {"NAME": "W7A/YV-032", "TITLE": "Seepage Mountain", "REGION": "Yavapai County", "ASSOCIATION": "USA - Arizona", "POINTS": "8", "BONUSPOINTS": "3"}}, {"type": "Feature", "geometry": {"type": "Point", "coordinates": [-112.3227, 34.3545]}, "properties": {"NAME": "W7A/YV-033", "TITLE": "Brady Butte", "REGION": "Yavapai County", "ASSOCIATION": "USA - Arizona", "POINTS": "8", "BONUSPOINTS": "3"}}, {"type": "Feature", "geometry": {"type": "Point", "coordinates": [-112.6744, 34.221]}, "properties": {"NAME": "W7A/YV-034", "TITLE": "East Antelope 2 Benchmark", "REGION": "Yavapai County", "ASSOCIATION": "USA - Arizona", "POINTS": "8", "BONUSPOINTS": "3"}}, {"type": "Feature", "geometry": {"type": "Point", "coordinates": [-112.038, 34.6138]}, "properties": {"NAME": "W7A/YV-035", "TITLE": "Cherry Benchmark", "REGION": "Yavapai County", "ASSOCIATION": "USA - Arizona", "POINTS": "8", "BONUSPOINTS": "3"}}, {"type": "Feature", "geometry": {"type": "Point", "coordinates": [-111.8069, 34.8859]}, "properties": {"NAME": "W7A/YV-036", "TITLE": "Capitol Butte", "REGION": "Yavapai County", "ASSOCIATION": "USA - Arizona", "POINTS": "8", "BONUSPOINTS": "3"}}, {"type": "Feature", "geometry": {"type": "Point", "coordinates": [-112.2543, 34.7672]}, "properties": {"NAME": "W7A/YV-037", "TITLE": "Saint Matthews Mountain", "REGION": "Yavapai County", "ASSOCIATION": "USA - Arizona", "POINTS": "8", "BONUSPOINTS": "3"}}, {"type": "Feature", "geometry": {"type": "Point", "coordinates": [-112.0816, 34.5923]}, "properties": {"NAME": "W7A/YV-038", "TITLE": "Powell Springs Peak", "REGION": "Yavapai County", "ASSOCIATION": "USA - Arizona", "POINTS": "8", "BONUSPOINTS": "3"}}, {"type": "Feature", "geometry": {"type": "Point", "coordinates": [-113.0287, 34.6684]}, "properties": {"NAME": "W7A/YV-039", "TITLE": "Cypress Mountain", "REGION": "Yavapai County", "ASSOCIATION": "USA - Arizona", "POINTS": "8", "BONUSPOINTS": "3"}}, {"type": "Feature", "geometry": {"type": "Point", "coordinates": [-111.5014, 34.0817]}, "properties": {"NAME": "W7A/YV-040", "TITLE": "6243", "REGION": "Yavapai County", "ASSOCIATION": "USA - Arizona", "POINTS": "8", "BONUSPOINTS": "3"}}, {"type": "Feature", "geometry": {"type": "Point", "coordinates": [-111.5186, 34.0967]}, "properties": {"NAME": "W7A/YV-041", "TITLE": "6230", "REGION": "Yavapai County", "ASSOCIATION": "USA - Arizona", "POINTS": "8", "BONUSPOINTS": "3"}}, {"type": "Feature", "geometry": {"type": "Point", "coordinates": [-112.7338, 34.5058]}, "properties": {"NAME": "W7A/YV-042", "TITLE": "6212", "REGION": "Yavapai County", "ASSOCIATION": "USA - Arizona", "POINTS": "8", "BONUSPOINTS": "3"}}, {"type": "Feature", "geometry": {"type": "Point", "coordinates": [-112.8815, 34.7003]}, "properties": {"NAME": "W7A/YV-043", "TITLE": "Sheridan Mountain", "REGION": "Yavapai County", "ASSOCIATION": "USA - Arizona", "POINTS": "8", "BONUSPOINTS": "3"}}, {"type": "Feature", "geometry": {"type": "Point", "coordinates": [-112.7548, 34.5526]}, "properties": {"NAME": "W7A/YV-044", "TITLE": "Brushy Mountain", "REGION": "Yavapai County", "ASSOCIATION": "USA - Arizona", "POINTS": "8", "BONUSPOINTS": "3"}}, {"type": "Feature", "geometry": {"type": "Point", "coordinates": [-112.3816, 34.5894]}, "properties": {"NAME": "W7A/YV-045", "TITLE": "Glassford Hill", "REGION": "Yavapai County", "ASSOCIATION": "USA - Arizona", "POINTS": "8", "BONUSPOINTS": "3"}}, {"type": "Feature", "geometry": {"type": "Point", "coordinates": [-113.3199, 34.8971]}, "properties": {"NAME": "W7A/YV-046", "TITLE": "6159", "REGION": "Yavapai County", "ASSOCIATION": "USA - Arizona", "POINTS": "8", "BONUSPOINTS": "3"}}, {"type": "Feature", "geometry": {"type": "Point", "coordinates": [-113.1711, 35.2141]}, "properties": {"NAME": "W7A/YV-047", "TITLE": "6155", "REGION": "Yavapai County", "ASSOCIATION": "USA - Arizona", "POINTS": "8", "BONUSPOINTS": "3"}}, {"type": "Feature", "geometry": {"type": "Point", "coordinates": [-112.4067, 34.1296]}, "properties": {"NAME": "W7A/YV-048", "TITLE": "Silver Mountain", "REGION": "Yavapai County", "ASSOCIATION": "USA - Arizona", "POINTS": "8", "BONUSPOINTS": "3"}}, {"type": "Feature", "geometry": {"type": "Point", "coordinates": [-112.7954, 34.2387]}, "properties": {"NAME": "W7A/YV-049", "TITLE": "6100", "REGION": "Yavapai County", "ASSOCIATION": "USA - Arizona", "POINTS": "8", "BONUSPOINTS": "3"}}, {"type": "Feature", "geometry": {"type": "Point", "coordinates": [-111.943, 34.4549]}, "properties": {"NAME": "W7A/YV-050", "TITLE": "Bald Hill", "REGION": "Yavapai County", "ASSOCIATION": "USA - Arizona", "POINTS": "8", "BONUSPOINTS": "3"}}, {"type": "Feature", "geometry": {"type": "Point", "coordinates": [-112.5646, 35.0506]}, "properties": {"NAME": "W7A/YV-051", "TITLE": "Big Black Mesa", "REGION": "Yavapai County", "ASSOCIATION": "USA - Arizona", "POINTS": "8", "BONUSPOINTS": "3"}}, {"type": "Feature", "geometry": {"type": "Point", "coordinates": [-112.0303, 34.8951]}, "properties": {"NAME": "W7A/YV-052", "TITLE": "Black Mountain", "REGION": "Yavapai County", "ASSOCIATION": "USA - Arizona", "POINTS": "8", "BONUSPOINTS": "3"}}, {"type": "Feature", "geometry": {"type": "Point", "coordinates": [-111.8475, 34.9234]}, "properties": {"NAME": "W7A/YV-053", "TITLE": "6027", "REGION": "Yavapai County", "ASSOCIATION": "USA - Arizona", "POINTS": "8", "BONUSPOINTS": "3"}}, {"type": "Feature", "geometry": {"type": "Point", "coordinates": [-112.0533, 34.5658]}, "properties": {"NAME": "W7A/YV-054", "TITLE": "Crater Mountain", "REGION": "Yavapai County", "ASSOCIATION": "USA - Arizona", "POINTS": "8", "BONUSPOINTS": "3"}}, {"type": "Feature", "geometry": {"type": "Point", "coordinates": [-112.6568, 35.1003]}, "properties": {"NAME": "W7A/YV-055", "TITLE": "South Butte", "REGION": "Yavapai County", "ASSOCIATION": "USA - Arizona", "POINTS": "6", "BONUSPOINTS": "3"}}, {"type": "Feature", "geometry": {"type": "Point", "coordinates": [-112.7888, 34.3648]}, "properties": {"NAME": "W7A/YV-056", "TITLE": "Hillside Benchmark", "REGION": "Yavapai County", "ASSOCIATION": "USA - Arizona", "POINTS": "6", "BONUSPOINTS": "3"}}, {"type": "Feature", "geometry": {"type": "Point", "coordinates": [-111.798, 34.8897]}, "properties": {"NAME": "W7A/YV-057", "TITLE": "5977", "REGION": "Yavapai County", "ASSOCIATION": "USA - Arizona", "POINTS": "6", "BONUSPOINTS": "3"}}, {"type": "Feature", "geometry": {"type": "Point", "coordinates": [-112.7006, 34.6412]}, "properties": {"NAME": "W7A/YV-058", "TITLE": "Josh, Mount", "REGION": "Yavapai County", "ASSOCIATION": "USA - Arizona", "POINTS": "6", "BONUSPOINTS": "3"}}, {"type": "Feature", "geometry": {"type": "Point", "coordinates": [-111.9973, 34.0616]}, "properties": {"NAME": "W7A/YV-059", "TITLE": "New River Mountains HP", "REGION": "Yavapai County", "ASSOCIATION": "USA - Arizona", "POINTS": "6", "BONUSPOINTS": "3"}}, {"type": "Feature", "geometry": {"type": "Point", "coordinates": [-111.5331, 34.0782]}, "properties": {"NAME": "W7A/YV-060", "TITLE": "5932", "REGION": "Yavapai County", "ASSOCIATION": "USA - Arizona", "POINTS": "6", "BONUSPOINTS": "3"}}, {"type": "Feature", "geometry": {"type": "Point", "coordinates": [-111.6605, 34.618]}, "properties": {"NAME": "W7A/YV-061", "TITLE": "Walker Mountain", "REGION": "Yavapai County", "ASSOCIATION": "USA - Arizona", "POINTS": "6", "BONUSPOINTS": "3"}}, {"type": "Feature", "geometry": {"type": "Point", "coordinates": [-111.8007, 34.9037]}, "properties": {"NAME": "W7A/YV-062", "TITLE": "5906", "REGION": "Yavapai County", "ASSOCIATION": "USA - Arizona", "POINTS": "6", "BONUSPOINTS": "3"}}, {"type": "Feature", "geometry": {"type": "Point", "coordinates": [-111.9858, 34.0793]}, "properties": {"NAME": "W7A/YV-063", "TITLE": "Squaw Mountain", "REGION": "Yavapai County", "ASSOCIATION": "USA - Arizona", "POINTS": "6", "BONUSPOINTS": "3"}}, {"type": "Feature", "geometry": {"type": "Point", "coordinates": [-111.8703, 34.4058]}, "properties": {"NAME": "W7A/YV-064", "TITLE": "Horner Mountain", "REGION": "Yavapai County", "ASSOCIATION": "USA - Arizona", "POINTS": "6", "BONUSPOINTS": "3"}}, {"type": "Feature", "geometry": {"type": "Point", "coordinates": [-111.8648, 34.2482]}, "properties": {"NAME": "W7A/YV-065", "TITLE": "Turret Peak", "REGION": "Yavapai County", "ASSOCIATION": "USA - Arizona", "POINTS": "6", "BONUSPOINTS": "3"}}, {"type": "Feature", "geometry": {"type": "Point", "coordinates": [-111.711, 34.4236]}, "properties": {"NAME": "W7A/YV-066", "TITLE": "Hackberry Mountain", "REGION": "Yavapai County", "ASSOCIATION": "USA - Arizona", "POINTS": "6", "BONUSPOINTS": "3"}}, {"type": "Feature", "geometry": {"type": "Point", "coordinates": [-112.748, 34.6611]}, "properties": {"NAME": "W7A/YV-067", "TITLE": "5790", "REGION": "Yavapai County", "ASSOCIATION": "USA - Arizona", "POINTS": "6", "BONUSPOINTS": "3"}}, {"type": "Feature", "geometry": {"type": "Point", "coordinates": [-112.0836, 34.9345]}, "properties": {"NAME": "W7A/YV-068", "TITLE": "5785", "REGION": "Yavapai County", "ASSOCIATION": "USA - Arizona", "POINTS": "6", "BONUSPOINTS": "3"}}, {"type": "Feature", "geometry": {"type": "Point", "coordinates": [-112.9285, 35.2478]}, "properties": {"NAME": "W7A/YV-069", "TITLE": "5785", "REGION": "Yavapai County", "ASSOCIATION": "USA - Arizona", "POINTS": "6", "BONUSPOINTS": "3"}}, {"type": "Feature", "geometry": {"type": "Point", "coordinates": [-111.5543, 34.1194]}, "properties": {"NAME": "W7A/YV-070", "TITLE": "Midnight Mesa", "REGION": "Yavapai County", "ASSOCIATION": "USA - Arizona", "POINTS": "6", "BONUSPOINTS": "3"}}, {"type": "Feature", "geometry": {"type": "Point", "coordinates": [-112.7324, 34.2151]}, "properties": {"NAME": "W7A/YV-071", "TITLE": "Antelope Peak", "REGION": "Yavapai County", "ASSOCIATION": "USA - Arizona", "POINTS": "6", "BONUSPOINTS": "3"}}, {"type": "Feature", "geometry": {"type": "Point", "coordinates": [-112.8048, 34.5679]}, "properties": {"NAME": "W7A/YV-072", "TITLE": "Bald Mountain", "REGION": "Yavapai County", "ASSOCIATION": "USA - Arizona", "POINTS": "6", "BONUSPOINTS": "3"}}, {"type": "Feature", "geometry": {"type": "Point", "coordinates": [-112.5706, 34.8422]}, "properties": {"NAME": "W7A/YV-073", "TITLE": "Simmons Peak", "REGION": "Yavapai County", "ASSOCIATION": "USA - Arizona", "POINTS": "6", "BONUSPOINTS": "3"}}, {"type": "Feature", "geometry": {"type": "Point", "coordinates": [-112.291, 34.2401]}, "properties": {"NAME": "W7A/YV-074", "TITLE": "5744", "REGION": "Yavapai County", "ASSOCIATION": "USA - Arizona", "POINTS": "6", "BONUSPOINTS": "3"}}, {"type": "Feature", "geometry": {"type": "Point", "coordinates": [-111.8976, 34.1676]}, "properties": {"NAME": "W7A/YV-075", "TITLE": "Lost Mesa", "REGION": "Yavapai County", "ASSOCIATION": "USA - Arizona", "POINTS": "6", "BONUSPOINTS": "3"}}, {"type": "Feature", "geometry": {"type": "Point", "coordinates": [-112.8885, 34.7449]}, "properties": {"NAME": "W7A/YV-076", "TITLE": "BT Butte", "REGION": "Yavapai County", "ASSOCIATION": "USA - Arizona", "POINTS": "6", "BONUSPOINTS": "3"}}, {"type": "Feature", "geometry": {"type": "Point", "coordinates": [-112.0049, 34.5568]}, "properties": {"NAME": "W7A/YV-077", "TITLE": "Cherry Hill", "REGION": "Yavapai County", "ASSOCIATION": "USA - Arizona", "POINTS": "6", "BONUSPOINTS": "3"}}, {"type": "Feature", "geometry": {"type": "Point", "coordinates": [-112.7365, 34.5893]}, "properties": {"NAME": "W7A/YV-078", "TITLE": "Young Mountain", "REGION": "Yavapai County", "ASSOCIATION": "USA - Arizona", "POINTS": "6", "BONUSPOINTS": "3"}}, {"type": "Feature", "geometry": {"type": "Point", "coordinates": [-111.9314, 34.9432]}, "properties": {"NAME": "W7A/YV-079", "TITLE": "Loy Butte", "REGION": "Yavapai County", "ASSOCIATION": "USA - Arizona", "POINTS": "6", "BONUSPOINTS": "3"}}, {"type": "Feature", "geometry": {"type": "Point", "coordinates": [-111.8946, 34.2734]}, "properties": {"NAME": "W7A/YV-080", "TITLE": "Granite Peak", "REGION": "Yavapai County", "ASSOCIATION": "USA - Arizona", "POINTS": "6", "BONUSPOINTS": "3"}}, {"type": "Feature", "geometry": {"type": "Point", "coordinates": [-112.1879, 34.5204]}, "properties": {"NAME": "W7A/YV-081", "TITLE": "Round Benchmark", "REGION": "Yavapai County", "ASSOCIATION": "USA - Arizona", "POINTS": "6", "BONUSPOINTS": "3"}}, {"type": "Feature", "geometry": {"type": "Point", "coordinates": [-111.8786, 34.2373]}, "properties": {"NAME": "W7A/YV-082", "TITLE": "Rugged Mesa", "REGION": "Yavapai County", "ASSOCIATION": "USA - Arizona", "POINTS": "6", "BONUSPOINTS": "3"}}, {"type": "Feature", "geometry": {"type": "Point", "coordinates": [-111.9443, 34.1675]}, "properties": {"NAME": "W7A/YV-083", "TITLE": "Agua Fria Peak", "REGION": "Yavapai County", "ASSOCIATION": "USA - Arizona", "POINTS": "6", "BONUSPOINTS": "3"}}, {"type": "Feature", "geometry": {"type": "Point", "coordinates": [-112.2935, 34.104]}, "properties": {"NAME": "W7A/YV-084", "TITLE": "Malpais Hill", "REGION": "Yavapai County", "ASSOCIATION": "USA - Arizona", "POINTS": "6", "BONUSPOINTS": "3"}}, {"type": "Feature", "geometry": {"type": "Point", "coordinates": [-112.7674, 34.6285]}, "properties": {"NAME": "W7A/YV-085", "TITLE": "Twin Buttes West", "REGION": "Yavapai County", "ASSOCIATION": "USA - Arizona", "POINTS": "6", "BONUSPOINTS": "3"}}, {"type": "Feature", "geometry": {"type": "Point", "coordinates": [-112.7409, 34.4588]}, "properties": {"NAME": "W7A/YV-086", "TITLE": "Kirkland Peak", "REGION": "Yavapai County", "ASSOCIATION": "USA - Arizona", "POINTS": "6", "BONUSPOINTS": "3"}}, {"type": "Feature", "geometry": {"type": "Point", "coordinates": [-112.3829, 34.8418]}, "properties": {"NAME": "W7A/YV-087", "TITLE": "5568", "REGION": "Yavapai County", "ASSOCIATION": "USA - Arizona", "POINTS": "6", "BONUSPOINTS": "3"}}, {"type": "Feature", "geometry": {"type": "Point", "coordinates": [-112.5273, 34.8015]}, "properties": {"NAME": "W7A/YV-088", "TITLE": "5550", "REGION": "Yavapai County", "ASSOCIATION": "USA - Arizona", "POINTS": "6", "BONUSPOINTS": "3"}}, {"type": "Feature", "geometry": {"type": "Point", "coordinates": [-113.1027, 34.6253]}, "properties": {"NAME": "W7A/YV-089", "TITLE": "Blue Mountain", "REGION": "Yavapai County", "ASSOCIATION": "USA - Arizona", "POINTS": "6", "BONUSPOINTS": "3"}}, {"type": "Feature", "geometry": {"type": "Point", "coordinates": [-111.7111, 34.397]}, "properties": {"NAME": "W7A/YV-090", "TITLE": "Towel Peaks East", "REGION": "Yavapai County", "ASSOCIATION": "USA - Arizona", "POINTS": "6", "BONUSPOINTS": "3"}}, {"type": "Feature", "geometry": {"type": "Point", "coordinates": [-111.613, 34.1381]}, "properties": {"NAME": "W7A/YV-091", "TITLE": "Cypress Butte", "REGION": "Yavapai County", "ASSOCIATION": "USA - Arizona", "POINTS": "6", "BONUSPOINTS": "3"}}, {"type": "Feature", "geometry": {"type": "Point", "coordinates": [-111.8199, 34.1145]}, "properties": {"NAME": "W7A/YV-092", "TITLE": "West Cedar Mountain", "REGION": "Yavapai County", "ASSOCIATION": "USA - Arizona", "POINTS": "6", "BONUSPOINTS": "3"}}, {"type": "Feature", "geometry": {"type": "Point", "coordinates": [-112.6687, 34.1695]}, "properties": {"NAME": "W7A/YV-093", "TITLE": "5460", "REGION": "Yavapai County", "ASSOCIATION": "USA - Arizona", "POINTS": "6", "BONUSPOINTS": "3"}}, {"type": "Feature", "geometry": {"type": "Point", "coordinates": [-111.7546, 34.8028]}, "properties": {"NAME": "W7A/YV-094", "TITLE": "Courthouse Butte", "REGION": "Yavapai County", "ASSOCIATION": "USA - Arizona", "POINTS": "6", "BONUSPOINTS": "3"}}, {"type": "Feature", "geometry": {"type": "Point", "coordinates": [-111.7831, 34.0942]}, "properties": {"NAME": "W7A/YV-095", "TITLE": "East Cedar Mountain", "REGION": "Yavapai County", "ASSOCIATION": "USA - Arizona", "POINTS": "6", "BONUSPOINTS": "3"}}, {"type": "Feature", "geometry": {"type": "Point", "coordinates": [-111.576, 34.0514]}, "properties": {"NAME": "W7A/YV-096", "TITLE": "Table Mountain", "REGION": "Yavapai County", "ASSOCIATION": "USA - Arizona", "POINTS": "6", "BONUSPOINTS": "3"}}, {"type": "Feature", "geometry": {"type": "Point", "coordinates": [-112.5785, 34.1595]}, "properties": {"NAME": "W7A/YV-097", "TITLE": "Wades Butte", "REGION": "Yavapai County", "ASSOCIATION": "USA - Arizona", "POINTS": "6", "BONUSPOINTS": "3"}}, {"type": "Feature", "geometry": {"type": "Point", "coordinates": [-112.7121, 34.1723]}, "properties": {"NAME": "W7A/YV-098", "TITLE": "Rich Hill", "REGION": "Yavapai County", "ASSOCIATION": "USA - Arizona", "POINTS": "6", "BONUSPOINTS": "3"}}, {"type": "Feature", "geometry": {"type": "Point", "coordinates": [-111.7355, 34.3971]}, "properties": {"NAME": "W7A/YV-099", "TITLE": "Towel Peaks West", "REGION": "Yavapai County", "ASSOCIATION": "USA - Arizona", "POINTS": "6", "BONUSPOINTS": "3"}}, {"type": "Feature", "geometry": {"type": "Point", "coordinates": [-112.891, 34.5661]}, "properties": {"NAME": "W7A/YV-100", "TITLE": "5297", "REGION": "Yavapai County", "ASSOCIATION": "USA - Arizona", "POINTS": "6", "BONUSPOINTS": "3"}}, {"type": "Feature", "geometry": {"type": "Point", "coordinates": [-111.8346, 34.0207]}, "properties": {"NAME": "W7A/YV-101", "TITLE": "Rover Peak", "REGION": "Yavapai County", "ASSOCIATION": "USA - Arizona", "POINTS": "6", "BONUSPOINTS": "3"}}, {"type": "Feature", "geometry": {"type": "Point", "coordinates": [-111.7739, 34.7954]}, "properties": {"NAME": "W7A/YV-102", "TITLE": "5258", "REGION": "Yavapai County", "ASSOCIATION": "USA - Arizona", "POINTS": "6", "BONUSPOINTS": "3"}}, {"type": "Feature", "geometry": {"type": "Point", "coordinates": [-113.0475, 34.6035]}, "properties": {"NAME": "W7A/YV-103", "TITLE": "Big Shipp Mountain", "REGION": "Yavapai County", "ASSOCIATION": "USA - Arizona", "POINTS": "6", "BONUSPOINTS": "3"}}, {"type": "Feature", "geometry": {"type": "Point", "coordinates": [-111.6822, 34.3825]}, "properties": {"NAME": "W7A/YV-104", "TITLE": "5142", "REGION": "Yavapai County", "ASSOCIATION": "USA - Arizona", "POINTS": "6", "BONUSPOINTS": "3"}}, {"type": "Feature", "geometry": {"type": "Point", "coordinates": [-112.2782, 34.2556]}, "properties": {"NAME": "W7A/YV-105", "TITLE": "Poor Mans Peak", "REGION": "Yavapai County", "ASSOCIATION": "USA - Arizona", "POINTS": "6", "BONUSPOINTS": "3"}}, {"type": "Feature", "geometry": {"type": "Point", "coordinates": [-113.2636, 34.5478]}, "properties": {"NAME": "W7A/YV-106", "TITLE": "Grayback Benchmark", "REGION": "Yavapai County", "ASSOCIATION": "USA - Arizona", "POINTS": "6", "BONUSPOINTS": "3"}}, {"type": "Feature", "geometry": {"type": "Point", "coordinates": [-112.5598, 34.1541]}, "properties": {"NAME": "W7A/YV-107", "TITLE": "Seal Mountain", "REGION": "Yavapai County", "ASSOCIATION": "USA - Arizona", "POINTS": "6", "BONUSPOINTS": "3"}}, {"type": "Feature", "geometry": {"type": "Point", "coordinates": [-112.1788, 34.4081]}, "properties": {"NAME": "W7A/YV-108", "TITLE": "Copper Mountain", "REGION": "Yavapai County", "ASSOCIATION": "USA - Arizona", "POINTS": "6", "BONUSPOINTS": "3"}}, {"type": "Feature", "geometry": {"type": "Point", "coordinates": [-112.9628, 34.4291]}, "properties": {"NAME": "W7A/YV-109", "TITLE": "McCloud Mountains HP", "REGION": "Yavapai County", "ASSOCIATION": "USA - Arizona", "POINTS": "6", "BONUSPOINTS": "3"}}, {"type": "Feature", "geometry": {"type": "Point", "coordinates": [-112.5256, 34.3018]}, "properties": {"NAME": "W7A/YV-110", "TITLE": "Black Mountain", "REGION": "Yavapai County", "ASSOCIATION": "USA - Arizona", "POINTS": "6", "BONUSPOINTS": "3"}}, {"type": "Feature", "geometry": {"type": "Point", "coordinates": [-112.9151, 34.2149]}, "properties": {"NAME": "W7A/YV-111", "TITLE": "Date Creek Mountains HP", "REGION": "Yavapai County", "ASSOCIATION": "USA - Arizona", "POINTS": "6", "BONUSPOINTS": "3"}}, {"type": "Feature", "geometry": {"type": "Point", "coordinates": [-112.8837, 34.542]}, "properties": {"NAME": "W7A/YV-112", "TITLE": "4937", "REGION": "Yavapai County", "ASSOCIATION": "USA - Arizona", "POINTS": "6", "BONUSPOINTS": "3"}}, {"type": "Feature", "geometry": {"type": "Point", "coordinates": [-112.4923, 34.2135]}, "properties": {"NAME": "W7A/YV-113", "TITLE": "McAllister Range HP", "REGION": "Yavapai County", "ASSOCIATION": "USA - Arizona", "POINTS": "6", "BONUSPOINTS": "3"}}, {"type": "Feature", "geometry": {"type": "Point", "coordinates": [-112.492, 34.2013]}, "properties": {"NAME": "W7A/YV-114", "TITLE": "4916", "REGION": "Yavapai County", "ASSOCIATION": "USA - Arizona", "POINTS": "6", "BONUSPOINTS": "3"}}, {"type": "Feature", "geometry": {"type": "Point", "coordinates": [-111.8705, 34.1447]}, "properties": {"NAME": "W7A/YV-115", "TITLE": "Devils Den", "REGION": "Yavapai County", "ASSOCIATION": "USA - Arizona", "POINTS": "6", "BONUSPOINTS": "3"}}, {"type": "Feature", "geometry": {"type": "Point", "coordinates": [-113.1855, 34.6143]}, "properties": {"NAME": "W7A/YV-116", "TITLE": "Lawler Peak", "REGION": "Yavapai County", "ASSOCIATION": "USA - Arizona", "POINTS": "6", "BONUSPOINTS": "3"}}, {"type": "Feature", "geometry": {"type": "Point", "coordinates": [-111.5603, 34.0589]}, "properties": {"NAME": "W7A/YV-117", "TITLE": "4843", "REGION": "Yavapai County", "ASSOCIATION": "USA - Arizona", "POINTS": "6", "BONUSPOINTS": "3"}}, {"type": "Feature", "geometry": {"type": "Point", "coordinates": [-111.7747, 34.7615]}, "properties": {"NAME": "W7A/YV-118", "TITLE": "4838", "REGION": "Yavapai County", "ASSOCIATION": "USA - Arizona", "POINTS": "6", "BONUSPOINTS": "3"}}, {"type": "Feature", "geometry": {"type": "Point", "coordinates": [-112.9481, 34.4795]}, "properties": {"NAME": "W7A/YV-119", "TITLE": "4780", "REGION": "Yavapai County", "ASSOCIATION": "USA - Arizona", "POINTS": "6", "BONUSPOINTS": "3"}}, {"type": "Feature", "geometry": {"type": "Point", "coordinates": [-112.9882, 34.3104]}, "properties": {"NAME": "W7A/YV-120", "TITLE": "Sunflower Benchmark", "REGION": "Yavapai County", "ASSOCIATION": "USA - Arizona", "POINTS": "6", "BONUSPOINTS": "3"}}, {"type": "Feature", "geometry": {"type": "Point", "coordinates": [-113.1248, 34.6002]}, "properties": {"NAME": "W7A/YV-121", "TITLE": "Cotton Benchmark", "REGION": "Yavapai County", "ASSOCIATION": "USA - Arizona", "POINTS": "6", "BONUSPOINTS": "3"}}, {"type": "Feature", "geometry": {"type": "Point", "coordinates": [-113.0122, 34.4157]}, "properties": {"NAME": "W7A/YV-122", "TITLE": "Grayback Mountain", "REGION": "Yavapai County", "ASSOCIATION": "USA - Arizona", "POINTS": "6", "BONUSPOINTS": "3"}}, {"type": "Feature", "geometry": {"type": "Point", "coordinates": [-112.5515, 34.0507]}, "properties": {"NAME": "W7A/YV-123", "TITLE": "Morgan Butte", "REGION": "Yavapai County", "ASSOCIATION": "USA - Arizona", "POINTS": "6", "BONUSPOINTS": "3"}}, {"type": "Feature", "geometry": {"type": "Point", "coordinates": [-111.769, 34.0189]}, "properties": {"NAME": "W7A/YV-124", "TITLE": "Sunset Mountain", "REGION": "Yavapai County", "ASSOCIATION": "USA - Arizona", "POINTS": "6", "BONUSPOINTS": "3"}}, {"type": "Feature", "geometry": {"type": "Point", "coordinates": [-112.9988, 34.3316]}, "properties": {"NAME": "W7A/YV-125", "TITLE": "4589", "REGION": "Yavapai County", "ASSOCIATION": "USA - Arizona", "POINTS": "6", "BONUSPOINTS": "3"}}, {"type": "Feature", "geometry": {"type": "Point", "coordinates": [-112.9842, 34.2145]}, "properties": {"NAME": "W7A/YV-126", "TITLE": "4580", "REGION": "Yavapai County", "ASSOCIATION": "USA - Arizona", "POINTS": "6", "BONUSPOINTS": "3"}}, {"type": "Feature", "geometry": {"type": "Point", "coordinates": [-112.484, 33.9896]}, "properties": {"NAME": "W7A/YV-127", "TITLE": "Buckhorn Mountains West", "REGION": "Yavapai County", "ASSOCIATION": "USA - Arizona", "POINTS": "6", "BONUSPOINTS": "3"}}, {"type": "Feature", "geometry": {"type": "Point", "coordinates": [-112.5188, 34.0661]}, "properties": {"NAME": "W7A/YV-128", "TITLE": "Swallow Mountain", "REGION": "Yavapai County", "ASSOCIATION": "USA - Arizona", "POINTS": "6", "BONUSPOINTS": "3"}}, {"type": "Feature", "geometry": {"type": "Point", "coordinates": [-112.8884, 34.2102]}, "properties": {"NAME": "W7A/YV-129", "TITLE": "4525", "REGION": "Yavapai County", "ASSOCIATION": "USA - Arizona", "POINTS": "6", "BONUSPOINTS": "3"}}, {"type": "Feature", "geometry": {"type": "Point", "coordinates": [-113.1247, 34.579]}, "properties": {"NAME": "W7A/YV-130", "TITLE": "4494", "REGION": "Yavapai County", "ASSOCIATION": "USA - Arizona", "POINTS": "4", "BONUSPOINTS": "3"}}, {"type": "Feature", "geometry": {"type": "Point", "coordinates": [-112.8731, 34.2075]}, "properties": {"NAME": "W7A/YV-131", "TITLE": "4448", "REGION": "Yavapai County", "ASSOCIATION": "USA - Arizona", "POINTS": "4", "BONUSPOINTS": "3"}}, {"type": "Feature", "geometry": {"type": "Point", "coordinates": [-113.0472, 34.4139]}, "properties": {"NAME": "W7A/YV-132", "TITLE": "4415", "REGION": "Yavapai County", "ASSOCIATION": "USA - Arizona", "POINTS": "4", "BONUSPOINTS": "3"}}, {"type": "Feature", "geometry": {"type": "Point", "coordinates": [-112.407, 34.0611]}, "properties": {"NAME": "W7A/YV-133", "TITLE": "Sheep Mountain North", "REGION": "Yavapai County", "ASSOCIATION": "USA - Arizona", "POINTS": "4", "BONUSPOINTS": "3"}}, {"type": "Feature", "geometry": {"type": "Point", "coordinates": [-113.1271, 34.4875]}, "properties": {"NAME": "W7A/YV-134", "TITLE": "Crosby Mountain", "REGION": "Yavapai County", "ASSOCIATION": "USA - Arizona", "POINTS": "4", "BONUSPOINTS": "3"}}, {"type": "Feature", "geometry": {"type": "Point", "coordinates": [-112.5149, 33.9625]}, "properties": {"NAME": "W7A/YV-135", "TITLE": "Red Picacho", "REGION": "Yavapai County", "ASSOCIATION": "USA - Arizona", "POINTS": "4", "BONUSPOINTS": "3"}}, {"type": "Feature", "geometry": {"type": "Point", "coordinates": [-111.6949, 34.2727]}, "properties": {"NAME": "W7A/YV-136", "TITLE": "Squaw Butte", "REGION": "Yavapai County", "ASSOCIATION": "USA - Arizona", "POINTS": "4", "BONUSPOINTS": "3"}}, {"type": "Feature", "geometry": {"type": "Point", "coordinates": [-113.1789, 34.2466]}, "properties": {"NAME": "W7A/YV-137", "TITLE": "Tres Alamos South", "REGION": "Yavapai County", "ASSOCIATION": "USA - Arizona", "POINTS": "4", "BONUSPOINTS": "3"}}, {"type": "Feature", "geometry": {"type": "Point", "coordinates": [-112.9221, 34.6359]}, "properties": {"NAME": "W7A/YV-138", "TITLE": "4229", "REGION": "Yavapai County", "ASSOCIATION": "USA - Arizona", "POINTS": "4", "BONUSPOINTS": "3"}}, {"type": "Feature", "geometry": {"type": "Point", "coordinates": [-112.9225, 34.5137]}, "properties": {"NAME": "W7A/YV-139", "TITLE": "4174", "REGION": "Yavapai County", "ASSOCIATION": "USA - Arizona", "POINTS": "4", "BONUSPOINTS": "3"}}, {"type": "Feature", "geometry": {"type": "Point", "coordinates": [-112.3955, 34.0369]}, "properties": {"NAME": "W7A/YV-140", "TITLE": "Sheep Mountain South", "REGION": "Yavapai County", "ASSOCIATION": "USA - Arizona", "POINTS": "4", "BONUSPOINTS": "3"}}, {"type": "Feature", "geometry": {"type": "Point", "coordinates": [-113.186, 34.3089]}, "properties": {"NAME": "W7A/YV-141", "TITLE": "McLendon Peak", "REGION": "Yavapai County", "ASSOCIATION": "USA - Arizona", "POINTS": "4", "BONUSPOINTS": "3"}}, {"type": "Feature", "geometry": {"type": "Point", "coordinates": [-113.317, 34.3818]}, "properties": {"NAME": "W7A/YV-142", "TITLE": "4086", "REGION": "Yavapai County", "ASSOCIATION": "USA - Arizona", "POINTS": "4", "BONUSPOINTS": "3"}}, {"type": "Feature", "geometry": {"type": "Point", "coordinates": [-113.2176, 34.3283]}, "properties": {"NAME": "W7A/YV-143", "TITLE": "Ives Peak", "REGION": "Yavapai County", "ASSOCIATION": "USA - Arizona", "POINTS": "4", "BONUSPOINTS": "3"}}, {"type": "Feature", "geometry": {"type": "Point", "coordinates": [-111.6951, 34.3144]}, "properties": {"NAME": "W7A/YV-144", "TITLE": "Black Ridge", "REGION": "Yavapai County", "ASSOCIATION": "USA - Arizona", "POINTS": "4", "BONUSPOINTS": "3"}}, {"type": "Feature", "geometry": {"type": "Point", "coordinates": [-112.636, 34.0981]}, "properties": {"NAME": "W7A/YV-145", "TITLE": "Sam Powell Peak", "REGION": "Yavapai County", "ASSOCIATION": "USA - Arizona", "POINTS": "4", "BONUSPOINTS": "3"}}, {"type": "Feature", "geometry": {"type": "Point", "coordinates": [-111.61, 34.0046]}, "properties": {"NAME": "W7A/YV-146", "TITLE": "Davenport Peak", "REGION": "Yavapai County", "ASSOCIATION": "USA - Arizona", "POINTS": "4", "BONUSPOINTS": "3"}}, {"type": "Feature", "geometry": {"type": "Point", "coordinates": [-113.2958, 34.3862]}, "properties": {"NAME": "W7A/YV-147", "TITLE": "4006", "REGION": "Yavapai County", "ASSOCIATION": "USA - Arizona", "POINTS": "4", "BONUSPOINTS": "3"}}, {"type": "Feature", "geometry": {"type": "Point", "coordinates": [-113.1865, 34.4476]}, "properties": {"NAME": "W7A/YV-148", "TITLE": "3992", "REGION": "Yavapai County", "ASSOCIATION": "USA - Arizona", "POINTS": "4", "BONUSPOINTS": "3"}}, {"type": "Feature", "geometry": {"type": "Point", "coordinates": [-113.2896, 34.4015]}, "properties": {"NAME": "W7A/YV-149", "TITLE": "3990", "REGION": "Yavapai County", "ASSOCIATION": "USA - Arizona", "POINTS": "4", "BONUSPOINTS": "3"}}, {"type": "Feature", "geometry": {"type": "Point", "coordinates": [-112.2109, 34.2761]}, "properties": {"NAME": "W7A/YV-150", "TITLE": "Townsend Butte", "REGION": "Yavapai County", "ASSOCIATION": "USA - Arizona", "POINTS": "4", "BONUSPOINTS": "3"}}, {"type": "Feature", "geometry": {"type": "Point", "coordinates": [-112.1982, 34.2465]}, "properties": {"NAME": "W7A/YV-151", "TITLE": "Golden Turkey Peak", "REGION": "Yavapai County", "ASSOCIATION": "USA - Arizona", "POINTS": "4", "BONUSPOINTS": "3"}}, {"type": "Feature", "geometry": {"type": "Point", "coordinates": [-112.8999, 34.1855]}, "properties": {"NAME": "W7A/YV-152", "TITLE": "3894", "REGION": "Yavapai County", "ASSOCIATION": "USA - Arizona", "POINTS": "4", "BONUSPOINTS": "3"}}, {"type": "Feature", "geometry": {"type": "Point", "coordinates": [-112.2929, 34.0428]}, "properties": {"NAME": "W7A/YV-153", "TITLE": "Gold Hill", "REGION": "Yavapai County", "ASSOCIATION": "USA - Arizona", "POINTS": "4", "BONUSPOINTS": "3"}}, {"type": "Feature", "geometry": {"type": "Point", "coordinates": [-112.5846, 34.1252]}, "properties": {"NAME": "W7A/YV-154", "TITLE": "3883", "REGION": "Yavapai County", "ASSOCIATION": "USA - Arizona", "POINTS": "4", "BONUSPOINTS": "3"}}, {"type": "Feature", "geometry": {"type": "Point", "coordinates": [-112.2529, 34.0193]}, "properties": {"NAME": "W7A/YV-155", "TITLE": "Bald Hill", "REGION": "Yavapai County", "ASSOCIATION": "USA - Arizona", "POINTS": "4", "BONUSPOINTS": "3"}}, {"type": "Feature", "geometry": {"type": "Point", "coordinates": [-112.4465, 33.9759]}, "properties": {"NAME": "W7A/YV-156", "TITLE": "3773", "REGION": "Yavapai County", "ASSOCIATION": "USA - Arizona", "POINTS": "4", "BONUSPOINTS": "3"}}, {"type": "Feature", "geometry": {"type": "Point", "coordinates": [-111.7468, 34.143]}, "properties": {"NAME": "W7A/YV-157", "TITLE": "Bloody Butte", "REGION": "Yavapai County", "ASSOCIATION": "USA - Arizona", "POINTS": "4", "BONUSPOINTS": "3"}}, {"type": "Feature", "geometry": {"type": "Point", "coordinates": [-112.4682, 34.0611]}, "properties": {"NAME": "W7A/YV-158", "TITLE": "Thoma Butte", "REGION": "Yavapai County", "ASSOCIATION": "USA - Arizona", "POINTS": "4", "BONUSPOINTS": "3"}}, {"type": "Feature", "geometry": {"type": "Point", "coordinates": [-113.2102, 34.4556]}, "properties": {"NAME": "W7A/YV-159", "TITLE": "3727", "REGION": "Yavapai County", "ASSOCIATION": "USA - Arizona", "POINTS": "4", "BONUSPOINTS": "3"}}, {"type": "Feature", "geometry": {"type": "Point", "coordinates": [-113.3152, 34.4326]}, "properties": {"NAME": "W7A/YV-160", "TITLE": "John's Peak", "REGION": "Yavapai County", "ASSOCIATION": "USA - Arizona", "POINTS": "4", "BONUSPOINTS": "3"}}, {"type": "Feature", "geometry": {"type": "Point", "coordinates": [-113.2115, 34.4424]}, "properties": {"NAME": "W7A/YV-161", "TITLE": "3653", "REGION": "Yavapai County", "ASSOCIATION": "USA - Arizona", "POINTS": "4", "BONUSPOINTS": "3"}}, {"type": "Feature", "geometry": {"type": "Point", "coordinates": [-112.4056, 33.9325]}, "properties": {"NAME": "W7A/YV-162", "TITLE": "Hells Canyon Wilderness HP", "REGION": "Yavapai County", "ASSOCIATION": "USA - Arizona", "POINTS": "4", "BONUSPOINTS": "3"}}, {"type": "Feature", "geometry": {"type": "Point", "coordinates": [-112.9539, 34.0704]}, "properties": {"NAME": "W7A/YV-163", "TITLE": "3568", "REGION": "Yavapai County", "ASSOCIATION": "USA - Arizona", "POINTS": "4", "BONUSPOINTS": "3"}}, {"type": "Feature", "geometry": {"type": "Point", "coordinates": [-113.1109, 34.1873]}, "properties": {"NAME": "W7A/YV-164", "TITLE": "Black Mountain", "REGION": "Yavapai County", "ASSOCIATION": "USA - Arizona", "POINTS": "4", "BONUSPOINTS": "3"}}, {"type": "Feature", "geometry": {"type": "Point", "coordinates": [-113.0078, 34.523]}, "properties": {"NAME": "W7A/YV-165", "TITLE": "Burro Mountain", "REGION": "Yavapai County", "ASSOCIATION": "USA - Arizona", "POINTS": "4", "BONUSPOINTS": "3"}}, {"type": "Feature", "geometry": {"type": "Point", "coordinates": [-113.1233, 34.0355]}, "properties": {"NAME": "W7A/YV-166", "TITLE": "3529", "REGION": "Yavapai County", "ASSOCIATION": "USA - Arizona", "POINTS": "4", "BONUSPOINTS": "3"}}, {"type": "Feature", "geometry": {"type": "Point", "coordinates": [-113.1498, 34.4218]}, "properties": {"NAME": "W7A/YV-167", "TITLE": "3513", "REGION": "Yavapai County", "ASSOCIATION": "USA - Arizona", "POINTS": "4", "BONUSPOINTS": "3"}}, {"type": "Feature", "geometry": {"type": "Point", "coordinates": [-112.3912, 33.9212]}, "properties": {"NAME": "W7A/YV-168", "TITLE": "Jim's Peak", "REGION": "Yavapai County", "ASSOCIATION": "USA - Arizona", "POINTS": "4", "BONUSPOINTS": "3"}}, {"type": "Feature", "geometry": {"type": "Point", "coordinates": [-113.0041, 34.1051]}, "properties": {"NAME": "W7A/YV-169", "TITLE": "Merrit Benchmark", "REGION": "Yavapai County", "ASSOCIATION": "USA - Arizona", "POINTS": "4", "BONUSPOINTS": "3"}}, {"type": "Feature", "geometry": {"type": "Point", "coordinates": [-112.416, 33.9657]}, "properties": {"NAME": "W7A/YV-170", "TITLE": "Hellgate Mountain", "REGION": "Yavapai County", "ASSOCIATION": "USA - Arizona", "POINTS": "4", "BONUSPOINTS": "3"}}, {"type": "Feature", "geometry": {"type": "Point", "coordinates": [-112.3726, 33.9743]}, "properties": {"NAME": "W7A/YV-171", "TITLE": "Governors Peak", "REGION": "Yavapai County", "ASSOCIATION": "USA - Arizona", "POINTS": "4", "BONUSPOINTS": "3"}}, {"type": "Feature", "geometry": {"type": "Point", "coordinates": [-112.3635, 33.9627]}, "properties": {"NAME": "W7A/YV-172", "TITLE": "Governors Hill", "REGION": "Yavapai County", "ASSOCIATION": "USA - Arizona", "POINTS": "4", "BONUSPOINTS": "3"}}, {"type": "Feature", "geometry": {"type": "Point", "coordinates": [-113.2329, 34.3073]}, "properties": {"NAME": "W7A/YV-173", "TITLE": "3253", "REGION": "Yavapai County", "ASSOCIATION": "USA - Arizona", "POINTS": "4", "BONUSPOINTS": "3"}}, {"type": "Feature", "geometry": {"type": "Point", "coordinates": [-112.386, 33.9428]}, "properties": {"NAME": "W7A/YV-174", "TITLE": "3235", "REGION": "Yavapai County", "ASSOCIATION": "USA - Arizona", "POINTS": "4", "BONUSPOINTS": "3"}}, {"type": "Feature", "geometry": {"type": "Point", "coordinates": [-112.7598, 34.0655]}, "properties": {"NAME": "W7A/YV-175", "TITLE": "Hassayampa  Hill", "REGION": "Yavapai County", "ASSOCIATION": "USA - Arizona", "POINTS": "4", "BONUSPOINTS": "3"}}, {"type": "Feature", "geometry": {"type": "Point", "coordinates": [-112.1832, 34.1165]}, "properties": {"NAME": "W7A/YV-176", "TITLE": "Maggie Mine Peak", "REGION": "Yavapai County", "ASSOCIATION": "USA - Arizona", "POINTS": "4", "BONUSPOINTS": "3"}}, {"type": "Feature", "geometry": {"type": "Point", "coordinates": [-113.0165, 34.0491]}, "properties": {"NAME": "W7A/YV-177", "TITLE": "Stoney Mtn", "REGION": "Yavapai County", "ASSOCIATION": "USA - Arizona", "POINTS": "4", "BONUSPOINTS": "3"}}, {"type": "Feature", "geometry": {"type": "Point", "coordinates": [-112.3528, 33.9895]}, "properties": {"NAME": "W7A/YV-178", "TITLE": "Castle Peak", "REGION": "Yavapai County", "ASSOCIATION": "USA - Arizona", "POINTS": "4", "BONUSPOINTS": "3"}}, {"type": "Feature", "geometry": {"type": "Point", "coordinates": [-112.3825, 33.9904]}, "properties": {"NAME": "W7A/YV-179", "TITLE": "3087", "REGION": "Yavapai County", "ASSOCIATION": "USA - Arizona", "POINTS": "4", "BONUSPOINTS": "3"}}, {"type": "Feature", "geometry": {"type": "Point", "coordinates": [-112.3088, 34.0192]}, "properties": {"NAME": "W7A/YV-180", "TITLE": "Black Hill", "REGION": "Yavapai County", "ASSOCIATION": "USA - Arizona", "POINTS": "2", "BONUSPOINTS": "3"}}, {"type": "Feature", "geometry": {"type": "Point", "coordinates": [-111.7074, 34.1827]}, "properties": {"NAME": "W7A/YV-181", "TITLE": "Table Mountain", "REGION": "Yavapai County", "ASSOCIATION": "USA - Arizona", "POINTS": "2", "BONUSPOINTS": "3"}}, {"type": "Feature", "geometry": {"type": "Point", "coordinates": [-113.1344, 34.0193]}, "properties": {"NAME": "W7A/YV-182", "TITLE": "2926", "REGION": "Yavapai County", "ASSOCIATION": "USA - Arizona", "POINTS": "2", "BONUSPOINTS": "3"}}, {"type": "Feature", "geometry": {"type": "Point", "coordinates": [-113.2246, 34.417]}, "properties": {"NAME": "W7A/YV-183", "TITLE": "Santa Maria Hill", "REGION": "Yavapai County", "ASSOCIATION": "USA - Arizona", "POINTS": "2", "BONUSPOINTS": "3"}}, {"type": "Feature", "geometry": {"type": "Point", "coordinates": [-113.3109, 34.336]}, "properties": {"NAME": "W7A/YV-184", "TITLE": "2892", "REGION": "Yavapai County", "ASSOCIATION": "USA - Arizona", "POINTS": "2", "BONUSPOINTS": "3"}}, {"type": "Feature", "geometry": {"type": "Point", "coordinates": [-111.7095, 34.0345]}, "properties": {"NAME": "W7A/YV-185", "TITLE": "Chalk Mountain", "REGION": "Yavapai County", "ASSOCIATION": "USA - Arizona", "POINTS": "2", "BONUSPOINTS": "3"}}, {"type": "Feature", "geometry": {"type": "Point", "coordinates": [-112.2295, 33.9762]}, "properties": {"NAME": "W7A/YV-186", "TITLE": "2780", "REGION": "Yavapai County", "ASSOCIATION": "USA - Arizona", "POINTS": "2", "BONUSPOINTS": "3"}}, {"type": "Feature", "geometry": {"type": "Point", "coordinates": [-112.9333, 34.8457]}, "properties": {"NAME": "W7A/YV-187", "TITLE": "Pinetop Mountain", "REGION": "Yavapai County", "ASSOCIATION": "USA - Arizona", "POINTS": "8", "BONUSPOINTS": "3"}}, {"type": "Feature", "geometry": {"type": "Point", "coordinates": [-111.4846, 34.1007]}, "properties": {"NAME": "W7A/YV-188", "TITLE": "6952", "REGION": "Yavapai County", "ASSOCIATION": "USA - Arizona", "POINTS": "8", "BONUSPOINTS": "3"}}, {"type": "Feature", "geometry": {"type": "Point", "coordinates": [-111.8725, 34.937]}, "properties": {"NAME": "W7A/YV-189", "TITLE": "6519", "REGION": "Yavapai County", "ASSOCIATION": "USA - Arizona", "POINTS": "8", "BONUSPOINTS": "3"}}, {"type": "Feature", "geometry": {"type": "Point", "coordinates": [-113.3005, 35.0049]}, "properties": {"NAME": "W7A/YV-190", "TITLE": "6192", "REGION": "Yavapai County", "ASSOCIATION": "USA - Arizona", "POINTS": "8", "BONUSPOINTS": "3"}}, {"type": "Feature", "geometry": {"type": "Point", "coordinates": [-111.8473, 34.9166]}, "properties": {"NAME": "W7A/YV-191", "TITLE": "5634", "REGION": "Yavapai County", "ASSOCIATION": "USA - Arizona", "POINTS": "6", "BONUSPOINTS": "3"}}, {"type": "Feature", "geometry": {"type": "Point", "coordinates": [-111.6917, 34.4587]}, "properties": {"NAME": "W7A/YV-192", "TITLE": "5296", "REGION": "Yavapai County", "ASSOCIATION": "USA - Arizona", "POINTS": "6", "BONUSPOINTS": "3"}}, {"type": "Feature", "geometry": {"type": "Point", "coordinates": [-112.4684, 34.1241]}, "properties": {"NAME": "W7A/YV-193", "TITLE": "5030", "REGION": "Yavapai County", "ASSOCIATION": "USA - Arizona", "POINTS": "6", "BONUSPOINTS": "3"}}, {"type": "Feature", "geometry": {"type": "Point", "coordinates": [-111.7646, 34.8003]}, "properties": {"NAME": "W7A/YV-194", "TITLE": "Bell Rock", "REGION": "Yavapai County", "ASSOCIATION": "USA - Arizona", "POINTS": "6", "BONUSPOINTS": "3"}}, {"type": "Feature", "geometry": {"type": "Point", "coordinates": [-112.9049, 34.5377]}, "properties": {"NAME": "W7A/YV-195", "TITLE": "4838", "REGION": "Yavapai County", "ASSOCIATION": "USA - Arizona", "POINTS": "6", "BONUSPOINTS": "3"}}, {"type": "Feature", "geometry": {"type": "Point", "coordinates": [-112.5011, 34.1161]}, "properties": {"NAME": "W7A/YV-196", "TITLE": "Boulder Pass Benchmark", "REGION": "Yavapai County", "ASSOCIATION": "USA - Arizona", "POINTS": "6", "BONUSPOINTS": "3"}}, {"type": "Feature", "geometry": {"type": "Point", "coordinates": [-111.7545, 34.2196]}, "properties": {"NAME": "W7A/YV-197", "TITLE": "4434", "REGION": "Yavapai County", "ASSOCIATION": "USA - Arizona", "POINTS": "4", "BONUSPOINTS": "3"}}, {"type": "Feature", "geometry": {"type": "Point", "coordinates": [-112.9335, 34.2015]}, "properties": {"NAME": "W7A/YV-198", "TITLE": "4300", "REGION": "Yavapai County", "ASSOCIATION": "USA - Arizona", "POINTS": "4", "BONUSPOINTS": "3"}}, {"type": "Feature", "geometry": {"type": "Point", "coordinates": [-112.3581, 33.9227]}, "properties": {"NAME": "W7A/YV-199", "TITLE": "2700", "REGION": "Yavapai County", "ASSOCIATION": "USA - Arizona", "POINTS": "2", "BONUSPOINTS": "3"}}]}