{"type": "FeatureCollection", "name": "W7A/PW SUMMITS", "features": [{"type": "Feature", "geometry": {"type": "Point", "coordinates": [-112.7057, 32.0932]}, "properties": {"NAME": "W7A/PW-001", "TITLE": "4220", "REGION": "Pima County, West", "ASSOCIATION": "USA - Arizona", "POINTS": "4", "BONUSPOINTS": "3"}}, {"type": "Feature", "geometry": {"type": "Point", "coordinates": [-112.7147, 32.0875]}, "properties": {"NAME": "W7A/PW-002", "TITLE": "4180", "REGION": "Pima County, West", "ASSOCIATION": "USA - Arizona", "POINTS": "4", "BONUSPOINTS": "3"}}, {"type": "Feature", "geometry": {"type": "Point", "coordinates": [-112.1469, 32.0005]}, "properties": {"NAME": "W7A/PW-003", "TITLE": "South Mountain", "REGION": "Pima County, West", "ASSOCIATION": "USA - Arizona", "POINTS": "4", "BONUSPOINTS": "3"}}, {"type": "Feature", "geometry": {"type": "Point", "coordinates": [-112.3934, 32.4437]}, "properties": {"NAME": "W7A/PW-004", "TITLE": "Cimarron Peak", "REGION": "Pima County, West", "ASSOCIATION": "USA - Arizona", "POINTS": "4", "BONUSPOINTS": "3"}}, {"type": "Feature", "geometry": {"type": "Point", "coordinates": [-112.5904, 32.4613]}, "properties": {"NAME": "W7A/PW-005", "TITLE": "Sauceda Benchmark", "REGION": "Pima County, West", "ASSOCIATION": "USA - Arizona", "POINTS": "4", "BONUSPOINTS": "3"}}, {"type": "Feature", "geometry": {"type": "Point", "coordinates": [-112.679, 32.1033]}, "properties": {"NAME": "W7A/PW-006", "TITLE": "4088", "REGION": "Pima County, West", "ASSOCIATION": "USA - Arizona", "POINTS": "4", "BONUSPOINTS": "3"}}, {"type": "Feature", "geometry": {"type": "Point", "coordinates": [-112.5923, 32.4369]}, "properties": {"NAME": "W7A/PW-007", "TITLE": "4030", "REGION": "Pima County, West", "ASSOCIATION": "USA - Arizona", "POINTS": "4", "BONUSPOINTS": "3"}}, {"type": "Feature", "geometry": {"type": "Point", "coordinates": [-112.6614, 31.968]}, "properties": {"NAME": "W7A/PW-008", "TITLE": "Diaz Peak", "REGION": "Pima County, West", "ASSOCIATION": "USA - Arizona", "POINTS": "4", "BONUSPOINTS": "3"}}, {"type": "Feature", "geometry": {"type": "Point", "coordinates": [-112.1431, 32.0613]}, "properties": {"NAME": "W7A/PW-009", "TITLE": "Ben Nevis Mountain", "REGION": "Pima County, West", "ASSOCIATION": "USA - Arizona", "POINTS": "4", "BONUSPOINTS": "3"}}, {"type": "Feature", "geometry": {"type": "Point", "coordinates": [-112.4454, 31.8931]}, "properties": {"NAME": "W7A/PW-010", "TITLE": "Mesquite Benchmark", "REGION": "Pima County, West", "ASSOCIATION": "USA - Arizona", "POINTS": "4", "BONUSPOINTS": "3"}}, {"type": "Feature", "geometry": {"type": "Point", "coordinates": [-112.2445, 32.2119]}, "properties": {"NAME": "W7A/PW-011", "TITLE": "Sierra Blanca", "REGION": "Pima County, West", "ASSOCIATION": "USA - Arizona", "POINTS": "4", "BONUSPOINTS": "3"}}, {"type": "Feature", "geometry": {"type": "Point", "coordinates": [-112.5803, 32.3688]}, "properties": {"NAME": "W7A/PW-012", "TITLE": "3610", "REGION": "Pima County, West", "ASSOCIATION": "USA - Arizona", "POINTS": "4", "BONUSPOINTS": "3"}}, {"type": "Feature", "geometry": {"type": "Point", "coordinates": [-112.1487, 32.2046]}, "properties": {"NAME": "W7A/PW-013", "TITLE": "Brownell Peak", "REGION": "Pima County, West", "ASSOCIATION": "USA - Arizona", "POINTS": "4", "BONUSPOINTS": "3"}}, {"type": "Feature", "geometry": {"type": "Point", "coordinates": [-112.6721, 32.0854]}, "properties": {"NAME": "W7A/PW-014", "TITLE": "3542", "REGION": "Pima County, West", "ASSOCIATION": "USA - Arizona", "POINTS": "4", "BONUSPOINTS": "3"}}, {"type": "Feature", "geometry": {"type": "Point", "coordinates": [-112.6221, 32.4823]}, "properties": {"NAME": "W7A/PW-015", "TITLE": "Coffeepot Mountain", "REGION": "Pima County, West", "ASSOCIATION": "USA - Arizona", "POINTS": "4", "BONUSPOINTS": "3"}}, {"type": "Feature", "geometry": {"type": "Point", "coordinates": [-112.656, 31.9994]}, "properties": {"NAME": "W7A/PW-016", "TITLE": "3455", "REGION": "Pima County, West", "ASSOCIATION": "USA - Arizona", "POINTS": "4", "BONUSPOINTS": "3"}}, {"type": "Feature", "geometry": {"type": "Point", "coordinates": [-112.642, 32.0096]}, "properties": {"NAME": "W7A/PW-017", "TITLE": "3435", "REGION": "Pima County, West", "ASSOCIATION": "USA - Arizona", "POINTS": "4", "BONUSPOINTS": "3"}}, {"type": "Feature", "geometry": {"type": "Point", "coordinates": [-112.7516, 32.0258]}, "properties": {"NAME": "W7A/PW-018", "TITLE": "Tillotson Peak", "REGION": "Pima County, West", "ASSOCIATION": "USA - Arizona", "POINTS": "4", "BONUSPOINTS": "3"}}, {"type": "Feature", "geometry": {"type": "Point", "coordinates": [-112.7169, 32.0042]}, "properties": {"NAME": "W7A/PW-019", "TITLE": "Diablo Mountains HP", "REGION": "Pima County, West", "ASSOCIATION": "USA - Arizona", "POINTS": "4", "BONUSPOINTS": "3"}}, {"type": "Feature", "geometry": {"type": "Point", "coordinates": [-112.6274, 32.4361]}, "properties": {"NAME": "W7A/PW-020", "TITLE": "3370", "REGION": "Pima County, West", "ASSOCIATION": "USA - Arizona", "POINTS": "4", "BONUSPOINTS": "3"}}, {"type": "Feature", "geometry": {"type": "Point", "coordinates": [-112.6304, 32.447]}, "properties": {"NAME": "W7A/PW-021", "TITLE": "3310", "REGION": "Pima County, West", "ASSOCIATION": "USA - Arizona", "POINTS": "4", "BONUSPOINTS": "3"}}, {"type": "Feature", "geometry": {"type": "Point", "coordinates": [-113.028, 32.2432]}, "properties": {"NAME": "W7A/PW-022", "TITLE": "Gro Benchmark", "REGION": "Pima County, West", "ASSOCIATION": "USA - Arizona", "POINTS": "4", "BONUSPOINTS": "3"}}, {"type": "Feature", "geometry": {"type": "Point", "coordinates": [-112.6176, 32.4043]}, "properties": {"NAME": "W7A/PW-023", "TITLE": "3270", "REGION": "Pima County, West", "ASSOCIATION": "USA - Arizona", "POINTS": "4", "BONUSPOINTS": "3"}}, {"type": "Feature", "geometry": {"type": "Point", "coordinates": [-112.1125, 32.4008]}, "properties": {"NAME": "W7A/PW-024", "TITLE": "Sheridan Mountains HP", "REGION": "Pima County, West", "ASSOCIATION": "USA - Arizona", "POINTS": "4", "BONUSPOINTS": "3"}}, {"type": "Feature", "geometry": {"type": "Point", "coordinates": [-112.632, 31.9917]}, "properties": {"NAME": "W7A/PW-025", "TITLE": "3262", "REGION": "Pima County, West", "ASSOCIATION": "USA - Arizona", "POINTS": "4", "BONUSPOINTS": "3"}}, {"type": "Feature", "geometry": {"type": "Point", "coordinates": [-112.6583, 32.0108]}, "properties": {"NAME": "W7A/PW-026", "TITLE": "3220", "REGION": "Pima County, West", "ASSOCIATION": "USA - Arizona", "POINTS": "4", "BONUSPOINTS": "3"}}, {"type": "Feature", "geometry": {"type": "Point", "coordinates": [-112.4037, 32.3761]}, "properties": {"NAME": "W7A/PW-027", "TITLE": "3211", "REGION": "Pima County, West", "ASSOCIATION": "USA - Arizona", "POINTS": "4", "BONUSPOINTS": "3"}}, {"type": "Feature", "geometry": {"type": "Point", "coordinates": [-112.6534, 31.9465]}, "properties": {"NAME": "W7A/PW-028", "TITLE": "3210", "REGION": "Pima County, West", "ASSOCIATION": "USA - Arizona", "POINTS": "4", "BONUSPOINTS": "3"}}, {"type": "Feature", "geometry": {"type": "Point", "coordinates": [-112.7403, 32.4683]}, "properties": {"NAME": "W7A/PW-029", "TITLE": "Papago Benchmark", "REGION": "Pima County, West", "ASSOCIATION": "USA - Arizona", "POINTS": "4", "BONUSPOINTS": "3"}}, {"type": "Feature", "geometry": {"type": "Point", "coordinates": [-112.9554, 32.1096]}, "properties": {"NAME": "W7A/PW-030", "TITLE": "Kino Peak", "REGION": "Pima County, West", "ASSOCIATION": "USA - Arizona", "POINTS": "4", "BONUSPOINTS": "3"}}, {"type": "Feature", "geometry": {"type": "Point", "coordinates": [-112.2517, 32.3809]}, "properties": {"NAME": "W7A/PW-031", "TITLE": "Castle Mountains HP", "REGION": "Pima County, West", "ASSOCIATION": "USA - Arizona", "POINTS": "4", "BONUSPOINTS": "3"}}, {"type": "Feature", "geometry": {"type": "Point", "coordinates": [-112.8581, 32.0046]}, "properties": {"NAME": "W7A/PW-032", "TITLE": "Pinkley Peak", "REGION": "Pima County, West", "ASSOCIATION": "USA - Arizona", "POINTS": "4", "BONUSPOINTS": "3"}}, {"type": "Feature", "geometry": {"type": "Point", "coordinates": [-112.141, 32.4591]}, "properties": {"NAME": "W7A/PW-033", "TITLE": "Cimmaron Mountains HP", "REGION": "Pima County, West", "ASSOCIATION": "USA - Arizona", "POINTS": "4", "BONUSPOINTS": "3"}}, {"type": "Feature", "geometry": {"type": "Point", "coordinates": [-112.5463, 32.4923]}, "properties": {"NAME": "W7A/PW-034", "TITLE": "3124", "REGION": "Pima County, West", "ASSOCIATION": "USA - Arizona", "POINTS": "4", "BONUSPOINTS": "3"}}, {"type": "Feature", "geometry": {"type": "Point", "coordinates": [-112.7161, 32.3123]}, "properties": {"NAME": "W7A/PW-035", "TITLE": "Childs Benchmark", "REGION": "Pima County, West", "ASSOCIATION": "USA - Arizona", "POINTS": "4", "BONUSPOINTS": "3"}}, {"type": "Feature", "geometry": {"type": "Point", "coordinates": [-112.696, 32.2973]}, "properties": {"NAME": "W7A/PW-036", "TITLE": "3088", "REGION": "Pima County, West", "ASSOCIATION": "USA - Arizona", "POINTS": "4", "BONUSPOINTS": "3"}}, {"type": "Feature", "geometry": {"type": "Point", "coordinates": [-112.642, 32.4661]}, "properties": {"NAME": "W7A/PW-037", "TITLE": "3066", "REGION": "Pima County, West", "ASSOCIATION": "USA - Arizona", "POINTS": "4", "BONUSPOINTS": "3"}}, {"type": "Feature", "geometry": {"type": "Point", "coordinates": [-112.4541, 31.9639]}, "properties": {"NAME": "W7A/PW-038", "TITLE": "Chupan Mountain", "REGION": "Pima County, West", "ASSOCIATION": "USA - Arizona", "POINTS": "4", "BONUSPOINTS": "3"}}, {"type": "Feature", "geometry": {"type": "Point", "coordinates": [-112.6062, 31.946]}, "properties": {"NAME": "W7A/PW-039", "TITLE": "Can Benchmark", "REGION": "Pima County, West", "ASSOCIATION": "USA - Arizona", "POINTS": "4", "BONUSPOINTS": "3"}}, {"type": "Feature", "geometry": {"type": "Point", "coordinates": [-112.2256, 32.5028]}, "properties": {"NAME": "W7A/PW-040", "TITLE": "Copper Benchmark", "REGION": "Pima County, West", "ASSOCIATION": "USA - Arizona", "POINTS": "4", "BONUSPOINTS": "3"}}, {"type": "Feature", "geometry": {"type": "Point", "coordinates": [-112.2262, 32.4039]}, "properties": {"NAME": "W7A/PW-041", "TITLE": "3030", "REGION": "Pima County, West", "ASSOCIATION": "USA - Arizona", "POINTS": "4", "BONUSPOINTS": "3"}}, {"type": "Feature", "geometry": {"type": "Point", "coordinates": [-113.1014, 32.4103]}, "properties": {"NAME": "W7A/PW-042", "TITLE": "Growler Peak", "REGION": "Pima County, West", "ASSOCIATION": "USA - Arizona", "POINTS": "4", "BONUSPOINTS": "3"}}, {"type": "Feature", "geometry": {"type": "Point", "coordinates": [-112.9408, 32.0871]}, "properties": {"NAME": "W7A/PW-043", "TITLE": "3019", "REGION": "Pima County, West", "ASSOCIATION": "USA - Arizona", "POINTS": "4", "BONUSPOINTS": "3"}}, {"type": "Feature", "geometry": {"type": "Point", "coordinates": [-112.5722, 32.3106]}, "properties": {"NAME": "W7A/PW-044", "TITLE": "3010", "REGION": "Pima County, West", "ASSOCIATION": "USA - Arizona", "POINTS": "4", "BONUSPOINTS": "3"}}, {"type": "Feature", "geometry": {"type": "Point", "coordinates": [-112.8429, 32.3236]}, "properties": {"NAME": "W7A/PW-045", "TITLE": "Black Mountain", "REGION": "Pima County, West", "ASSOCIATION": "USA - Arizona", "POINTS": "4", "BONUSPOINTS": "3"}}, {"type": "Feature", "geometry": {"type": "Point", "coordinates": [-112.5227, 32.2975]}, "properties": {"NAME": "W7A/PW-046", "TITLE": "Gakolik Mountains HP", "REGION": "Pima County, West", "ASSOCIATION": "USA - Arizona", "POINTS": "4", "BONUSPOINTS": "3"}}, {"type": "Feature", "geometry": {"type": "Point", "coordinates": [-112.2883, 31.9197]}, "properties": {"NAME": "W7A/PW-047", "TITLE": "Kupk Hills", "REGION": "Pima County, West", "ASSOCIATION": "USA - Arizona", "POINTS": "2", "BONUSPOINTS": "3"}}, {"type": "Feature", "geometry": {"type": "Point", "coordinates": [-112.898, 32.3678]}, "properties": {"NAME": "W7A/PW-048", "TITLE": "2976", "REGION": "Pima County, West", "ASSOCIATION": "USA - Arizona", "POINTS": "2", "BONUSPOINTS": "3"}}, {"type": "Feature", "geometry": {"type": "Point", "coordinates": [-112.758, 32.0481]}, "properties": {"NAME": "W7A/PW-049", "TITLE": "2968", "REGION": "Pima County, West", "ASSOCIATION": "USA - Arizona", "POINTS": "2", "BONUSPOINTS": "3"}}, {"type": "Feature", "geometry": {"type": "Point", "coordinates": [-112.2435, 32.3576]}, "properties": {"NAME": "W7A/PW-050", "TITLE": "Window Mountain", "REGION": "Pima County, West", "ASSOCIATION": "USA - Arizona", "POINTS": "2", "BONUSPOINTS": "3"}}, {"type": "Feature", "geometry": {"type": "Point", "coordinates": [-112.4328, 31.8669]}, "properties": {"NAME": "W7A/PW-051", "TITLE": "Bailey Peak", "REGION": "Pima County, West", "ASSOCIATION": "USA - Arizona", "POINTS": "2", "BONUSPOINTS": "3"}}, {"type": "Feature", "geometry": {"type": "Point", "coordinates": [-112.2376, 32.3877]}, "properties": {"NAME": "W7A/PW-052", "TITLE": "Cave Mountain", "REGION": "Pima County, West", "ASSOCIATION": "USA - Arizona", "POINTS": "2", "BONUSPOINTS": "3"}}, {"type": "Feature", "geometry": {"type": "Point", "coordinates": [-112.1513, 32.3858]}, "properties": {"NAME": "W7A/PW-053", "TITLE": "Black Hills", "REGION": "Pima County, West", "ASSOCIATION": "USA - Arizona", "POINTS": "2", "BONUSPOINTS": "3"}}, {"type": "Feature", "geometry": {"type": "Point", "coordinates": [-112.6226, 31.8912]}, "properties": {"NAME": "W7A/PW-054", "TITLE": "2921", "REGION": "Pima County, West", "ASSOCIATION": "USA - Arizona", "POINTS": "2", "BONUSPOINTS": "3"}}, {"type": "Feature", "geometry": {"type": "Point", "coordinates": [-112.2633, 32.2786]}, "properties": {"NAME": "W7A/PW-055", "TITLE": "2920", "REGION": "Pima County, West", "ASSOCIATION": "USA - Arizona", "POINTS": "2", "BONUSPOINTS": "3"}}, {"type": "Feature", "geometry": {"type": "Point", "coordinates": [-112.9395, 32.1136]}, "properties": {"NAME": "W7A/PW-056", "TITLE": "2919", "REGION": "Pima County, West", "ASSOCIATION": "USA - Arizona", "POINTS": "2", "BONUSPOINTS": "3"}}, {"type": "Feature", "geometry": {"type": "Point", "coordinates": [-112.1632, 32.0409]}, "properties": {"NAME": "W7A/PW-057", "TITLE": "2918", "REGION": "Pima County, West", "ASSOCIATION": "USA - Arizona", "POINTS": "2", "BONUSPOINTS": "3"}}, {"type": "Feature", "geometry": {"type": "Point", "coordinates": [-112.401, 32.3613]}, "properties": {"NAME": "W7A/PW-058", "TITLE": "2907", "REGION": "Pima County, West", "ASSOCIATION": "USA - Arizona", "POINTS": "2", "BONUSPOINTS": "3"}}, {"type": "Feature", "geometry": {"type": "Point", "coordinates": [-112.6531, 32.1356]}, "properties": {"NAME": "W7A/PW-059", "TITLE": "2894", "REGION": "Pima County, West", "ASSOCIATION": "USA - Arizona", "POINTS": "2", "BONUSPOINTS": "3"}}, {"type": "Feature", "geometry": {"type": "Point", "coordinates": [-112.9454, 32.4306]}, "properties": {"NAME": "W7A/PW-060", "TITLE": "Childs Mountain", "REGION": "Pima County, West", "ASSOCIATION": "USA - Arizona", "POINTS": "2", "BONUSPOINTS": "3"}}, {"type": "Feature", "geometry": {"type": "Point", "coordinates": [-112.1512, 32.4728]}, "properties": {"NAME": "W7A/PW-061", "TITLE": "2873", "REGION": "Pima County, West", "ASSOCIATION": "USA - Arizona", "POINTS": "2", "BONUSPOINTS": "3"}}, {"type": "Feature", "geometry": {"type": "Point", "coordinates": [-112.0867, 32.3804]}, "properties": {"NAME": "W7A/PW-062", "TITLE": "2873", "REGION": "Pima County, West", "ASSOCIATION": "USA - Arizona", "POINTS": "2", "BONUSPOINTS": "3"}}, {"type": "Feature", "geometry": {"type": "Point", "coordinates": [-112.9288, 32.0946]}, "properties": {"NAME": "W7A/PW-063", "TITLE": "2867", "REGION": "Pima County, West", "ASSOCIATION": "USA - Arizona", "POINTS": "2", "BONUSPOINTS": "3"}}, {"type": "Feature", "geometry": {"type": "Point", "coordinates": [-113.1455, 32.0256]}, "properties": {"NAME": "W7A/PW-064", "TITLE": "Quitovaguita Benchmark", "REGION": "Pima County, West", "ASSOCIATION": "USA - Arizona", "POINTS": "2", "BONUSPOINTS": "3"}}, {"type": "Feature", "geometry": {"type": "Point", "coordinates": [-113.0656, 32.2963]}, "properties": {"NAME": "W7A/PW-065", "TITLE": "2870", "REGION": "Pima County, West", "ASSOCIATION": "USA - Arizona", "POINTS": "2", "BONUSPOINTS": "3"}}, {"type": "Feature", "geometry": {"type": "Point", "coordinates": [-112.9735, 32.0971]}, "properties": {"NAME": "W7A/PW-066", "TITLE": "2848", "REGION": "Pima County, West", "ASSOCIATION": "USA - Arizona", "POINTS": "2", "BONUSPOINTS": "3"}}, {"type": "Feature", "geometry": {"type": "Point", "coordinates": [-112.6898, 32.2332]}, "properties": {"NAME": "W7A/PW-067", "TITLE": "2828", "REGION": "Pima County, West", "ASSOCIATION": "USA - Arizona", "POINTS": "2", "BONUSPOINTS": "3"}}, {"type": "Feature", "geometry": {"type": "Point", "coordinates": [-112.4935, 31.9532]}, "properties": {"NAME": "W7A/PW-068", "TITLE": "2794", "REGION": "Pima County, West", "ASSOCIATION": "USA - Arizona", "POINTS": "2", "BONUSPOINTS": "3"}}, {"type": "Feature", "geometry": {"type": "Point", "coordinates": [-112.613, 32.1512]}, "properties": {"NAME": "W7A/PW-069", "TITLE": "Gunsight Hills", "REGION": "Pima County, West", "ASSOCIATION": "USA - Arizona", "POINTS": "2", "BONUSPOINTS": "3"}}, {"type": "Feature", "geometry": {"type": "Point", "coordinates": [-112.9147, 32.3484]}, "properties": {"NAME": "W7A/PW-070", "TITLE": "North Ajo Peak", "REGION": "Pima County, West", "ASSOCIATION": "USA - Arizona", "POINTS": "2", "BONUSPOINTS": "3"}}, {"type": "Feature", "geometry": {"type": "Point", "coordinates": [-112.5625, 31.9592]}, "properties": {"NAME": "W7A/PW-071", "TITLE": "Gu Vo Hills", "REGION": "Pima County, West", "ASSOCIATION": "USA - Arizona", "POINTS": "2", "BONUSPOINTS": "3"}}, {"type": "Feature", "geometry": {"type": "Point", "coordinates": [-112.2067, 31.7123]}, "properties": {"NAME": "W7A/PW-072", "TITLE": "2694", "REGION": "Pima County, West", "ASSOCIATION": "USA - Arizona", "POINTS": "2", "BONUSPOINTS": "3"}}, {"type": "Feature", "geometry": {"type": "Point", "coordinates": [-112.9272, 32.1195]}, "properties": {"NAME": "W7A/PW-073", "TITLE": "2678", "REGION": "Pima County, West", "ASSOCIATION": "USA - Arizona", "POINTS": "2", "BONUSPOINTS": "3"}}, {"type": "Feature", "geometry": {"type": "Point", "coordinates": [-112.9091, 32.0195]}, "properties": {"NAME": "W7A/PW-074", "TITLE": "2675", "REGION": "Pima County, West", "ASSOCIATION": "USA - Arizona", "POINTS": "2", "BONUSPOINTS": "3"}}, {"type": "Feature", "geometry": {"type": "Point", "coordinates": [-112.5394, 32.014]}, "properties": {"NAME": "W7A/PW-075", "TITLE": "2661", "REGION": "Pima County, West", "ASSOCIATION": "USA - Arizona", "POINTS": "2", "BONUSPOINTS": "3"}}, {"type": "Feature", "geometry": {"type": "Point", "coordinates": [-112.2086, 31.6922]}, "properties": {"NAME": "W7A/PW-076", "TITLE": "Monument 153", "REGION": "Pima County, West", "ASSOCIATION": "USA - Arizona", "POINTS": "2", "BONUSPOINTS": "3"}}, {"type": "Feature", "geometry": {"type": "Point", "coordinates": [-112.7319, 32.198]}, "properties": {"NAME": "W7A/PW-077", "TITLE": "2642", "REGION": "Pima County, West", "ASSOCIATION": "USA - Arizona", "POINTS": "2", "BONUSPOINTS": "3"}}, {"type": "Feature", "geometry": {"type": "Point", "coordinates": [-112.6852, 32.2004]}, "properties": {"NAME": "W7A/PW-078", "TITLE": "Gunsight Benchmark", "REGION": "Pima County, West", "ASSOCIATION": "USA - Arizona", "POINTS": "2", "BONUSPOINTS": "3"}}, {"type": "Feature", "geometry": {"type": "Point", "coordinates": [-112.9073, 32.3352]}, "properties": {"NAME": "W7A/PW-079", "TITLE": "Ajo Peak", "REGION": "Pima County, West", "ASSOCIATION": "USA - Arizona", "POINTS": "2", "BONUSPOINTS": "3"}}, {"type": "Feature", "geometry": {"type": "Point", "coordinates": [-112.8196, 31.961]}, "properties": {"NAME": "W7A/PW-080", "TITLE": "Gadsden Peak", "REGION": "Pima County, West", "ASSOCIATION": "USA - Arizona", "POINTS": "2", "BONUSPOINTS": "3"}}, {"type": "Feature", "geometry": {"type": "Point", "coordinates": [-112.9782, 32.0369]}, "properties": {"NAME": "W7A/PW-081", "TITLE": "Cipriano Hills", "REGION": "Pima County, West", "ASSOCIATION": "USA - Arizona", "POINTS": "2", "BONUSPOINTS": "3"}}, {"type": "Feature", "geometry": {"type": "Point", "coordinates": [-112.6642, 32.4723]}, "properties": {"NAME": "W7A/PW-082", "TITLE": "2590", "REGION": "Pima County, West", "ASSOCIATION": "USA - Arizona", "POINTS": "2", "BONUSPOINTS": "3"}}, {"type": "Feature", "geometry": {"type": "Point", "coordinates": [-112.421, 31.8558]}, "properties": {"NAME": "W7A/PW-083", "TITLE": "2581", "REGION": "Pima County, West", "ASSOCIATION": "USA - Arizona", "POINTS": "2", "BONUSPOINTS": "3"}}, {"type": "Feature", "geometry": {"type": "Point", "coordinates": [-112.9359, 32.207]}, "properties": {"NAME": "W7A/PW-084", "TITLE": "Scarface Mountain", "REGION": "Pima County, West", "ASSOCIATION": "USA - Arizona", "POINTS": "2", "BONUSPOINTS": "3"}}, {"type": "Feature", "geometry": {"type": "Point", "coordinates": [-112.9157, 32.0672]}, "properties": {"NAME": "W7A/PW-085", "TITLE": "2541", "REGION": "Pima County, West", "ASSOCIATION": "USA - Arizona", "POINTS": "2", "BONUSPOINTS": "3"}}, {"type": "Feature", "geometry": {"type": "Point", "coordinates": [-113.0785, 32.429]}, "properties": {"NAME": "W7A/PW-086", "TITLE": "2540", "REGION": "Pima County, West", "ASSOCIATION": "USA - Arizona", "POINTS": "2", "BONUSPOINTS": "3"}}, {"type": "Feature", "geometry": {"type": "Point", "coordinates": [-112.3395, 31.8385]}, "properties": {"NAME": "W7A/PW-087", "TITLE": "2539", "REGION": "Pima County, West", "ASSOCIATION": "USA - Arizona", "POINTS": "2", "BONUSPOINTS": "3"}}, {"type": "Feature", "geometry": {"type": "Point", "coordinates": [-112.939, 32.349]}, "properties": {"NAME": "W7A/PW-088", "TITLE": "2530", "REGION": "Pima County, West", "ASSOCIATION": "USA - Arizona", "POINTS": "2", "BONUSPOINTS": "3"}}, {"type": "Feature", "geometry": {"type": "Point", "coordinates": [-112.8979, 32.0358]}, "properties": {"NAME": "W7A/PW-089", "TITLE": "2523", "REGION": "Pima County, West", "ASSOCIATION": "USA - Arizona", "POINTS": "2", "BONUSPOINTS": "3"}}, {"type": "Feature", "geometry": {"type": "Point", "coordinates": [-113.3079, 32.4276]}, "properties": {"NAME": "W7A/PW-090", "TITLE": "Granite Benchmark", "REGION": "Pima County, West", "ASSOCIATION": "USA - Arizona", "POINTS": "2", "BONUSPOINTS": "3"}}, {"type": "Feature", "geometry": {"type": "Point", "coordinates": [-112.8496, 32.0227]}, "properties": {"NAME": "W7A/PW-091", "TITLE": "2432", "REGION": "Pima County, West", "ASSOCIATION": "USA - Arizona", "POINTS": "2", "BONUSPOINTS": "3"}}, {"type": "Feature", "geometry": {"type": "Point", "coordinates": [-112.0787, 32.3513]}, "properties": {"NAME": "W7A/PW-092", "TITLE": "2409", "REGION": "Pima County, West", "ASSOCIATION": "USA - Arizona", "POINTS": "2", "BONUSPOINTS": "3"}}, {"type": "Feature", "geometry": {"type": "Point", "coordinates": [-113.2964, 32.36]}, "properties": {"NAME": "W7A/PW-093", "TITLE": "2390", "REGION": "Pima County, West", "ASSOCIATION": "USA - Arizona", "POINTS": "2", "BONUSPOINTS": "3"}}, {"type": "Feature", "geometry": {"type": "Point", "coordinates": [-112.9436, 32.1548]}, "properties": {"NAME": "W7A/PW-094", "TITLE": "2390", "REGION": "Pima County, West", "ASSOCIATION": "USA - Arizona", "POINTS": "2", "BONUSPOINTS": "3"}}, {"type": "Feature", "geometry": {"type": "Point", "coordinates": [-113.1856, 32.0566]}, "properties": {"NAME": "W7A/PW-095", "TITLE": "2375", "REGION": "Pima County, West", "ASSOCIATION": "USA - Arizona", "POINTS": "2", "BONUSPOINTS": "3"}}, {"type": "Feature", "geometry": {"type": "Point", "coordinates": [-112.731, 32.2777]}, "properties": {"NAME": "W7A/PW-096", "TITLE": "2357", "REGION": "Pima County, West", "ASSOCIATION": "USA - Arizona", "POINTS": "2", "BONUSPOINTS": "3"}}, {"type": "Feature", "geometry": {"type": "Point", "coordinates": [-112.7628, 31.9653]}, "properties": {"NAME": "W7A/PW-097", "TITLE": "2321", "REGION": "Pima County, West", "ASSOCIATION": "USA - Arizona", "POINTS": "2", "BONUSPOINTS": "3"}}, {"type": "Feature", "geometry": {"type": "Point", "coordinates": [-112.8505, 31.9439]}, "properties": {"NAME": "W7A/PW-098", "TITLE": "2313", "REGION": "Pima County, West", "ASSOCIATION": "USA - Arizona", "POINTS": "2", "BONUSPOINTS": "3"}}, {"type": "Feature", "geometry": {"type": "Point", "coordinates": [-113.1236, 32.0247]}, "properties": {"NAME": "W7A/PW-099", "TITLE": "2280", "REGION": "Pima County, West", "ASSOCIATION": "USA - Arizona", "POINTS": "2", "BONUSPOINTS": "3"}}, {"type": "Feature", "geometry": {"type": "Point", "coordinates": [-112.9341, 32.1771]}, "properties": {"NAME": "W7A/PW-100", "TITLE": "2192", "REGION": "Pima County, West", "ASSOCIATION": "USA - Arizona", "POINTS": "2", "BONUSPOINTS": "3"}}, {"type": "Feature", "geometry": {"type": "Point", "coordinates": [-113.1206, 32.485]}, "properties": {"NAME": "W7A/PW-101", "TITLE": "2147", "REGION": "Pima County, West", "ASSOCIATION": "USA - Arizona", "POINTS": "2", "BONUSPOINTS": "3"}}, {"type": "Feature", "geometry": {"type": "Point", "coordinates": [-113.2528, 32.0923]}, "properties": {"NAME": "W7A/PW-102", "TITLE": "Papago Mountain", "REGION": "Pima County, West", "ASSOCIATION": "USA - Arizona", "POINTS": "2", "BONUSPOINTS": "3"}}, {"type": "Feature", "geometry": {"type": "Point", "coordinates": [-113.3196, 32.4769]}, "properties": {"NAME": "W7A/PW-103", "TITLE": "Cholla Benchmark", "REGION": "Pima County, West", "ASSOCIATION": "USA - Arizona", "POINTS": "2", "BONUSPOINTS": "3"}}, {"type": "Feature", "geometry": {"type": "Point", "coordinates": [-113.3028, 32.3868]}, "properties": {"NAME": "W7A/PW-104", "TITLE": "2090", "REGION": "Pima County, West", "ASSOCIATION": "USA - Arizona", "POINTS": "2", "BONUSPOINTS": "3"}}, {"type": "Feature", "geometry": {"type": "Point", "coordinates": [-113.2202, 32.1162]}, "properties": {"NAME": "W7A/PW-105", "TITLE": "Sheep Mountain", "REGION": "Pima County, West", "ASSOCIATION": "USA - Arizona", "POINTS": "1", "BONUSPOINTS": "3"}}, {"type": "Feature", "geometry": {"type": "Point", "coordinates": [-113.0292, 31.9912]}, "properties": {"NAME": "W7A/PW-106", "TITLE": "Quitobaquito Hills", "REGION": "Pima County, West", "ASSOCIATION": "USA - Arizona", "POINTS": "1", "BONUSPOINTS": "3"}}, {"type": "Feature", "geometry": {"type": "Point", "coordinates": [-112.9759, 32.1565]}, "properties": {"NAME": "W7A/PW-107", "TITLE": "1850", "REGION": "Pima County, West", "ASSOCIATION": "USA - Arizona", "POINTS": "1", "BONUSPOINTS": "3"}}, {"type": "Feature", "geometry": {"type": "Point", "coordinates": [-113.0392, 31.9853]}, "properties": {"NAME": "W7A/PW-108", "TITLE": "1844", "REGION": "Pima County, West", "ASSOCIATION": "USA - Arizona", "POINTS": "1", "BONUSPOINTS": "3"}}, {"type": "Feature", "geometry": {"type": "Point", "coordinates": [-113.2312, 32.0893]}, "properties": {"NAME": "W7A/PW-109", "TITLE": "1678", "REGION": "Pima County, West", "ASSOCIATION": "USA - Arizona", "POINTS": "1", "BONUSPOINTS": "3"}}, {"type": "Feature", "geometry": {"type": "Point", "coordinates": [-113.2336, 32.0362]}, "properties": {"NAME": "W7A/PW-110", "TITLE": "1630", "REGION": "Pima County, West", "ASSOCIATION": "USA - Arizona", "POINTS": "1", "BONUSPOINTS": "3"}}, {"type": "Feature", "geometry": {"type": "Point", "coordinates": [-113.2545, 32.1256]}, "properties": {"NAME": "W7A/PW-111", "TITLE": "1570", "REGION": "Pima County, West", "ASSOCIATION": "USA - Arizona", "POINTS": "1", "BONUSPOINTS": "3"}}, {"type": "Feature", "geometry": {"type": "Point", "coordinates": [-113.2655, 32.0588]}, "properties": {"NAME": "W7A/PW-112", "TITLE": "1565", "REGION": "Pima County, West", "ASSOCIATION": "USA - Arizona", "POINTS": "1", "BONUSPOINTS": "3"}}, {"type": "Feature", "geometry": {"type": "Point", "coordinates": [-113.2527, 32.2822]}, "properties": {"NAME": "W7A/PW-113", "TITLE": "1550", "REGION": "Pima County, West", "ASSOCIATION": "USA - Arizona", "POINTS": "1", "BONUSPOINTS": "3"}}, {"type": "Feature", "geometry": {"type": "Point", "coordinates": [-113.3021, 32.083]}, "properties": {"NAME": "W7A/PW-114", "TITLE": "1546", "REGION": "Pima County, West", "ASSOCIATION": "USA - Arizona", "POINTS": "1", "BONUSPOINTS": "3"}}, {"type": "Feature", "geometry": {"type": "Point", "coordinates": [-113.2789, 32.1983]}, "properties": {"NAME": "W7A/PW-115", "TITLE": "Antelope Hills", "REGION": "Pima County, West", "ASSOCIATION": "USA - Arizona", "POINTS": "1", "BONUSPOINTS": "3"}}, {"type": "Feature", "geometry": {"type": "Point", "coordinates": [-113.2396, 32.1926]}, "properties": {"NAME": "W7A/PW-116", "TITLE": "1474", "REGION": "Pima County, West", "ASSOCIATION": "USA - Arizona", "POINTS": "1", "BONUSPOINTS": "3"}}, {"type": "Feature", "geometry": {"type": "Point", "coordinates": [-113.2501, 32.3955]}, "properties": {"NAME": "W7A/PW-117", "TITLE": "Tony Benchmark", "REGION": "Pima County, West", "ASSOCIATION": "USA - Arizona", "POINTS": "1", "BONUSPOINTS": "3"}}, {"type": "Feature", "geometry": {"type": "Point", "coordinates": [-112.706, 32.1147]}, "properties": {"NAME": "W7A/PW-118", "TITLE": "Montezuma Head", "REGION": "Pima County, West", "ASSOCIATION": "USA - Arizona", "POINTS": "4", "BONUSPOINTS": "3"}}, {"type": "Feature", "geometry": {"type": "Point", "coordinates": [-112.6243, 32.4225]}, "properties": {"NAME": "W7A/PW-119", "TITLE": "3325", "REGION": "Pima County, West", "ASSOCIATION": "USA - Arizona", "POINTS": "4", "BONUSPOINTS": "3"}}, {"type": "Feature", "geometry": {"type": "Point", "coordinates": [-112.6135, 32.4117]}, "properties": {"NAME": "W7A/PW-120", "TITLE": "3290", "REGION": "Pima County, West", "ASSOCIATION": "USA - Arizona", "POINTS": "4", "BONUSPOINTS": "3"}}, {"type": "Feature", "geometry": {"type": "Point", "coordinates": [-112.2284, 32.4051]}, "properties": {"NAME": "W7A/PW-121", "TITLE": "3050", "REGION": "Pima County, West", "ASSOCIATION": "USA - Arizona", "POINTS": "4", "BONUSPOINTS": "3"}}, {"type": "Feature", "geometry": {"type": "Point", "coordinates": [-112.1063, 32.4536]}, "properties": {"NAME": "W7A/PW-122", "TITLE": "2784", "REGION": "Pima County, West", "ASSOCIATION": "USA - Arizona", "POINTS": "2", "BONUSPOINTS": "3"}}, {"type": "Feature", "geometry": {"type": "Point", "coordinates": [-112.6896, 32.3231]}, "properties": {"NAME": "W7A/PW-123", "TITLE": "2768", "REGION": "Pima County, West", "ASSOCIATION": "USA - Arizona", "POINTS": "2", "BONUSPOINTS": "3"}}, {"type": "Feature", "geometry": {"type": "Point", "coordinates": [-112.6993, 32.2321]}, "properties": {"NAME": "W7A/PW-124", "TITLE": "2608", "REGION": "Pima County, West", "ASSOCIATION": "USA - Arizona", "POINTS": "2", "BONUSPOINTS": "3"}}, {"type": "Feature", "geometry": {"type": "Point", "coordinates": [-112.8495, 32.0117]}, "properties": {"NAME": "W7A/PW-125", "TITLE": "2575", "REGION": "Pima County, West", "ASSOCIATION": "USA - Arizona", "POINTS": "2", "BONUSPOINTS": "3"}}, {"type": "Feature", "geometry": {"type": "Point", "coordinates": [-112.9061, 32.044]}, "properties": {"NAME": "W7A/PW-126", "TITLE": "2263", "REGION": "Pima County, West", "ASSOCIATION": "USA - Arizona", "POINTS": "2", "BONUSPOINTS": "3"}}, {"type": "Feature", "geometry": {"type": "Point", "coordinates": [-113.1889, 32.0785]}, "properties": {"NAME": "W7A/PW-127", "TITLE": "1868", "REGION": "Pima County, West", "ASSOCIATION": "USA - Arizona", "POINTS": "1", "BONUSPOINTS": "3"}}, {"type": "Feature", "geometry": {"type": "Point", "coordinates": [-113.2226, 32.0695]}, "properties": {"NAME": "W7A/PW-128", "TITLE": "1706", "REGION": "Pima County, West", "ASSOCIATION": "USA - Arizona", "POINTS": "1", "BONUSPOINTS": "3"}}]}