{"type": "FeatureCollection", "name": "W7A/GI SUMMITS", "features": [{"type": "Feature", "geometry": {"type": "Point", "coordinates": [-110.9516, 33.8187]}, "properties": {"NAME": "W7A/GI-001", "TITLE": "Carr Mountain", "REGION": "Gila County", "ASSOCIATION": "USA - Arizona", "POINTS": "10", "BONUSPOINTS": "3"}}, {"type": "Feature", "geometry": {"type": "Point", "coordinates": [-111.4656, 34.0357]}, "properties": {"NAME": "W7A/GI-002", "TITLE": "7579", "REGION": "Gila County", "ASSOCIATION": "USA - Arizona", "POINTS": "10", "BONUSPOINTS": "3"}}, {"type": "Feature", "geometry": {"type": "Point", "coordinates": [-111.4718, 34.112]}, "properties": {"NAME": "W7A/GI-003", "TITLE": "7571", "REGION": "Gila County", "ASSOCIATION": "USA - Arizona", "POINTS": "10", "BONUSPOINTS": "3"}}, {"type": "Feature", "geometry": {"type": "Point", "coordinates": [-111.486, 34.1409]}, "properties": {"NAME": "W7A/GI-004", "TITLE": "7455", "REGION": "Gila County", "ASSOCIATION": "USA - Arizona", "POINTS": "8", "BONUSPOINTS": "3"}}, {"type": "Feature", "geometry": {"type": "Point", "coordinates": [-111.4779, 34.151]}, "properties": {"NAME": "W7A/GI-005", "TITLE": "North Peak", "REGION": "Gila County", "ASSOCIATION": "USA - Arizona", "POINTS": "8", "BONUSPOINTS": "3"}}, {"type": "Feature", "geometry": {"type": "Point", "coordinates": [-111.4953, 34.0237]}, "properties": {"NAME": "W7A/GI-006", "TITLE": "7358", "REGION": "Gila County", "ASSOCIATION": "USA - Arizona", "POINTS": "8", "BONUSPOINTS": "3"}}, {"type": "Feature", "geometry": {"type": "Point", "coordinates": [-111.011, 33.8209]}, "properties": {"NAME": "W7A/GI-007", "TITLE": "Armer Mountain", "REGION": "Gila County", "ASSOCIATION": "USA - Arizona", "POINTS": "8", "BONUSPOINTS": "3"}}, {"type": "Feature", "geometry": {"type": "Point", "coordinates": [-110.0101, 33.9336]}, "properties": {"NAME": "W7A/GI-008", "TITLE": "Round Top Mountain", "REGION": "Gila County", "ASSOCIATION": "USA - Arizona", "POINTS": "8", "BONUSPOINTS": "3"}}, {"type": "Feature", "geometry": {"type": "Point", "coordinates": [-110.9357, 34.2702]}, "properties": {"NAME": "W7A/GI-009", "TITLE": "Turkey Peak", "REGION": "Gila County", "ASSOCIATION": "USA - Arizona", "POINTS": "8", "BONUSPOINTS": "3"}}, {"type": "Feature", "geometry": {"type": "Point", "coordinates": [-111.4871, 34.0017]}, "properties": {"NAME": "W7A/GI-010", "TITLE": "Peeley, Mount", "REGION": "Gila County", "ASSOCIATION": "USA - Arizona", "POINTS": "8", "BONUSPOINTS": "3"}}, {"type": "Feature", "geometry": {"type": "Point", "coordinates": [-110.7427, 33.5405]}, "properties": {"NAME": "W7A/GI-011", "TITLE": "Apache Peaks HP", "REGION": "Gila County", "ASSOCIATION": "USA - Arizona", "POINTS": "8", "BONUSPOINTS": "3"}}, {"type": "Feature", "geometry": {"type": "Point", "coordinates": [-110.7847, 33.2832]}, "properties": {"NAME": "W7A/GI-012", "TITLE": "East Mountain", "REGION": "Gila County", "ASSOCIATION": "USA - Arizona", "POINTS": "8", "BONUSPOINTS": "3"}}, {"type": "Feature", "geometry": {"type": "Point", "coordinates": [-110.129, 33.5613]}, "properties": {"NAME": "W7A/GI-013", "TITLE": "Chiricahua Butte", "REGION": "Gila County", "ASSOCIATION": "USA - Arizona", "POINTS": "8", "BONUSPOINTS": "3"}}, {"type": "Feature", "geometry": {"type": "Point", "coordinates": [-111.4892, 34.3824]}, "properties": {"NAME": "W7A/GI-014", "TITLE": "Strawberry Mountain", "REGION": "Gila County", "ASSOCIATION": "USA - Arizona", "POINTS": "8", "BONUSPOINTS": "3"}}, {"type": "Feature", "geometry": {"type": "Point", "coordinates": [-110.9888, 33.9511]}, "properties": {"NAME": "W7A/GI-015", "TITLE": "Pine Mountain", "REGION": "Gila County", "ASSOCIATION": "USA - Arizona", "POINTS": "8", "BONUSPOINTS": "3"}}, {"type": "Feature", "geometry": {"type": "Point", "coordinates": [-111.1195, 33.9279]}, "properties": {"NAME": "W7A/GI-016", "TITLE": "Bear Head Mountain", "REGION": "Gila County", "ASSOCIATION": "USA - Arizona", "POINTS": "8", "BONUSPOINTS": "3"}}, {"type": "Feature", "geometry": {"type": "Point", "coordinates": [-110.3716, 33.5675]}, "properties": {"NAME": "W7A/GI-017", "TITLE": "6638", "REGION": "Gila County", "ASSOCIATION": "USA - Arizona", "POINTS": "8", "BONUSPOINTS": "3"}}, {"type": "Feature", "geometry": {"type": "Point", "coordinates": [-110.2701, 33.5921]}, "properties": {"NAME": "W7A/GI-018", "TITLE": "6591", "REGION": "Gila County", "ASSOCIATION": "USA - Arizona", "POINTS": "8", "BONUSPOINTS": "3"}}, {"type": "Feature", "geometry": {"type": "Point", "coordinates": [-110.838, 34.1137]}, "properties": {"NAME": "W7A/GI-019", "TITLE": "Gentry Mountain", "REGION": "Gila County", "ASSOCIATION": "USA - Arizona", "POINTS": "8", "BONUSPOINTS": "3"}}, {"type": "Feature", "geometry": {"type": "Point", "coordinates": [-110.091, 33.8176]}, "properties": {"NAME": "W7A/GI-020", "TITLE": "Sawtooth Mountain", "REGION": "Gila County", "ASSOCIATION": "USA - Arizona", "POINTS": "8", "BONUSPOINTS": "3"}}, {"type": "Feature", "geometry": {"type": "Point", "coordinates": [-110.7562, 33.2001]}, "properties": {"NAME": "W7A/GI-021", "TITLE": "El Capitan Mountain", "REGION": "Gila County", "ASSOCIATION": "USA - Arizona", "POINTS": "8", "BONUSPOINTS": "3"}}, {"type": "Feature", "geometry": {"type": "Point", "coordinates": [-111.0789, 33.8816]}, "properties": {"NAME": "W7A/GI-022", "TITLE": "Greenback Peak", "REGION": "Gila County", "ASSOCIATION": "USA - Arizona", "POINTS": "8", "BONUSPOINTS": "3"}}, {"type": "Feature", "geometry": {"type": "Point", "coordinates": [-110.9811, 33.8565]}, "properties": {"NAME": "W7A/GI-023", "TITLE": "Jack Mountain", "REGION": "Gila County", "ASSOCIATION": "USA - Arizona", "POINTS": "8", "BONUSPOINTS": "3"}}, {"type": "Feature", "geometry": {"type": "Point", "coordinates": [-110.5943, 33.6556]}, "properties": {"NAME": "W7A/GI-024", "TITLE": "Timber Camp Mountain", "REGION": "Gila County", "ASSOCIATION": "USA - Arizona", "POINTS": "8", "BONUSPOINTS": "3"}}, {"type": "Feature", "geometry": {"type": "Point", "coordinates": [-110.4132, 33.6579]}, "properties": {"NAME": "W7A/GI-025", "TITLE": "Spur Benchmark", "REGION": "Gila County", "ASSOCIATION": "USA - Arizona", "POINTS": "8", "BONUSPOINTS": "3"}}, {"type": "Feature", "geometry": {"type": "Point", "coordinates": [-110.2299, 33.6568]}, "properties": {"NAME": "W7A/GI-026", "TITLE": "Pack Benchmark", "REGION": "Gila County", "ASSOCIATION": "USA - Arizona", "POINTS": "8", "BONUSPOINTS": "0"}}, {"type": "Feature", "geometry": {"type": "Point", "coordinates": [-111.5232, 34.1592]}, "properties": {"NAME": "W7A/GI-027", "TITLE": "6483", "REGION": "Gila County", "ASSOCIATION": "USA - Arizona", "POINTS": "8", "BONUSPOINTS": "0"}}, {"type": "Feature", "geometry": {"type": "Point", "coordinates": [-110.8569, 34.0552]}, "properties": {"NAME": "W7A/GI-028", "TITLE": "Catholic Peak", "REGION": "Gila County", "ASSOCIATION": "USA - Arizona", "POINTS": "8", "BONUSPOINTS": "0"}}, {"type": "Feature", "geometry": {"type": "Point", "coordinates": [-110.9963, 34.2292]}, "properties": {"NAME": "W7A/GI-029", "TITLE": "Oxbow Mountain", "REGION": "Gila County", "ASSOCIATION": "USA - Arizona", "POINTS": "8", "BONUSPOINTS": "0"}}, {"type": "Feature", "geometry": {"type": "Point", "coordinates": [-110.5788, 33.9812]}, "properties": {"NAME": "W7A/GI-030", "TITLE": "Blue House Mountain", "REGION": "Gila County", "ASSOCIATION": "USA - Arizona", "POINTS": "8", "BONUSPOINTS": "0"}}, {"type": "Feature", "geometry": {"type": "Point", "coordinates": [-110.535, 33.9355]}, "properties": {"NAME": "W7A/GI-031", "TITLE": "Bear Mountain", "REGION": "Gila County", "ASSOCIATION": "USA - Arizona", "POINTS": "8", "BONUSPOINTS": "0"}}, {"type": "Feature", "geometry": {"type": "Point", "coordinates": [-110.7626, 33.8568]}, "properties": {"NAME": "W7A/GI-032", "TITLE": "Mustang Ridge", "REGION": "Gila County", "ASSOCIATION": "USA - Arizona", "POINTS": "8", "BONUSPOINTS": "0"}}, {"type": "Feature", "geometry": {"type": "Point", "coordinates": [-110.5833, 33.5988]}, "properties": {"NAME": "W7A/GI-033", "TITLE": "Sevenmile Mountains HP", "REGION": "Gila County", "ASSOCIATION": "USA - Arizona", "POINTS": "8", "BONUSPOINTS": "0"}}, {"type": "Feature", "geometry": {"type": "Point", "coordinates": [-111.4359, 33.987]}, "properties": {"NAME": "W7A/GI-034", "TITLE": "Pine Butte", "REGION": "Gila County", "ASSOCIATION": "USA - Arizona", "POINTS": "8", "BONUSPOINTS": "0"}}, {"type": "Feature", "geometry": {"type": "Point", "coordinates": [-110.783, 33.8467]}, "properties": {"NAME": "W7A/GI-035", "TITLE": "Sombrero Peak", "REGION": "Gila County", "ASSOCIATION": "USA - Arizona", "POINTS": "8", "BONUSPOINTS": "0"}}, {"type": "Feature", "geometry": {"type": "Point", "coordinates": [-110.8322, 33.9288]}, "properties": {"NAME": "W7A/GI-036", "TITLE": "Brush Benchmark", "REGION": "Gila County", "ASSOCIATION": "USA - Arizona", "POINTS": "8", "BONUSPOINTS": "0"}}, {"type": "Feature", "geometry": {"type": "Point", "coordinates": [-110.8386, 33.9489]}, "properties": {"NAME": "W7A/GI-037", "TITLE": "Castle Peak", "REGION": "Gila County", "ASSOCIATION": "USA - Arizona", "POINTS": "8", "BONUSPOINTS": "0"}}, {"type": "Feature", "geometry": {"type": "Point", "coordinates": [-111.4491, 34.0002]}, "properties": {"NAME": "W7A/GI-038", "TITLE": "Whitetail Peak", "REGION": "Gila County", "ASSOCIATION": "USA - Arizona", "POINTS": "8", "BONUSPOINTS": "0"}}, {"type": "Feature", "geometry": {"type": "Point", "coordinates": [-111.1454, 34.065]}, "properties": {"NAME": "W7A/GI-039", "TITLE": "Breadpan Mountain", "REGION": "Gila County", "ASSOCIATION": "USA - Arizona", "POINTS": "8", "BONUSPOINTS": "0"}}, {"type": "Feature", "geometry": {"type": "Point", "coordinates": [-111.1093, 34.1575]}, "properties": {"NAME": "W7A/GI-040", "TITLE": "Diamond Butte", "REGION": "Gila County", "ASSOCIATION": "USA - Arizona", "POINTS": "8", "BONUSPOINTS": "0"}}, {"type": "Feature", "geometry": {"type": "Point", "coordinates": [-110.4253, 33.9119]}, "properties": {"NAME": "W7A/GI-041", "TITLE": "6311", "REGION": "Gila County", "ASSOCIATION": "USA - Arizona", "POINTS": "8", "BONUSPOINTS": "0"}}, {"type": "Feature", "geometry": {"type": "Point", "coordinates": [-110.0459, 33.6009]}, "properties": {"NAME": "W7A/GI-042", "TITLE": "Georges Butte", "REGION": "Gila County", "ASSOCIATION": "USA - Arizona", "POINTS": "8", "BONUSPOINTS": "0"}}, {"type": "Feature", "geometry": {"type": "Point", "coordinates": [-110.8573, 33.944]}, "properties": {"NAME": "W7A/GI-043", "TITLE": "Gunsight Butte", "REGION": "Gila County", "ASSOCIATION": "USA - Arizona", "POINTS": "8", "BONUSPOINTS": "0"}}, {"type": "Feature", "geometry": {"type": "Point", "coordinates": [-110.1996, 33.6185]}, "properties": {"NAME": "W7A/GI-044", "TITLE": "6274", "REGION": "Gila County", "ASSOCIATION": "USA - Arizona", "POINTS": "8", "BONUSPOINTS": "0"}}, {"type": "Feature", "geometry": {"type": "Point", "coordinates": [-110.9732, 34.1418]}, "properties": {"NAME": "W7A/GI-045", "TITLE": "Spirit Peak", "REGION": "Gila County", "ASSOCIATION": "USA - Arizona", "POINTS": "8", "BONUSPOINTS": "0"}}, {"type": "Feature", "geometry": {"type": "Point", "coordinates": [-111.2121, 34.0298]}, "properties": {"NAME": "W7A/GI-046", "TITLE": "Sheep Basin Mountain", "REGION": "Gila County", "ASSOCIATION": "USA - Arizona", "POINTS": "8", "BONUSPOINTS": "0"}}, {"type": "Feature", "geometry": {"type": "Point", "coordinates": [-111.3863, 33.7522]}, "properties": {"NAME": "W7A/GI-047", "TITLE": "Rock Pile Peak", "REGION": "Gila County", "ASSOCIATION": "USA - Arizona", "POINTS": "8", "BONUSPOINTS": "0"}}, {"type": "Feature", "geometry": {"type": "Point", "coordinates": [-110.3447, 33.8778]}, "properties": {"NAME": "W7A/GI-048", "TITLE": "Cow Pasture Butte", "REGION": "Gila County", "ASSOCIATION": "USA - Arizona", "POINTS": "8", "BONUSPOINTS": "0"}}, {"type": "Feature", "geometry": {"type": "Point", "coordinates": [-111.1612, 34.2549]}, "properties": {"NAME": "W7A/GI-049", "TITLE": "Green Valley Hills", "REGION": "Gila County", "ASSOCIATION": "USA - Arizona", "POINTS": "8", "BONUSPOINTS": "0"}}, {"type": "Feature", "geometry": {"type": "Point", "coordinates": [-110.7954, 33.8722]}, "properties": {"NAME": "W7A/GI-050", "TITLE": "6208", "REGION": "Gila County", "ASSOCIATION": "USA - Arizona", "POINTS": "8", "BONUSPOINTS": "0"}}, {"type": "Feature", "geometry": {"type": "Point", "coordinates": [-110.6457, 33.9005]}, "properties": {"NAME": "W7A/GI-051", "TITLE": "Canyon Benchmark", "REGION": "Gila County", "ASSOCIATION": "USA - Arizona", "POINTS": "8", "BONUSPOINTS": "0"}}, {"type": "Feature", "geometry": {"type": "Point", "coordinates": [-110.8527, 33.9581]}, "properties": {"NAME": "W7A/GI-052", "TITLE": "6202", "REGION": "Gila County", "ASSOCIATION": "USA - Arizona", "POINTS": "8", "BONUSPOINTS": "0"}}, {"type": "Feature", "geometry": {"type": "Point", "coordinates": [-111.009, 34.0889]}, "properties": {"NAME": "W7A/GI-053", "TITLE": "Potato Butte", "REGION": "Gila County", "ASSOCIATION": "USA - Arizona", "POINTS": "8", "BONUSPOINTS": "0"}}, {"type": "Feature", "geometry": {"type": "Point", "coordinates": [-110.4192, 33.7314]}, "properties": {"NAME": "W7A/GI-054", "TITLE": "6167", "REGION": "Gila County", "ASSOCIATION": "USA - Arizona", "POINTS": "8", "BONUSPOINTS": "0"}}, {"type": "Feature", "geometry": {"type": "Point", "coordinates": [-111.3081, 34.3479]}, "properties": {"NAME": "W7A/GI-055", "TITLE": "Little Diamond Rim", "REGION": "Gila County", "ASSOCIATION": "USA - Arizona", "POINTS": "8", "BONUSPOINTS": "0"}}, {"type": "Feature", "geometry": {"type": "Point", "coordinates": [-110.5645, 33.581]}, "properties": {"NAME": "W7A/GI-056", "TITLE": "6140", "REGION": "Gila County", "ASSOCIATION": "USA - Arizona", "POINTS": "8", "BONUSPOINTS": "0"}}, {"type": "Feature", "geometry": {"type": "Point", "coordinates": [-110.1953, 33.8898]}, "properties": {"NAME": "W7A/GI-057", "TITLE": "Silver Butte", "REGION": "Gila County", "ASSOCIATION": "USA - Arizona", "POINTS": "8", "BONUSPOINTS": "0"}}, {"type": "Feature", "geometry": {"type": "Point", "coordinates": [-110.1118, 33.7853]}, "properties": {"NAME": "W7A/GI-058", "TITLE": "Kelly Butte", "REGION": "Gila County", "ASSOCIATION": "USA - Arizona", "POINTS": "8", "BONUSPOINTS": "0"}}, {"type": "Feature", "geometry": {"type": "Point", "coordinates": [-110.6136, 33.6258]}, "properties": {"NAME": "W7A/GI-059", "TITLE": "Jackson Butte", "REGION": "Gila County", "ASSOCIATION": "USA - Arizona", "POINTS": "8", "BONUSPOINTS": "0"}}, {"type": "Feature", "geometry": {"type": "Point", "coordinates": [-110.9901, 33.871]}, "properties": {"NAME": "W7A/GI-060", "TITLE": "6076", "REGION": "Gila County", "ASSOCIATION": "USA - Arizona", "POINTS": "8", "BONUSPOINTS": "0"}}, {"type": "Feature", "geometry": {"type": "Point", "coordinates": [-110.7888, 34.0364]}, "properties": {"NAME": "W7A/GI-061", "TITLE": "6060", "REGION": "Gila County", "ASSOCIATION": "USA - Arizona", "POINTS": "8", "BONUSPOINTS": "0"}}, {"type": "Feature", "geometry": {"type": "Point", "coordinates": [-111.4333, 34.0231]}, "properties": {"NAME": "W7A/GI-062", "TITLE": "5976", "REGION": "Gila County", "ASSOCIATION": "USA - Arizona", "POINTS": "6", "BONUSPOINTS": "0"}}, {"type": "Feature", "geometry": {"type": "Point", "coordinates": [-111.3959, 33.8449]}, "properties": {"NAME": "W7A/GI-063", "TITLE": "Cypress Peak", "REGION": "Gila County", "ASSOCIATION": "USA - Arizona", "POINTS": "6", "BONUSPOINTS": "0"}}, {"type": "Feature", "geometry": {"type": "Point", "coordinates": [-111.0337, 34.0006]}, "properties": {"NAME": "W7A/GI-064", "TITLE": "Jerky Butte", "REGION": "Gila County", "ASSOCIATION": "USA - Arizona", "POINTS": "6", "BONUSPOINTS": "0"}}, {"type": "Feature", "geometry": {"type": "Point", "coordinates": [-110.4719, 33.5991]}, "properties": {"NAME": "W7A/GI-065", "TITLE": "5868", "REGION": "Gila County", "ASSOCIATION": "USA - Arizona", "POINTS": "6", "BONUSPOINTS": "0"}}, {"type": "Feature", "geometry": {"type": "Point", "coordinates": [-111.2701, 34.1992]}, "properties": {"NAME": "W7A/GI-066", "TITLE": "Gibson Peak", "REGION": "Gila County", "ASSOCIATION": "USA - Arizona", "POINTS": "6", "BONUSPOINTS": "0"}}, {"type": "Feature", "geometry": {"type": "Point", "coordinates": [-111.3597, 33.8307]}, "properties": {"NAME": "W7A/GI-067", "TITLE": "Edwards Peak", "REGION": "Gila County", "ASSOCIATION": "USA - Arizona", "POINTS": "6", "BONUSPOINTS": "0"}}, {"type": "Feature", "geometry": {"type": "Point", "coordinates": [-110.2232, 33.5109]}, "properties": {"NAME": "W7A/GI-068", "TITLE": "5780", "REGION": "Gila County", "ASSOCIATION": "USA - Arizona", "POINTS": "6", "BONUSPOINTS": "0"}}, {"type": "Feature", "geometry": {"type": "Point", "coordinates": [-110.9449, 33.4523]}, "properties": {"NAME": "W7A/GI-069", "TITLE": "Webster Mountain", "REGION": "Gila County", "ASSOCIATION": "USA - Arizona", "POINTS": "6", "BONUSPOINTS": "0"}}, {"type": "Feature", "geometry": {"type": "Point", "coordinates": [-110.6939, 33.5043]}, "properties": {"NAME": "W7A/GI-070", "TITLE": "Chrome Butte", "REGION": "Gila County", "ASSOCIATION": "USA - Arizona", "POINTS": "6", "BONUSPOINTS": "0"}}, {"type": "Feature", "geometry": {"type": "Point", "coordinates": [-110.9182, 33.9869]}, "properties": {"NAME": "W7A/GI-071", "TITLE": "Cow Flat Mountain", "REGION": "Gila County", "ASSOCIATION": "USA - Arizona", "POINTS": "6", "BONUSPOINTS": "0"}}, {"type": "Feature", "geometry": {"type": "Point", "coordinates": [-111.1169, 33.823]}, "properties": {"NAME": "W7A/GI-072", "TITLE": "Chubb Mountain", "REGION": "Gila County", "ASSOCIATION": "USA - Arizona", "POINTS": "6", "BONUSPOINTS": "0"}}, {"type": "Feature", "geometry": {"type": "Point", "coordinates": [-110.6369, 33.254]}, "properties": {"NAME": "W7A/GI-073", "TITLE": "Hog Mountain West", "REGION": "Gila County", "ASSOCIATION": "USA - Arizona", "POINTS": "6", "BONUSPOINTS": "0"}}, {"type": "Feature", "geometry": {"type": "Point", "coordinates": [-110.6372, 33.7241]}, "properties": {"NAME": "W7A/GI-074", "TITLE": "Haystack Butte", "REGION": "Gila County", "ASSOCIATION": "USA - Arizona", "POINTS": "6", "BONUSPOINTS": "0"}}, {"type": "Feature", "geometry": {"type": "Point", "coordinates": [-110.7507, 33.9419]}, "properties": {"NAME": "W7A/GI-075", "TITLE": "Double Buttes West", "REGION": "Gila County", "ASSOCIATION": "USA - Arizona", "POINTS": "6", "BONUSPOINTS": "0"}}, {"type": "Feature", "geometry": {"type": "Point", "coordinates": [-110.6167, 33.2587]}, "properties": {"NAME": "W7A/GI-076", "TITLE": "Hog Mountain East", "REGION": "Gila County", "ASSOCIATION": "USA - Arizona", "POINTS": "6", "BONUSPOINTS": "0"}}, {"type": "Feature", "geometry": {"type": "Point", "coordinates": [-110.606, 33.7335]}, "properties": {"NAME": "W7A/GI-077", "TITLE": "5659", "REGION": "Gila County", "ASSOCIATION": "USA - Arizona", "POINTS": "6", "BONUSPOINTS": "0"}}, {"type": "Feature", "geometry": {"type": "Point", "coordinates": [-110.2828, 33.5379]}, "properties": {"NAME": "W7A/GI-078", "TITLE": "5643", "REGION": "Gila County", "ASSOCIATION": "USA - Arizona", "POINTS": "6", "BONUSPOINTS": "0"}}, {"type": "Feature", "geometry": {"type": "Point", "coordinates": [-110.5782, 33.5574]}, "properties": {"NAME": "W7A/GI-079", "TITLE": "5633", "REGION": "Gila County", "ASSOCIATION": "USA - Arizona", "POINTS": "6", "BONUSPOINTS": "0"}}, {"type": "Feature", "geometry": {"type": "Point", "coordinates": [-111.1851, 34.1362]}, "properties": {"NAME": "W7A/GI-080", "TITLE": "McDonald Mountain", "REGION": "Gila County", "ASSOCIATION": "USA - Arizona", "POINTS": "6", "BONUSPOINTS": "0"}}, {"type": "Feature", "geometry": {"type": "Point", "coordinates": [-110.4939, 33.5967]}, "properties": {"NAME": "W7A/GI-081", "TITLE": "5590", "REGION": "Gila County", "ASSOCIATION": "USA - Arizona", "POINTS": "6", "BONUSPOINTS": "0"}}, {"type": "Feature", "geometry": {"type": "Point", "coordinates": [-110.3212, 33.5434]}, "properties": {"NAME": "W7A/GI-082", "TITLE": "5563", "REGION": "Gila County", "ASSOCIATION": "USA - Arizona", "POINTS": "6", "BONUSPOINTS": "0"}}, {"type": "Feature", "geometry": {"type": "Point", "coordinates": [-111.1654, 33.8617]}, "properties": {"NAME": "W7A/GI-083", "TITLE": "Boneyback Peak", "REGION": "Gila County", "ASSOCIATION": "USA - Arizona", "POINTS": "6", "BONUSPOINTS": "0"}}, {"type": "Feature", "geometry": {"type": "Point", "coordinates": [-110.6258, 33.2343]}, "properties": {"NAME": "W7A/GI-084", "TITLE": "5532", "REGION": "Gila County", "ASSOCIATION": "USA - Arizona", "POINTS": "6", "BONUSPOINTS": "0"}}, {"type": "Feature", "geometry": {"type": "Point", "coordinates": [-110.9027, 33.7632]}, "properties": {"NAME": "W7A/GI-085", "TITLE": "Coon Creek Butte", "REGION": "Gila County", "ASSOCIATION": "USA - Arizona", "POINTS": "6", "BONUSPOINTS": "0"}}, {"type": "Feature", "geometry": {"type": "Point", "coordinates": [-110.799, 33.227]}, "properties": {"NAME": "W7A/GI-086", "TITLE": "Old Baldy", "REGION": "Gila County", "ASSOCIATION": "USA - Arizona", "POINTS": "6", "BONUSPOINTS": "0"}}, {"type": "Feature", "geometry": {"type": "Point", "coordinates": [-110.9747, 33.3422]}, "properties": {"NAME": "W7A/GI-087", "TITLE": "Five Point Mountain", "REGION": "Gila County", "ASSOCIATION": "USA - Arizona", "POINTS": "6", "BONUSPOINTS": "0"}}, {"type": "Feature", "geometry": {"type": "Point", "coordinates": [-111.2271, 34.1106]}, "properties": {"NAME": "W7A/GI-088", "TITLE": "Neal Mountain", "REGION": "Gila County", "ASSOCIATION": "USA - Arizona", "POINTS": "6", "BONUSPOINTS": "0"}}, {"type": "Feature", "geometry": {"type": "Point", "coordinates": [-111.1275, 33.7992]}, "properties": {"NAME": "W7A/GI-089", "TITLE": "Salome Mountain", "REGION": "Gila County", "ASSOCIATION": "USA - Arizona", "POINTS": "6", "BONUSPOINTS": "0"}}, {"type": "Feature", "geometry": {"type": "Point", "coordinates": [-110.2134, 33.7255]}, "properties": {"NAME": "W7A/GI-090", "TITLE": "Forks Butte", "REGION": "Gila County", "ASSOCIATION": "USA - Arizona", "POINTS": "6", "BONUSPOINTS": "0"}}, {"type": "Feature", "geometry": {"type": "Point", "coordinates": [-110.8168, 33.6013]}, "properties": {"NAME": "W7A/GI-091", "TITLE": "Rockinstraw Mountain", "REGION": "Gila County", "ASSOCIATION": "USA - Arizona", "POINTS": "6", "BONUSPOINTS": "0"}}, {"type": "Feature", "geometry": {"type": "Point", "coordinates": [-111.1302, 34.2063]}, "properties": {"NAME": "W7A/GI-092", "TITLE": "5380", "REGION": "Gila County", "ASSOCIATION": "USA - Arizona", "POINTS": "6", "BONUSPOINTS": "0"}}, {"type": "Feature", "geometry": {"type": "Point", "coordinates": [-111.2038, 34.0856]}, "properties": {"NAME": "W7A/GI-093", "TITLE": "Reef Ridge", "REGION": "Gila County", "ASSOCIATION": "USA - Arizona", "POINTS": "6", "BONUSPOINTS": "0"}}, {"type": "Feature", "geometry": {"type": "Point", "coordinates": [-110.4433, 33.5664]}, "properties": {"NAME": "W7A/GI-094", "TITLE": "5367", "REGION": "Gila County", "ASSOCIATION": "USA - Arizona", "POINTS": "6", "BONUSPOINTS": "0"}}, {"type": "Feature", "geometry": {"type": "Point", "coordinates": [-110.619, 33.6056]}, "properties": {"NAME": "W7A/GI-095", "TITLE": "Rock Springs Butte", "REGION": "Gila County", "ASSOCIATION": "USA - Arizona", "POINTS": "6", "BONUSPOINTS": "0"}}, {"type": "Feature", "geometry": {"type": "Point", "coordinates": [-111.163, 34.1529]}, "properties": {"NAME": "W7A/GI-096", "TITLE": "5361", "REGION": "Gila County", "ASSOCIATION": "USA - Arizona", "POINTS": "6", "BONUSPOINTS": "0"}}, {"type": "Feature", "geometry": {"type": "Point", "coordinates": [-110.6143, 33.2065]}, "properties": {"NAME": "W7A/GI-097", "TITLE": "Hayes Mountains South", "REGION": "Gila County", "ASSOCIATION": "USA - Arizona", "POINTS": "6", "BONUSPOINTS": "0"}}, {"type": "Feature", "geometry": {"type": "Point", "coordinates": [-110.5336, 33.8034]}, "properties": {"NAME": "W7A/GI-098", "TITLE": "Salt Benchmark", "REGION": "Gila County", "ASSOCIATION": "USA - Arizona", "POINTS": "6", "BONUSPOINTS": "0"}}, {"type": "Feature", "geometry": {"type": "Point", "coordinates": [-110.487, 33.5787]}, "properties": {"NAME": "W7A/GI-099", "TITLE": "5192", "REGION": "Gila County", "ASSOCIATION": "USA - Arizona", "POINTS": "6", "BONUSPOINTS": "0"}}, {"type": "Feature", "geometry": {"type": "Point", "coordinates": [-110.886, 33.4555]}, "properties": {"NAME": "W7A/GI-100", "TITLE": "Sleeping Beauty Peak", "REGION": "Gila County", "ASSOCIATION": "USA - Arizona", "POINTS": "6", "BONUSPOINTS": "0"}}, {"type": "Feature", "geometry": {"type": "Point", "coordinates": [-111.0619, 33.5205]}, "properties": {"NAME": "W7A/GI-101", "TITLE": "Granite Mountain", "REGION": "Gila County", "ASSOCIATION": "USA - Arizona", "POINTS": "6", "BONUSPOINTS": "0"}}, {"type": "Feature", "geometry": {"type": "Point", "coordinates": [-110.8343, 33.2148]}, "properties": {"NAME": "W7A/GI-102", "TITLE": "Pasadera Mountain", "REGION": "Gila County", "ASSOCIATION": "USA - Arizona", "POINTS": "6", "BONUSPOINTS": "0"}}, {"type": "Feature", "geometry": {"type": "Point", "coordinates": [-110.1961, 33.4567]}, "properties": {"NAME": "W7A/GI-103", "TITLE": "5096", "REGION": "Gila County", "ASSOCIATION": "USA - Arizona", "POINTS": "6", "BONUSPOINTS": "0"}}, {"type": "Feature", "geometry": {"type": "Point", "coordinates": [-110.6722, 33.1522]}, "properties": {"NAME": "W7A/GI-104", "TITLE": "Mescal Benchmark", "REGION": "Gila County", "ASSOCIATION": "USA - Arizona", "POINTS": "6", "BONUSPOINTS": "0"}}, {"type": "Feature", "geometry": {"type": "Point", "coordinates": [-110.7812, 33.4617]}, "properties": {"NAME": "W7A/GI-105", "TITLE": "Ramboz Peak", "REGION": "Gila County", "ASSOCIATION": "USA - Arizona", "POINTS": "6", "BONUSPOINTS": "0"}}, {"type": "Feature", "geometry": {"type": "Point", "coordinates": [-111.1029, 33.7734]}, "properties": {"NAME": "W7A/GI-106", "TITLE": "Dutchwoman Butte", "REGION": "Gila County", "ASSOCIATION": "USA - Arizona", "POINTS": "6", "BONUSPOINTS": "0"}}, {"type": "Feature", "geometry": {"type": "Point", "coordinates": [-110.8634, 33.2158]}, "properties": {"NAME": "W7A/GI-107", "TITLE": "5058", "REGION": "Gila County", "ASSOCIATION": "USA - Arizona", "POINTS": "6", "BONUSPOINTS": "0"}}, {"type": "Feature", "geometry": {"type": "Point", "coordinates": [-110.9329, 33.3894]}, "properties": {"NAME": "W7A/GI-108", "TITLE": "Needle Mountain", "REGION": "Gila County", "ASSOCIATION": "USA - Arizona", "POINTS": "6", "BONUSPOINTS": "0"}}, {"type": "Feature", "geometry": {"type": "Point", "coordinates": [-110.589, 33.2935]}, "properties": {"NAME": "W7A/GI-109", "TITLE": "4980", "REGION": "Gila County", "ASSOCIATION": "USA - Arizona", "POINTS": "6", "BONUSPOINTS": "0"}}, {"type": "Feature", "geometry": {"type": "Point", "coordinates": [-110.6713, 33.4751]}, "properties": {"NAME": "W7A/GI-110", "TITLE": "4952", "REGION": "Gila County", "ASSOCIATION": "USA - Arizona", "POINTS": "6", "BONUSPOINTS": "0"}}, {"type": "Feature", "geometry": {"type": "Point", "coordinates": [-110.6474, 33.1874]}, "properties": {"NAME": "W7A/GI-111", "TITLE": "4894", "REGION": "Gila County", "ASSOCIATION": "USA - Arizona", "POINTS": "6", "BONUSPOINTS": "0"}}, {"type": "Feature", "geometry": {"type": "Point", "coordinates": [-110.7632, 33.6556]}, "properties": {"NAME": "W7A/GI-112", "TITLE": "Jump Benchmark", "REGION": "Gila County", "ASSOCIATION": "USA - Arizona", "POINTS": "6", "BONUSPOINTS": "0"}}, {"type": "Feature", "geometry": {"type": "Point", "coordinates": [-110.9152, 33.5475]}, "properties": {"NAME": "W7A/GI-113", "TITLE": "Salt River Peak", "REGION": "Gila County", "ASSOCIATION": "USA - Arizona", "POINTS": "6", "BONUSPOINTS": "0"}}, {"type": "Feature", "geometry": {"type": "Point", "coordinates": [-110.7073, 33.6706]}, "properties": {"NAME": "W7A/GI-114", "TITLE": "Blackjack Mountain South", "REGION": "Gila County", "ASSOCIATION": "USA - Arizona", "POINTS": "6", "BONUSPOINTS": "0"}}, {"type": "Feature", "geometry": {"type": "Point", "coordinates": [-110.7667, 33.4372]}, "properties": {"NAME": "W7A/GI-115", "TITLE": "Black Peak", "REGION": "Gila County", "ASSOCIATION": "USA - Arizona", "POINTS": "6", "BONUSPOINTS": "0"}}, {"type": "Feature", "geometry": {"type": "Point", "coordinates": [-110.8633, 33.5649]}, "properties": {"NAME": "W7A/GI-116", "TITLE": "Squaw Peak", "REGION": "Gila County", "ASSOCIATION": "USA - Arizona", "POINTS": "6", "BONUSPOINTS": "0"}}, {"type": "Feature", "geometry": {"type": "Point", "coordinates": [-110.6523, 33.2861]}, "properties": {"NAME": "W7A/GI-117", "TITLE": "4779", "REGION": "Gila County", "ASSOCIATION": "USA - Arizona", "POINTS": "6", "BONUSPOINTS": "0"}}, {"type": "Feature", "geometry": {"type": "Point", "coordinates": [-110.5041, 33.5765]}, "properties": {"NAME": "W7A/GI-118", "TITLE": "4770", "REGION": "Gila County", "ASSOCIATION": "USA - Arizona", "POINTS": "6", "BONUSPOINTS": "0"}}, {"type": "Feature", "geometry": {"type": "Point", "coordinates": [-110.3748, 33.8105]}, "properties": {"NAME": "W7A/GI-119", "TITLE": "4768", "REGION": "Gila County", "ASSOCIATION": "USA - Arizona", "POINTS": "6", "BONUSPOINTS": "0"}}, {"type": "Feature", "geometry": {"type": "Point", "coordinates": [-111.0309, 33.5308]}, "properties": {"NAME": "W7A/GI-120", "TITLE": "Nonesuch Rocks", "REGION": "Gila County", "ASSOCIATION": "USA - Arizona", "POINTS": "6", "BONUSPOINTS": "0"}}, {"type": "Feature", "geometry": {"type": "Point", "coordinates": [-110.7571, 33.4265]}, "properties": {"NAME": "W7A/GI-121", "TITLE": "Buckeye Mountain", "REGION": "Gila County", "ASSOCIATION": "USA - Arizona", "POINTS": "6", "BONUSPOINTS": "0"}}, {"type": "Feature", "geometry": {"type": "Point", "coordinates": [-110.7998, 33.0824]}, "properties": {"NAME": "W7A/GI-122", "TITLE": "4676", "REGION": "Gila County", "ASSOCIATION": "USA - Arizona", "POINTS": "6", "BONUSPOINTS": "0"}}, {"type": "Feature", "geometry": {"type": "Point", "coordinates": [-110.815, 33.0888]}, "properties": {"NAME": "W7A/GI-123", "TITLE": "Tam O'Shanter Peak", "REGION": "Gila County", "ASSOCIATION": "USA - Arizona", "POINTS": "6", "BONUSPOINTS": "0"}}, {"type": "Feature", "geometry": {"type": "Point", "coordinates": [-110.6321, 33.4523]}, "properties": {"NAME": "W7A/GI-124", "TITLE": "Granite Butte", "REGION": "Gila County", "ASSOCIATION": "USA - Arizona", "POINTS": "6", "BONUSPOINTS": "0"}}, {"type": "Feature", "geometry": {"type": "Point", "coordinates": [-110.8672, 33.6112]}, "properties": {"NAME": "W7A/GI-125", "TITLE": "Redmond Mountain", "REGION": "Gila County", "ASSOCIATION": "USA - Arizona", "POINTS": "6", "BONUSPOINTS": "0"}}, {"type": "Feature", "geometry": {"type": "Point", "coordinates": [-110.6387, 33.8001]}, "properties": {"NAME": "W7A/GI-126", "TITLE": "4568", "REGION": "Gila County", "ASSOCIATION": "USA - Arizona", "POINTS": "6", "BONUSPOINTS": "0"}}, {"type": "Feature", "geometry": {"type": "Point", "coordinates": [-110.4682, 33.8028]}, "properties": {"NAME": "W7A/GI-127", "TITLE": "4561", "REGION": "Gila County", "ASSOCIATION": "USA - Arizona", "POINTS": "6", "BONUSPOINTS": "0"}}, {"type": "Feature", "geometry": {"type": "Point", "coordinates": [-111.0306, 33.5094]}, "properties": {"NAME": "W7A/GI-128", "TITLE": "Apache Hill", "REGION": "Gila County", "ASSOCIATION": "USA - Arizona", "POINTS": "6", "BONUSPOINTS": "0"}}, {"type": "Feature", "geometry": {"type": "Point", "coordinates": [-111.2369, 34.145]}, "properties": {"NAME": "W7A/GI-129", "TITLE": "Squaw Nest Mountain", "REGION": "Gila County", "ASSOCIATION": "USA - Arizona", "POINTS": "6", "BONUSPOINTS": "0"}}, {"type": "Feature", "geometry": {"type": "Point", "coordinates": [-110.8323, 33.1097]}, "properties": {"NAME": "W7A/GI-130", "TITLE": "4500", "REGION": "Gila County", "ASSOCIATION": "USA - Arizona", "POINTS": "6", "BONUSPOINTS": "0"}}, {"type": "Feature", "geometry": {"type": "Point", "coordinates": [-110.7848, 33.0553]}, "properties": {"NAME": "W7A/GI-131", "TITLE": "Tornado Peak", "REGION": "Gila County", "ASSOCIATION": "USA - Arizona", "POINTS": "4", "BONUSPOINTS": "0"}}, {"type": "Feature", "geometry": {"type": "Point", "coordinates": [-110.9321, 33.5292]}, "properties": {"NAME": "W7A/GI-132", "TITLE": "Tonto Hill", "REGION": "Gila County", "ASSOCIATION": "USA - Arizona", "POINTS": "4", "BONUSPOINTS": "0"}}, {"type": "Feature", "geometry": {"type": "Point", "coordinates": [-111.1086, 33.6101]}, "properties": {"NAME": "W7A/GI-133", "TITLE": "4457", "REGION": "Gila County", "ASSOCIATION": "USA - Arizona", "POINTS": "4", "BONUSPOINTS": "0"}}, {"type": "Feature", "geometry": {"type": "Point", "coordinates": [-110.8934, 33.503]}, "properties": {"NAME": "W7A/GI-134", "TITLE": "Gerald Hills", "REGION": "Gila County", "ASSOCIATION": "USA - Arizona", "POINTS": "4", "BONUSPOINTS": "0"}}, {"type": "Feature", "geometry": {"type": "Point", "coordinates": [-110.8916, 33.5372]}, "properties": {"NAME": "W7A/GI-135", "TITLE": "4180", "REGION": "Gila County", "ASSOCIATION": "USA - Arizona", "POINTS": "4", "BONUSPOINTS": "0"}}, {"type": "Feature", "geometry": {"type": "Point", "coordinates": [-110.716, 33.7026]}, "properties": {"NAME": "W7A/GI-136", "TITLE": "4047", "REGION": "Gila County", "ASSOCIATION": "USA - Arizona", "POINTS": "4", "BONUSPOINTS": "0"}}, {"type": "Feature", "geometry": {"type": "Point", "coordinates": [-110.753, 33.6838]}, "properties": {"NAME": "W7A/GI-137", "TITLE": "Buck Mountain", "REGION": "Gila County", "ASSOCIATION": "USA - Arizona", "POINTS": "4", "BONUSPOINTS": "0"}}, {"type": "Feature", "geometry": {"type": "Point", "coordinates": [-110.5528, 33.172]}, "properties": {"NAME": "W7A/GI-138", "TITLE": "3519", "REGION": "Gila County", "ASSOCIATION": "USA - Arizona", "POINTS": "4", "BONUSPOINTS": "0"}}, {"type": "Feature", "geometry": {"type": "Point", "coordinates": [-110.5428, 33.1869]}, "properties": {"NAME": "W7A/GI-139", "TITLE": "3518", "REGION": "Gila County", "ASSOCIATION": "USA - Arizona", "POINTS": "4", "BONUSPOINTS": "0"}}, {"type": "Feature", "geometry": {"type": "Point", "coordinates": [-110.7885, 33.6727]}, "properties": {"NAME": "W7A/GI-140", "TITLE": "McGee Mountain", "REGION": "Gila County", "ASSOCIATION": "USA - Arizona", "POINTS": "4", "BONUSPOINTS": "0"}}, {"type": "Feature", "geometry": {"type": "Point", "coordinates": [-111.0718, 33.722]}, "properties": {"NAME": "W7A/GI-141", "TITLE": "Bull Mountain", "REGION": "Gila County", "ASSOCIATION": "USA - Arizona", "POINTS": "4", "BONUSPOINTS": "0"}}, {"type": "Feature", "geometry": {"type": "Point", "coordinates": [-110.8796, 33.3182]}, "properties": {"NAME": "W7A/GI-142", "TITLE": "6670", "REGION": "Gila County", "ASSOCIATION": "USA - Arizona", "POINTS": "8", "BONUSPOINTS": "3"}}, {"type": "Feature", "geometry": {"type": "Point", "coordinates": [-110.9785, 34.158]}, "properties": {"NAME": "W7A/GI-143", "TITLE": "5918", "REGION": "Gila County", "ASSOCIATION": "USA - Arizona", "POINTS": "6", "BONUSPOINTS": "0"}}, {"type": "Feature", "geometry": {"type": "Point", "coordinates": [-111.145, 34.1993]}, "properties": {"NAME": "W7A/GI-144", "TITLE": "5318", "REGION": "Gila County", "ASSOCIATION": "USA - Arizona", "POINTS": "6", "BONUSPOINTS": "0"}}, {"type": "Feature", "geometry": {"type": "Point", "coordinates": [-111.3918, 34.0126]}, "properties": {"NAME": "W7A/GI-145", "TITLE": "5273", "REGION": "Gila County", "ASSOCIATION": "USA - Arizona", "POINTS": "6", "BONUSPOINTS": "0"}}, {"type": "Feature", "geometry": {"type": "Point", "coordinates": [-110.9027, 33.431]}, "properties": {"NAME": "W7A/GI-146", "TITLE": "Day Peaks, East", "REGION": "Gila County", "ASSOCIATION": "USA - Arizona", "POINTS": "6", "BONUSPOINTS": "0"}}, {"type": "Feature", "geometry": {"type": "Point", "coordinates": [-111.0063, 33.5102]}, "properties": {"NAME": "W7A/GI-147", "TITLE": "4032", "REGION": "Gila County", "ASSOCIATION": "USA - Arizona", "POINTS": "4", "BONUSPOINTS": "0"}}, {"type": "Feature", "geometry": {"type": "Point", "coordinates": [-110.8042, 33.6597]}, "properties": {"NAME": "W7A/GI-148", "TITLE": "3540", "REGION": "Gila County", "ASSOCIATION": "USA - Arizona", "POINTS": "4", "BONUSPOINTS": "0"}}]}