{"type": "FeatureCollection", "name": "W7A/PE SUMMITS", "features": [{"type": "Feature", "geometry": {"type": "Point", "coordinates": [-110.8431, 32.3867]}, "properties": {"NAME": "W7A/PE-001", "TITLE": "Cathedral Rock", "REGION": "Pima County, East", "ASSOCIATION": "USA - Arizona", "POINTS": "10", "BONUSPOINTS": "3"}}, {"type": "Feature", "geometry": {"type": "Point", "coordinates": [-110.6872, 32.394]}, "properties": {"NAME": "W7A/PE-002", "TITLE": "Green Mountain", "REGION": "Pima County, East", "ASSOCIATION": "USA - Arizona", "POINTS": "10", "BONUSPOINTS": "3"}}, {"type": "Feature", "geometry": {"type": "Point", "coordinates": [-110.8175, 32.4695]}, "properties": {"NAME": "W7A/PE-003", "TITLE": "Samaniego Peak", "REGION": "Pima County, East", "ASSOCIATION": "USA - Arizona", "POINTS": "10", "BONUSPOINTS": "3"}}, {"type": "Feature", "geometry": {"type": "Point", "coordinates": [-110.7475, 32.4935]}, "properties": {"NAME": "W7A/PE-004", "TITLE": "Oracle Ridge", "REGION": "Pima County, East", "ASSOCIATION": "USA - Arizona", "POINTS": "10", "BONUSPOINTS": "3"}}, {"type": "Feature", "geometry": {"type": "Point", "coordinates": [-110.8789, 32.3773]}, "properties": {"NAME": "W7A/PE-005", "TITLE": "Kimball, Mount", "REGION": "Pima County, East", "ASSOCIATION": "USA - Arizona", "POINTS": "8", "BONUSPOINTS": "3"}}, {"type": "Feature", "geometry": {"type": "Point", "coordinates": [-111.5871, 31.7897]}, "properties": {"NAME": "W7A/PE-006", "TITLE": "Mundo Perdido Benchmark", "REGION": "Pima County, East", "ASSOCIATION": "USA - Arizona", "POINTS": "8", "BONUSPOINTS": "3"}}, {"type": "Feature", "geometry": {"type": "Point", "coordinates": [-111.589, 31.7754]}, "properties": {"NAME": "W7A/PE-007", "TITLE": "6883", "REGION": "Pima County, East", "ASSOCIATION": "USA - Arizona", "POINTS": "8", "BONUSPOINTS": "3"}}, {"type": "Feature", "geometry": {"type": "Point", "coordinates": [-110.7929, 31.7774]}, "properties": {"NAME": "W7A/PE-008", "TITLE": "Castle Dome", "REGION": "Pima County, East", "ASSOCIATION": "USA - Arizona", "POINTS": "8", "BONUSPOINTS": "3"}}, {"type": "Feature", "geometry": {"type": "Point", "coordinates": [-110.8965, 32.3653]}, "properties": {"NAME": "W7A/PE-009", "TITLE": "Prominent Point", "REGION": "Pima County, East", "ASSOCIATION": "USA - Arizona", "POINTS": "8", "BONUSPOINTS": "3"}}, {"type": "Feature", "geometry": {"type": "Point", "coordinates": [-111.5329, 32.0038]}, "properties": {"NAME": "W7A/PE-010", "TITLE": "Coyote Mountains HP", "REGION": "Pima County, East", "ASSOCIATION": "USA - Arizona", "POINTS": "8", "BONUSPOINTS": "3"}}, {"type": "Feature", "geometry": {"type": "Point", "coordinates": [-111.5741, 31.8321]}, "properties": {"NAME": "W7A/PE-011", "TITLE": "6403", "REGION": "Pima County, East", "ASSOCIATION": "USA - Arizona", "POINTS": "8", "BONUSPOINTS": "3"}}, {"type": "Feature", "geometry": {"type": "Point", "coordinates": [-110.7702, 31.8272]}, "properties": {"NAME": "W7A/PE-012", "TITLE": "Miner's Cabin Peak", "REGION": "Pima County, East", "ASSOCIATION": "USA - Arizona", "POINTS": "8", "BONUSPOINTS": "3"}}, {"type": "Feature", "geometry": {"type": "Point", "coordinates": [-110.9079, 32.3823]}, "properties": {"NAME": "W7A/PE-013", "TITLE": "Table Mountain", "REGION": "Pima County, East", "ASSOCIATION": "USA - Arizona", "POINTS": "8", "BONUSPOINTS": "3"}}, {"type": "Feature", "geometry": {"type": "Point", "coordinates": [-110.7266, 31.8943]}, "properties": {"NAME": "W7A/PE-014", "TITLE": "Fagan, Mount", "REGION": "Pima County, East", "ASSOCIATION": "USA - Arizona", "POINTS": "8", "BONUSPOINTS": "3"}}, {"type": "Feature", "geometry": {"type": "Point", "coordinates": [-111.603, 31.9005]}, "properties": {"NAME": "W7A/PE-015", "TITLE": "6179", "REGION": "Pima County, East", "ASSOCIATION": "USA - Arizona", "POINTS": "8", "BONUSPOINTS": "3"}}, {"type": "Feature", "geometry": {"type": "Point", "coordinates": [-111.5359, 31.9777]}, "properties": {"NAME": "W7A/PE-016", "TITLE": "6140", "REGION": "Pima County, East", "ASSOCIATION": "USA - Arizona", "POINTS": "8", "BONUSPOINTS": "3"}}, {"type": "Feature", "geometry": {"type": "Point", "coordinates": [-111.5721, 31.8454]}, "properties": {"NAME": "W7A/PE-017", "TITLE": "6111", "REGION": "Pima County, East", "ASSOCIATION": "USA - Arizona", "POINTS": "8", "BONUSPOINTS": "3"}}, {"type": "Feature", "geometry": {"type": "Point", "coordinates": [-110.7366, 31.866]}, "properties": {"NAME": "W7A/PE-018", "TITLE": "5802", "REGION": "Pima County, East", "ASSOCIATION": "USA - Arizona", "POINTS": "6", "BONUSPOINTS": "3"}}, {"type": "Feature", "geometry": {"type": "Point", "coordinates": [-110.7458, 32.3382]}, "properties": {"NAME": "W7A/PE-019", "TITLE": "Gibbon Mountain", "REGION": "Pima County, East", "ASSOCIATION": "USA - Arizona", "POINTS": "6", "BONUSPOINTS": "3"}}, {"type": "Feature", "geometry": {"type": "Point", "coordinates": [-110.4594, 31.74]}, "properties": {"NAME": "W7A/PE-020", "TITLE": "5745", "REGION": "Pima County, East", "ASSOCIATION": "USA - Arizona", "POINTS": "6", "BONUSPOINTS": "3"}}, {"type": "Feature", "geometry": {"type": "Point", "coordinates": [-111.5903, 31.8858]}, "properties": {"NAME": "W7A/PE-021", "TITLE": "5740", "REGION": "Pima County, East", "ASSOCIATION": "USA - Arizona", "POINTS": "6", "BONUSPOINTS": "3"}}, {"type": "Feature", "geometry": {"type": "Point", "coordinates": [-110.6388, 31.8852]}, "properties": {"NAME": "W7A/PE-022", "TITLE": "Empire Mountains HP", "REGION": "Pima County, East", "ASSOCIATION": "USA - Arizona", "POINTS": "6", "BONUSPOINTS": "3"}}, {"type": "Feature", "geometry": {"type": "Point", "coordinates": [-111.5929, 31.7129]}, "properties": {"NAME": "W7A/PE-023", "TITLE": "Mildred Peak", "REGION": "Pima County, East", "ASSOCIATION": "USA - Arizona", "POINTS": "6", "BONUSPOINTS": "3"}}, {"type": "Feature", "geometry": {"type": "Point", "coordinates": [-111.6391, 31.9418]}, "properties": {"NAME": "W7A/PE-024", "TITLE": "5472", "REGION": "Pima County, East", "ASSOCIATION": "USA - Arizona", "POINTS": "6", "BONUSPOINTS": "3"}}, {"type": "Feature", "geometry": {"type": "Point", "coordinates": [-110.716, 32.3334]}, "properties": {"NAME": "W7A/PE-025", "TITLE": "Prison Camp Ridge", "REGION": "Pima County, East", "ASSOCIATION": "USA - Arizona", "POINTS": "6", "BONUSPOINTS": "3"}}, {"type": "Feature", "geometry": {"type": "Point", "coordinates": [-110.6072, 31.8937]}, "properties": {"NAME": "W7A/PE-026", "TITLE": "5428", "REGION": "Pima County, East", "ASSOCIATION": "USA - Arizona", "POINTS": "6", "BONUSPOINTS": "3"}}, {"type": "Feature", "geometry": {"type": "Point", "coordinates": [-110.6142, 31.9114]}, "properties": {"NAME": "W7A/PE-027", "TITLE": "5422", "REGION": "Pima County, East", "ASSOCIATION": "USA - Arizona", "POINTS": "6", "BONUSPOINTS": "3"}}, {"type": "Feature", "geometry": {"type": "Point", "coordinates": [-111.1824, 31.856]}, "properties": {"NAME": "W7A/PE-028", "TITLE": "Horse Pasture Hill", "REGION": "Pima County, East", "ASSOCIATION": "USA - Arizona", "POINTS": "6", "BONUSPOINTS": "3"}}, {"type": "Feature", "geometry": {"type": "Point", "coordinates": [-110.6659, 32.2954]}, "properties": {"NAME": "W7A/PE-029", "TITLE": "Agua Caliente Hill", "REGION": "Pima County, East", "ASSOCIATION": "USA - Arizona", "POINTS": "6", "BONUSPOINTS": "3"}}, {"type": "Feature", "geometry": {"type": "Point", "coordinates": [-110.939, 32.372]}, "properties": {"NAME": "W7A/PE-030", "TITLE": "Pusch Peak", "REGION": "Pima County, East", "ASSOCIATION": "USA - Arizona", "POINTS": "6", "BONUSPOINTS": "3"}}, {"type": "Feature", "geometry": {"type": "Point", "coordinates": [-111.2621, 31.712]}, "properties": {"NAME": "W7A/PE-031", "TITLE": "Colorado Benchmark", "REGION": "Pima County, East", "ASSOCIATION": "USA - Arizona", "POINTS": "6", "BONUSPOINTS": "3"}}, {"type": "Feature", "geometry": {"type": "Point", "coordinates": [-111.6026, 31.8141]}, "properties": {"NAME": "W7A/PE-032", "TITLE": "5202", "REGION": "Pima County, East", "ASSOCIATION": "USA - Arizona", "POINTS": "6", "BONUSPOINTS": "3"}}, {"type": "Feature", "geometry": {"type": "Point", "coordinates": [-111.2706, 31.7286]}, "properties": {"NAME": "W7A/PE-033", "TITLE": "5132", "REGION": "Pima County, East", "ASSOCIATION": "USA - Arizona", "POINTS": "6", "BONUSPOINTS": "3"}}, {"type": "Feature", "geometry": {"type": "Point", "coordinates": [-110.6269, 31.9159]}, "properties": {"NAME": "W7A/PE-034", "TITLE": "5017", "REGION": "Pima County, East", "ASSOCIATION": "USA - Arizona", "POINTS": "6", "BONUSPOINTS": "3"}}, {"type": "Feature", "geometry": {"type": "Point", "coordinates": [-111.5634, 31.9129]}, "properties": {"NAME": "W7A/PE-035", "TITLE": "Saucito Mountain", "REGION": "Pima County, East", "ASSOCIATION": "USA - Arizona", "POINTS": "6", "BONUSPOINTS": "3"}}, {"type": "Feature", "geometry": {"type": "Point", "coordinates": [-111.6289, 31.7885]}, "properties": {"NAME": "W7A/PE-036", "TITLE": "4976", "REGION": "Pima County, East", "ASSOCIATION": "USA - Arizona", "POINTS": "6", "BONUSPOINTS": "3"}}, {"type": "Feature", "geometry": {"type": "Point", "coordinates": [-110.5873, 32.0699]}, "properties": {"NAME": "W7A/PE-037", "TITLE": "4976", "REGION": "Pima County, East", "ASSOCIATION": "USA - Arizona", "POINTS": "6", "BONUSPOINTS": "3"}}, {"type": "Feature", "geometry": {"type": "Point", "coordinates": [-111.6369, 31.6407]}, "properties": {"NAME": "W7A/PE-038", "TITLE": "Lalo Peak", "REGION": "Pima County, East", "ASSOCIATION": "USA - Arizona", "POINTS": "6", "BONUSPOINTS": "3"}}, {"type": "Feature", "geometry": {"type": "Point", "coordinates": [-111.2395, 31.8382]}, "properties": {"NAME": "W7A/PE-039", "TITLE": "4940", "REGION": "Pima County, East", "ASSOCIATION": "USA - Arizona", "POINTS": "6", "BONUSPOINTS": "3"}}, {"type": "Feature", "geometry": {"type": "Point", "coordinates": [-111.4941, 31.9972]}, "properties": {"NAME": "W7A/PE-040", "TITLE": "4905", "REGION": "Pima County, East", "ASSOCIATION": "USA - Arizona", "POINTS": "6", "BONUSPOINTS": "3"}}, {"type": "Feature", "geometry": {"type": "Point", "coordinates": [-111.6314, 31.569]}, "properties": {"NAME": "W7A/PE-041", "TITLE": "Caponera Peak", "REGION": "Pima County, East", "ASSOCIATION": "USA - Arizona", "POINTS": "6", "BONUSPOINTS": "3"}}, {"type": "Feature", "geometry": {"type": "Point", "coordinates": [-111.6246, 31.8092]}, "properties": {"NAME": "W7A/PE-042", "TITLE": "4827", "REGION": "Pima County, East", "ASSOCIATION": "USA - Arizona", "POINTS": "6", "BONUSPOINTS": "3"}}, {"type": "Feature", "geometry": {"type": "Point", "coordinates": [-111.4025, 31.5098]}, "properties": {"NAME": "W7A/PE-043", "TITLE": "San Luis Mountains HP", "REGION": "Pima County, East", "ASSOCIATION": "USA - Arizona", "POINTS": "6", "BONUSPOINTS": "3"}}, {"type": "Feature", "geometry": {"type": "Point", "coordinates": [-111.8046, 32.1318]}, "properties": {"NAME": "W7A/PE-044", "TITLE": "Devine, Mount", "REGION": "Pima County, East", "ASSOCIATION": "USA - Arizona", "POINTS": "6", "BONUSPOINTS": "3"}}, {"type": "Feature", "geometry": {"type": "Point", "coordinates": [-111.5419, 31.9174]}, "properties": {"NAME": "W7A/PE-045", "TITLE": "Piglet Peak", "REGION": "Pima County, East", "ASSOCIATION": "USA - Arizona", "POINTS": "6", "BONUSPOINTS": "3"}}, {"type": "Feature", "geometry": {"type": "Point", "coordinates": [-111.3965, 31.4579]}, "properties": {"NAME": "W7A/PE-046", "TITLE": "Coches Ridge South", "REGION": "Pima County, East", "ASSOCIATION": "USA - Arizona", "POINTS": "6", "BONUSPOINTS": "3"}}, {"type": "Feature", "geometry": {"type": "Point", "coordinates": [-110.5471, 32.3528]}, "properties": {"NAME": "W7A/PE-047", "TITLE": "Piety Hill", "REGION": "Pima County, East", "ASSOCIATION": "USA - Arizona", "POINTS": "6", "BONUSPOINTS": "3"}}, {"type": "Feature", "geometry": {"type": "Point", "coordinates": [-111.6138, 31.8457]}, "properties": {"NAME": "W7A/PE-048", "TITLE": "4704", "REGION": "Pima County, East", "ASSOCIATION": "USA - Arizona", "POINTS": "6", "BONUSPOINTS": "3"}}, {"type": "Feature", "geometry": {"type": "Point", "coordinates": [-111.6009, 31.5245]}, "properties": {"NAME": "W7A/PE-049", "TITLE": "Pozo Verde Mountains HP", "REGION": "Pima County, East", "ASSOCIATION": "USA - Arizona", "POINTS": "6", "BONUSPOINTS": "3"}}, {"type": "Feature", "geometry": {"type": "Point", "coordinates": [-111.4357, 31.4807]}, "properties": {"NAME": "W7A/PE-050", "TITLE": "Cumero Mountain", "REGION": "Pima County, East", "ASSOCIATION": "USA - Arizona", "POINTS": "6", "BONUSPOINTS": "3"}}, {"type": "Feature", "geometry": {"type": "Point", "coordinates": [-111.3941, 31.5694]}, "properties": {"NAME": "W7A/PE-051", "TITLE": "4692", "REGION": "Pima County, East", "ASSOCIATION": "USA - Arizona", "POINTS": "6", "BONUSPOINTS": "3"}}, {"type": "Feature", "geometry": {"type": "Point", "coordinates": [-111.1471, 32.2732]}, "properties": {"NAME": "W7A/PE-052", "TITLE": "Wasson Peak", "REGION": "Pima County, East", "ASSOCIATION": "USA - Arizona", "POINTS": "6", "BONUSPOINTS": "3"}}, {"type": "Feature", "geometry": {"type": "Point", "coordinates": [-111.2411, 31.9631]}, "properties": {"NAME": "W7A/PE-053", "TITLE": "Gunsight Mountain", "REGION": "Pima County, East", "ASSOCIATION": "USA - Arizona", "POINTS": "6", "BONUSPOINTS": "3"}}, {"type": "Feature", "geometry": {"type": "Point", "coordinates": [-111.3684, 31.6386]}, "properties": {"NAME": "W7A/PE-054", "TITLE": "Las Guijas Mountains (HP)", "REGION": "Pima County, East", "ASSOCIATION": "USA - Arizona", "POINTS": "6", "BONUSPOINTS": "3"}}, {"type": "Feature", "geometry": {"type": "Point", "coordinates": [-111.0182, 32.5001]}, "properties": {"NAME": "W7A/PE-055", "TITLE": "Tortollitas Benchmark", "REGION": "Pima County, East", "ASSOCIATION": "USA - Arizona", "POINTS": "6", "BONUSPOINTS": "3"}}, {"type": "Feature", "geometry": {"type": "Point", "coordinates": [-111.651, 31.6001]}, "properties": {"NAME": "W7A/PE-056", "TITLE": "4642", "REGION": "Pima County, East", "ASSOCIATION": "USA - Arizona", "POINTS": "6", "BONUSPOINTS": "3"}}, {"type": "Feature", "geometry": {"type": "Point", "coordinates": [-110.6336, 31.9401]}, "properties": {"NAME": "W7A/PE-057", "TITLE": "4581", "REGION": "Pima County, East", "ASSOCIATION": "USA - Arizona", "POINTS": "6", "BONUSPOINTS": "3"}}, {"type": "Feature", "geometry": {"type": "Point", "coordinates": [-111.8765, 32.3477]}, "properties": {"NAME": "W7A/PE-058", "TITLE": "Gu Achi Peak", "REGION": "Pima County, East", "ASSOCIATION": "USA - Arizona", "POINTS": "6", "BONUSPOINTS": "3"}}, {"type": "Feature", "geometry": {"type": "Point", "coordinates": [-111.8098, 32.0347]}, "properties": {"NAME": "W7A/PE-059", "TITLE": "Como Benchmark", "REGION": "Pima County, East", "ASSOCIATION": "USA - Arizona", "POINTS": "6", "BONUSPOINTS": "3"}}, {"type": "Feature", "geometry": {"type": "Point", "coordinates": [-111.3838, 31.5831]}, "properties": {"NAME": "W7A/PE-060", "TITLE": "El Cerro", "REGION": "Pima County, East", "ASSOCIATION": "USA - Arizona", "POINTS": "4", "BONUSPOINTS": "3"}}, {"type": "Feature", "geometry": {"type": "Point", "coordinates": [-111.1311, 31.8178]}, "properties": {"NAME": "W7A/PE-061", "TITLE": "Tinaja Peak", "REGION": "Pima County, East", "ASSOCIATION": "USA - Arizona", "POINTS": "4", "BONUSPOINTS": "3"}}, {"type": "Feature", "geometry": {"type": "Point", "coordinates": [-111.3139, 31.8253]}, "properties": {"NAME": "W7A/PE-062", "TITLE": "Cerro Prieto Benchmark", "REGION": "Pima County, East", "ASSOCIATION": "USA - Arizona", "POINTS": "4", "BONUSPOINTS": "3"}}, {"type": "Feature", "geometry": {"type": "Point", "coordinates": [-111.0806, 32.5025]}, "properties": {"NAME": "W7A/PE-063", "TITLE": "4416", "REGION": "Pima County, East", "ASSOCIATION": "USA - Arizona", "POINTS": "4", "BONUSPOINTS": "3"}}, {"type": "Feature", "geometry": {"type": "Point", "coordinates": [-111.3029, 31.9091]}, "properties": {"NAME": "W7A/PE-064", "TITLE": "Stevens Mountain", "REGION": "Pima County, East", "ASSOCIATION": "USA - Arizona", "POINTS": "4", "BONUSPOINTS": "3"}}, {"type": "Feature", "geometry": {"type": "Point", "coordinates": [-111.1174, 32.249]}, "properties": {"NAME": "W7A/PE-065", "TITLE": "Trails End Peak", "REGION": "Pima County, East", "ASSOCIATION": "USA - Arizona", "POINTS": "4", "BONUSPOINTS": "3"}}, {"type": "Feature", "geometry": {"type": "Point", "coordinates": [-111.8773, 31.5954]}, "properties": {"NAME": "W7A/PE-066", "TITLE": "Horse Peak", "REGION": "Pima County, East", "ASSOCIATION": "USA - Arizona", "POINTS": "4", "BONUSPOINTS": "3"}}, {"type": "Feature", "geometry": {"type": "Point", "coordinates": [-111.287, 31.8389]}, "properties": {"NAME": "W7A/PE-067", "TITLE": "4338", "REGION": "Pima County, East", "ASSOCIATION": "USA - Arizona", "POINTS": "4", "BONUSPOINTS": "3"}}, {"type": "Feature", "geometry": {"type": "Point", "coordinates": [-111.106, 32.2091]}, "properties": {"NAME": "W7A/PE-068", "TITLE": "Golden Gate Mountain", "REGION": "Pima County, East", "ASSOCIATION": "USA - Arizona", "POINTS": "4", "BONUSPOINTS": "3"}}, {"type": "Feature", "geometry": {"type": "Point", "coordinates": [-110.6265, 32.0677]}, "properties": {"NAME": "W7A/PE-069", "TITLE": "4282", "REGION": "Pima County, East", "ASSOCIATION": "USA - Arizona", "POINTS": "4", "BONUSPOINTS": "3"}}, {"type": "Feature", "geometry": {"type": "Point", "coordinates": [-111.4924, 32.4084]}, "properties": {"NAME": "W7A/PE-070", "TITLE": "Silver Bell Peak", "REGION": "Pima County, East", "ASSOCIATION": "USA - Arizona", "POINTS": "4", "BONUSPOINTS": "3"}}, {"type": "Feature", "geometry": {"type": "Point", "coordinates": [-111.8442, 32.1528]}, "properties": {"NAME": "W7A/PE-071", "TITLE": "4202", "REGION": "Pima County, East", "ASSOCIATION": "USA - Arizona", "POINTS": "4", "BONUSPOINTS": "3"}}, {"type": "Feature", "geometry": {"type": "Point", "coordinates": [-111.5055, 32.4177]}, "properties": {"NAME": "W7A/PE-072", "TITLE": "Silver Bell Benchmark", "REGION": "Pima County, East", "ASSOCIATION": "USA - Arizona", "POINTS": "4", "BONUSPOINTS": "3"}}, {"type": "Feature", "geometry": {"type": "Point", "coordinates": [-111.6714, 31.9711]}, "properties": {"NAME": "W7A/PE-073", "TITLE": "4134", "REGION": "Pima County, East", "ASSOCIATION": "USA - Arizona", "POINTS": "4", "BONUSPOINTS": "3"}}, {"type": "Feature", "geometry": {"type": "Point", "coordinates": [-110.652, 32.0621]}, "properties": {"NAME": "W7A/PE-074", "TITLE": "Pistol Hill", "REGION": "Pima County, East", "ASSOCIATION": "USA - Arizona", "POINTS": "4", "BONUSPOINTS": "3"}}, {"type": "Feature", "geometry": {"type": "Point", "coordinates": [-111.3353, 31.8457]}, "properties": {"NAME": "W7A/PE-075", "TITLE": "Baldy Peak", "REGION": "Pima County, East", "ASSOCIATION": "USA - Arizona", "POINTS": "4", "BONUSPOINTS": "3"}}, {"type": "Feature", "geometry": {"type": "Point", "coordinates": [-111.4472, 32.0589]}, "properties": {"NAME": "W7A/PE-076", "TITLE": "Martina Mountain", "REGION": "Pima County, East", "ASSOCIATION": "USA - Arizona", "POINTS": "4", "BONUSPOINTS": "3"}}, {"type": "Feature", "geometry": {"type": "Point", "coordinates": [-111.0958, 32.2157]}, "properties": {"NAME": "W7A/PE-077", "TITLE": "Bren's Better", "REGION": "Pima County, East", "ASSOCIATION": "USA - Arizona", "POINTS": "4", "BONUSPOINTS": "3"}}, {"type": "Feature", "geometry": {"type": "Point", "coordinates": [-111.4898, 32.4497]}, "properties": {"NAME": "W7A/PE-078", "TITLE": "Ragged Top", "REGION": "Pima County, East", "ASSOCIATION": "USA - Arizona", "POINTS": "4", "BONUSPOINTS": "3"}}, {"type": "Feature", "geometry": {"type": "Point", "coordinates": [-111.6881, 31.9549]}, "properties": {"NAME": "W7A/PE-079", "TITLE": "3902", "REGION": "Pima County, East", "ASSOCIATION": "USA - Arizona", "POINTS": "4", "BONUSPOINTS": "3"}}, {"type": "Feature", "geometry": {"type": "Point", "coordinates": [-111.0608, 32.1841]}, "properties": {"NAME": "W7A/PE-080", "TITLE": "Cat Mountain", "REGION": "Pima County, East", "ASSOCIATION": "USA - Arizona", "POINTS": "4", "BONUSPOINTS": "3"}}, {"type": "Feature", "geometry": {"type": "Point", "coordinates": [-111.4735, 32.3495]}, "properties": {"NAME": "W7A/PE-081", "TITLE": "Waterman Peak", "REGION": "Pima County, East", "ASSOCIATION": "USA - Arizona", "POINTS": "4", "BONUSPOINTS": "3"}}, {"type": "Feature", "geometry": {"type": "Point", "coordinates": [-111.3808, 32.1709]}, "properties": {"NAME": "W7A/PE-082", "TITLE": "Roskruge Benchmark", "REGION": "Pima County, East", "ASSOCIATION": "USA - Arizona", "POINTS": "4", "BONUSPOINTS": "3"}}, {"type": "Feature", "geometry": {"type": "Point", "coordinates": [-111.4035, 32.1968]}, "properties": {"NAME": "W7A/PE-083", "TITLE": "Pescadero Mountain", "REGION": "Pima County, East", "ASSOCIATION": "USA - Arizona", "POINTS": "4", "BONUSPOINTS": "3"}}, {"type": "Feature", "geometry": {"type": "Point", "coordinates": [-111.4884, 32.059]}, "properties": {"NAME": "W7A/PE-084", "TITLE": "Bell Mountain", "REGION": "Pima County, East", "ASSOCIATION": "USA - Arizona", "POINTS": "4", "BONUSPOINTS": "3"}}, {"type": "Feature", "geometry": {"type": "Point", "coordinates": [-111.0597, 32.0867]}, "properties": {"NAME": "W7A/PE-085", "TITLE": "Black Mountain", "REGION": "Pima County, East", "ASSOCIATION": "USA - Arizona", "POINTS": "4", "BONUSPOINTS": "3"}}, {"type": "Feature", "geometry": {"type": "Point", "coordinates": [-111.4629, 32.0875]}, "properties": {"NAME": "W7A/PE-086", "TITLE": "3690", "REGION": "Pima County, East", "ASSOCIATION": "USA - Arizona", "POINTS": "4", "BONUSPOINTS": "3"}}, {"type": "Feature", "geometry": {"type": "Point", "coordinates": [-111.4065, 32.1149]}, "properties": {"NAME": "W7A/PE-087", "TITLE": "San Benchmark", "REGION": "Pima County, East", "ASSOCIATION": "USA - Arizona", "POINTS": "4", "BONUSPOINTS": "3"}}, {"type": "Feature", "geometry": {"type": "Point", "coordinates": [-111.1503, 32.3453]}, "properties": {"NAME": "W7A/PE-088", "TITLE": "Safford Peak", "REGION": "Pima County, East", "ASSOCIATION": "USA - Arizona", "POINTS": "4", "BONUSPOINTS": "3"}}, {"type": "Feature", "geometry": {"type": "Point", "coordinates": [-111.4049, 32.2114]}, "properties": {"NAME": "W7A/PE-089", "TITLE": "3510", "REGION": "Pima County, East", "ASSOCIATION": "USA - Arizona", "POINTS": "4", "BONUSPOINTS": "3"}}, {"type": "Feature", "geometry": {"type": "Point", "coordinates": [-111.4814, 32.3425]}, "properties": {"NAME": "W7A/PE-090", "TITLE": "3475", "REGION": "Pima County, East", "ASSOCIATION": "USA - Arizona", "POINTS": "4", "BONUSPOINTS": "3"}}, {"type": "Feature", "geometry": {"type": "Point", "coordinates": [-111.3491, 32.1688]}, "properties": {"NAME": "W7A/PE-091", "TITLE": "Javelina Peak", "REGION": "Pima County, East", "ASSOCIATION": "USA - Arizona", "POINTS": "4", "BONUSPOINTS": "3"}}, {"type": "Feature", "geometry": {"type": "Point", "coordinates": [-111.4943, 32.3683]}, "properties": {"NAME": "W7A/PE-092", "TITLE": "3433", "REGION": "Pima County, East", "ASSOCIATION": "USA - Arizona", "POINTS": "4", "BONUSPOINTS": "3"}}, {"type": "Feature", "geometry": {"type": "Point", "coordinates": [-111.892, 32.3904]}, "properties": {"NAME": "W7A/PE-093", "TITLE": "3407", "REGION": "Pima County, East", "ASSOCIATION": "USA - Arizona", "POINTS": "4", "BONUSPOINTS": "3"}}, {"type": "Feature", "geometry": {"type": "Point", "coordinates": [-111.996, 31.7169]}, "properties": {"NAME": "W7A/PE-094", "TITLE": "Rocky Point Benchmark", "REGION": "Pima County, East", "ASSOCIATION": "USA - Arizona", "POINTS": "4", "BONUSPOINTS": "3"}}, {"type": "Feature", "geometry": {"type": "Point", "coordinates": [-111.8399, 31.8812]}, "properties": {"NAME": "W7A/PE-095", "TITLE": "Artesa Mountains HP", "REGION": "Pima County, East", "ASSOCIATION": "USA - Arizona", "POINTS": "4", "BONUSPOINTS": "3"}}, {"type": "Feature", "geometry": {"type": "Point", "coordinates": [-111.0561, 32.2277]}, "properties": {"NAME": "W7A/PE-096", "TITLE": "Twin Hills West", "REGION": "Pima County, East", "ASSOCIATION": "USA - Arizona", "POINTS": "4", "BONUSPOINTS": "3"}}, {"type": "Feature", "geometry": {"type": "Point", "coordinates": [-111.4827, 32.4446]}, "properties": {"NAME": "W7A/PE-097", "TITLE": "Wolcott Peak", "REGION": "Pima County, East", "ASSOCIATION": "USA - Arizona", "POINTS": "4", "BONUSPOINTS": "3"}}, {"type": "Feature", "geometry": {"type": "Point", "coordinates": [-111.0437, 32.1568]}, "properties": {"NAME": "W7A/PE-098", "TITLE": "Why Not John Peak", "REGION": "Pima County, East", "ASSOCIATION": "USA - Arizona", "POINTS": "4", "BONUSPOINTS": "3"}}, {"type": "Feature", "geometry": {"type": "Point", "coordinates": [-111.0327, 32.0923]}, "properties": {"NAME": "W7A/PE-099", "TITLE": "3286", "REGION": "Pima County, East", "ASSOCIATION": "USA - Arizona", "POINTS": "4", "BONUSPOINTS": "3"}}, {"type": "Feature", "geometry": {"type": "Point", "coordinates": [-111.1327, 32.4942]}, "properties": {"NAME": "W7A/PE-100", "TITLE": "Tortolita's Better", "REGION": "Pima County, East", "ASSOCIATION": "USA - Arizona", "POINTS": "4", "BONUSPOINTS": "3"}}, {"type": "Feature", "geometry": {"type": "Point", "coordinates": [-111.4476, 32.2717]}, "properties": {"NAME": "W7A/PE-101", "TITLE": "Dos Titos South", "REGION": "Pima County, East", "ASSOCIATION": "USA - Arizona", "POINTS": "4", "BONUSPOINTS": "3"}}, {"type": "Feature", "geometry": {"type": "Point", "coordinates": [-111.9976, 31.7524]}, "properties": {"NAME": "W7A/PE-102", "TITLE": "Alvarez Benchmark", "REGION": "Pima County, East", "ASSOCIATION": "USA - Arizona", "POINTS": "4", "BONUSPOINTS": "3"}}, {"type": "Feature", "geometry": {"type": "Point", "coordinates": [-111.8885, 31.8258]}, "properties": {"NAME": "W7A/PE-103", "TITLE": "Aspass Benchmark", "REGION": "Pima County, East", "ASSOCIATION": "USA - Arizona", "POINTS": "4", "BONUSPOINTS": "3"}}, {"type": "Feature", "geometry": {"type": "Point", "coordinates": [-111.531, 32.4508]}, "properties": {"NAME": "W7A/PE-104", "TITLE": "3115", "REGION": "Pima County, East", "ASSOCIATION": "USA - Arizona", "POINTS": "4", "BONUSPOINTS": "3"}}, {"type": "Feature", "geometry": {"type": "Point", "coordinates": [-111.675, 32.4983]}, "properties": {"NAME": "W7A/PE-105", "TITLE": "West Silver Bell Mountains HP", "REGION": "Pima County, East", "ASSOCIATION": "USA - Arizona", "POINTS": "4", "BONUSPOINTS": "3"}}, {"type": "Feature", "geometry": {"type": "Point", "coordinates": [-111.8211, 31.7263]}, "properties": {"NAME": "W7A/PE-106", "TITLE": "Las Animas Mountain", "REGION": "Pima County, East", "ASSOCIATION": "USA - Arizona", "POINTS": "4", "BONUSPOINTS": "3"}}, {"type": "Feature", "geometry": {"type": "Point", "coordinates": [-111.8746, 31.8917]}, "properties": {"NAME": "W7A/PE-107", "TITLE": "Suwuk Tontk", "REGION": "Pima County, East", "ASSOCIATION": "USA - Arizona", "POINTS": "4", "BONUSPOINTS": "3"}}, {"type": "Feature", "geometry": {"type": "Point", "coordinates": [-111.4416, 32.3409]}, "properties": {"NAME": "W7A/PE-108", "TITLE": "3036", "REGION": "Pima County, East", "ASSOCIATION": "USA - Arizona", "POINTS": "4", "BONUSPOINTS": "3"}}, {"type": "Feature", "geometry": {"type": "Point", "coordinates": [-111.9669, 32.05]}, "properties": {"NAME": "W7A/PE-109", "TITLE": "Ko Vaya Hills", "REGION": "Pima County, East", "ASSOCIATION": "USA - Arizona", "POINTS": "4", "BONUSPOINTS": "3"}}, {"type": "Feature", "geometry": {"type": "Point", "coordinates": [-111.3971, 32.3345]}, "properties": {"NAME": "W7A/PE-110", "TITLE": "Pan Quemado", "REGION": "Pima County, East", "ASSOCIATION": "USA - Arizona", "POINTS": "2", "BONUSPOINTS": "3"}}, {"type": "Feature", "geometry": {"type": "Point", "coordinates": [-111.9451, 31.7264]}, "properties": {"NAME": "W7A/PE-111", "TITLE": "2941", "REGION": "Pima County, East", "ASSOCIATION": "USA - Arizona", "POINTS": "2", "BONUSPOINTS": "3"}}, {"type": "Feature", "geometry": {"type": "Point", "coordinates": [-111.7328, 32.2487]}, "properties": {"NAME": "W7A/PE-112", "TITLE": "Vaca Hills", "REGION": "Pima County, East", "ASSOCIATION": "USA - Arizona", "POINTS": "2", "BONUSPOINTS": "3"}}, {"type": "Feature", "geometry": {"type": "Point", "coordinates": [-111.877, 32.4222]}, "properties": {"NAME": "W7A/PE-113", "TITLE": "2885", "REGION": "Pima County, East", "ASSOCIATION": "USA - Arizona", "POINTS": "2", "BONUSPOINTS": "3"}}, {"type": "Feature", "geometry": {"type": "Point", "coordinates": [-111.4194, 32.3241]}, "properties": {"NAME": "W7A/PE-114", "TITLE": "Laughing Leos Hill", "REGION": "Pima County, East", "ASSOCIATION": "USA - Arizona", "POINTS": "2", "BONUSPOINTS": "3"}}, {"type": "Feature", "geometry": {"type": "Point", "coordinates": [-111.7746, 32.2129]}, "properties": {"NAME": "W7A/PE-115", "TITLE": "Sil Nakya Hills", "REGION": "Pima County, East", "ASSOCIATION": "USA - Arizona", "POINTS": "2", "BONUSPOINTS": "3"}}, {"type": "Feature", "geometry": {"type": "Point", "coordinates": [-111.9844, 31.7655]}, "properties": {"NAME": "W7A/PE-116", "TITLE": "2821", "REGION": "Pima County, East", "ASSOCIATION": "USA - Arizona", "POINTS": "2", "BONUSPOINTS": "3"}}, {"type": "Feature", "geometry": {"type": "Point", "coordinates": [-111.9557, 31.9506]}, "properties": {"NAME": "W7A/PE-117", "TITLE": "Bird Nest Hill", "REGION": "Pima County, East", "ASSOCIATION": "USA - Arizona", "POINTS": "2", "BONUSPOINTS": "3"}}, {"type": "Feature", "geometry": {"type": "Point", "coordinates": [-111.5791, 32.3647]}, "properties": {"NAME": "W7A/PE-118", "TITLE": "Koht Kohl Hill", "REGION": "Pima County, East", "ASSOCIATION": "USA - Arizona", "POINTS": "2", "BONUSPOINTS": "3"}}, {"type": "Feature", "geometry": {"type": "Point", "coordinates": [-111.6446, 32.4723]}, "properties": {"NAME": "W7A/PE-119", "TITLE": "2790", "REGION": "Pima County, East", "ASSOCIATION": "USA - Arizona", "POINTS": "2", "BONUSPOINTS": "3"}}, {"type": "Feature", "geometry": {"type": "Point", "coordinates": [-111.1979, 32.3522]}, "properties": {"NAME": "W7A/PE-120", "TITLE": "Twin Peaks West", "REGION": "Pima County, East", "ASSOCIATION": "USA - Arizona", "POINTS": "2", "BONUSPOINTS": "3"}}, {"type": "Feature", "geometry": {"type": "Point", "coordinates": [-111.7287, 32.2916]}, "properties": {"NAME": "W7A/PE-121", "TITLE": "2710", "REGION": "Pima County, East", "ASSOCIATION": "USA - Arizona", "POINTS": "2", "BONUSPOINTS": "3"}}, {"type": "Feature", "geometry": {"type": "Point", "coordinates": [-111.5631, 32.4803]}, "properties": {"NAME": "W7A/PE-122", "TITLE": "Malpais Hill", "REGION": "Pima County, East", "ASSOCIATION": "USA - Arizona", "POINTS": "2", "BONUSPOINTS": "3"}}, {"type": "Feature", "geometry": {"type": "Point", "coordinates": [-111.3769, 32.3328]}, "properties": {"NAME": "W7A/PE-123", "TITLE": "Backyard Hill", "REGION": "Pima County, East", "ASSOCIATION": "USA - Arizona", "POINTS": "2", "BONUSPOINTS": "3"}}, {"type": "Feature", "geometry": {"type": "Point", "coordinates": [-111.6665, 32.4752]}, "properties": {"NAME": "W7A/PE-124", "TITLE": "2530", "REGION": "Pima County, East", "ASSOCIATION": "USA - Arizona", "POINTS": "2", "BONUSPOINTS": "3"}}, {"type": "Feature", "geometry": {"type": "Point", "coordinates": [-111.61, 31.7915]}, "properties": {"NAME": "W7A/PE-125", "TITLE": "6328", "REGION": "Pima County, East", "ASSOCIATION": "USA - Arizona", "POINTS": "8", "BONUSPOINTS": "3"}}, {"type": "Feature", "geometry": {"type": "Point", "coordinates": [-110.7663, 32.351]}, "properties": {"NAME": "W7A/PE-126", "TITLE": "5420", "REGION": "Pima County, East", "ASSOCIATION": "USA - Arizona", "POINTS": "6", "BONUSPOINTS": "3"}}, {"type": "Feature", "geometry": {"type": "Point", "coordinates": [-111.406, 32.0879]}, "properties": {"NAME": "W7A/PE-127", "TITLE": "3405", "REGION": "Pima County, East", "ASSOCIATION": "USA - Arizona", "POINTS": "4", "BONUSPOINTS": "3"}}]}