{"type": "FeatureCollection", "name": "W7A/YU SUMMITS", "features": [{"type": "Feature", "geometry": {"type": "Point", "coordinates": [-114.072, 33.3572]}, "properties": {"NAME": "W7A/YU-001", "TITLE": "Ten Ewe Mountain", "REGION": "Yuma County", "ASSOCIATION": "USA - Arizona", "POINTS": "6", "BONUSPOINTS": "3"}}, {"type": "Feature", "geometry": {"type": "Point", "coordinates": [-114.0346, 33.3395]}, "properties": {"NAME": "W7A/YU-002", "TITLE": "Squaw Peak", "REGION": "Yuma County", "ASSOCIATION": "USA - Arizona", "POINTS": "4", "BONUSPOINTS": "3"}}, {"type": "Feature", "geometry": {"type": "Point", "coordinates": [-114.047, 33.3413]}, "properties": {"NAME": "W7A/YU-003", "TITLE": "Old Smokey Mountain", "REGION": "Yuma County", "ASSOCIATION": "USA - Arizona", "POINTS": "4", "BONUSPOINTS": "3"}}, {"type": "Feature", "geometry": {"type": "Point", "coordinates": [-114.0603, 33.3993]}, "properties": {"NAME": "W7A/YU-004", "TITLE": "4170", "REGION": "Yuma County", "ASSOCIATION": "USA - Arizona", "POINTS": "4", "BONUSPOINTS": "3"}}, {"type": "Feature", "geometry": {"type": "Point", "coordinates": [-114.0276, 33.3474]}, "properties": {"NAME": "W7A/YU-005", "TITLE": "4063", "REGION": "Yuma County", "ASSOCIATION": "USA - Arizona", "POINTS": "4", "BONUSPOINTS": "3"}}, {"type": "Feature", "geometry": {"type": "Point", "coordinates": [-114.048, 33.3887]}, "properties": {"NAME": "W7A/YU-006", "TITLE": "3961", "REGION": "Yuma County", "ASSOCIATION": "USA - Arizona", "POINTS": "4", "BONUSPOINTS": "3"}}, {"type": "Feature", "geometry": {"type": "Point", "coordinates": [-114.0058, 33.4032]}, "properties": {"NAME": "W7A/YU-007", "TITLE": "3900", "REGION": "Yuma County", "ASSOCIATION": "USA - Arizona", "POINTS": "4", "BONUSPOINTS": "3"}}, {"type": "Feature", "geometry": {"type": "Point", "coordinates": [-113.9814, 33.408]}, "properties": {"NAME": "W7A/YU-008", "TITLE": "3859", "REGION": "Yuma County", "ASSOCIATION": "USA - Arizona", "POINTS": "4", "BONUSPOINTS": "3"}}, {"type": "Feature", "geometry": {"type": "Point", "coordinates": [-113.9699, 33.3169]}, "properties": {"NAME": "W7A/YU-009", "TITLE": "3639", "REGION": "Yuma County", "ASSOCIATION": "USA - Arizona", "POINTS": "4", "BONUSPOINTS": "3"}}, {"type": "Feature", "geometry": {"type": "Point", "coordinates": [-113.9812, 33.308]}, "properties": {"NAME": "W7A/YU-010", "TITLE": "Polaris Mountain", "REGION": "Yuma County", "ASSOCIATION": "USA - Arizona", "POINTS": "4", "BONUSPOINTS": "3"}}, {"type": "Feature", "geometry": {"type": "Point", "coordinates": [-114.0319, 33.4033]}, "properties": {"NAME": "W7A/YU-011", "TITLE": "3591", "REGION": "Yuma County", "ASSOCIATION": "USA - Arizona", "POINTS": "4", "BONUSPOINTS": "3"}}, {"type": "Feature", "geometry": {"type": "Point", "coordinates": [-114.1031, 33.0261]}, "properties": {"NAME": "W7A/YU-012", "TITLE": "Thumb Peak", "REGION": "Yuma County", "ASSOCIATION": "USA - Arizona", "POINTS": "4", "BONUSPOINTS": "3"}}, {"type": "Feature", "geometry": {"type": "Point", "coordinates": [-114.1253, 33.0557]}, "properties": {"NAME": "W7A/YU-013", "TITLE": "3370", "REGION": "Yuma County", "ASSOCIATION": "USA - Arizona", "POINTS": "4", "BONUSPOINTS": "3"}}, {"type": "Feature", "geometry": {"type": "Point", "coordinates": [-114.2109, 33.1756]}, "properties": {"NAME": "W7A/YU-014", "TITLE": "Clifty Benchmark", "REGION": "Yuma County", "ASSOCIATION": "USA - Arizona", "POINTS": "4", "BONUSPOINTS": "3"}}, {"type": "Feature", "geometry": {"type": "Point", "coordinates": [-113.9298, 33.2771]}, "properties": {"NAME": "W7A/YU-015", "TITLE": "Kofa Butte", "REGION": "Yuma County", "ASSOCIATION": "USA - Arizona", "POINTS": "4", "BONUSPOINTS": "3"}}, {"type": "Feature", "geometry": {"type": "Point", "coordinates": [-114.2342, 32.533]}, "properties": {"NAME": "W7A/YU-016", "TITLE": "Sheep Mountain", "REGION": "Yuma County", "ASSOCIATION": "USA - Arizona", "POINTS": "4", "BONUSPOINTS": "3"}}, {"type": "Feature", "geometry": {"type": "Point", "coordinates": [-113.619, 33.3534]}, "properties": {"NAME": "W7A/YU-017", "TITLE": "Little Horn Benchmark", "REGION": "Yuma County", "ASSOCIATION": "USA - Arizona", "POINTS": "4", "BONUSPOINTS": "3"}}, {"type": "Feature", "geometry": {"type": "Point", "coordinates": [-114.1964, 33.1477]}, "properties": {"NAME": "W7A/YU-018", "TITLE": "3070", "REGION": "Yuma County", "ASSOCIATION": "USA - Arizona", "POINTS": "4", "BONUSPOINTS": "3"}}, {"type": "Feature", "geometry": {"type": "Point", "coordinates": [-114.0536, 33.3209]}, "properties": {"NAME": "W7A/YU-019", "TITLE": "3060", "REGION": "Yuma County", "ASSOCIATION": "USA - Arizona", "POINTS": "4", "BONUSPOINTS": "3"}}, {"type": "Feature", "geometry": {"type": "Point", "coordinates": [-114.1553, 33.0989]}, "properties": {"NAME": "W7A/YU-020", "TITLE": "3030", "REGION": "Yuma County", "ASSOCIATION": "USA - Arizona", "POINTS": "4", "BONUSPOINTS": "3"}}, {"type": "Feature", "geometry": {"type": "Point", "coordinates": [-114.2726, 32.5306]}, "properties": {"NAME": "W7A/YU-021", "TITLE": "3012", "REGION": "Yuma County", "ASSOCIATION": "USA - Arizona", "POINTS": "4", "BONUSPOINTS": "3"}}, {"type": "Feature", "geometry": {"type": "Point", "coordinates": [-113.5427, 32.2632]}, "properties": {"NAME": "W7A/YU-022", "TITLE": "Sierra Pinta", "REGION": "Yuma County", "ASSOCIATION": "USA - Arizona", "POINTS": "2", "BONUSPOINTS": "3"}}, {"type": "Feature", "geometry": {"type": "Point", "coordinates": [-113.8908, 33.2735]}, "properties": {"NAME": "W7A/YU-023", "TITLE": "2940", "REGION": "Yuma County", "ASSOCIATION": "USA - Arizona", "POINTS": "2", "BONUSPOINTS": "3"}}, {"type": "Feature", "geometry": {"type": "Point", "coordinates": [-114.2065, 33.1657]}, "properties": {"NAME": "W7A/YU-024", "TITLE": "2930", "REGION": "Yuma County", "ASSOCIATION": "USA - Arizona", "POINTS": "2", "BONUSPOINTS": "3"}}, {"type": "Feature", "geometry": {"type": "Point", "coordinates": [-113.8598, 33.3311]}, "properties": {"NAME": "W7A/YU-025", "TITLE": "2910", "REGION": "Yuma County", "ASSOCIATION": "USA - Arizona", "POINTS": "2", "BONUSPOINTS": "3"}}, {"type": "Feature", "geometry": {"type": "Point", "coordinates": [-113.9966, 32.498]}, "properties": {"NAME": "W7A/YU-026", "TITLE": "Copper Mountains HP", "REGION": "Yuma County", "ASSOCIATION": "USA - Arizona", "POINTS": "2", "BONUSPOINTS": "3"}}, {"type": "Feature", "geometry": {"type": "Point", "coordinates": [-113.8603, 33.3172]}, "properties": {"NAME": "W7A/YU-027", "TITLE": "2860", "REGION": "Yuma County", "ASSOCIATION": "USA - Arizona", "POINTS": "2", "BONUSPOINTS": "3"}}, {"type": "Feature", "geometry": {"type": "Point", "coordinates": [-114.1646, 33.1506]}, "properties": {"NAME": "W7A/YU-028", "TITLE": "2850", "REGION": "Yuma County", "ASSOCIATION": "USA - Arizona", "POINTS": "2", "BONUSPOINTS": "3"}}, {"type": "Feature", "geometry": {"type": "Point", "coordinates": [-114.2491, 32.5278]}, "properties": {"NAME": "W7A/YU-029", "TITLE": "2850", "REGION": "Yuma County", "ASSOCIATION": "USA - Arizona", "POINTS": "2", "BONUSPOINTS": "3"}}, {"type": "Feature", "geometry": {"type": "Point", "coordinates": [-113.8248, 32.3497]}, "properties": {"NAME": "W7A/YU-030", "TITLE": "Cabeza Benchmark", "REGION": "Yuma County", "ASSOCIATION": "USA - Arizona", "POINTS": "2", "BONUSPOINTS": "3"}}, {"type": "Feature", "geometry": {"type": "Point", "coordinates": [-113.7611, 33.3729]}, "properties": {"NAME": "W7A/YU-031", "TITLE": "2810", "REGION": "Yuma County", "ASSOCIATION": "USA - Arizona", "POINTS": "2", "BONUSPOINTS": "3"}}, {"type": "Feature", "geometry": {"type": "Point", "coordinates": [-113.6477, 32.5896]}, "properties": {"NAME": "W7A/YU-032", "TITLE": "Mohawk Benchmark", "REGION": "Yuma County", "ASSOCIATION": "USA - Arizona", "POINTS": "2", "BONUSPOINTS": "3"}}, {"type": "Feature", "geometry": {"type": "Point", "coordinates": [-114.0465, 32.2734]}, "properties": {"NAME": "W7A/YU-033", "TITLE": "Tinajas Altas Benchmark", "REGION": "Yuma County", "ASSOCIATION": "USA - Arizona", "POINTS": "2", "BONUSPOINTS": "3"}}, {"type": "Feature", "geometry": {"type": "Point", "coordinates": [-114.044, 33.0423]}, "properties": {"NAME": "W7A/YU-034", "TITLE": "2750", "REGION": "Yuma County", "ASSOCIATION": "USA - Arizona", "POINTS": "2", "BONUSPOINTS": "3"}}, {"type": "Feature", "geometry": {"type": "Point", "coordinates": [-114.2112, 32.4855]}, "properties": {"NAME": "W7A/YU-035", "TITLE": "2747", "REGION": "Yuma County", "ASSOCIATION": "USA - Arizona", "POINTS": "2", "BONUSPOINTS": "3"}}, {"type": "Feature", "geometry": {"type": "Point", "coordinates": [-114.3099, 32.5749]}, "properties": {"NAME": "W7A/YU-036", "TITLE": "2744", "REGION": "Yuma County", "ASSOCIATION": "USA - Arizona", "POINTS": "2", "BONUSPOINTS": "3"}}, {"type": "Feature", "geometry": {"type": "Point", "coordinates": [-114.1281, 32.3816]}, "properties": {"NAME": "W7A/YU-037", "TITLE": "2740", "REGION": "Yuma County", "ASSOCIATION": "USA - Arizona", "POINTS": "2", "BONUSPOINTS": "3"}}, {"type": "Feature", "geometry": {"type": "Point", "coordinates": [-114.0776, 33.0348]}, "properties": {"NAME": "W7A/YU-038", "TITLE": "2734", "REGION": "Yuma County", "ASSOCIATION": "USA - Arizona", "POINTS": "2", "BONUSPOINTS": "3"}}, {"type": "Feature", "geometry": {"type": "Point", "coordinates": [-114.3164, 32.5939]}, "properties": {"NAME": "W7A/YU-039", "TITLE": "2722", "REGION": "Yuma County", "ASSOCIATION": "USA - Arizona", "POINTS": "2", "BONUSPOINTS": "3"}}, {"type": "Feature", "geometry": {"type": "Point", "coordinates": [-114.2022, 33.2735]}, "properties": {"NAME": "W7A/YU-040", "TITLE": "High Peak", "REGION": "Yuma County", "ASSOCIATION": "USA - Arizona", "POINTS": "2", "BONUSPOINTS": "3"}}, {"type": "Feature", "geometry": {"type": "Point", "coordinates": [-114.1172, 32.3785]}, "properties": {"NAME": "W7A/YU-041", "TITLE": "Raven Benchmark", "REGION": "Yuma County", "ASSOCIATION": "USA - Arizona", "POINTS": "2", "BONUSPOINTS": "3"}}, {"type": "Feature", "geometry": {"type": "Point", "coordinates": [-114.1459, 33.3105]}, "properties": {"NAME": "W7A/YU-042", "TITLE": "2690", "REGION": "Yuma County", "ASSOCIATION": "USA - Arizona", "POINTS": "2", "BONUSPOINTS": "3"}}, {"type": "Feature", "geometry": {"type": "Point", "coordinates": [-113.672, 32.6182]}, "properties": {"NAME": "W7A/YU-043", "TITLE": "2685", "REGION": "Yuma County", "ASSOCIATION": "USA - Arizona", "POINTS": "2", "BONUSPOINTS": "3"}}, {"type": "Feature", "geometry": {"type": "Point", "coordinates": [-114.1991, 32.4764]}, "properties": {"NAME": "W7A/YU-044", "TITLE": "2685", "REGION": "Yuma County", "ASSOCIATION": "USA - Arizona", "POINTS": "2", "BONUSPOINTS": "3"}}, {"type": "Feature", "geometry": {"type": "Point", "coordinates": [-114.1803, 33.1178]}, "properties": {"NAME": "W7A/YU-045", "TITLE": "2683", "REGION": "Yuma County", "ASSOCIATION": "USA - Arizona", "POINTS": "2", "BONUSPOINTS": "3"}}, {"type": "Feature", "geometry": {"type": "Point", "coordinates": [-114.1773, 33.1937]}, "properties": {"NAME": "W7A/YU-046", "TITLE": "2670", "REGION": "Yuma County", "ASSOCIATION": "USA - Arizona", "POINTS": "2", "BONUSPOINTS": "3"}}, {"type": "Feature", "geometry": {"type": "Point", "coordinates": [-114.0925, 32.3587]}, "properties": {"NAME": "W7A/YU-047", "TITLE": "2660", "REGION": "Yuma County", "ASSOCIATION": "USA - Arizona", "POINTS": "2", "BONUSPOINTS": "3"}}, {"type": "Feature", "geometry": {"type": "Point", "coordinates": [-114.1513, 33.013]}, "properties": {"NAME": "W7A/YU-048", "TITLE": "2656", "REGION": "Yuma County", "ASSOCIATION": "USA - Arizona", "POINTS": "2", "BONUSPOINTS": "3"}}, {"type": "Feature", "geometry": {"type": "Point", "coordinates": [-114.1446, 33.2993]}, "properties": {"NAME": "W7A/YU-049", "TITLE": "2651", "REGION": "Yuma County", "ASSOCIATION": "USA - Arizona", "POINTS": "2", "BONUSPOINTS": "3"}}, {"type": "Feature", "geometry": {"type": "Point", "coordinates": [-113.8945, 32.3823]}, "properties": {"NAME": "W7A/YU-050", "TITLE": "Buck Peak", "REGION": "Yuma County", "ASSOCIATION": "USA - Arizona", "POINTS": "2", "BONUSPOINTS": "3"}}, {"type": "Feature", "geometry": {"type": "Point", "coordinates": [-113.9513, 33.2817]}, "properties": {"NAME": "W7A/YU-051", "TITLE": "2620", "REGION": "Yuma County", "ASSOCIATION": "USA - Arizona", "POINTS": "2", "BONUSPOINTS": "3"}}, {"type": "Feature", "geometry": {"type": "Point", "coordinates": [-113.9807, 32.4846]}, "properties": {"NAME": "W7A/YU-052", "TITLE": "2610", "REGION": "Yuma County", "ASSOCIATION": "USA - Arizona", "POINTS": "2", "BONUSPOINTS": "3"}}, {"type": "Feature", "geometry": {"type": "Point", "coordinates": [-114.0245, 33.0183]}, "properties": {"NAME": "W7A/YU-053", "TITLE": "Garden Benchmark", "REGION": "Yuma County", "ASSOCIATION": "USA - Arizona", "POINTS": "2", "BONUSPOINTS": "3"}}, {"type": "Feature", "geometry": {"type": "Point", "coordinates": [-114.1719, 32.4469]}, "properties": {"NAME": "W7A/YU-054", "TITLE": "2580", "REGION": "Yuma County", "ASSOCIATION": "USA - Arizona", "POINTS": "2", "BONUSPOINTS": "3"}}, {"type": "Feature", "geometry": {"type": "Point", "coordinates": [-113.8386, 32.3438]}, "properties": {"NAME": "W7A/YU-055", "TITLE": "2570", "REGION": "Yuma County", "ASSOCIATION": "USA - Arizona", "POINTS": "2", "BONUSPOINTS": "3"}}, {"type": "Feature", "geometry": {"type": "Point", "coordinates": [-113.8085, 32.289]}, "properties": {"NAME": "W7A/YU-056", "TITLE": "Cabeza Prieta Peak", "REGION": "Yuma County", "ASSOCIATION": "USA - Arizona", "POINTS": "2", "BONUSPOINTS": "3"}}, {"type": "Feature", "geometry": {"type": "Point", "coordinates": [-113.9231, 32.3845]}, "properties": {"NAME": "W7A/YU-057", "TITLE": "2553", "REGION": "Yuma County", "ASSOCIATION": "USA - Arizona", "POINTS": "2", "BONUSPOINTS": "3"}}, {"type": "Feature", "geometry": {"type": "Point", "coordinates": [-114.2067, 33.2606]}, "properties": {"NAME": "W7A/YU-058", "TITLE": "2550", "REGION": "Yuma County", "ASSOCIATION": "USA - Arizona", "POINTS": "2", "BONUSPOINTS": "3"}}, {"type": "Feature", "geometry": {"type": "Point", "coordinates": [-113.8475, 32.3274]}, "properties": {"NAME": "W7A/YU-059", "TITLE": "2521", "REGION": "Yuma County", "ASSOCIATION": "USA - Arizona", "POINTS": "2", "BONUSPOINTS": "3"}}, {"type": "Feature", "geometry": {"type": "Point", "coordinates": [-113.8497, 33.2175]}, "properties": {"NAME": "W7A/YU-060", "TITLE": "2506", "REGION": "Yuma County", "ASSOCIATION": "USA - Arizona", "POINTS": "2", "BONUSPOINTS": "3"}}, {"type": "Feature", "geometry": {"type": "Point", "coordinates": [-113.8916, 32.3925]}, "properties": {"NAME": "W7A/YU-061", "TITLE": "2470", "REGION": "Yuma County", "ASSOCIATION": "USA - Arizona", "POINTS": "2", "BONUSPOINTS": "3"}}, {"type": "Feature", "geometry": {"type": "Point", "coordinates": [-114.1115, 32.3578]}, "properties": {"NAME": "W7A/YU-062", "TITLE": "2464", "REGION": "Yuma County", "ASSOCIATION": "USA - Arizona", "POINTS": "2", "BONUSPOINTS": "3"}}, {"type": "Feature", "geometry": {"type": "Point", "coordinates": [-114.0058, 32.9867]}, "properties": {"NAME": "W7A/YU-063", "TITLE": "2443", "REGION": "Yuma County", "ASSOCIATION": "USA - Arizona", "POINTS": "2", "BONUSPOINTS": "3"}}, {"type": "Feature", "geometry": {"type": "Point", "coordinates": [-114.0224, 32.9732]}, "properties": {"NAME": "W7A/YU-064", "TITLE": "2438", "REGION": "Yuma County", "ASSOCIATION": "USA - Arizona", "POINTS": "2", "BONUSPOINTS": "3"}}, {"type": "Feature", "geometry": {"type": "Point", "coordinates": [-114.1677, 33.2908]}, "properties": {"NAME": "W7A/YU-065", "TITLE": "2434", "REGION": "Yuma County", "ASSOCIATION": "USA - Arizona", "POINTS": "2", "BONUSPOINTS": "3"}}, {"type": "Feature", "geometry": {"type": "Point", "coordinates": [-114.1304, 33.0114]}, "properties": {"NAME": "W7A/YU-066", "TITLE": "2425", "REGION": "Yuma County", "ASSOCIATION": "USA - Arizona", "POINTS": "2", "BONUSPOINTS": "3"}}, {"type": "Feature", "geometry": {"type": "Point", "coordinates": [-113.8245, 33.1757]}, "properties": {"NAME": "W7A/YU-067", "TITLE": "2421", "REGION": "Yuma County", "ASSOCIATION": "USA - Arizona", "POINTS": "2", "BONUSPOINTS": "3"}}, {"type": "Feature", "geometry": {"type": "Point", "coordinates": [-113.6165, 32.3583]}, "properties": {"NAME": "W7A/YU-068", "TITLE": "Heart Benchmark", "REGION": "Yuma County", "ASSOCIATION": "USA - Arizona", "POINTS": "2", "BONUSPOINTS": "3"}}, {"type": "Feature", "geometry": {"type": "Point", "coordinates": [-113.8499, 33.2025]}, "properties": {"NAME": "W7A/YU-069", "TITLE": "Courthouse Mountain", "REGION": "Yuma County", "ASSOCIATION": "USA - Arizona", "POINTS": "2", "BONUSPOINTS": "3"}}, {"type": "Feature", "geometry": {"type": "Point", "coordinates": [-113.467, 32.406]}, "properties": {"NAME": "W7A/YU-070", "TITLE": "Monson Benchmark", "REGION": "Yuma County", "ASSOCIATION": "USA - Arizona", "POINTS": "2", "BONUSPOINTS": "3"}}, {"type": "Feature", "geometry": {"type": "Point", "coordinates": [-113.5303, 32.495]}, "properties": {"NAME": "W7A/YU-071", "TITLE": "Monreal Benchmark", "REGION": "Yuma County", "ASSOCIATION": "USA - Arizona", "POINTS": "2", "BONUSPOINTS": "3"}}, {"type": "Feature", "geometry": {"type": "Point", "coordinates": [-114.0404, 33.0036]}, "properties": {"NAME": "W7A/YU-072", "TITLE": "2390", "REGION": "Yuma County", "ASSOCIATION": "USA - Arizona", "POINTS": "2", "BONUSPOINTS": "3"}}, {"type": "Feature", "geometry": {"type": "Point", "coordinates": [-114.1369, 33.3051]}, "properties": {"NAME": "W7A/YU-073", "TITLE": "2390", "REGION": "Yuma County", "ASSOCIATION": "USA - Arizona", "POINTS": "2", "BONUSPOINTS": "3"}}, {"type": "Feature", "geometry": {"type": "Point", "coordinates": [-113.5017, 32.2336]}, "properties": {"NAME": "W7A/YU-074", "TITLE": "2388", "REGION": "Yuma County", "ASSOCIATION": "USA - Arizona", "POINTS": "2", "BONUSPOINTS": "3"}}, {"type": "Feature", "geometry": {"type": "Point", "coordinates": [-114.0315, 32.2629]}, "properties": {"NAME": "W7A/YU-075", "TITLE": "2380", "REGION": "Yuma County", "ASSOCIATION": "USA - Arizona", "POINTS": "2", "BONUSPOINTS": "3"}}, {"type": "Feature", "geometry": {"type": "Point", "coordinates": [-113.7318, 32.6985]}, "properties": {"NAME": "W7A/YU-076", "TITLE": "2310", "REGION": "Yuma County", "ASSOCIATION": "USA - Arizona", "POINTS": "2", "BONUSPOINTS": "3"}}, {"type": "Feature", "geometry": {"type": "Point", "coordinates": [-113.7217, 32.1745]}, "properties": {"NAME": "W7A/YU-077", "TITLE": "Tule Benchmark", "REGION": "Yuma County", "ASSOCIATION": "USA - Arizona", "POINTS": "2", "BONUSPOINTS": "3"}}, {"type": "Feature", "geometry": {"type": "Point", "coordinates": [-114.1544, 33.0432]}, "properties": {"NAME": "W7A/YU-078", "TITLE": "2305", "REGION": "Yuma County", "ASSOCIATION": "USA - Arizona", "POINTS": "2", "BONUSPOINTS": "3"}}, {"type": "Feature", "geometry": {"type": "Point", "coordinates": [-113.8353, 32.3291]}, "properties": {"NAME": "W7A/YU-079", "TITLE": "2265", "REGION": "Yuma County", "ASSOCIATION": "USA - Arizona", "POINTS": "2", "BONUSPOINTS": "3"}}, {"type": "Feature", "geometry": {"type": "Point", "coordinates": [-114.2848, 32.5199]}, "properties": {"NAME": "W7A/YU-080", "TITLE": "2261", "REGION": "Yuma County", "ASSOCIATION": "USA - Arizona", "POINTS": "2", "BONUSPOINTS": "3"}}, {"type": "Feature", "geometry": {"type": "Point", "coordinates": [-113.8137, 32.3837]}, "properties": {"NAME": "W7A/YU-081", "TITLE": "2258", "REGION": "Yuma County", "ASSOCIATION": "USA - Arizona", "POINTS": "2", "BONUSPOINTS": "3"}}, {"type": "Feature", "geometry": {"type": "Point", "coordinates": [-113.8233, 32.3774]}, "properties": {"NAME": "W7A/YU-082", "TITLE": "2251", "REGION": "Yuma County", "ASSOCIATION": "USA - Arizona", "POINTS": "2", "BONUSPOINTS": "3"}}, {"type": "Feature", "geometry": {"type": "Point", "coordinates": [-113.7952, 32.1839]}, "properties": {"NAME": "W7A/YU-083", "TITLE": "2236", "REGION": "Yuma County", "ASSOCIATION": "USA - Arizona", "POINTS": "2", "BONUSPOINTS": "3"}}, {"type": "Feature", "geometry": {"type": "Point", "coordinates": [-113.8095, 33.1459]}, "properties": {"NAME": "W7A/YU-084", "TITLE": "Black Dome", "REGION": "Yuma County", "ASSOCIATION": "USA - Arizona", "POINTS": "2", "BONUSPOINTS": "3"}}, {"type": "Feature", "geometry": {"type": "Point", "coordinates": [-113.4752, 32.202]}, "properties": {"NAME": "W7A/YU-085", "TITLE": "Simmons Benchmark", "REGION": "Yuma County", "ASSOCIATION": "USA - Arizona", "POINTS": "2", "BONUSPOINTS": "3"}}, {"type": "Feature", "geometry": {"type": "Point", "coordinates": [-114.1925, 33.2993]}, "properties": {"NAME": "W7A/YU-086", "TITLE": "2217", "REGION": "Yuma County", "ASSOCIATION": "USA - Arizona", "POINTS": "2", "BONUSPOINTS": "3"}}, {"type": "Feature", "geometry": {"type": "Point", "coordinates": [-113.461, 32.1861]}, "properties": {"NAME": "W7A/YU-087", "TITLE": "2210", "REGION": "Yuma County", "ASSOCIATION": "USA - Arizona", "POINTS": "2", "BONUSPOINTS": "3"}}, {"type": "Feature", "geometry": {"type": "Point", "coordinates": [-113.7925, 33.2001]}, "properties": {"NAME": "W7A/YU-088", "TITLE": "2207", "REGION": "Yuma County", "ASSOCIATION": "USA - Arizona", "POINTS": "2", "BONUSPOINTS": "3"}}, {"type": "Feature", "geometry": {"type": "Point", "coordinates": [-113.9868, 32.4703]}, "properties": {"NAME": "W7A/YU-089", "TITLE": "2195", "REGION": "Yuma County", "ASSOCIATION": "USA - Arizona", "POINTS": "2", "BONUSPOINTS": "3"}}, {"type": "Feature", "geometry": {"type": "Point", "coordinates": [-113.4171, 33.3293]}, "properties": {"NAME": "W7A/YU-090", "TITLE": "Nottbusch Butte", "REGION": "Yuma County", "ASSOCIATION": "USA - Arizona", "POINTS": "2", "BONUSPOINTS": "3"}}, {"type": "Feature", "geometry": {"type": "Point", "coordinates": [-113.6524, 33.3189]}, "properties": {"NAME": "W7A/YU-091", "TITLE": "2174", "REGION": "Yuma County", "ASSOCIATION": "USA - Arizona", "POINTS": "2", "BONUSPOINTS": "3"}}, {"type": "Feature", "geometry": {"type": "Point", "coordinates": [-113.7072, 33.1581]}, "properties": {"NAME": "W7A/YU-092", "TITLE": "2172", "REGION": "Yuma County", "ASSOCIATION": "USA - Arizona", "POINTS": "2", "BONUSPOINTS": "3"}}, {"type": "Feature", "geometry": {"type": "Point", "coordinates": [-113.8716, 32.2661]}, "properties": {"NAME": "W7A/YU-093", "TITLE": "Tordillo Mountain", "REGION": "Yuma County", "ASSOCIATION": "USA - Arizona", "POINTS": "2", "BONUSPOINTS": "3"}}, {"type": "Feature", "geometry": {"type": "Point", "coordinates": [-113.6837, 33.1674]}, "properties": {"NAME": "W7A/YU-094", "TITLE": "2168", "REGION": "Yuma County", "ASSOCIATION": "USA - Arizona", "POINTS": "2", "BONUSPOINTS": "3"}}, {"type": "Feature", "geometry": {"type": "Point", "coordinates": [-114.3296, 32.6343]}, "properties": {"NAME": "W7A/YU-095", "TITLE": "Fortuna Benchmark", "REGION": "Yuma County", "ASSOCIATION": "USA - Arizona", "POINTS": "2", "BONUSPOINTS": "3"}}, {"type": "Feature", "geometry": {"type": "Point", "coordinates": [-113.7415, 32.172]}, "properties": {"NAME": "W7A/YU-096", "TITLE": "2153", "REGION": "Yuma County", "ASSOCIATION": "USA - Arizona", "POINTS": "2", "BONUSPOINTS": "3"}}, {"type": "Feature", "geometry": {"type": "Point", "coordinates": [-113.6767, 33.1435]}, "properties": {"NAME": "W7A/YU-097", "TITLE": "Tanker Benchmark", "REGION": "Yuma County", "ASSOCIATION": "USA - Arizona", "POINTS": "2", "BONUSPOINTS": "3"}}, {"type": "Feature", "geometry": {"type": "Point", "coordinates": [-114.1685, 33.347]}, "properties": {"NAME": "W7A/YU-098", "TITLE": "2152", "REGION": "Yuma County", "ASSOCIATION": "USA - Arizona", "POINTS": "2", "BONUSPOINTS": "3"}}, {"type": "Feature", "geometry": {"type": "Point", "coordinates": [-114.1419, 32.3999]}, "properties": {"NAME": "W7A/YU-099", "TITLE": "2140", "REGION": "Yuma County", "ASSOCIATION": "USA - Arizona", "POINTS": "2", "BONUSPOINTS": "3"}}, {"type": "Feature", "geometry": {"type": "Point", "coordinates": [-113.7074, 32.1596]}, "properties": {"NAME": "W7A/YU-100", "TITLE": "2132", "REGION": "Yuma County", "ASSOCIATION": "USA - Arizona", "POINTS": "2", "BONUSPOINTS": "3"}}, {"type": "Feature", "geometry": {"type": "Point", "coordinates": [-113.6855, 32.6459]}, "properties": {"NAME": "W7A/YU-101", "TITLE": "2130", "REGION": "Yuma County", "ASSOCIATION": "USA - Arizona", "POINTS": "2", "BONUSPOINTS": "3"}}, {"type": "Feature", "geometry": {"type": "Point", "coordinates": [-113.7511, 33.2329]}, "properties": {"NAME": "W7A/YU-102", "TITLE": "2130", "REGION": "Yuma County", "ASSOCIATION": "USA - Arizona", "POINTS": "2", "BONUSPOINTS": "3"}}, {"type": "Feature", "geometry": {"type": "Point", "coordinates": [-113.7074, 32.6744]}, "properties": {"NAME": "W7A/YU-103", "TITLE": "2127", "REGION": "Yuma County", "ASSOCIATION": "USA - Arizona", "POINTS": "2", "BONUSPOINTS": "3"}}, {"type": "Feature", "geometry": {"type": "Point", "coordinates": [-113.4919, 32.4256]}, "properties": {"NAME": "W7A/YU-104", "TITLE": "2116", "REGION": "Yuma County", "ASSOCIATION": "USA - Arizona", "POINTS": "2", "BONUSPOINTS": "3"}}, {"type": "Feature", "geometry": {"type": "Point", "coordinates": [-113.8657, 32.3157]}, "properties": {"NAME": "W7A/YU-105", "TITLE": "2114", "REGION": "Yuma County", "ASSOCIATION": "USA - Arizona", "POINTS": "2", "BONUSPOINTS": "3"}}, {"type": "Feature", "geometry": {"type": "Point", "coordinates": [-113.5852, 32.326]}, "properties": {"NAME": "W7A/YU-106", "TITLE": "2101", "REGION": "Yuma County", "ASSOCIATION": "USA - Arizona", "POINTS": "2", "BONUSPOINTS": "3"}}, {"type": "Feature", "geometry": {"type": "Point", "coordinates": [-114.3331, 32.5777]}, "properties": {"NAME": "W7A/YU-107", "TITLE": "2094", "REGION": "Yuma County", "ASSOCIATION": "USA - Arizona", "POINTS": "2", "BONUSPOINTS": "3"}}, {"type": "Feature", "geometry": {"type": "Point", "coordinates": [-113.6378, 32.5819]}, "properties": {"NAME": "W7A/YU-108", "TITLE": "2088", "REGION": "Yuma County", "ASSOCIATION": "USA - Arizona", "POINTS": "2", "BONUSPOINTS": "3"}}, {"type": "Feature", "geometry": {"type": "Point", "coordinates": [-113.5563, 33.3532]}, "properties": {"NAME": "W7A/YU-109", "TITLE": "2086", "REGION": "Yuma County", "ASSOCIATION": "USA - Arizona", "POINTS": "2", "BONUSPOINTS": "3"}}, {"type": "Feature", "geometry": {"type": "Point", "coordinates": [-113.8401, 32.2772]}, "properties": {"NAME": "W7A/YU-110", "TITLE": "2059", "REGION": "Yuma County", "ASSOCIATION": "USA - Arizona", "POINTS": "2", "BONUSPOINTS": "3"}}, {"type": "Feature", "geometry": {"type": "Point", "coordinates": [-114.2763, 32.5611]}, "properties": {"NAME": "W7A/YU-111", "TITLE": "2045", "REGION": "Yuma County", "ASSOCIATION": "USA - Arizona", "POINTS": "2", "BONUSPOINTS": "3"}}, {"type": "Feature", "geometry": {"type": "Point", "coordinates": [-113.752, 32.2593]}, "properties": {"NAME": "W7A/YU-112", "TITLE": "2014", "REGION": "Yuma County", "ASSOCIATION": "USA - Arizona", "POINTS": "2", "BONUSPOINTS": "3"}}, {"type": "Feature", "geometry": {"type": "Point", "coordinates": [-113.6127, 32.3312]}, "properties": {"NAME": "W7A/YU-113", "TITLE": "Isla Pinta", "REGION": "Yuma County", "ASSOCIATION": "USA - Arizona", "POINTS": "2", "BONUSPOINTS": "3"}}, {"type": "Feature", "geometry": {"type": "Point", "coordinates": [-113.7882, 32.2315]}, "properties": {"NAME": "W7A/YU-114", "TITLE": "1999", "REGION": "Yuma County", "ASSOCIATION": "USA - Arizona", "POINTS": "1", "BONUSPOINTS": "3"}}, {"type": "Feature", "geometry": {"type": "Point", "coordinates": [-114.2982, 32.546]}, "properties": {"NAME": "W7A/YU-115", "TITLE": "1999", "REGION": "Yuma County", "ASSOCIATION": "USA - Arizona", "POINTS": "1", "BONUSPOINTS": "3"}}, {"type": "Feature", "geometry": {"type": "Point", "coordinates": [-113.7616, 32.7512]}, "properties": {"NAME": "W7A/YU-116", "TITLE": "Mohawk Peak", "REGION": "Yuma County", "ASSOCIATION": "USA - Arizona", "POINTS": "1", "BONUSPOINTS": "3"}}, {"type": "Feature", "geometry": {"type": "Point", "coordinates": [-113.7989, 32.2524]}, "properties": {"NAME": "W7A/YU-117", "TITLE": "1967", "REGION": "Yuma County", "ASSOCIATION": "USA - Arizona", "POINTS": "1", "BONUSPOINTS": "3"}}, {"type": "Feature", "geometry": {"type": "Point", "coordinates": [-113.3683, 33.2447]}, "properties": {"NAME": "W7A/YU-118", "TITLE": "Picacho Hills", "REGION": "Yuma County", "ASSOCIATION": "USA - Arizona", "POINTS": "1", "BONUSPOINTS": "3"}}, {"type": "Feature", "geometry": {"type": "Point", "coordinates": [-113.7935, 32.3468]}, "properties": {"NAME": "W7A/YU-119", "TITLE": "1963", "REGION": "Yuma County", "ASSOCIATION": "USA - Arizona", "POINTS": "1", "BONUSPOINTS": "3"}}, {"type": "Feature", "geometry": {"type": "Point", "coordinates": [-113.3427, 33.2384]}, "properties": {"NAME": "W7A/YU-120", "TITLE": "1961", "REGION": "Yuma County", "ASSOCIATION": "USA - Arizona", "POINTS": "1", "BONUSPOINTS": "3"}}, {"type": "Feature", "geometry": {"type": "Point", "coordinates": [-113.7324, 32.2619]}, "properties": {"NAME": "W7A/YU-121", "TITLE": "1961", "REGION": "Yuma County", "ASSOCIATION": "USA - Arizona", "POINTS": "1", "BONUSPOINTS": "3"}}, {"type": "Feature", "geometry": {"type": "Point", "coordinates": [-113.8298, 32.2196]}, "properties": {"NAME": "W7A/YU-122", "TITLE": "1960", "REGION": "Yuma County", "ASSOCIATION": "USA - Arizona", "POINTS": "1", "BONUSPOINTS": "3"}}, {"type": "Feature", "geometry": {"type": "Point", "coordinates": [-114.3439, 32.6227]}, "properties": {"NAME": "W7A/YU-123", "TITLE": "1954", "REGION": "Yuma County", "ASSOCIATION": "USA - Arizona", "POINTS": "1", "BONUSPOINTS": "3"}}, {"type": "Feature", "geometry": {"type": "Point", "coordinates": [-113.426, 32.158]}, "properties": {"NAME": "W7A/YU-124", "TITLE": "1950", "REGION": "Yuma County", "ASSOCIATION": "USA - Arizona", "POINTS": "1", "BONUSPOINTS": "3"}}, {"type": "Feature", "geometry": {"type": "Point", "coordinates": [-114.0842, 32.3258]}, "properties": {"NAME": "W7A/YU-125", "TITLE": "1947", "REGION": "Yuma County", "ASSOCIATION": "USA - Arizona", "POINTS": "1", "BONUSPOINTS": "3"}}, {"type": "Feature", "geometry": {"type": "Point", "coordinates": [-114.2952, 32.5107]}, "properties": {"NAME": "W7A/YU-126", "TITLE": "Vopoki Ridge", "REGION": "Yuma County", "ASSOCIATION": "USA - Arizona", "POINTS": "1", "BONUSPOINTS": "3"}}, {"type": "Feature", "geometry": {"type": "Point", "coordinates": [-113.5371, 32.5156]}, "properties": {"NAME": "W7A/YU-127", "TITLE": "1932", "REGION": "Yuma County", "ASSOCIATION": "USA - Arizona", "POINTS": "1", "BONUSPOINTS": "3"}}, {"type": "Feature", "geometry": {"type": "Point", "coordinates": [-113.826, 32.2028]}, "properties": {"NAME": "W7A/YU-128", "TITLE": "1917", "REGION": "Yuma County", "ASSOCIATION": "USA - Arizona", "POINTS": "1", "BONUSPOINTS": "3"}}, {"type": "Feature", "geometry": {"type": "Point", "coordinates": [-113.6016, 32.3198]}, "properties": {"NAME": "W7A/YU-129", "TITLE": "1910", "REGION": "Yuma County", "ASSOCIATION": "USA - Arizona", "POINTS": "1", "BONUSPOINTS": "3"}}, {"type": "Feature", "geometry": {"type": "Point", "coordinates": [-114.2476, 32.8162]}, "properties": {"NAME": "W7A/YU-130", "TITLE": "Mugg Benchmark", "REGION": "Yuma County", "ASSOCIATION": "USA - Arizona", "POINTS": "1", "BONUSPOINTS": "3"}}, {"type": "Feature", "geometry": {"type": "Point", "coordinates": [-113.6585, 33.1623]}, "properties": {"NAME": "W7A/YU-131", "TITLE": "1908", "REGION": "Yuma County", "ASSOCIATION": "USA - Arizona", "POINTS": "1", "BONUSPOINTS": "3"}}, {"type": "Feature", "geometry": {"type": "Point", "coordinates": [-114.1343, 32.7991]}, "properties": {"NAME": "W7A/YU-132", "TITLE": "Red Bluff Mountain", "REGION": "Yuma County", "ASSOCIATION": "USA - Arizona", "POINTS": "1", "BONUSPOINTS": "3"}}, {"type": "Feature", "geometry": {"type": "Point", "coordinates": [-113.6346, 32.9935]}, "properties": {"NAME": "W7A/YU-133", "TITLE": "1895", "REGION": "Yuma County", "ASSOCIATION": "USA - Arizona", "POINTS": "1", "BONUSPOINTS": "3"}}, {"type": "Feature", "geometry": {"type": "Point", "coordinates": [-113.635, 33.0143]}, "properties": {"NAME": "W7A/YU-134", "TITLE": "1895", "REGION": "Yuma County", "ASSOCIATION": "USA - Arizona", "POINTS": "1", "BONUSPOINTS": "3"}}, {"type": "Feature", "geometry": {"type": "Point", "coordinates": [-113.6069, 32.5515]}, "properties": {"NAME": "W7A/YU-135", "TITLE": "1894", "REGION": "Yuma County", "ASSOCIATION": "USA - Arizona", "POINTS": "1", "BONUSPOINTS": "3"}}, {"type": "Feature", "geometry": {"type": "Point", "coordinates": [-113.6561, 33.0209]}, "properties": {"NAME": "W7A/YU-136", "TITLE": "1889", "REGION": "Yuma County", "ASSOCIATION": "USA - Arizona", "POINTS": "1", "BONUSPOINTS": "3"}}, {"type": "Feature", "geometry": {"type": "Point", "coordinates": [-113.3878, 33.2475]}, "properties": {"NAME": "W7A/YU-137", "TITLE": "1870", "REGION": "Yuma County", "ASSOCIATION": "USA - Arizona", "POINTS": "1", "BONUSPOINTS": "3"}}, {"type": "Feature", "geometry": {"type": "Point", "coordinates": [-113.7899, 32.272]}, "properties": {"NAME": "W7A/YU-138", "TITLE": "1864", "REGION": "Yuma County", "ASSOCIATION": "USA - Arizona", "POINTS": "1", "BONUSPOINTS": "3"}}, {"type": "Feature", "geometry": {"type": "Point", "coordinates": [-113.4102, 33.2595]}, "properties": {"NAME": "W7A/YU-139", "TITLE": "Clanton Hill", "REGION": "Yuma County", "ASSOCIATION": "USA - Arizona", "POINTS": "1", "BONUSPOINTS": "3"}}, {"type": "Feature", "geometry": {"type": "Point", "coordinates": [-113.7867, 33.1392]}, "properties": {"NAME": "W7A/YU-140", "TITLE": "1839", "REGION": "Yuma County", "ASSOCIATION": "USA - Arizona", "POINTS": "1", "BONUSPOINTS": "3"}}, {"type": "Feature", "geometry": {"type": "Point", "coordinates": [-113.3418, 32.6461]}, "properties": {"NAME": "W7A/YU-141", "TITLE": "Aguila Mountains HP", "REGION": "Yuma County", "ASSOCIATION": "USA - Arizona", "POINTS": "1", "BONUSPOINTS": "3"}}, {"type": "Feature", "geometry": {"type": "Point", "coordinates": [-113.3616, 33.2301]}, "properties": {"NAME": "W7A/YU-142", "TITLE": "1796", "REGION": "Yuma County", "ASSOCIATION": "USA - Arizona", "POINTS": "1", "BONUSPOINTS": "3"}}, {"type": "Feature", "geometry": {"type": "Point", "coordinates": [-113.3793, 32.3073]}, "properties": {"NAME": "W7A/YU-143", "TITLE": "Bryan Mountains HP", "REGION": "Yuma County", "ASSOCIATION": "USA - Arizona", "POINTS": "1", "BONUSPOINTS": "3"}}, {"type": "Feature", "geometry": {"type": "Point", "coordinates": [-113.3574, 33.2231]}, "properties": {"NAME": "W7A/YU-144", "TITLE": "Black Mountain", "REGION": "Yuma County", "ASSOCIATION": "USA - Arizona", "POINTS": "1", "BONUSPOINTS": "3"}}, {"type": "Feature", "geometry": {"type": "Point", "coordinates": [-113.4388, 32.1704]}, "properties": {"NAME": "W7A/YU-145", "TITLE": "1790", "REGION": "Yuma County", "ASSOCIATION": "USA - Arizona", "POINTS": "1", "BONUSPOINTS": "3"}}, {"type": "Feature", "geometry": {"type": "Point", "coordinates": [-113.6389, 32.3881]}, "properties": {"NAME": "W7A/YU-146", "TITLE": "1781", "REGION": "Yuma County", "ASSOCIATION": "USA - Arizona", "POINTS": "1", "BONUSPOINTS": "3"}}, {"type": "Feature", "geometry": {"type": "Point", "coordinates": [-114.1101, 32.4041]}, "properties": {"NAME": "W7A/YU-147", "TITLE": "Raven Butte", "REGION": "Yuma County", "ASSOCIATION": "USA - Arizona", "POINTS": "1", "BONUSPOINTS": "3"}}, {"type": "Feature", "geometry": {"type": "Point", "coordinates": [-114.3427, 32.6772]}, "properties": {"NAME": "W7A/YU-148", "TITLE": "1770", "REGION": "Yuma County", "ASSOCIATION": "USA - Arizona", "POINTS": "1", "BONUSPOINTS": "3"}}, {"type": "Feature", "geometry": {"type": "Point", "coordinates": [-113.6768, 32.2314]}, "properties": {"NAME": "W7A/YU-149", "TITLE": "Sierra Arida", "REGION": "Yuma County", "ASSOCIATION": "USA - Arizona", "POINTS": "1", "BONUSPOINTS": "3"}}, {"type": "Feature", "geometry": {"type": "Point", "coordinates": [-113.4148, 33.2461]}, "properties": {"NAME": "W7A/YU-150", "TITLE": "1739", "REGION": "Yuma County", "ASSOCIATION": "USA - Arizona", "POINTS": "1", "BONUSPOINTS": "3"}}, {"type": "Feature", "geometry": {"type": "Point", "coordinates": [-113.6872, 32.1675]}, "properties": {"NAME": "W7A/YU-151", "TITLE": "1736", "REGION": "Yuma County", "ASSOCIATION": "USA - Arizona", "POINTS": "1", "BONUSPOINTS": "3"}}, {"type": "Feature", "geometry": {"type": "Point", "coordinates": [-113.9744, 33.0018]}, "properties": {"NAME": "W7A/YU-152", "TITLE": "1736", "REGION": "Yuma County", "ASSOCIATION": "USA - Arizona", "POINTS": "1", "BONUSPOINTS": "3"}}, {"type": "Feature", "geometry": {"type": "Point", "coordinates": [-113.5877, 32.9922]}, "properties": {"NAME": "W7A/YU-153", "TITLE": "1723", "REGION": "Yuma County", "ASSOCIATION": "USA - Arizona", "POINTS": "1", "BONUSPOINTS": "3"}}, {"type": "Feature", "geometry": {"type": "Point", "coordinates": [-113.3379, 32.6153]}, "properties": {"NAME": "W7A/YU-154", "TITLE": "1715", "REGION": "Yuma County", "ASSOCIATION": "USA - Arizona", "POINTS": "1", "BONUSPOINTS": "3"}}, {"type": "Feature", "geometry": {"type": "Point", "coordinates": [-113.7619, 33.1195]}, "properties": {"NAME": "W7A/YU-155", "TITLE": "1714", "REGION": "Yuma County", "ASSOCIATION": "USA - Arizona", "POINTS": "1", "BONUSPOINTS": "3"}}, {"type": "Feature", "geometry": {"type": "Point", "coordinates": [-113.5604, 33.0098]}, "properties": {"NAME": "W7A/YU-156", "TITLE": "1690", "REGION": "Yuma County", "ASSOCIATION": "USA - Arizona", "POINTS": "1", "BONUSPOINTS": "3"}}, {"type": "Feature", "geometry": {"type": "Point", "coordinates": [-114.2641, 32.7612]}, "properties": {"NAME": "W7A/YU-157", "TITLE": "Klothos Temple", "REGION": "Yuma County", "ASSOCIATION": "USA - Arizona", "POINTS": "1", "BONUSPOINTS": "3"}}, {"type": "Feature", "geometry": {"type": "Point", "coordinates": [-113.7741, 32.3908]}, "properties": {"NAME": "W7A/YU-158", "TITLE": "Sweet Benchmark", "REGION": "Yuma County", "ASSOCIATION": "USA - Arizona", "POINTS": "1", "BONUSPOINTS": "3"}}, {"type": "Feature", "geometry": {"type": "Point", "coordinates": [-113.963, 32.9012]}, "properties": {"NAME": "W7A/YU-159", "TITLE": "1659", "REGION": "Yuma County", "ASSOCIATION": "USA - Arizona", "POINTS": "1", "BONUSPOINTS": "3"}}, {"type": "Feature", "geometry": {"type": "Point", "coordinates": [-113.98, 32.9417]}, "properties": {"NAME": "W7A/YU-160", "TITLE": "1658", "REGION": "Yuma County", "ASSOCIATION": "USA - Arizona", "POINTS": "1", "BONUSPOINTS": "3"}}, {"type": "Feature", "geometry": {"type": "Point", "coordinates": [-114.3868, 32.7262]}, "properties": {"NAME": "W7A/YU-161", "TITLE": "1656", "REGION": "Yuma County", "ASSOCIATION": "USA - Arizona", "POINTS": "1", "BONUSPOINTS": "3"}}, {"type": "Feature", "geometry": {"type": "Point", "coordinates": [-114.2902, 32.786]}, "properties": {"NAME": "W7A/YU-162", "TITLE": "1641", "REGION": "Yuma County", "ASSOCIATION": "USA - Arizona", "POINTS": "1", "BONUSPOINTS": "3"}}, {"type": "Feature", "geometry": {"type": "Point", "coordinates": [-113.9659, 32.9541]}, "properties": {"NAME": "W7A/YU-163", "TITLE": "Black Hills", "REGION": "Yuma County", "ASSOCIATION": "USA - Arizona", "POINTS": "1", "BONUSPOINTS": "3"}}, {"type": "Feature", "geometry": {"type": "Point", "coordinates": [-114.1363, 32.4217]}, "properties": {"NAME": "W7A/YU-164", "TITLE": "1620", "REGION": "Yuma County", "ASSOCIATION": "USA - Arizona", "POINTS": "1", "BONUSPOINTS": "3"}}, {"type": "Feature", "geometry": {"type": "Point", "coordinates": [-113.3557, 32.464]}, "properties": {"NAME": "W7A/YU-165", "TITLE": "1618", "REGION": "Yuma County", "ASSOCIATION": "USA - Arizona", "POINTS": "1", "BONUSPOINTS": "3"}}, {"type": "Feature", "geometry": {"type": "Point", "coordinates": [-113.4106, 32.1359]}, "properties": {"NAME": "W7A/YU-166", "TITLE": "1605", "REGION": "Yuma County", "ASSOCIATION": "USA - Arizona", "POINTS": "1", "BONUSPOINTS": "3"}}, {"type": "Feature", "geometry": {"type": "Point", "coordinates": [-114.2745, 32.4585]}, "properties": {"NAME": "W7A/YU-167", "TITLE": "Can Benchmark", "REGION": "Yuma County", "ASSOCIATION": "USA - Arizona", "POINTS": "1", "BONUSPOINTS": "3"}}, {"type": "Feature", "geometry": {"type": "Point", "coordinates": [-113.3498, 32.2649]}, "properties": {"NAME": "W7A/YU-168", "TITLE": "1590", "REGION": "Yuma County", "ASSOCIATION": "USA - Arizona", "POINTS": "1", "BONUSPOINTS": "3"}}, {"type": "Feature", "geometry": {"type": "Point", "coordinates": [-114.0222, 32.9192]}, "properties": {"NAME": "W7A/YU-169", "TITLE": "1590", "REGION": "Yuma County", "ASSOCIATION": "USA - Arizona", "POINTS": "1", "BONUSPOINTS": "3"}}, {"type": "Feature", "geometry": {"type": "Point", "coordinates": [-113.3898, 32.3224]}, "properties": {"NAME": "W7A/YU-170", "TITLE": "1584", "REGION": "Yuma County", "ASSOCIATION": "USA - Arizona", "POINTS": "1", "BONUSPOINTS": "3"}}, {"type": "Feature", "geometry": {"type": "Point", "coordinates": [-114.3368, 32.5444]}, "properties": {"NAME": "W7A/YU-171", "TITLE": "1563", "REGION": "Yuma County", "ASSOCIATION": "USA - Arizona", "POINTS": "1", "BONUSPOINTS": "3"}}, {"type": "Feature", "geometry": {"type": "Point", "coordinates": [-113.7998, 32.3911]}, "properties": {"NAME": "W7A/YU-172", "TITLE": "1563", "REGION": "Yuma County", "ASSOCIATION": "USA - Arizona", "POINTS": "1", "BONUSPOINTS": "3"}}, {"type": "Feature", "geometry": {"type": "Point", "coordinates": [-113.617, 33.0085]}, "properties": {"NAME": "W7A/YU-173", "TITLE": "1539", "REGION": "Yuma County", "ASSOCIATION": "USA - Arizona", "POINTS": "1", "BONUSPOINTS": "3"}}, {"type": "Feature", "geometry": {"type": "Point", "coordinates": [-113.3644, 32.288]}, "properties": {"NAME": "W7A/YU-174", "TITLE": "1530", "REGION": "Yuma County", "ASSOCIATION": "USA - Arizona", "POINTS": "1", "BONUSPOINTS": "3"}}, {"type": "Feature", "geometry": {"type": "Point", "coordinates": [-113.9679, 33.0492]}, "properties": {"NAME": "W7A/YU-175", "TITLE": "1530", "REGION": "Yuma County", "ASSOCIATION": "USA - Arizona", "POINTS": "1", "BONUSPOINTS": "3"}}, {"type": "Feature", "geometry": {"type": "Point", "coordinates": [-113.9612, 33.0402]}, "properties": {"NAME": "W7A/YU-176", "TITLE": "1530", "REGION": "Yuma County", "ASSOCIATION": "USA - Arizona", "POINTS": "1", "BONUSPOINTS": "3"}}, {"type": "Feature", "geometry": {"type": "Point", "coordinates": [-113.9714, 32.5398]}, "properties": {"NAME": "W7A/YU-177", "TITLE": "1512", "REGION": "Yuma County", "ASSOCIATION": "USA - Arizona", "POINTS": "1", "BONUSPOINTS": "3"}}, {"type": "Feature", "geometry": {"type": "Point", "coordinates": [-113.3955, 33.1398]}, "properties": {"NAME": "W7A/YU-178", "TITLE": "Turtleback Mountain", "REGION": "Yuma County", "ASSOCIATION": "USA - Arizona", "POINTS": "1", "BONUSPOINTS": "3"}}, {"type": "Feature", "geometry": {"type": "Point", "coordinates": [-113.6747, 33.0111]}, "properties": {"NAME": "W7A/YU-179", "TITLE": "1505", "REGION": "Yuma County", "ASSOCIATION": "USA - Arizona", "POINTS": "1", "BONUSPOINTS": "3"}}, {"type": "Feature", "geometry": {"type": "Point", "coordinates": [-113.4709, 32.4511]}, "properties": {"NAME": "W7A/YU-180", "TITLE": "1496", "REGION": "Yuma County", "ASSOCIATION": "USA - Arizona", "POINTS": "1", "BONUSPOINTS": "3"}}, {"type": "Feature", "geometry": {"type": "Point", "coordinates": [-113.9589, 32.965]}, "properties": {"NAME": "W7A/YU-181", "TITLE": "1474", "REGION": "Yuma County", "ASSOCIATION": "USA - Arizona", "POINTS": "1", "BONUSPOINTS": "3"}}, {"type": "Feature", "geometry": {"type": "Point", "coordinates": [-113.9792, 32.8852]}, "properties": {"NAME": "W7A/YU-182", "TITLE": "1461", "REGION": "Yuma County", "ASSOCIATION": "USA - Arizona", "POINTS": "1", "BONUSPOINTS": "3"}}, {"type": "Feature", "geometry": {"type": "Point", "coordinates": [-113.5895, 32.551]}, "properties": {"NAME": "W7A/YU-183", "TITLE": "1432", "REGION": "Yuma County", "ASSOCIATION": "USA - Arizona", "POINTS": "1", "BONUSPOINTS": "3"}}, {"type": "Feature", "geometry": {"type": "Point", "coordinates": [-114.2518, 32.7455]}, "properties": {"NAME": "W7A/YU-184", "TITLE": "Muggins Peak", "REGION": "Yuma County", "ASSOCIATION": "USA - Arizona", "POINTS": "1", "BONUSPOINTS": "3"}}, {"type": "Feature", "geometry": {"type": "Point", "coordinates": [-113.9979, 32.6433]}, "properties": {"NAME": "W7A/YU-185", "TITLE": "Baker Peaks HP", "REGION": "Yuma County", "ASSOCIATION": "USA - Arizona", "POINTS": "1", "BONUSPOINTS": "3"}}, {"type": "Feature", "geometry": {"type": "Point", "coordinates": [-113.9928, 32.6318]}, "properties": {"NAME": "W7A/YU-186", "TITLE": "1375", "REGION": "Yuma County", "ASSOCIATION": "USA - Arizona", "POINTS": "1", "BONUSPOINTS": "3"}}, {"type": "Feature", "geometry": {"type": "Point", "coordinates": [-113.4499, 33.094]}, "properties": {"NAME": "W7A/YU-187", "TITLE": "Baragan Mountain", "REGION": "Yuma County", "ASSOCIATION": "USA - Arizona", "POINTS": "1", "BONUSPOINTS": "3"}}, {"type": "Feature", "geometry": {"type": "Point", "coordinates": [-113.3653, 32.5858]}, "properties": {"NAME": "W7A/YU-188", "TITLE": "1266", "REGION": "Yuma County", "ASSOCIATION": "USA - Arizona", "POINTS": "1", "BONUSPOINTS": "3"}}, {"type": "Feature", "geometry": {"type": "Point", "coordinates": [-114.2083, 32.5543]}, "properties": {"NAME": "W7A/YU-189", "TITLE": "1257", "REGION": "Yuma County", "ASSOCIATION": "USA - Arizona", "POINTS": "1", "BONUSPOINTS": "3"}}, {"type": "Feature", "geometry": {"type": "Point", "coordinates": [-113.3509, 33.0093]}, "properties": {"NAME": "W7A/YU-190", "TITLE": "Agua Caliente Mountains HP", "REGION": "Yuma County", "ASSOCIATION": "USA - Arizona", "POINTS": "1", "BONUSPOINTS": "3"}}, {"type": "Feature", "geometry": {"type": "Point", "coordinates": [-114.137, 32.5727]}, "properties": {"NAME": "W7A/YU-191", "TITLE": "Wellton Hills", "REGION": "Yuma County", "ASSOCIATION": "USA - Arizona", "POINTS": "1", "BONUSPOINTS": "3"}}, {"type": "Feature", "geometry": {"type": "Point", "coordinates": [-113.4854, 32.7948]}, "properties": {"NAME": "W7A/YU-192", "TITLE": "Aztec Hills", "REGION": "Yuma County", "ASSOCIATION": "USA - Arizona", "POINTS": "1", "BONUSPOINTS": "3"}}, {"type": "Feature", "geometry": {"type": "Point", "coordinates": [-114.3997, 32.7917]}, "properties": {"NAME": "W7A/YU-193", "TITLE": "Boot Peak", "REGION": "Yuma County", "ASSOCIATION": "USA - Arizona", "POINTS": "1", "BONUSPOINTS": "3"}}, {"type": "Feature", "geometry": {"type": "Point", "coordinates": [-114.0663, 33.3458]}, "properties": {"NAME": "W7A/YU-194", "TITLE": "Summit Peak", "REGION": "Yuma County", "ASSOCIATION": "USA - Arizona", "POINTS": "6", "BONUSPOINTS": "3"}}, {"type": "Feature", "geometry": {"type": "Point", "coordinates": [-113.9676, 33.4161]}, "properties": {"NAME": "W7A/YU-195", "TITLE": "3940", "REGION": "Yuma County", "ASSOCIATION": "USA - Arizona", "POINTS": "4", "BONUSPOINTS": "3"}}, {"type": "Feature", "geometry": {"type": "Point", "coordinates": [-114.0864, 33.3858]}, "properties": {"NAME": "W7A/YU-196", "TITLE": "3581", "REGION": "Yuma County", "ASSOCIATION": "USA - Arizona", "POINTS": "4", "BONUSPOINTS": "3"}}, {"type": "Feature", "geometry": {"type": "Point", "coordinates": [-114.1063, 33.0519]}, "properties": {"NAME": "W7A/YU-197", "TITLE": "Thumb Peak Benchmark", "REGION": "Yuma County", "ASSOCIATION": "USA - Arizona", "POINTS": "4", "BONUSPOINTS": "3"}}, {"type": "Feature", "geometry": {"type": "Point", "coordinates": [-113.8839, 33.2572]}, "properties": {"NAME": "W7A/YU-198", "TITLE": "3020", "REGION": "Yuma County", "ASSOCIATION": "USA - Arizona", "POINTS": "4", "BONUSPOINTS": "3"}}, {"type": "Feature", "geometry": {"type": "Point", "coordinates": [-114.0908, 32.359]}, "properties": {"NAME": "W7A/YU-199", "TITLE": "2660", "REGION": "Yuma County", "ASSOCIATION": "USA - Arizona", "POINTS": "2", "BONUSPOINTS": "3"}}, {"type": "Feature", "geometry": {"type": "Point", "coordinates": [-114.0591, 32.3022]}, "properties": {"NAME": "W7A/YU-200", "TITLE": "2433", "REGION": "Yuma County", "ASSOCIATION": "USA - Arizona", "POINTS": "2", "BONUSPOINTS": "3"}}, {"type": "Feature", "geometry": {"type": "Point", "coordinates": [-114.1728, 33.2797]}, "properties": {"NAME": "W7A/YU-201", "TITLE": "2327", "REGION": "Yuma County", "ASSOCIATION": "USA - Arizona", "POINTS": "2", "BONUSPOINTS": "3"}}, {"type": "Feature", "geometry": {"type": "Point", "coordinates": [-113.5888, 33.3271]}, "properties": {"NAME": "W7A/YU-202", "TITLE": "2323", "REGION": "Yuma County", "ASSOCIATION": "USA - Arizona", "POINTS": "2", "BONUSPOINTS": "3"}}, {"type": "Feature", "geometry": {"type": "Point", "coordinates": [-114.0003, 32.4866]}, "properties": {"NAME": "W7A/YU-203", "TITLE": "2287", "REGION": "Yuma County", "ASSOCIATION": "USA - Arizona", "POINTS": "2", "BONUSPOINTS": "3"}}, {"type": "Feature", "geometry": {"type": "Point", "coordinates": [-113.7665, 32.1795]}, "properties": {"NAME": "W7A/YU-204", "TITLE": "2004", "REGION": "Yuma County", "ASSOCIATION": "USA - Arizona", "POINTS": "2", "BONUSPOINTS": "3"}}, {"type": "Feature", "geometry": {"type": "Point", "coordinates": [-113.8434, 32.2627]}, "properties": {"NAME": "W7A/YU-205", "TITLE": "1903", "REGION": "Yuma County", "ASSOCIATION": "USA - Arizona", "POINTS": "1", "BONUSPOINTS": "3"}}, {"type": "Feature", "geometry": {"type": "Point", "coordinates": [-114.1166, 32.7939]}, "properties": {"NAME": "W7A/YU-206", "TITLE": "1690", "REGION": "Yuma County", "ASSOCIATION": "USA - Arizona", "POINTS": "1", "BONUSPOINTS": "3"}}, {"type": "Feature", "geometry": {"type": "Point", "coordinates": [-113.9608, 32.9484]}, "properties": {"NAME": "W7A/YU-207", "TITLE": "1566", "REGION": "Yuma County", "ASSOCIATION": "USA - Arizona", "POINTS": "1", "BONUSPOINTS": "3"}}, {"type": "Feature", "geometry": {"type": "Point", "coordinates": [-114.2668, 32.7749]}, "properties": {"NAME": "W7A/YU-208", "TITLE": "1345", "REGION": "Yuma County", "ASSOCIATION": "USA - Arizona", "POINTS": "1", "BONUSPOINTS": "3"}}, {"type": "Feature", "geometry": {"type": "Point", "coordinates": [-113.982, 32.8763]}, "properties": {"NAME": "W7A/YU-209", "TITLE": "Windy Benchmark", "REGION": "Yuma County", "ASSOCIATION": "USA - Arizona", "POINTS": "1", "BONUSPOINTS": "3"}}]}