{"type": "FeatureCollection", "name": "W7A/GM SUMMITS", "features": [{"type": "Feature", "geometry": {"type": "Point", "coordinates": [-110.2609, 33.074]}, "properties": {"NAME": "W7A/GM-001", "TITLE": "Turnbull, Mount", "REGION": "Graham County", "ASSOCIATION": "USA - Arizona", "POINTS": "10", "BONUSPOINTS": "3"}}, {"type": "Feature", "geometry": {"type": "Point", "coordinates": [-109.539, 33.6086]}, "properties": {"NAME": "W7A/GM-002", "TITLE": "7878", "REGION": "Graham County", "ASSOCIATION": "USA - Arizona", "POINTS": "10", "BONUSPOINTS": "3"}}, {"type": "Feature", "geometry": {"type": "Point", "coordinates": [-109.6127, 33.5592]}, "properties": {"NAME": "W7A/GM-003", "TITLE": "Freezeout Mountain", "REGION": "Graham County", "ASSOCIATION": "USA - Arizona", "POINTS": "10", "BONUSPOINTS": "3"}}, {"type": "Feature", "geometry": {"type": "Point", "coordinates": [-110.28, 32.5065]}, "properties": {"NAME": "W7A/GM-004", "TITLE": "Bassett Peak", "REGION": "Graham County", "ASSOCIATION": "USA - Arizona", "POINTS": "10", "BONUSPOINTS": "3"}}, {"type": "Feature", "geometry": {"type": "Point", "coordinates": [-110.2281, 32.8715]}, "properties": {"NAME": "W7A/GM-005", "TITLE": "Pinnacle Ridge", "REGION": "Graham County", "ASSOCIATION": "USA - Arizona", "POINTS": "10", "BONUSPOINTS": "3"}}, {"type": "Feature", "geometry": {"type": "Point", "coordinates": [-109.937, 33.4132]}, "properties": {"NAME": "W7A/GM-006", "TITLE": "Natanes Mountains HP", "REGION": "Graham County", "ASSOCIATION": "USA - Arizona", "POINTS": "10", "BONUSPOINTS": "3"}}, {"type": "Feature", "geometry": {"type": "Point", "coordinates": [-109.8158, 32.7183]}, "properties": {"NAME": "W7A/GM-007", "TITLE": "Deadman Ridge", "REGION": "Graham County", "ASSOCIATION": "USA - Arizona", "POINTS": "10", "BONUSPOINTS": "3"}}, {"type": "Feature", "geometry": {"type": "Point", "coordinates": [-110.2819, 32.5873]}, "properties": {"NAME": "W7A/GM-008", "TITLE": "7490", "REGION": "Graham County", "ASSOCIATION": "USA - Arizona", "POINTS": "8", "BONUSPOINTS": "3"}}, {"type": "Feature", "geometry": {"type": "Point", "coordinates": [-109.8339, 33.3596]}, "properties": {"NAME": "W7A/GM-009", "TITLE": "Dry Lake Benchmark", "REGION": "Graham County", "ASSOCIATION": "USA - Arizona", "POINTS": "8", "BONUSPOINTS": "3"}}, {"type": "Feature", "geometry": {"type": "Point", "coordinates": [-109.6724, 33.0201]}, "properties": {"NAME": "W7A/GM-010", "TITLE": "Bryce Mountain", "REGION": "Graham County", "ASSOCIATION": "USA - Arizona", "POINTS": "8", "BONUSPOINTS": "3"}}, {"type": "Feature", "geometry": {"type": "Point", "coordinates": [-109.7359, 33.2591]}, "properties": {"NAME": "W7A/GM-011", "TITLE": "Mud Benchmark", "REGION": "Graham County", "ASSOCIATION": "USA - Arizona", "POINTS": "8", "BONUSPOINTS": "3"}}, {"type": "Feature", "geometry": {"type": "Point", "coordinates": [-109.5836, 33.4448]}, "properties": {"NAME": "W7A/GM-012", "TITLE": "7222", "REGION": "Graham County", "ASSOCIATION": "USA - Arizona", "POINTS": "8", "BONUSPOINTS": "3"}}, {"type": "Feature", "geometry": {"type": "Point", "coordinates": [-110.0194, 33.4618]}, "properties": {"NAME": "W7A/GM-013", "TITLE": "7185", "REGION": "Graham County", "ASSOCIATION": "USA - Arizona", "POINTS": "8", "BONUSPOINTS": "3"}}, {"type": "Feature", "geometry": {"type": "Point", "coordinates": [-110.2926, 32.967]}, "properties": {"NAME": "W7A/GM-014", "TITLE": "Cobre Grande Mountain", "REGION": "Graham County", "ASSOCIATION": "USA - Arizona", "POINTS": "8", "BONUSPOINTS": "3"}}, {"type": "Feature", "geometry": {"type": "Point", "coordinates": [-110.3209, 33.0339]}, "properties": {"NAME": "W7A/GM-015", "TITLE": "Crystal Peak", "REGION": "Graham County", "ASSOCIATION": "USA - Arizona", "POINTS": "8", "BONUSPOINTS": "3"}}, {"type": "Feature", "geometry": {"type": "Point", "coordinates": [-109.6743, 33.0537]}, "properties": {"NAME": "W7A/GM-016", "TITLE": "7140", "REGION": "Graham County", "ASSOCIATION": "USA - Arizona", "POINTS": "8", "BONUSPOINTS": "3"}}, {"type": "Feature", "geometry": {"type": "Point", "coordinates": [-110.2858, 33.0444]}, "properties": {"NAME": "W7A/GM-017", "TITLE": "Granite Peak", "REGION": "Graham County", "ASSOCIATION": "USA - Arizona", "POINTS": "8", "BONUSPOINTS": "3"}}, {"type": "Feature", "geometry": {"type": "Point", "coordinates": [-110.4168, 32.6608]}, "properties": {"NAME": "W7A/GM-018", "TITLE": "Rhodes Peak", "REGION": "Graham County", "ASSOCIATION": "USA - Arizona", "POINTS": "8", "BONUSPOINTS": "3"}}, {"type": "Feature", "geometry": {"type": "Point", "coordinates": [-109.5823, 33.2274]}, "properties": {"NAME": "W7A/GM-019", "TITLE": "Elevator Mountain", "REGION": "Graham County", "ASSOCIATION": "USA - Arizona", "POINTS": "8", "BONUSPOINTS": "3"}}, {"type": "Feature", "geometry": {"type": "Point", "coordinates": [-109.7811, 32.4924]}, "properties": {"NAME": "W7A/GM-020", "TITLE": "Greasewood Mountain", "REGION": "Graham County", "ASSOCIATION": "USA - Arizona", "POINTS": "8", "BONUSPOINTS": "3"}}, {"type": "Feature", "geometry": {"type": "Point", "coordinates": [-110.1711, 32.8705]}, "properties": {"NAME": "W7A/GM-021", "TITLE": "Cluff Peak", "REGION": "Graham County", "ASSOCIATION": "USA - Arizona", "POINTS": "8", "BONUSPOINTS": "3"}}, {"type": "Feature", "geometry": {"type": "Point", "coordinates": [-110.3649, 33.0161]}, "properties": {"NAME": "W7A/GM-022", "TITLE": "Stanley Butte", "REGION": "Graham County", "ASSOCIATION": "USA - Arizona", "POINTS": "8", "BONUSPOINTS": "3"}}, {"type": "Feature", "geometry": {"type": "Point", "coordinates": [-109.5149, 33.0343]}, "properties": {"NAME": "W7A/GM-023", "TITLE": "Turtle Mountain", "REGION": "Graham County", "ASSOCIATION": "USA - Arizona", "POINTS": "8", "BONUSPOINTS": "3"}}, {"type": "Feature", "geometry": {"type": "Point", "coordinates": [-110.4227, 32.704]}, "properties": {"NAME": "W7A/GM-024", "TITLE": "Maverick Mountain", "REGION": "Graham County", "ASSOCIATION": "USA - Arizona", "POINTS": "8", "BONUSPOINTS": "3"}}, {"type": "Feature", "geometry": {"type": "Point", "coordinates": [-109.6597, 33.051]}, "properties": {"NAME": "W7A/GM-025", "TITLE": "6974", "REGION": "Graham County", "ASSOCIATION": "USA - Arizona", "POINTS": "8", "BONUSPOINTS": "3"}}, {"type": "Feature", "geometry": {"type": "Point", "coordinates": [-109.6026, 33.2122]}, "properties": {"NAME": "W7A/GM-026", "TITLE": "Brushy Mountain", "REGION": "Graham County", "ASSOCIATION": "USA - Arizona", "POINTS": "8", "BONUSPOINTS": "3"}}, {"type": "Feature", "geometry": {"type": "Point", "coordinates": [-109.8098, 32.5248]}, "properties": {"NAME": "W7A/GM-027", "TITLE": "Kane Spring Mountain", "REGION": "Graham County", "ASSOCIATION": "USA - Arizona", "POINTS": "8", "BONUSPOINTS": "3"}}, {"type": "Feature", "geometry": {"type": "Point", "coordinates": [-110.3262, 32.5918]}, "properties": {"NAME": "W7A/GM-028", "TITLE": "6900", "REGION": "Graham County", "ASSOCIATION": "USA - Arizona", "POINTS": "8", "BONUSPOINTS": "3"}}, {"type": "Feature", "geometry": {"type": "Point", "coordinates": [-110.388, 32.6351]}, "properties": {"NAME": "W7A/GM-029", "TITLE": "6900", "REGION": "Graham County", "ASSOCIATION": "USA - Arizona", "POINTS": "8", "BONUSPOINTS": "3"}}, {"type": "Feature", "geometry": {"type": "Point", "coordinates": [-110.3256, 32.617]}, "properties": {"NAME": "W7A/GM-030", "TITLE": "6900", "REGION": "Graham County", "ASSOCIATION": "USA - Arizona", "POINTS": "8", "BONUSPOINTS": "3"}}, {"type": "Feature", "geometry": {"type": "Point", "coordinates": [-109.6669, 33.2012]}, "properties": {"NAME": "W7A/GM-031", "TITLE": "6888", "REGION": "Graham County", "ASSOCIATION": "USA - Arizona", "POINTS": "8", "BONUSPOINTS": "3"}}, {"type": "Feature", "geometry": {"type": "Point", "coordinates": [-110.3499, 32.5702]}, "properties": {"NAME": "W7A/GM-032", "TITLE": "Kielberg Peak", "REGION": "Graham County", "ASSOCIATION": "USA - Arizona", "POINTS": "8", "BONUSPOINTS": "3"}}, {"type": "Feature", "geometry": {"type": "Point", "coordinates": [-110.2688, 32.969]}, "properties": {"NAME": "W7A/GM-033", "TITLE": "6807", "REGION": "Graham County", "ASSOCIATION": "USA - Arizona", "POINTS": "8", "BONUSPOINTS": "3"}}, {"type": "Feature", "geometry": {"type": "Point", "coordinates": [-109.6016, 33.1747]}, "properties": {"NAME": "W7A/GM-034", "TITLE": "Mescal Mountain", "REGION": "Graham County", "ASSOCIATION": "USA - Arizona", "POINTS": "8", "BONUSPOINTS": "3"}}, {"type": "Feature", "geometry": {"type": "Point", "coordinates": [-110.0579, 33.4489]}, "properties": {"NAME": "W7A/GM-035", "TITLE": "6761", "REGION": "Graham County", "ASSOCIATION": "USA - Arizona", "POINTS": "8", "BONUSPOINTS": "3"}}, {"type": "Feature", "geometry": {"type": "Point", "coordinates": [-109.8478, 32.5533]}, "properties": {"NAME": "W7A/GM-036", "TITLE": "6753", "REGION": "Graham County", "ASSOCIATION": "USA - Arizona", "POINTS": "8", "BONUSPOINTS": "3"}}, {"type": "Feature", "geometry": {"type": "Point", "coordinates": [-109.6042, 33.313]}, "properties": {"NAME": "W7A/GM-037", "TITLE": "6742", "REGION": "Graham County", "ASSOCIATION": "USA - Arizona", "POINTS": "8", "BONUSPOINTS": "3"}}, {"type": "Feature", "geometry": {"type": "Point", "coordinates": [-110.0937, 32.7513]}, "properties": {"NAME": "W7A/GM-038", "TITLE": "Lindsey Benchmark", "REGION": "Graham County", "ASSOCIATION": "USA - Arizona", "POINTS": "8", "BONUSPOINTS": "3"}}, {"type": "Feature", "geometry": {"type": "Point", "coordinates": [-109.6013, 33.1532]}, "properties": {"NAME": "W7A/GM-039", "TITLE": "Kane Spring Mountain", "REGION": "Graham County", "ASSOCIATION": "USA - Arizona", "POINTS": "8", "BONUSPOINTS": "3"}}, {"type": "Feature", "geometry": {"type": "Point", "coordinates": [-109.521, 33.0515]}, "properties": {"NAME": "W7A/GM-040", "TITLE": "6655", "REGION": "Graham County", "ASSOCIATION": "USA - Arizona", "POINTS": "8", "BONUSPOINTS": "3"}}, {"type": "Feature", "geometry": {"type": "Point", "coordinates": [-109.952, 33.1936]}, "properties": {"NAME": "W7A/GM-041", "TITLE": "Gila Peak", "REGION": "Graham County", "ASSOCIATION": "USA - Arizona", "POINTS": "8", "BONUSPOINTS": "3"}}, {"type": "Feature", "geometry": {"type": "Point", "coordinates": [-110.322, 32.6828]}, "properties": {"NAME": "W7A/GM-042", "TITLE": "China Peak", "REGION": "Graham County", "ASSOCIATION": "USA - Arizona", "POINTS": "8", "BONUSPOINTS": "3"}}, {"type": "Feature", "geometry": {"type": "Point", "coordinates": [-109.7675, 33.1246]}, "properties": {"NAME": "W7A/GM-043", "TITLE": "Slaughter Mountain", "REGION": "Graham County", "ASSOCIATION": "USA - Arizona", "POINTS": "8", "BONUSPOINTS": "3"}}, {"type": "Feature", "geometry": {"type": "Point", "coordinates": [-109.7543, 32.5042]}, "properties": {"NAME": "W7A/GM-044", "TITLE": "6527", "REGION": "Graham County", "ASSOCIATION": "USA - Arizona", "POINTS": "8", "BONUSPOINTS": "3"}}, {"type": "Feature", "geometry": {"type": "Point", "coordinates": [-110.2412, 32.8362]}, "properties": {"NAME": "W7A/GM-045", "TITLE": "Buford Hill", "REGION": "Graham County", "ASSOCIATION": "USA - Arizona", "POINTS": "8", "BONUSPOINTS": "0"}}, {"type": "Feature", "geometry": {"type": "Point", "coordinates": [-109.898, 33.1241]}, "properties": {"NAME": "W7A/GM-046", "TITLE": "6444", "REGION": "Graham County", "ASSOCIATION": "USA - Arizona", "POINTS": "8", "BONUSPOINTS": "0"}}, {"type": "Feature", "geometry": {"type": "Point", "coordinates": [-109.9266, 33.1778]}, "properties": {"NAME": "W7A/GM-047", "TITLE": "6415", "REGION": "Graham County", "ASSOCIATION": "USA - Arizona", "POINTS": "8", "BONUSPOINTS": "0"}}, {"type": "Feature", "geometry": {"type": "Point", "coordinates": [-109.6092, 33.0267]}, "properties": {"NAME": "W7A/GM-048", "TITLE": "6391", "REGION": "Graham County", "ASSOCIATION": "USA - Arizona", "POINTS": "8", "BONUSPOINTS": "0"}}, {"type": "Feature", "geometry": {"type": "Point", "coordinates": [-109.5033, 33.4358]}, "properties": {"NAME": "W7A/GM-049", "TITLE": "6380", "REGION": "Graham County", "ASSOCIATION": "USA - Arizona", "POINTS": "8", "BONUSPOINTS": "0"}}, {"type": "Feature", "geometry": {"type": "Point", "coordinates": [-110.2944, 32.8874]}, "properties": {"NAME": "W7A/GM-050", "TITLE": "Grand Reef Summit", "REGION": "Graham County", "ASSOCIATION": "USA - Arizona", "POINTS": "8", "BONUSPOINTS": "0"}}, {"type": "Feature", "geometry": {"type": "Point", "coordinates": [-109.9109, 33.1663]}, "properties": {"NAME": "W7A/GM-051", "TITLE": "6348", "REGION": "Graham County", "ASSOCIATION": "USA - Arizona", "POINTS": "8", "BONUSPOINTS": "0"}}, {"type": "Feature", "geometry": {"type": "Point", "coordinates": [-110.1234, 32.4509]}, "properties": {"NAME": "W7A/GM-052", "TITLE": "6344", "REGION": "Graham County", "ASSOCIATION": "USA - Arizona", "POINTS": "8", "BONUSPOINTS": "0"}}, {"type": "Feature", "geometry": {"type": "Point", "coordinates": [-109.731, 33.0564]}, "properties": {"NAME": "W7A/GM-053", "TITLE": "6275", "REGION": "Graham County", "ASSOCIATION": "USA - Arizona", "POINTS": "8", "BONUSPOINTS": "0"}}, {"type": "Feature", "geometry": {"type": "Point", "coordinates": [-110.3818, 32.7062]}, "properties": {"NAME": "W7A/GM-054", "TITLE": "6275", "REGION": "Graham County", "ASSOCIATION": "USA - Arizona", "POINTS": "8", "BONUSPOINTS": "0"}}, {"type": "Feature", "geometry": {"type": "Point", "coordinates": [-109.7209, 33.2184]}, "properties": {"NAME": "W7A/GM-055", "TITLE": "Black Mesa", "REGION": "Graham County", "ASSOCIATION": "USA - Arizona", "POINTS": "8", "BONUSPOINTS": "0"}}, {"type": "Feature", "geometry": {"type": "Point", "coordinates": [-110.3863, 32.7197]}, "properties": {"NAME": "W7A/GM-056", "TITLE": "Fourmile Peak", "REGION": "Graham County", "ASSOCIATION": "USA - Arizona", "POINTS": "8", "BONUSPOINTS": "0"}}, {"type": "Feature", "geometry": {"type": "Point", "coordinates": [-110.0662, 32.7872]}, "properties": {"NAME": "W7A/GM-057", "TITLE": "Dick Benchmark", "REGION": "Graham County", "ASSOCIATION": "USA - Arizona", "POINTS": "8", "BONUSPOINTS": "0"}}, {"type": "Feature", "geometry": {"type": "Point", "coordinates": [-109.8689, 32.591]}, "properties": {"NAME": "W7A/GM-058", "TITLE": "23 Cal Benchmark", "REGION": "Graham County", "ASSOCIATION": "USA - Arizona", "POINTS": "8", "BONUSPOINTS": "0"}}, {"type": "Feature", "geometry": {"type": "Point", "coordinates": [-109.6341, 32.988]}, "properties": {"NAME": "W7A/GM-059", "TITLE": "6219", "REGION": "Graham County", "ASSOCIATION": "USA - Arizona", "POINTS": "8", "BONUSPOINTS": "0"}}, {"type": "Feature", "geometry": {"type": "Point", "coordinates": [-110.3797, 32.6833]}, "properties": {"NAME": "W7A/GM-060", "TITLE": "6187", "REGION": "Graham County", "ASSOCIATION": "USA - Arizona", "POINTS": "8", "BONUSPOINTS": "0"}}, {"type": "Feature", "geometry": {"type": "Point", "coordinates": [-109.2133, 32.5735]}, "properties": {"NAME": "W7A/GM-061", "TITLE": "6180", "REGION": "Graham County", "ASSOCIATION": "USA - Arizona", "POINTS": "8", "BONUSPOINTS": "0"}}, {"type": "Feature", "geometry": {"type": "Point", "coordinates": [-109.7523, 32.4735]}, "properties": {"NAME": "W7A/GM-062", "TITLE": "6110", "REGION": "Graham County", "ASSOCIATION": "USA - Arizona", "POINTS": "8", "BONUSPOINTS": "0"}}, {"type": "Feature", "geometry": {"type": "Point", "coordinates": [-109.6283, 32.9467]}, "properties": {"NAME": "W7A/GM-063", "TITLE": "Weber Peak", "REGION": "Graham County", "ASSOCIATION": "USA - Arizona", "POINTS": "8", "BONUSPOINTS": "0"}}, {"type": "Feature", "geometry": {"type": "Point", "coordinates": [-109.868, 33.1516]}, "properties": {"NAME": "W7A/GM-064", "TITLE": "6090", "REGION": "Graham County", "ASSOCIATION": "USA - Arizona", "POINTS": "8", "BONUSPOINTS": "0"}}, {"type": "Feature", "geometry": {"type": "Point", "coordinates": [-109.6391, 33.1813]}, "properties": {"NAME": "W7A/GM-065", "TITLE": "6066", "REGION": "Graham County", "ASSOCIATION": "USA - Arizona", "POINTS": "8", "BONUSPOINTS": "0"}}, {"type": "Feature", "geometry": {"type": "Point", "coordinates": [-110.2022, 32.4458]}, "properties": {"NAME": "W7A/GM-066", "TITLE": "6061", "REGION": "Graham County", "ASSOCIATION": "USA - Arizona", "POINTS": "8", "BONUSPOINTS": "0"}}, {"type": "Feature", "geometry": {"type": "Point", "coordinates": [-110.0442, 33.3809]}, "properties": {"NAME": "W7A/GM-067", "TITLE": "Ash Benchmark", "REGION": "Graham County", "ASSOCIATION": "USA - Arizona", "POINTS": "8", "BONUSPOINTS": "0"}}, {"type": "Feature", "geometry": {"type": "Point", "coordinates": [-109.8139, 32.4842]}, "properties": {"NAME": "W7A/GM-068", "TITLE": "5984", "REGION": "Graham County", "ASSOCIATION": "USA - Arizona", "POINTS": "6", "BONUSPOINTS": "0"}}, {"type": "Feature", "geometry": {"type": "Point", "coordinates": [-109.335, 32.8233]}, "properties": {"NAME": "W7A/GM-069", "TITLE": "5966", "REGION": "Graham County", "ASSOCIATION": "USA - Arizona", "POINTS": "6", "BONUSPOINTS": "0"}}, {"type": "Feature", "geometry": {"type": "Point", "coordinates": [-110.3594, 33.0515]}, "properties": {"NAME": "W7A/GM-070", "TITLE": "Quartzite Mountain", "REGION": "Graham County", "ASSOCIATION": "USA - Arizona", "POINTS": "6", "BONUSPOINTS": "0"}}, {"type": "Feature", "geometry": {"type": "Point", "coordinates": [-110.0199, 33.2479]}, "properties": {"NAME": "W7A/GM-071", "TITLE": "5900", "REGION": "Graham County", "ASSOCIATION": "USA - Arizona", "POINTS": "6", "BONUSPOINTS": "0"}}, {"type": "Feature", "geometry": {"type": "Point", "coordinates": [-110.1358, 32.9151]}, "properties": {"NAME": "W7A/GM-072", "TITLE": "Jackson Mountain", "REGION": "Graham County", "ASSOCIATION": "USA - Arizona", "POINTS": "6", "BONUSPOINTS": "0"}}, {"type": "Feature", "geometry": {"type": "Point", "coordinates": [-110.1798, 33.3657]}, "properties": {"NAME": "W7A/GM-073", "TITLE": "Bronco Benchmark", "REGION": "Graham County", "ASSOCIATION": "USA - Arizona", "POINTS": "6", "BONUSPOINTS": "0"}}, {"type": "Feature", "geometry": {"type": "Point", "coordinates": [-110.2825, 32.9103]}, "properties": {"NAME": "W7A/GM-074", "TITLE": "5818", "REGION": "Graham County", "ASSOCIATION": "USA - Arizona", "POINTS": "6", "BONUSPOINTS": "0"}}, {"type": "Feature", "geometry": {"type": "Point", "coordinates": [-110.1606, 32.4843]}, "properties": {"NAME": "W7A/GM-075", "TITLE": "5815", "REGION": "Graham County", "ASSOCIATION": "USA - Arizona", "POINTS": "6", "BONUSPOINTS": "0"}}, {"type": "Feature", "geometry": {"type": "Point", "coordinates": [-109.9436, 32.7732]}, "properties": {"NAME": "W7A/GM-076", "TITLE": "5802", "REGION": "Graham County", "ASSOCIATION": "USA - Arizona", "POINTS": "6", "BONUSPOINTS": "0"}}, {"type": "Feature", "geometry": {"type": "Point", "coordinates": [-110.0859, 33.3336]}, "properties": {"NAME": "W7A/GM-077", "TITLE": "5770", "REGION": "Graham County", "ASSOCIATION": "USA - Arizona", "POINTS": "6", "BONUSPOINTS": "0"}}, {"type": "Feature", "geometry": {"type": "Point", "coordinates": [-110.1786, 33.4262]}, "properties": {"NAME": "W7A/GM-078", "TITLE": "5758", "REGION": "Graham County", "ASSOCIATION": "USA - Arizona", "POINTS": "6", "BONUSPOINTS": "0"}}, {"type": "Feature", "geometry": {"type": "Point", "coordinates": [-110.2607, 32.8482]}, "properties": {"NAME": "W7A/GM-079", "TITLE": "Quartz Hill", "REGION": "Graham County", "ASSOCIATION": "USA - Arizona", "POINTS": "6", "BONUSPOINTS": "0"}}, {"type": "Feature", "geometry": {"type": "Point", "coordinates": [-110.1432, 32.488]}, "properties": {"NAME": "W7A/GM-080", "TITLE": "5709", "REGION": "Graham County", "ASSOCIATION": "USA - Arizona", "POINTS": "6", "BONUSPOINTS": "0"}}, {"type": "Feature", "geometry": {"type": "Point", "coordinates": [-110.1776, 33.3126]}, "properties": {"NAME": "W7A/GM-081", "TITLE": "Bone Benchmark", "REGION": "Graham County", "ASSOCIATION": "USA - Arizona", "POINTS": "6", "BONUSPOINTS": "0"}}, {"type": "Feature", "geometry": {"type": "Point", "coordinates": [-109.4076, 32.6508]}, "properties": {"NAME": "W7A/GM-082", "TITLE": "Whitlock Mountains HP", "REGION": "Graham County", "ASSOCIATION": "USA - Arizona", "POINTS": "6", "BONUSPOINTS": "0"}}, {"type": "Feature", "geometry": {"type": "Point", "coordinates": [-110.1615, 32.4996]}, "properties": {"NAME": "W7A/GM-083", "TITLE": "Baker Hill", "REGION": "Graham County", "ASSOCIATION": "USA - Arizona", "POINTS": "6", "BONUSPOINTS": "0"}}, {"type": "Feature", "geometry": {"type": "Point", "coordinates": [-110.4409, 32.7918]}, "properties": {"NAME": "W7A/GM-084", "TITLE": "Sixtysix Peak", "REGION": "Graham County", "ASSOCIATION": "USA - Arizona", "POINTS": "6", "BONUSPOINTS": "0"}}, {"type": "Feature", "geometry": {"type": "Point", "coordinates": [-109.6136, 32.9706]}, "properties": {"NAME": "W7A/GM-085", "TITLE": "5620", "REGION": "Graham County", "ASSOCIATION": "USA - Arizona", "POINTS": "6", "BONUSPOINTS": "0"}}, {"type": "Feature", "geometry": {"type": "Point", "coordinates": [-109.3959, 32.5813]}, "properties": {"NAME": "W7A/GM-086", "TITLE": "Javelina Peak", "REGION": "Graham County", "ASSOCIATION": "USA - Arizona", "POINTS": "6", "BONUSPOINTS": "0"}}, {"type": "Feature", "geometry": {"type": "Point", "coordinates": [-110.3396, 32.9382]}, "properties": {"NAME": "W7A/GM-087", "TITLE": "Imperial Mountain", "REGION": "Graham County", "ASSOCIATION": "USA - Arizona", "POINTS": "6", "BONUSPOINTS": "0"}}, {"type": "Feature", "geometry": {"type": "Point", "coordinates": [-109.4116, 32.6309]}, "properties": {"NAME": "W7A/GM-088", "TITLE": "5585", "REGION": "Graham County", "ASSOCIATION": "USA - Arizona", "POINTS": "6", "BONUSPOINTS": "0"}}, {"type": "Feature", "geometry": {"type": "Point", "coordinates": [-109.2083, 32.6414]}, "properties": {"NAME": "W7A/GM-089", "TITLE": "5568", "REGION": "Graham County", "ASSOCIATION": "USA - Arizona", "POINTS": "6", "BONUSPOINTS": "0"}}, {"type": "Feature", "geometry": {"type": "Point", "coordinates": [-110.215, 32.6486]}, "properties": {"NAME": "W7A/GM-090", "TITLE": "Eureka Mountain", "REGION": "Graham County", "ASSOCIATION": "USA - Arizona", "POINTS": "6", "BONUSPOINTS": "0"}}, {"type": "Feature", "geometry": {"type": "Point", "coordinates": [-110.0642, 32.4389]}, "properties": {"NAME": "W7A/GM-091", "TITLE": "Reiley Hill", "REGION": "Graham County", "ASSOCIATION": "USA - Arizona", "POINTS": "6", "BONUSPOINTS": "0"}}, {"type": "Feature", "geometry": {"type": "Point", "coordinates": [-109.7389, 32.5419]}, "properties": {"NAME": "W7A/GM-092", "TITLE": "5464", "REGION": "Graham County", "ASSOCIATION": "USA - Arizona", "POINTS": "6", "BONUSPOINTS": "0"}}, {"type": "Feature", "geometry": {"type": "Point", "coordinates": [-109.6023, 32.9246]}, "properties": {"NAME": "W7A/GM-093", "TITLE": "Lone Star Mountain", "REGION": "Graham County", "ASSOCIATION": "USA - Arizona", "POINTS": "6", "BONUSPOINTS": "0"}}, {"type": "Feature", "geometry": {"type": "Point", "coordinates": [-109.8319, 32.4459]}, "properties": {"NAME": "W7A/GM-094", "TITLE": "5435", "REGION": "Graham County", "ASSOCIATION": "USA - Arizona", "POINTS": "6", "BONUSPOINTS": "0"}}, {"type": "Feature", "geometry": {"type": "Point", "coordinates": [-110.4037, 33.0665]}, "properties": {"NAME": "W7A/GM-095", "TITLE": "Copper Reef Mountain", "REGION": "Graham County", "ASSOCIATION": "USA - Arizona", "POINTS": "6", "BONUSPOINTS": "0"}}, {"type": "Feature", "geometry": {"type": "Point", "coordinates": [-109.7682, 33.054]}, "properties": {"NAME": "W7A/GM-096", "TITLE": "5374", "REGION": "Graham County", "ASSOCIATION": "USA - Arizona", "POINTS": "6", "BONUSPOINTS": "0"}}, {"type": "Feature", "geometry": {"type": "Point", "coordinates": [-110.4471, 32.9985]}, "properties": {"NAME": "W7A/GM-097", "TITLE": "Lookout Mountain", "REGION": "Graham County", "ASSOCIATION": "USA - Arizona", "POINTS": "6", "BONUSPOINTS": "0"}}, {"type": "Feature", "geometry": {"type": "Point", "coordinates": [-110.3496, 33.3438]}, "properties": {"NAME": "W7A/GM-098", "TITLE": "Triplet, Mount", "REGION": "Graham County", "ASSOCIATION": "USA - Arizona", "POINTS": "6", "BONUSPOINTS": "0"}}, {"type": "Feature", "geometry": {"type": "Point", "coordinates": [-109.9585, 32.785]}, "properties": {"NAME": "W7A/GM-099", "TITLE": "Stowe Knoll", "REGION": "Graham County", "ASSOCIATION": "USA - Arizona", "POINTS": "6", "BONUSPOINTS": "0"}}, {"type": "Feature", "geometry": {"type": "Point", "coordinates": [-109.7124, 33.0067]}, "properties": {"NAME": "W7A/GM-100", "TITLE": "5255", "REGION": "Graham County", "ASSOCIATION": "USA - Arizona", "POINTS": "6", "BONUSPOINTS": "0"}}, {"type": "Feature", "geometry": {"type": "Point", "coordinates": [-109.7256, 32.5861]}, "properties": {"NAME": "W7A/GM-101", "TITLE": "Gillespie Mountain", "REGION": "Graham County", "ASSOCIATION": "USA - Arizona", "POINTS": "6", "BONUSPOINTS": "0"}}, {"type": "Feature", "geometry": {"type": "Point", "coordinates": [-110.2227, 33.3351]}, "properties": {"NAME": "W7A/GM-102", "TITLE": "5221", "REGION": "Graham County", "ASSOCIATION": "USA - Arizona", "POINTS": "6", "BONUSPOINTS": "0"}}, {"type": "Feature", "geometry": {"type": "Point", "coordinates": [-109.5736, 32.9192]}, "properties": {"NAME": "W7A/GM-103", "TITLE": "5203", "REGION": "Graham County", "ASSOCIATION": "USA - Arizona", "POINTS": "6", "BONUSPOINTS": "0"}}, {"type": "Feature", "geometry": {"type": "Point", "coordinates": [-109.4022, 32.6094]}, "properties": {"NAME": "W7A/GM-104", "TITLE": "5184", "REGION": "Graham County", "ASSOCIATION": "USA - Arizona", "POINTS": "6", "BONUSPOINTS": "0"}}, {"type": "Feature", "geometry": {"type": "Point", "coordinates": [-110.3585, 33.3447]}, "properties": {"NAME": "W7A/GM-105", "TITLE": "5180", "REGION": "Graham County", "ASSOCIATION": "USA - Arizona", "POINTS": "6", "BONUSPOINTS": "0"}}, {"type": "Feature", "geometry": {"type": "Point", "coordinates": [-110.0829, 33.2528]}, "properties": {"NAME": "W7A/GM-106", "TITLE": "5148", "REGION": "Graham County", "ASSOCIATION": "USA - Arizona", "POINTS": "6", "BONUSPOINTS": "0"}}, {"type": "Feature", "geometry": {"type": "Point", "coordinates": [-109.5802, 32.9982]}, "properties": {"NAME": "W7A/GM-107", "TITLE": "Farrell Mountain", "REGION": "Graham County", "ASSOCIATION": "USA - Arizona", "POINTS": "6", "BONUSPOINTS": "0"}}, {"type": "Feature", "geometry": {"type": "Point", "coordinates": [-110.3644, 32.486]}, "properties": {"NAME": "W7A/GM-108", "TITLE": "5061", "REGION": "Graham County", "ASSOCIATION": "USA - Arizona", "POINTS": "6", "BONUSPOINTS": "0"}}, {"type": "Feature", "geometry": {"type": "Point", "coordinates": [-109.3066, 32.7542]}, "properties": {"NAME": "W7A/GM-109", "TITLE": "5010", "REGION": "Graham County", "ASSOCIATION": "USA - Arizona", "POINTS": "6", "BONUSPOINTS": "0"}}, {"type": "Feature", "geometry": {"type": "Point", "coordinates": [-109.3878, 32.828]}, "properties": {"NAME": "W7A/GM-110", "TITLE": "4974", "REGION": "Graham County", "ASSOCIATION": "USA - Arizona", "POINTS": "6", "BONUSPOINTS": "0"}}, {"type": "Feature", "geometry": {"type": "Point", "coordinates": [-109.2838, 32.6888]}, "properties": {"NAME": "W7A/GM-111", "TITLE": "Seely Benchmark", "REGION": "Graham County", "ASSOCIATION": "USA - Arizona", "POINTS": "6", "BONUSPOINTS": "0"}}, {"type": "Feature", "geometry": {"type": "Point", "coordinates": [-110.1885, 32.9432]}, "properties": {"NAME": "W7A/GM-112", "TITLE": "Black Rock", "REGION": "Graham County", "ASSOCIATION": "USA - Arizona", "POINTS": "6", "BONUSPOINTS": "0"}}, {"type": "Feature", "geometry": {"type": "Point", "coordinates": [-109.6192, 32.9135]}, "properties": {"NAME": "W7A/GM-113", "TITLE": "4580", "REGION": "Graham County", "ASSOCIATION": "USA - Arizona", "POINTS": "6", "BONUSPOINTS": "0"}}, {"type": "Feature", "geometry": {"type": "Point", "coordinates": [-109.399, 32.7772]}, "properties": {"NAME": "W7A/GM-114", "TITLE": "Twin Knolls North", "REGION": "Graham County", "ASSOCIATION": "USA - Arizona", "POINTS": "6", "BONUSPOINTS": "0"}}, {"type": "Feature", "geometry": {"type": "Point", "coordinates": [-109.3866, 32.7596]}, "properties": {"NAME": "W7A/GM-115", "TITLE": "Twin Knolls South", "REGION": "Graham County", "ASSOCIATION": "USA - Arizona", "POINTS": "6", "BONUSPOINTS": "0"}}, {"type": "Feature", "geometry": {"type": "Point", "coordinates": [-109.4735, 32.6881]}, "properties": {"NAME": "W7A/GM-116", "TITLE": "Dry Mountain", "REGION": "Graham County", "ASSOCIATION": "USA - Arizona", "POINTS": "4", "BONUSPOINTS": "0"}}, {"type": "Feature", "geometry": {"type": "Point", "coordinates": [-110.3262, 33.2581]}, "properties": {"NAME": "W7A/GM-117", "TITLE": "Salt Mountain", "REGION": "Graham County", "ASSOCIATION": "USA - Arizona", "POINTS": "4", "BONUSPOINTS": "0"}}, {"type": "Feature", "geometry": {"type": "Point", "coordinates": [-109.5277, 33.4378]}, "properties": {"NAME": "W7A/GM-118", "TITLE": "6670", "REGION": "Graham County", "ASSOCIATION": "USA - Arizona", "POINTS": "8", "BONUSPOINTS": "3"}}, {"type": "Feature", "geometry": {"type": "Point", "coordinates": [-110.1052, 33.3506]}, "properties": {"NAME": "W7A/GM-119", "TITLE": "5672", "REGION": "Graham County", "ASSOCIATION": "USA - Arizona", "POINTS": "6", "BONUSPOINTS": "0"}}, {"type": "Feature", "geometry": {"type": "Point", "coordinates": [-110.2173, 33.3578]}, "properties": {"NAME": "W7A/GM-120", "TITLE": "5420", "REGION": "Graham County", "ASSOCIATION": "USA - Arizona", "POINTS": "6", "BONUSPOINTS": "0"}}, {"type": "Feature", "geometry": {"type": "Point", "coordinates": [-110.3775, 33.2776]}, "properties": {"NAME": "W7A/GM-121", "TITLE": "3580", "REGION": "Graham County", "ASSOCIATION": "USA - Arizona", "POINTS": "4", "BONUSPOINTS": "0"}}]}