{"type": "FeatureCollection", "name": "W7A/NA SUMMITS", "features": [{"type": "Feature", "geometry": {"type": "Point", "coordinates": [-110.2629, 36.6512]}, "properties": {"NAME": "W7A/NA-001", "TITLE": "Black Mesa", "REGION": "Navajo County", "ASSOCIATION": "USA - Arizona", "POINTS": "10", "BONUSPOINTS": "3"}}, {"type": "Feature", "geometry": {"type": "Point", "coordinates": [-110.4643, 36.8744]}, "properties": {"NAME": "W7A/NA-002", "TITLE": "Skeleton Mesa", "REGION": "Navajo County", "ASSOCIATION": "USA - Arizona", "POINTS": "10", "BONUSPOINTS": "3"}}, {"type": "Feature", "geometry": {"type": "Point", "coordinates": [-110.2415, 36.6161]}, "properties": {"NAME": "W7A/NA-003", "TITLE": "8011", "REGION": "Navajo County", "ASSOCIATION": "USA - Arizona", "POINTS": "10", "BONUSPOINTS": "3"}}, {"type": "Feature", "geometry": {"type": "Point", "coordinates": [-110.5292, 36.6724]}, "properties": {"NAME": "W7A/NA-004", "TITLE": "7448", "REGION": "Navajo County", "ASSOCIATION": "USA - Arizona", "POINTS": "8", "BONUSPOINTS": "3"}}, {"type": "Feature", "geometry": {"type": "Point", "coordinates": [-110.0388, 36.1238]}, "properties": {"NAME": "W7A/NA-005", "TITLE": "7281", "REGION": "Navajo County", "ASSOCIATION": "USA - Arizona", "POINTS": "8", "BONUSPOINTS": "3"}}, {"type": "Feature", "geometry": {"type": "Point", "coordinates": [-110.5152, 36.6983]}, "properties": {"NAME": "W7A/NA-006", "TITLE": "7266", "REGION": "Navajo County", "ASSOCIATION": "USA - Arizona", "POINTS": "8", "BONUSPOINTS": "3"}}, {"type": "Feature", "geometry": {"type": "Point", "coordinates": [-110.4103, 36.8247]}, "properties": {"NAME": "W7A/NA-007", "TITLE": "7060", "REGION": "Navajo County", "ASSOCIATION": "USA - Arizona", "POINTS": "8", "BONUSPOINTS": "3"}}, {"type": "Feature", "geometry": {"type": "Point", "coordinates": [-109.8623, 34.3017]}, "properties": {"NAME": "W7A/NA-008", "TITLE": "Ortega Mountain", "REGION": "Navajo County", "ASSOCIATION": "USA - Arizona", "POINTS": "8", "BONUSPOINTS": "3"}}, {"type": "Feature", "geometry": {"type": "Point", "coordinates": [-110.2771, 36.8303]}, "properties": {"NAME": "W7A/NA-009", "TITLE": "Owl Benchmark", "REGION": "Navajo County", "ASSOCIATION": "USA - Arizona", "POINTS": "8", "BONUSPOINTS": "3"}}, {"type": "Feature", "geometry": {"type": "Point", "coordinates": [-110.317, 35.5072]}, "properties": {"NAME": "W7A/NA-010", "TITLE": "Hauke Mesa", "REGION": "Navajo County", "ASSOCIATION": "USA - Arizona", "POINTS": "8", "BONUSPOINTS": "3"}}, {"type": "Feature", "geometry": {"type": "Point", "coordinates": [-110.4857, 34.1605]}, "properties": {"NAME": "W7A/NA-011", "TITLE": "Cibecue Ridge", "REGION": "Navajo County", "ASSOCIATION": "USA - Arizona", "POINTS": "8", "BONUSPOINTS": "3"}}, {"type": "Feature", "geometry": {"type": "Point", "coordinates": [-110.3503, 35.4477]}, "properties": {"NAME": "W7A/NA-012", "TITLE": "6735", "REGION": "Navajo County", "ASSOCIATION": "USA - Arizona", "POINTS": "8", "BONUSPOINTS": "3"}}, {"type": "Feature", "geometry": {"type": "Point", "coordinates": [-110.399, 35.422]}, "properties": {"NAME": "W7A/NA-013", "TITLE": "Shonto Butte", "REGION": "Navajo County", "ASSOCIATION": "USA - Arizona", "POINTS": "8", "BONUSPOINTS": "3"}}, {"type": "Feature", "geometry": {"type": "Point", "coordinates": [-110.3553, 36.8805]}, "properties": {"NAME": "W7A/NA-014", "TITLE": "Azansosi Mesa", "REGION": "Navajo County", "ASSOCIATION": "USA - Arizona", "POINTS": "8", "BONUSPOINTS": "3"}}, {"type": "Feature", "geometry": {"type": "Point", "coordinates": [-110.5087, 35.4443]}, "properties": {"NAME": "W7A/NA-015", "TITLE": "Montezumas Chair", "REGION": "Navajo County", "ASSOCIATION": "USA - Arizona", "POINTS": "8", "BONUSPOINTS": "3"}}, {"type": "Feature", "geometry": {"type": "Point", "coordinates": [-110.4086, 35.5788]}, "properties": {"NAME": "W7A/NA-016", "TITLE": "Egloffstein Butte", "REGION": "Navajo County", "ASSOCIATION": "USA - Arizona", "POINTS": "8", "BONUSPOINTS": "3"}}, {"type": "Feature", "geometry": {"type": "Point", "coordinates": [-110.4912, 35.4347]}, "properties": {"NAME": "W7A/NA-017", "TITLE": "Round Top", "REGION": "Navajo County", "ASSOCIATION": "USA - Arizona", "POINTS": "8", "BONUSPOINTS": "3"}}, {"type": "Feature", "geometry": {"type": "Point", "coordinates": [-110.3095, 36.8893]}, "properties": {"NAME": "W7A/NA-018", "TITLE": "Boot Mesa", "REGION": "Navajo County", "ASSOCIATION": "USA - Arizona", "POINTS": "8", "BONUSPOINTS": "3"}}, {"type": "Feature", "geometry": {"type": "Point", "coordinates": [-110.1147, 36.8813]}, "properties": {"NAME": "W7A/NA-019", "TITLE": "Farm Benchmark", "REGION": "Navajo County", "ASSOCIATION": "USA - Arizona", "POINTS": "8", "BONUSPOINTS": "3"}}, {"type": "Feature", "geometry": {"type": "Point", "coordinates": [-110.4514, 35.4812]}, "properties": {"NAME": "W7A/NA-020", "TITLE": "Bad Medicine Butte", "REGION": "Navajo County", "ASSOCIATION": "USA - Arizona", "POINTS": "8", "BONUSPOINTS": "3"}}, {"type": "Feature", "geometry": {"type": "Point", "coordinates": [-110.1097, 36.9718]}, "properties": {"NAME": "W7A/NA-021", "TITLE": "Mitchell Mesa", "REGION": "Navajo County", "ASSOCIATION": "USA - Arizona", "POINTS": "8", "BONUSPOINTS": "3"}}, {"type": "Feature", "geometry": {"type": "Point", "coordinates": [-110.6994, 35.906]}, "properties": {"NAME": "W7A/NA-022", "TITLE": "Oraibi Mesa", "REGION": "Navajo County", "ASSOCIATION": "USA - Arizona", "POINTS": "8", "BONUSPOINTS": "3"}}, {"type": "Feature", "geometry": {"type": "Point", "coordinates": [-110.417, 35.5465]}, "properties": {"NAME": "W7A/NA-023", "TITLE": "Nipple Butte", "REGION": "Navajo County", "ASSOCIATION": "USA - Arizona", "POINTS": "8", "BONUSPOINTS": "3"}}, {"type": "Feature", "geometry": {"type": "Point", "coordinates": [-110.4099, 35.3004]}, "properties": {"NAME": "W7A/NA-024", "TITLE": "Chimney Butte", "REGION": "Navajo County", "ASSOCIATION": "USA - Arizona", "POINTS": "8", "BONUSPOINTS": "3"}}, {"type": "Feature", "geometry": {"type": "Point", "coordinates": [-110.3541, 35.3167]}, "properties": {"NAME": "W7A/NA-025", "TITLE": "Chezhin Chotah Butte", "REGION": "Navajo County", "ASSOCIATION": "USA - Arizona", "POINTS": "8", "BONUSPOINTS": "3"}}, {"type": "Feature", "geometry": {"type": "Point", "coordinates": [-110.3304, 35.2307]}, "properties": {"NAME": "W7A/NA-026", "TITLE": "Rotten Bananas Butte", "REGION": "Navajo County", "ASSOCIATION": "USA - Arizona", "POINTS": "8", "BONUSPOINTS": "3"}}, {"type": "Feature", "geometry": {"type": "Point", "coordinates": [-110.3949, 35.335]}, "properties": {"NAME": "W7A/NA-027", "TITLE": "Red Cheek Butte", "REGION": "Navajo County", "ASSOCIATION": "USA - Arizona", "POINTS": "8", "BONUSPOINTS": "0"}}, {"type": "Feature", "geometry": {"type": "Point", "coordinates": [-110.4038, 35.3269]}, "properties": {"NAME": "W7A/NA-028", "TITLE": "Castle Butte", "REGION": "Navajo County", "ASSOCIATION": "USA - Arizona", "POINTS": "8", "BONUSPOINTS": "0"}}, {"type": "Feature", "geometry": {"type": "Point", "coordinates": [-110.2049, 35.2874]}, "properties": {"NAME": "W7A/NA-029", "TITLE": "Ram Butte", "REGION": "Navajo County", "ASSOCIATION": "USA - Arizona", "POINTS": "8", "BONUSPOINTS": "0"}}, {"type": "Feature", "geometry": {"type": "Point", "coordinates": [-110.316, 35.1836]}, "properties": {"NAME": "W7A/NA-030", "TITLE": "Flat Top Butte", "REGION": "Navajo County", "ASSOCIATION": "USA - Arizona", "POINTS": "8", "BONUSPOINTS": "0"}}, {"type": "Feature", "geometry": {"type": "Point", "coordinates": [-110.3038, 35.6313]}, "properties": {"NAME": "W7A/NA-031", "TITLE": "Star Mountain", "REGION": "Navajo County", "ASSOCIATION": "USA - Arizona", "POINTS": "8", "BONUSPOINTS": "0"}}, {"type": "Feature", "geometry": {"type": "Point", "coordinates": [-110.1314, 35.3335]}, "properties": {"NAME": "W7A/NA-032", "TITLE": "Malpais Mesa", "REGION": "Navajo County", "ASSOCIATION": "USA - Arizona", "POINTS": "8", "BONUSPOINTS": "0"}}, {"type": "Feature", "geometry": {"type": "Point", "coordinates": [-110.357, 35.2778]}, "properties": {"NAME": "W7A/NA-033", "TITLE": "French Butte", "REGION": "Navajo County", "ASSOCIATION": "USA - Arizona", "POINTS": "8", "BONUSPOINTS": "0"}}, {"type": "Feature", "geometry": {"type": "Point", "coordinates": [-110.4043, 35.4868]}, "properties": {"NAME": "W7A/NA-034", "TITLE": "Saddle Butte", "REGION": "Navajo County", "ASSOCIATION": "USA - Arizona", "POINTS": "8", "BONUSPOINTS": "0"}}, {"type": "Feature", "geometry": {"type": "Point", "coordinates": [-110.2148, 35.3089]}, "properties": {"NAME": "W7A/NA-035", "TITLE": "Sunflower Butte", "REGION": "Navajo County", "ASSOCIATION": "USA - Arizona", "POINTS": "8", "BONUSPOINTS": "0"}}, {"type": "Feature", "geometry": {"type": "Point", "coordinates": [-110.0754, 35.2854]}, "properties": {"NAME": "W7A/NA-036", "TITLE": "Five Buttes", "REGION": "Navajo County", "ASSOCIATION": "USA - Arizona", "POINTS": "8", "BONUSPOINTS": "0"}}, {"type": "Feature", "geometry": {"type": "Point", "coordinates": [-110.511, 35.3656]}, "properties": {"NAME": "W7A/NA-037", "TITLE": "Elephant Butte", "REGION": "Navajo County", "ASSOCIATION": "USA - Arizona", "POINTS": "8", "BONUSPOINTS": "0"}}, {"type": "Feature", "geometry": {"type": "Point", "coordinates": [-110.0216, 35.2617]}, "properties": {"NAME": "W7A/NA-038", "TITLE": "6315", "REGION": "Navajo County", "ASSOCIATION": "USA - Arizona", "POINTS": "8", "BONUSPOINTS": "0"}}, {"type": "Feature", "geometry": {"type": "Point", "coordinates": [-110.2269, 35.2254]}, "properties": {"NAME": "W7A/NA-039", "TITLE": "Mexican Rest Peak", "REGION": "Navajo County", "ASSOCIATION": "USA - Arizona", "POINTS": "8", "BONUSPOINTS": "0"}}, {"type": "Feature", "geometry": {"type": "Point", "coordinates": [-110.0999, 35.2972]}, "properties": {"NAME": "W7A/NA-040", "TITLE": "Black Butte", "REGION": "Navajo County", "ASSOCIATION": "USA - Arizona", "POINTS": "8", "BONUSPOINTS": "0"}}, {"type": "Feature", "geometry": {"type": "Point", "coordinates": [-110.0463, 35.3414]}, "properties": {"NAME": "W7A/NA-041", "TITLE": "Twin Peaks South", "REGION": "Navajo County", "ASSOCIATION": "USA - Arizona", "POINTS": "8", "BONUSPOINTS": "0"}}, {"type": "Feature", "geometry": {"type": "Point", "coordinates": [-110.0076, 35.2998]}, "properties": {"NAME": "W7A/NA-042", "TITLE": "6274", "REGION": "Navajo County", "ASSOCIATION": "USA - Arizona", "POINTS": "8", "BONUSPOINTS": "0"}}, {"type": "Feature", "geometry": {"type": "Point", "coordinates": [-110.4699, 35.362]}, "properties": {"NAME": "W7A/NA-043", "TITLE": "Pyramid Butte", "REGION": "Navajo County", "ASSOCIATION": "USA - Arizona", "POINTS": "8", "BONUSPOINTS": "0"}}, {"type": "Feature", "geometry": {"type": "Point", "coordinates": [-109.8768, 35.1522]}, "properties": {"NAME": "W7A/NA-044", "TITLE": "Pilot Rock", "REGION": "Navajo County", "ASSOCIATION": "USA - Arizona", "POINTS": "8", "BONUSPOINTS": "0"}}, {"type": "Feature", "geometry": {"type": "Point", "coordinates": [-110.0858, 36.9801]}, "properties": {"NAME": "W7A/NA-045", "TITLE": "Merrick Butte", "REGION": "Navajo County", "ASSOCIATION": "USA - Arizona", "POINTS": "8", "BONUSPOINTS": "0"}}, {"type": "Feature", "geometry": {"type": "Point", "coordinates": [-110.3463, 35.6337]}, "properties": {"NAME": "W7A/NA-046", "TITLE": "Little Star Mountain", "REGION": "Navajo County", "ASSOCIATION": "USA - Arizona", "POINTS": "8", "BONUSPOINTS": "0"}}, {"type": "Feature", "geometry": {"type": "Point", "coordinates": [-110.1666, 36.7704]}, "properties": {"NAME": "W7A/NA-047", "TITLE": "Porras Dikes", "REGION": "Navajo County", "ASSOCIATION": "USA - Arizona", "POINTS": "8", "BONUSPOINTS": "0"}}, {"type": "Feature", "geometry": {"type": "Point", "coordinates": [-110.2244, 35.2026]}, "properties": {"NAME": "W7A/NA-048", "TITLE": "Edge Butte", "REGION": "Navajo County", "ASSOCIATION": "USA - Arizona", "POINTS": "8", "BONUSPOINTS": "0"}}, {"type": "Feature", "geometry": {"type": "Point", "coordinates": [-110.1759, 35.2026]}, "properties": {"NAME": "W7A/NA-049", "TITLE": "Turkey Track Butte", "REGION": "Navajo County", "ASSOCIATION": "USA - Arizona", "POINTS": "8", "BONUSPOINTS": "0"}}, {"type": "Feature", "geometry": {"type": "Point", "coordinates": [-110.2321, 35.1377]}, "properties": {"NAME": "W7A/NA-050", "TITLE": "Flying Butte", "REGION": "Navajo County", "ASSOCIATION": "USA - Arizona", "POINTS": "8", "BONUSPOINTS": "0"}}, {"type": "Feature", "geometry": {"type": "Point", "coordinates": [-110.0476, 36.9567]}, "properties": {"NAME": "W7A/NA-051", "TITLE": "Spearhead Mesa", "REGION": "Navajo County", "ASSOCIATION": "USA - Arizona", "POINTS": "6", "BONUSPOINTS": "0"}}, {"type": "Feature", "geometry": {"type": "Point", "coordinates": [-110.076, 36.96]}, "properties": {"NAME": "W7A/NA-052", "TITLE": "Elephant Butte", "REGION": "Navajo County", "ASSOCIATION": "USA - Arizona", "POINTS": "6", "BONUSPOINTS": "0"}}, {"type": "Feature", "geometry": {"type": "Point", "coordinates": [-110.0846, 36.801]}, "properties": {"NAME": "W7A/NA-053", "TITLE": "Comb Ridge", "REGION": "Navajo County", "ASSOCIATION": "USA - Arizona", "POINTS": "6", "BONUSPOINTS": "0"}}, {"type": "Feature", "geometry": {"type": "Point", "coordinates": [-110.0342, 36.9172]}, "properties": {"NAME": "W7A/NA-054", "TITLE": "5926", "REGION": "Navajo County", "ASSOCIATION": "USA - Arizona", "POINTS": "6", "BONUSPOINTS": "0"}}, {"type": "Feature", "geometry": {"type": "Point", "coordinates": [-110.0741, 36.9424]}, "properties": {"NAME": "W7A/NA-055", "TITLE": "Rain God Mesa", "REGION": "Navajo County", "ASSOCIATION": "USA - Arizona", "POINTS": "6", "BONUSPOINTS": "0"}}, {"type": "Feature", "geometry": {"type": "Point", "coordinates": [-110.0777, 36.931]}, "properties": {"NAME": "W7A/NA-056", "TITLE": "Thunderbird Mesa", "REGION": "Navajo County", "ASSOCIATION": "USA - Arizona", "POINTS": "6", "BONUSPOINTS": "0"}}, {"type": "Feature", "geometry": {"type": "Point", "coordinates": [-110.0695, 36.9552]}, "properties": {"NAME": "W7A/NA-057", "TITLE": "Cly Butte", "REGION": "Navajo County", "ASSOCIATION": "USA - Arizona", "POINTS": "6", "BONUSPOINTS": "0"}}, {"type": "Feature", "geometry": {"type": "Point", "coordinates": [-110.2815, 35.1384]}, "properties": {"NAME": "W7A/NA-058", "TITLE": "Black Rock", "REGION": "Navajo County", "ASSOCIATION": "USA - Arizona", "POINTS": "6", "BONUSPOINTS": "0"}}, {"type": "Feature", "geometry": {"type": "Point", "coordinates": [-110.2253, 36.8262]}, "properties": {"NAME": "W7A/NA-059", "TITLE": "Agathla Peak", "REGION": "Navajo County", "ASSOCIATION": "USA - Arizona", "POINTS": "8", "BONUSPOINTS": "3"}}, {"type": "Feature", "geometry": {"type": "Point", "coordinates": [-110.0531, 35.973]}, "properties": {"NAME": "W7A/NA-060", "TITLE": "Low Mountain", "REGION": "Navajo County", "ASSOCIATION": "USA - Arizona", "POINTS": "8", "BONUSPOINTS": "3"}}, {"type": "Feature", "geometry": {"type": "Point", "coordinates": [-110.475, 34.1477]}, "properties": {"NAME": "W7A/NA-061", "TITLE": "Cibecue Ridge", "REGION": "Navajo County", "ASSOCIATION": "USA - Arizona", "POINTS": "8", "BONUSPOINTS": "3"}}, {"type": "Feature", "geometry": {"type": "Point", "coordinates": [-110.3868, 36.8602]}, "properties": {"NAME": "W7A/NA-062", "TITLE": "6540", "REGION": "Navajo County", "ASSOCIATION": "USA - Arizona", "POINTS": "8", "BONUSPOINTS": "3"}}, {"type": "Feature", "geometry": {"type": "Point", "coordinates": [-110.1372, 36.9687]}, "properties": {"NAME": "W7A/NA-063", "TITLE": "Gray Whiskers", "REGION": "Navajo County", "ASSOCIATION": "USA - Arizona", "POINTS": "8", "BONUSPOINTS": "0"}}, {"type": "Feature", "geometry": {"type": "Point", "coordinates": [-110.1526, 36.9767]}, "properties": {"NAME": "W7A/NA-064", "TITLE": "Mitchell Butte", "REGION": "Navajo County", "ASSOCIATION": "USA - Arizona", "POINTS": "8", "BONUSPOINTS": "0"}}, {"type": "Feature", "geometry": {"type": "Point", "coordinates": [-110.0694, 36.9883]}, "properties": {"NAME": "W7A/NA-065", "TITLE": "East Mitten Butte", "REGION": "Navajo County", "ASSOCIATION": "USA - Arizona", "POINTS": "8", "BONUSPOINTS": "0"}}, {"type": "Feature", "geometry": {"type": "Point", "coordinates": [-110.096, 36.9905]}, "properties": {"NAME": "W7A/NA-066", "TITLE": "West Mitten Butte", "REGION": "Navajo County", "ASSOCIATION": "USA - Arizona", "POINTS": "8", "BONUSPOINTS": "0"}}, {"type": "Feature", "geometry": {"type": "Point", "coordinates": [-110.2072, 36.7809]}, "properties": {"NAME": "W7A/NA-067", "TITLE": "Chaistla Butte", "REGION": "Navajo County", "ASSOCIATION": "USA - Arizona", "POINTS": "8", "BONUSPOINTS": "0"}}, {"type": "Feature", "geometry": {"type": "Point", "coordinates": [-110.0779, 36.953]}, "properties": {"NAME": "W7A/NA-068", "TITLE": "Camel Butte", "REGION": "Navajo County", "ASSOCIATION": "USA - Arizona", "POINTS": "6", "BONUSPOINTS": "0"}}]}