{"type": "FeatureCollection", "name": "W7A/AP SUMMITS", "features": [{"type": "Feature", "geometry": {"type": "Point", "coordinates": [-109.583, 33.8523]}, "properties": {"NAME": "W7A/AP-001", "TITLE": "Burnt Mountain", "REGION": "Apache County", "ASSOCIATION": "USA - Arizona", "POINTS": "10", "BONUSPOINTS": "3"}}, {"type": "Feature", "geometry": {"type": "Point", "coordinates": [-109.0929, 36.4602]}, "properties": {"NAME": "W7A/AP-002", "TITLE": "Roof Butte", "REGION": "Apache County", "ASSOCIATION": "USA - Arizona", "POINTS": "10", "BONUSPOINTS": "3"}}, {"type": "Feature", "geometry": {"type": "Point", "coordinates": [-109.5125, 34.0426]}, "properties": {"NAME": "W7A/AP-003", "TITLE": "Pole Knoll", "REGION": "Apache County", "ASSOCIATION": "USA - Arizona", "POINTS": "10", "BONUSPOINTS": "3"}}, {"type": "Feature", "geometry": {"type": "Point", "coordinates": [-109.1163, 36.4682]}, "properties": {"NAME": "W7A/AP-004", "TITLE": "9778", "REGION": "Apache County", "ASSOCIATION": "USA - Arizona", "POINTS": "10", "BONUSPOINTS": "3"}}, {"type": "Feature", "geometry": {"type": "Point", "coordinates": [-109.3808, 33.9917]}, "properties": {"NAME": "W7A/AP-005", "TITLE": "Wahl Knoll", "REGION": "Apache County", "ASSOCIATION": "USA - Arizona", "POINTS": "10", "BONUSPOINTS": "3"}}, {"type": "Feature", "geometry": {"type": "Point", "coordinates": [-109.5607, 34.1412]}, "properties": {"NAME": "W7A/AP-006", "TITLE": "Saint Peters Dome", "REGION": "Apache County", "ASSOCIATION": "USA - Arizona", "POINTS": "10", "BONUSPOINTS": "3"}}, {"type": "Feature", "geometry": {"type": "Point", "coordinates": [-109.1926, 33.8986]}, "properties": {"NAME": "W7A/AP-007", "TITLE": "Noble Mountain", "REGION": "Apache County", "ASSOCIATION": "USA - Arizona", "POINTS": "10", "BONUSPOINTS": "3"}}, {"type": "Feature", "geometry": {"type": "Point", "coordinates": [-109.0878, 36.4482]}, "properties": {"NAME": "W7A/AP-008", "TITLE": "9566", "REGION": "Apache County", "ASSOCIATION": "USA - Arizona", "POINTS": "10", "BONUSPOINTS": "3"}}, {"type": "Feature", "geometry": {"type": "Point", "coordinates": [-109.1446, 36.3656]}, "properties": {"NAME": "W7A/AP-009", "TITLE": "Matthews Peak", "REGION": "Apache County", "ASSOCIATION": "USA - Arizona", "POINTS": "10", "BONUSPOINTS": "3"}}, {"type": "Feature", "geometry": {"type": "Point", "coordinates": [-109.1667, 33.827]}, "properties": {"NAME": "W7A/AP-010", "TITLE": "South Mountain", "REGION": "Apache County", "ASSOCIATION": "USA - Arizona", "POINTS": "10", "BONUSPOINTS": "3"}}, {"type": "Feature", "geometry": {"type": "Point", "coordinates": [-109.1673, 36.5215]}, "properties": {"NAME": "W7A/AP-011", "TITLE": "9466", "REGION": "Apache County", "ASSOCIATION": "USA - Arizona", "POINTS": "10", "BONUSPOINTS": "3"}}, {"type": "Feature", "geometry": {"type": "Point", "coordinates": [-109.1986, 36.4989]}, "properties": {"NAME": "W7A/AP-012", "TITLE": "9460", "REGION": "Apache County", "ASSOCIATION": "USA - Arizona", "POINTS": "10", "BONUSPOINTS": "3"}}, {"type": "Feature", "geometry": {"type": "Point", "coordinates": [-109.0571, 36.3041]}, "properties": {"NAME": "W7A/AP-013", "TITLE": "Bear Benchmark", "REGION": "Apache County", "ASSOCIATION": "USA - Arizona", "POINTS": "10", "BONUSPOINTS": "3"}}, {"type": "Feature", "geometry": {"type": "Point", "coordinates": [-109.5815, 34.1589]}, "properties": {"NAME": "W7A/AP-014", "TITLE": "Whiting Knoll", "REGION": "Apache County", "ASSOCIATION": "USA - Arizona", "POINTS": "10", "BONUSPOINTS": "3"}}, {"type": "Feature", "geometry": {"type": "Point", "coordinates": [-109.1231, 33.7958]}, "properties": {"NAME": "W7A/AP-015", "TITLE": "Timber Top", "REGION": "Apache County", "ASSOCIATION": "USA - Arizona", "POINTS": "10", "BONUSPOINTS": "3"}}, {"type": "Feature", "geometry": {"type": "Point", "coordinates": [-109.1733, 36.4756]}, "properties": {"NAME": "W7A/AP-016", "TITLE": "9269", "REGION": "Apache County", "ASSOCIATION": "USA - Arizona", "POINTS": "10", "BONUSPOINTS": "3"}}, {"type": "Feature", "geometry": {"type": "Point", "coordinates": [-109.6745, 34.1278]}, "properties": {"NAME": "W7A/AP-017", "TITLE": "Boundary Butte", "REGION": "Apache County", "ASSOCIATION": "USA - Arizona", "POINTS": "10", "BONUSPOINTS": "3"}}, {"type": "Feature", "geometry": {"type": "Point", "coordinates": [-109.0825, 36.407]}, "properties": {"NAME": "W7A/AP-018", "TITLE": "9246", "REGION": "Apache County", "ASSOCIATION": "USA - Arizona", "POINTS": "10", "BONUSPOINTS": "3"}}, {"type": "Feature", "geometry": {"type": "Point", "coordinates": [-109.6142, 33.8184]}, "properties": {"NAME": "W7A/AP-019", "TITLE": "Aspen Butte", "REGION": "Apache County", "ASSOCIATION": "USA - Arizona", "POINTS": "10", "BONUSPOINTS": "3"}}, {"type": "Feature", "geometry": {"type": "Point", "coordinates": [-109.0761, 33.9717]}, "properties": {"NAME": "W7A/AP-020", "TITLE": "Escudilla Butte", "REGION": "Apache County", "ASSOCIATION": "USA - Arizona", "POINTS": "10", "BONUSPOINTS": "3"}}, {"type": "Feature", "geometry": {"type": "Point", "coordinates": [-109.1141, 36.2794]}, "properties": {"NAME": "W7A/AP-021", "TITLE": "Tsaile Butte", "REGION": "Apache County", "ASSOCIATION": "USA - Arizona", "POINTS": "10", "BONUSPOINTS": "3"}}, {"type": "Feature", "geometry": {"type": "Point", "coordinates": [-109.0559, 36.1841]}, "properties": {"NAME": "W7A/AP-022", "TITLE": "9059", "REGION": "Apache County", "ASSOCIATION": "USA - Arizona", "POINTS": "10", "BONUSPOINTS": "3"}}, {"type": "Feature", "geometry": {"type": "Point", "coordinates": [-109.0679, 36.1099]}, "properties": {"NAME": "W7A/AP-023", "TITLE": "Sonsela Buttes East", "REGION": "Apache County", "ASSOCIATION": "USA - Arizona", "POINTS": "10", "BONUSPOINTS": "3"}}, {"type": "Feature", "geometry": {"type": "Point", "coordinates": [-109.2754, 36.5321]}, "properties": {"NAME": "W7A/AP-024", "TITLE": "8947", "REGION": "Apache County", "ASSOCIATION": "USA - Arizona", "POINTS": "10", "BONUSPOINTS": "3"}}, {"type": "Feature", "geometry": {"type": "Point", "coordinates": [-109.2379, 33.9329]}, "properties": {"NAME": "W7A/AP-025", "TITLE": "Gobbler Peak", "REGION": "Apache County", "ASSOCIATION": "USA - Arizona", "POINTS": "10", "BONUSPOINTS": "3"}}, {"type": "Feature", "geometry": {"type": "Point", "coordinates": [-109.1025, 36.1007]}, "properties": {"NAME": "W7A/AP-026", "TITLE": "Sonsela Buttes West", "REGION": "Apache County", "ASSOCIATION": "USA - Arizona", "POINTS": "10", "BONUSPOINTS": "3"}}, {"type": "Feature", "geometry": {"type": "Point", "coordinates": [-109.7333, 34.1518]}, "properties": {"NAME": "W7A/AP-027", "TITLE": "Wishbone Mountain", "REGION": "Apache County", "ASSOCIATION": "USA - Arizona", "POINTS": "10", "BONUSPOINTS": "3"}}, {"type": "Feature", "geometry": {"type": "Point", "coordinates": [-109.2425, 36.503]}, "properties": {"NAME": "W7A/AP-028", "TITLE": "8796", "REGION": "Apache County", "ASSOCIATION": "USA - Arizona", "POINTS": "10", "BONUSPOINTS": "3"}}, {"type": "Feature", "geometry": {"type": "Point", "coordinates": [-109.0811, 36.1878]}, "properties": {"NAME": "W7A/AP-029", "TITLE": "White Cone", "REGION": "Apache County", "ASSOCIATION": "USA - Arizona", "POINTS": "10", "BONUSPOINTS": "3"}}, {"type": "Feature", "geometry": {"type": "Point", "coordinates": [-109.2416, 36.7884]}, "properties": {"NAME": "W7A/AP-030", "TITLE": "8442", "REGION": "Apache County", "ASSOCIATION": "USA - Arizona", "POINTS": "10", "BONUSPOINTS": "3"}}, {"type": "Feature", "geometry": {"type": "Point", "coordinates": [-109.5854, 34.2517]}, "properties": {"NAME": "W7A/AP-031", "TITLE": "Cerro Montoso", "REGION": "Apache County", "ASSOCIATION": "USA - Arizona", "POINTS": "10", "BONUSPOINTS": "3"}}, {"type": "Feature", "geometry": {"type": "Point", "coordinates": [-109.7401, 34.1978]}, "properties": {"NAME": "W7A/AP-032", "TITLE": "Wolf Mountain", "REGION": "Apache County", "ASSOCIATION": "USA - Arizona", "POINTS": "10", "BONUSPOINTS": "3"}}, {"type": "Feature", "geometry": {"type": "Point", "coordinates": [-109.2673, 34.0841]}, "properties": {"NAME": "W7A/AP-033", "TITLE": "Flat Top", "REGION": "Apache County", "ASSOCIATION": "USA - Arizona", "POINTS": "10", "BONUSPOINTS": "3"}}, {"type": "Feature", "geometry": {"type": "Point", "coordinates": [-109.8385, 36.3717]}, "properties": {"NAME": "W7A/AP-034", "TITLE": "Yale Point", "REGION": "Apache County", "ASSOCIATION": "USA - Arizona", "POINTS": "10", "BONUSPOINTS": "3"}}, {"type": "Feature", "geometry": {"type": "Point", "coordinates": [-109.2567, 36.788]}, "properties": {"NAME": "W7A/AP-035", "TITLE": "7931", "REGION": "Apache County", "ASSOCIATION": "USA - Arizona", "POINTS": "10", "BONUSPOINTS": "3"}}, {"type": "Feature", "geometry": {"type": "Point", "coordinates": [-109.9636, 36.4382]}, "properties": {"NAME": "W7A/AP-036", "TITLE": "7901", "REGION": "Apache County", "ASSOCIATION": "USA - Arizona", "POINTS": "10", "BONUSPOINTS": "3"}}, {"type": "Feature", "geometry": {"type": "Point", "coordinates": [-109.2368, 34.1712]}, "properties": {"NAME": "W7A/AP-037", "TITLE": "Coyote Hills", "REGION": "Apache County", "ASSOCIATION": "USA - Arizona", "POINTS": "10", "BONUSPOINTS": "3"}}, {"type": "Feature", "geometry": {"type": "Point", "coordinates": [-109.9443, 36.1206]}, "properties": {"NAME": "W7A/AP-038", "TITLE": "Toadindaaska Mesa", "REGION": "Apache County", "ASSOCIATION": "USA - Arizona", "POINTS": "8", "BONUSPOINTS": "3"}}, {"type": "Feature", "geometry": {"type": "Point", "coordinates": [-109.9167, 36.0327]}, "properties": {"NAME": "W7A/AP-039", "TITLE": "Balakai Mesa", "REGION": "Apache County", "ASSOCIATION": "USA - Arizona", "POINTS": "8", "BONUSPOINTS": "3"}}, {"type": "Feature", "geometry": {"type": "Point", "coordinates": [-109.0734, 35.4202]}, "properties": {"NAME": "W7A/AP-040", "TITLE": "7351", "REGION": "Apache County", "ASSOCIATION": "USA - Arizona", "POINTS": "8", "BONUSPOINTS": "3"}}, {"type": "Feature", "geometry": {"type": "Point", "coordinates": [-109.3815, 34.2277]}, "properties": {"NAME": "W7A/AP-041", "TITLE": "7268", "REGION": "Apache County", "ASSOCIATION": "USA - Arizona", "POINTS": "8", "BONUSPOINTS": "3"}}, {"type": "Feature", "geometry": {"type": "Point", "coordinates": [-109.7534, 33.5446]}, "properties": {"NAME": "W7A/AP-042", "TITLE": "Poker Mountain", "REGION": "Apache County", "ASSOCIATION": "USA - Arizona", "POINTS": "8", "BONUSPOINTS": "3"}}, {"type": "Feature", "geometry": {"type": "Point", "coordinates": [-109.3051, 34.2528]}, "properties": {"NAME": "W7A/AP-043", "TITLE": "Scraper Knoll", "REGION": "Apache County", "ASSOCIATION": "USA - Arizona", "POINTS": "8", "BONUSPOINTS": "3"}}, {"type": "Feature", "geometry": {"type": "Point", "coordinates": [-109.7674, 33.7037]}, "properties": {"NAME": "W7A/AP-044", "TITLE": "7025", "REGION": "Apache County", "ASSOCIATION": "USA - Arizona", "POINTS": "8", "BONUSPOINTS": "3"}}, {"type": "Feature", "geometry": {"type": "Point", "coordinates": [-109.2122, 36.6217]}, "properties": {"NAME": "W7A/AP-045", "TITLE": "6940", "REGION": "Apache County", "ASSOCIATION": "USA - Arizona", "POINTS": "8", "BONUSPOINTS": "3"}}, {"type": "Feature", "geometry": {"type": "Point", "coordinates": [-109.7981, 34.4422]}, "properties": {"NAME": "W7A/AP-046", "TITLE": "Mesa Redonda", "REGION": "Apache County", "ASSOCIATION": "USA - Arizona", "POINTS": "8", "BONUSPOINTS": "3"}}, {"type": "Feature", "geometry": {"type": "Point", "coordinates": [-109.3432, 36.1086]}, "properties": {"NAME": "W7A/AP-047", "TITLE": "Arachnid Mesa", "REGION": "Apache County", "ASSOCIATION": "USA - Arizona", "POINTS": "8", "BONUSPOINTS": "3"}}, {"type": "Feature", "geometry": {"type": "Point", "coordinates": [-109.1353, 36.6475]}, "properties": {"NAME": "W7A/AP-048", "TITLE": "Black Rock", "REGION": "Apache County", "ASSOCIATION": "USA - Arizona", "POINTS": "8", "BONUSPOINTS": "3"}}, {"type": "Feature", "geometry": {"type": "Point", "coordinates": [-109.3765, 36.9064]}, "properties": {"NAME": "W7A/AP-049", "TITLE": "Toh Atin Mesa", "REGION": "Apache County", "ASSOCIATION": "USA - Arizona", "POINTS": "8", "BONUSPOINTS": "3"}}, {"type": "Feature", "geometry": {"type": "Point", "coordinates": [-109.3673, 36.5871]}, "properties": {"NAME": "W7A/AP-050", "TITLE": "Rock Pointing West", "REGION": "Apache County", "ASSOCIATION": "USA - Arizona", "POINTS": "8", "BONUSPOINTS": "3"}}, {"type": "Feature", "geometry": {"type": "Point", "coordinates": [-109.407, 36.5948]}, "properties": {"NAME": "W7A/AP-051", "TITLE": "Los Gigantes Buttes West", "REGION": "Apache County", "ASSOCIATION": "USA - Arizona", "POINTS": "8", "BONUSPOINTS": "0"}}, {"type": "Feature", "geometry": {"type": "Point", "coordinates": [-109.3969, 36.5909]}, "properties": {"NAME": "W7A/AP-052", "TITLE": "Los Gigantes Buttes East", "REGION": "Apache County", "ASSOCIATION": "USA - Arizona", "POINTS": "8", "BONUSPOINTS": "0"}}, {"type": "Feature", "geometry": {"type": "Point", "coordinates": [-109.9949, 36.9025]}, "properties": {"NAME": "W7A/AP-053", "TITLE": "Meridian Butte", "REGION": "Apache County", "ASSOCIATION": "USA - Arizona", "POINTS": "8", "BONUSPOINTS": "0"}}, {"type": "Feature", "geometry": {"type": "Point", "coordinates": [-109.5544, 36.4977]}, "properties": {"NAME": "W7A/AP-054", "TITLE": "Round Rock", "REGION": "Apache County", "ASSOCIATION": "USA - Arizona", "POINTS": "8", "BONUSPOINTS": "0"}}, {"type": "Feature", "geometry": {"type": "Point", "coordinates": [-109.5472, 36.5248]}, "properties": {"NAME": "W7A/AP-055", "TITLE": "Little Round Rock", "REGION": "Apache County", "ASSOCIATION": "USA - Arizona", "POINTS": "8", "BONUSPOINTS": "0"}}, {"type": "Feature", "geometry": {"type": "Point", "coordinates": [-109.4992, 36.5904]}, "properties": {"NAME": "W7A/AP-056", "TITLE": "6090", "REGION": "Apache County", "ASSOCIATION": "USA - Arizona", "POINTS": "8", "BONUSPOINTS": "0"}}, {"type": "Feature", "geometry": {"type": "Point", "coordinates": [-109.4854, 36.5831]}, "properties": {"NAME": "W7A/AP-057", "TITLE": "Standing Rock", "REGION": "Apache County", "ASSOCIATION": "USA - Arizona", "POINTS": "8", "BONUSPOINTS": "0"}}, {"type": "Feature", "geometry": {"type": "Point", "coordinates": [-109.5622, 34.6325]}, "properties": {"NAME": "W7A/AP-058", "TITLE": "South Stinking Springs Mountain", "REGION": "Apache County", "ASSOCIATION": "USA - Arizona", "POINTS": "8", "BONUSPOINTS": "0"}}, {"type": "Feature", "geometry": {"type": "Point", "coordinates": [-109.5434, 36.6194]}, "properties": {"NAME": "W7A/AP-059", "TITLE": "5850", "REGION": "Apache County", "ASSOCIATION": "USA - Arizona", "POINTS": "6", "BONUSPOINTS": "0"}}, {"type": "Feature", "geometry": {"type": "Point", "coordinates": [-109.6869, 33.6249]}, "properties": {"NAME": "W7A/AP-060", "TITLE": "Maverick Mountain", "REGION": "Apache County", "ASSOCIATION": "USA - Arizona", "POINTS": "10", "BONUSPOINTS": "3"}}, {"type": "Feature", "geometry": {"type": "Point", "coordinates": [-109.232, 36.6113]}, "properties": {"NAME": "W7A/AP-061", "TITLE": "6994", "REGION": "Apache County", "ASSOCIATION": "USA - Arizona", "POINTS": "8", "BONUSPOINTS": "3"}}, {"type": "Feature", "geometry": {"type": "Point", "coordinates": [-109.3345, 36.1176]}, "properties": {"NAME": "W7A/AP-062", "TITLE": "6850", "REGION": "Apache County", "ASSOCIATION": "USA - Arizona", "POINTS": "8", "BONUSPOINTS": "3"}}, {"type": "Feature", "geometry": {"type": "Point", "coordinates": [-109.3503, 36.1077]}, "properties": {"NAME": "W7A/AP-063", "TITLE": "Spider Rock", "REGION": "Apache County", "ASSOCIATION": "USA - Arizona", "POINTS": "8", "BONUSPOINTS": "3"}}, {"type": "Feature", "geometry": {"type": "Point", "coordinates": [-109.3411, 36.6072]}, "properties": {"NAME": "W7A/AP-064", "TITLE": "6500", "REGION": "Apache County", "ASSOCIATION": "USA - Arizona", "POINTS": "8", "BONUSPOINTS": "0"}}, {"type": "Feature", "geometry": {"type": "Point", "coordinates": [-109.356, 36.6087]}, "properties": {"NAME": "W7A/AP-065", "TITLE": "6434", "REGION": "Apache County", "ASSOCIATION": "USA - Arizona", "POINTS": "8", "BONUSPOINTS": "0"}}, {"type": "Feature", "geometry": {"type": "Point", "coordinates": [-109.9682, 36.8958]}, "properties": {"NAME": "W7A/AP-066", "TITLE": "6042", "REGION": "Apache County", "ASSOCIATION": "USA - Arizona", "POINTS": "8", "BONUSPOINTS": "0"}}, {"type": "Feature", "geometry": {"type": "Point", "coordinates": [-109.9854, 36.9156]}, "properties": {"NAME": "W7A/AP-067", "TITLE": "Rooster Rock", "REGION": "Apache County", "ASSOCIATION": "USA - Arizona", "POINTS": "6", "BONUSPOINTS": "0"}}, {"type": "Feature", "geometry": {"type": "Point", "coordinates": [-109.5873, 36.6631]}, "properties": {"NAME": "W7A/AP-068", "TITLE": "Dancing Rocks, South", "REGION": "Apache County", "ASSOCIATION": "USA - Arizona", "POINTS": "6", "BONUSPOINTS": "0"}}]}