{"type": "FeatureCollection", "name": "W7A/PN SUMMITS", "features": [{"type": "Feature", "geometry": {"type": "Point", "coordinates": [-110.7517, 32.5518]}, "properties": {"NAME": "W7A/PN-001", "TITLE": "Apache Peak", "REGION": "Pinal County", "ASSOCIATION": "USA - Arizona", "POINTS": "8", "BONUSPOINTS": "3"}}, {"type": "Feature", "geometry": {"type": "Point", "coordinates": [-110.4909, 32.7987]}, "properties": {"NAME": "W7A/PN-002", "TITLE": "Little Table Mountain", "REGION": "Pinal County", "ASSOCIATION": "USA - Arizona", "POINTS": "8", "BONUSPOINTS": "3"}}, {"type": "Feature", "geometry": {"type": "Point", "coordinates": [-110.5192, 32.8245]}, "properties": {"NAME": "W7A/PN-003", "TITLE": "Table Mountain", "REGION": "Pinal County", "ASSOCIATION": "USA - Arizona", "POINTS": "8", "BONUSPOINTS": "3"}}, {"type": "Feature", "geometry": {"type": "Point", "coordinates": [-111.1813, 33.4621]}, "properties": {"NAME": "W7A/PN-004", "TITLE": "White Mountain", "REGION": "Pinal County", "ASSOCIATION": "USA - Arizona", "POINTS": "8", "BONUSPOINTS": "3"}}, {"type": "Feature", "geometry": {"type": "Point", "coordinates": [-111.1702, 33.4327]}, "properties": {"NAME": "W7A/PN-005", "TITLE": "Iron Mountain", "REGION": "Pinal County", "ASSOCIATION": "USA - Arizona", "POINTS": "8", "BONUSPOINTS": "3"}}, {"type": "Feature", "geometry": {"type": "Point", "coordinates": [-111.1187, 33.4619]}, "properties": {"NAME": "W7A/PN-006", "TITLE": "Pinto Peak", "REGION": "Pinal County", "ASSOCIATION": "USA - Arizona", "POINTS": "6", "BONUSPOINTS": "3"}}, {"type": "Feature", "geometry": {"type": "Point", "coordinates": [-110.4703, 32.782]}, "properties": {"NAME": "W7A/PN-007", "TITLE": "Bluebird Peak", "REGION": "Pinal County", "ASSOCIATION": "USA - Arizona", "POINTS": "6", "BONUSPOINTS": "3"}}, {"type": "Feature", "geometry": {"type": "Point", "coordinates": [-110.8118, 32.5278]}, "properties": {"NAME": "W7A/PN-008", "TITLE": "5961", "REGION": "Pinal County", "ASSOCIATION": "USA - Arizona", "POINTS": "6", "BONUSPOINTS": "3"}}, {"type": "Feature", "geometry": {"type": "Point", "coordinates": [-110.4864, 32.7089]}, "properties": {"NAME": "W7A/PN-009", "TITLE": "Sombrero Butte", "REGION": "Pinal County", "ASSOCIATION": "USA - Arizona", "POINTS": "6", "BONUSPOINTS": "3"}}, {"type": "Feature", "geometry": {"type": "Point", "coordinates": [-111.0566, 33.3487]}, "properties": {"NAME": "W7A/PN-010", "TITLE": "Stinger Peak", "REGION": "Pinal County", "ASSOCIATION": "USA - Arizona", "POINTS": "6", "BONUSPOINTS": "3"}}, {"type": "Feature", "geometry": {"type": "Point", "coordinates": [-110.9935, 33.3281]}, "properties": {"NAME": "W7A/PN-011", "TITLE": "Hutton Peak", "REGION": "Pinal County", "ASSOCIATION": "USA - Arizona", "POINTS": "6", "BONUSPOINTS": "3"}}, {"type": "Feature", "geometry": {"type": "Point", "coordinates": [-110.9634, 32.7788]}, "properties": {"NAME": "W7A/PN-012", "TITLE": "Black Mountain", "REGION": "Pinal County", "ASSOCIATION": "USA - Arizona", "POINTS": "6", "BONUSPOINTS": "3"}}, {"type": "Feature", "geometry": {"type": "Point", "coordinates": [-110.4502, 33.0459]}, "properties": {"NAME": "W7A/PN-013", "TITLE": "Rawhide Mountain", "REGION": "Pinal County", "ASSOCIATION": "USA - Arizona", "POINTS": "6", "BONUSPOINTS": "3"}}, {"type": "Feature", "geometry": {"type": "Point", "coordinates": [-111.0709, 33.3314]}, "properties": {"NAME": "W7A/PN-014", "TITLE": "Kings Crown Peak", "REGION": "Pinal County", "ASSOCIATION": "USA - Arizona", "POINTS": "6", "BONUSPOINTS": "3"}}, {"type": "Feature", "geometry": {"type": "Point", "coordinates": [-111.0915, 33.4048]}, "properties": {"NAME": "W7A/PN-015", "TITLE": "Govt Hill Benchmark", "REGION": "Pinal County", "ASSOCIATION": "USA - Arizona", "POINTS": "6", "BONUSPOINTS": "3"}}, {"type": "Feature", "geometry": {"type": "Point", "coordinates": [-110.5752, 33.0944]}, "properties": {"NAME": "W7A/PN-016", "TITLE": "Jerusalem Mountain", "REGION": "Pinal County", "ASSOCIATION": "USA - Arizona", "POINTS": "6", "BONUSPOINTS": "3"}}, {"type": "Feature", "geometry": {"type": "Point", "coordinates": [-111.1136, 33.4228]}, "properties": {"NAME": "W7A/PN-017", "TITLE": "Sawtooth Ridge", "REGION": "Pinal County", "ASSOCIATION": "USA - Arizona", "POINTS": "6", "BONUSPOINTS": "3"}}, {"type": "Feature", "geometry": {"type": "Point", "coordinates": [-110.5096, 33.075]}, "properties": {"NAME": "W7A/PN-018", "TITLE": "5146", "REGION": "Pinal County", "ASSOCIATION": "USA - Arizona", "POINTS": "6", "BONUSPOINTS": "3"}}, {"type": "Feature", "geometry": {"type": "Point", "coordinates": [-110.9527, 33.1955]}, "properties": {"NAME": "W7A/PN-019", "TITLE": "Scott Mountain", "REGION": "Pinal County", "ASSOCIATION": "USA - Arizona", "POINTS": "6", "BONUSPOINTS": "3"}}, {"type": "Feature", "geometry": {"type": "Point", "coordinates": [-111.238, 33.4387]}, "properties": {"NAME": "W7A/PN-020", "TITLE": "La Barge Mountain", "REGION": "Pinal County", "ASSOCIATION": "USA - Arizona", "POINTS": "6", "BONUSPOINTS": "3"}}, {"type": "Feature", "geometry": {"type": "Point", "coordinates": [-111.4008, 33.411]}, "properties": {"NAME": "W7A/PN-021", "TITLE": "Superstition Peak", "REGION": "Pinal County", "ASSOCIATION": "USA - Arizona", "POINTS": "6", "BONUSPOINTS": "3"}}, {"type": "Feature", "geometry": {"type": "Point", "coordinates": [-111.4487, 33.4393]}, "properties": {"NAME": "W7A/PN-022", "TITLE": "Superstition Peak, North", "REGION": "Pinal County", "ASSOCIATION": "USA - Arizona", "POINTS": "6", "BONUSPOINTS": "3"}}, {"type": "Feature", "geometry": {"type": "Point", "coordinates": [-110.9255, 33.1557]}, "properties": {"NAME": "W7A/PN-023", "TITLE": "Troy Mountain", "REGION": "Pinal County", "ASSOCIATION": "USA - Arizona", "POINTS": "6", "BONUSPOINTS": "3"}}, {"type": "Feature", "geometry": {"type": "Point", "coordinates": [-111.2025, 33.4555]}, "properties": {"NAME": "W7A/PN-024", "TITLE": "4940", "REGION": "Pinal County", "ASSOCIATION": "USA - Arizona", "POINTS": "6", "BONUSPOINTS": "3"}}, {"type": "Feature", "geometry": {"type": "Point", "coordinates": [-111.2412, 33.4532]}, "properties": {"NAME": "W7A/PN-025", "TITLE": "4893", "REGION": "Pinal County", "ASSOCIATION": "USA - Arizona", "POINTS": "6", "BONUSPOINTS": "3"}}, {"type": "Feature", "geometry": {"type": "Point", "coordinates": [-110.5068, 33.0081]}, "properties": {"NAME": "W7A/PN-026", "TITLE": "Red Rooster Mountain", "REGION": "Pinal County", "ASSOCIATION": "USA - Arizona", "POINTS": "6", "BONUSPOINTS": "3"}}, {"type": "Feature", "geometry": {"type": "Point", "coordinates": [-111.0618, 33.2627]}, "properties": {"NAME": "W7A/PN-027", "TITLE": "Apache Benchmark", "REGION": "Pinal County", "ASSOCIATION": "USA - Arizona", "POINTS": "6", "BONUSPOINTS": "3"}}, {"type": "Feature", "geometry": {"type": "Point", "coordinates": [-111.4092, 33.4238]}, "properties": {"NAME": "W7A/PN-028", "TITLE": "4869", "REGION": "Pinal County", "ASSOCIATION": "USA - Arizona", "POINTS": "6", "BONUSPOINTS": "3"}}, {"type": "Feature", "geometry": {"type": "Point", "coordinates": [-110.6222, 33.1269]}, "properties": {"NAME": "W7A/PN-029", "TITLE": "4740", "REGION": "Pinal County", "ASSOCIATION": "USA - Arizona", "POINTS": "6", "BONUSPOINTS": "3"}}, {"type": "Feature", "geometry": {"type": "Point", "coordinates": [-110.6195, 33.0851]}, "properties": {"NAME": "W7A/PN-030", "TITLE": "4732", "REGION": "Pinal County", "ASSOCIATION": "USA - Arizona", "POINTS": "6", "BONUSPOINTS": "3"}}, {"type": "Feature", "geometry": {"type": "Point", "coordinates": [-110.9662, 33.2378]}, "properties": {"NAME": "W7A/PN-031", "TITLE": "4700", "REGION": "Pinal County", "ASSOCIATION": "USA - Arizona", "POINTS": "6", "BONUSPOINTS": "3"}}, {"type": "Feature", "geometry": {"type": "Point", "coordinates": [-111.0407, 32.5296]}, "properties": {"NAME": "W7A/PN-032", "TITLE": "Jeffords Peak", "REGION": "Pinal County", "ASSOCIATION": "USA - Arizona", "POINTS": "6", "BONUSPOINTS": "3"}}, {"type": "Feature", "geometry": {"type": "Point", "coordinates": [-111.2879, 33.4241]}, "properties": {"NAME": "W7A/PN-033", "TITLE": "Coffee Flat Mountain", "REGION": "Pinal County", "ASSOCIATION": "USA - Arizona", "POINTS": "6", "BONUSPOINTS": "3"}}, {"type": "Feature", "geometry": {"type": "Point", "coordinates": [-111.2408, 33.3791]}, "properties": {"NAME": "W7A/PN-034", "TITLE": "Fraser Benchmark", "REGION": "Pinal County", "ASSOCIATION": "USA - Arizona", "POINTS": "6", "BONUSPOINTS": "3"}}, {"type": "Feature", "geometry": {"type": "Point", "coordinates": [-111.0667, 33.452]}, "properties": {"NAME": "W7A/PN-035", "TITLE": "4597", "REGION": "Pinal County", "ASSOCIATION": "USA - Arizona", "POINTS": "6", "BONUSPOINTS": "3"}}, {"type": "Feature", "geometry": {"type": "Point", "coordinates": [-110.861, 32.8509]}, "properties": {"NAME": "W7A/PN-036", "TITLE": "Antelope Peak", "REGION": "Pinal County", "ASSOCIATION": "USA - Arizona", "POINTS": "6", "BONUSPOINTS": "3"}}, {"type": "Feature", "geometry": {"type": "Point", "coordinates": [-110.504, 33.131]}, "properties": {"NAME": "W7A/PN-037", "TITLE": "Rockhouse Mountain", "REGION": "Pinal County", "ASSOCIATION": "USA - Arizona", "POINTS": "6", "BONUSPOINTS": "3"}}, {"type": "Feature", "geometry": {"type": "Point", "coordinates": [-110.8872, 33.1335]}, "properties": {"NAME": "W7A/PN-038", "TITLE": "4515", "REGION": "Pinal County", "ASSOCIATION": "USA - Arizona", "POINTS": "6", "BONUSPOINTS": "3"}}, {"type": "Feature", "geometry": {"type": "Point", "coordinates": [-110.6332, 32.9208]}, "properties": {"NAME": "W7A/PN-039", "TITLE": "4508", "REGION": "Pinal County", "ASSOCIATION": "USA - Arizona", "POINTS": "6", "BONUSPOINTS": "3"}}, {"type": "Feature", "geometry": {"type": "Point", "coordinates": [-111.0271, 33.1976]}, "properties": {"NAME": "W7A/PN-040", "TITLE": "Teapot Mountain", "REGION": "Pinal County", "ASSOCIATION": "USA - Arizona", "POINTS": "4", "BONUSPOINTS": "3"}}, {"type": "Feature", "geometry": {"type": "Point", "coordinates": [-111.1576, 33.2567]}, "properties": {"NAME": "W7A/PN-041", "TITLE": "Picketpost Mountain", "REGION": "Pinal County", "ASSOCIATION": "USA - Arizona", "POINTS": "4", "BONUSPOINTS": "3"}}, {"type": "Feature", "geometry": {"type": "Point", "coordinates": [-112.1254, 32.7533]}, "properties": {"NAME": "W7A/PN-042", "TITLE": "Table Top", "REGION": "Pinal County", "ASSOCIATION": "USA - Arizona", "POINTS": "4", "BONUSPOINTS": "3"}}, {"type": "Feature", "geometry": {"type": "Point", "coordinates": [-110.745, 32.7177]}, "properties": {"NAME": "W7A/PN-043", "TITLE": "Signal Peak", "REGION": "Pinal County", "ASSOCIATION": "USA - Arizona", "POINTS": "4", "BONUSPOINTS": "3"}}, {"type": "Feature", "geometry": {"type": "Point", "coordinates": [-111.1296, 33.1802]}, "properties": {"NAME": "W7A/PN-044", "TITLE": "Ajax Benchmark", "REGION": "Pinal County", "ASSOCIATION": "USA - Arizona", "POINTS": "4", "BONUSPOINTS": "3"}}, {"type": "Feature", "geometry": {"type": "Point", "coordinates": [-112.1974, 33.1844]}, "properties": {"NAME": "W7A/PN-045", "TITLE": "Montezuma Peak", "REGION": "Pinal County", "ASSOCIATION": "USA - Arizona", "POINTS": "4", "BONUSPOINTS": "3"}}, {"type": "Feature", "geometry": {"type": "Point", "coordinates": [-110.9929, 32.7929]}, "properties": {"NAME": "W7A/PN-046", "TITLE": "Lions Den", "REGION": "Pinal County", "ASSOCIATION": "USA - Arizona", "POINTS": "4", "BONUSPOINTS": "3"}}, {"type": "Feature", "geometry": {"type": "Point", "coordinates": [-111.3124, 33.4553]}, "properties": {"NAME": "W7A/PN-047", "TITLE": "Music Mountain", "REGION": "Pinal County", "ASSOCIATION": "USA - Arizona", "POINTS": "4", "BONUSPOINTS": "3"}}, {"type": "Feature", "geometry": {"type": "Point", "coordinates": [-111.215, 33.3797]}, "properties": {"NAME": "W7A/PN-048", "TITLE": "Hewitt Ridge", "REGION": "Pinal County", "ASSOCIATION": "USA - Arizona", "POINTS": "4", "BONUSPOINTS": "3"}}, {"type": "Feature", "geometry": {"type": "Point", "coordinates": [-111.0449, 32.5835]}, "properties": {"NAME": "W7A/PN-049", "TITLE": "Tortilla Benchmark", "REGION": "Pinal County", "ASSOCIATION": "USA - Arizona", "POINTS": "4", "BONUSPOINTS": "3"}}, {"type": "Feature", "geometry": {"type": "Point", "coordinates": [-110.6716, 32.9903]}, "properties": {"NAME": "W7A/PN-050", "TITLE": "Saddle Mountain", "REGION": "Pinal County", "ASSOCIATION": "USA - Arizona", "POINTS": "4", "BONUSPOINTS": "3"}}, {"type": "Feature", "geometry": {"type": "Point", "coordinates": [-111.4064, 32.7063]}, "properties": {"NAME": "W7A/PN-051", "TITLE": "South Newman", "REGION": "Pinal County", "ASSOCIATION": "USA - Arizona", "POINTS": "4", "BONUSPOINTS": "3"}}, {"type": "Feature", "geometry": {"type": "Point", "coordinates": [-111.3666, 33.4139]}, "properties": {"NAME": "W7A/PN-052", "TITLE": "Fremont Peak", "REGION": "Pinal County", "ASSOCIATION": "USA - Arizona", "POINTS": "4", "BONUSPOINTS": "3"}}, {"type": "Feature", "geometry": {"type": "Point", "coordinates": [-111.3515, 33.4324]}, "properties": {"NAME": "W7A/PN-053", "TITLE": "Bluff Spring Mountain", "REGION": "Pinal County", "ASSOCIATION": "USA - Arizona", "POINTS": "4", "BONUSPOINTS": "3"}}, {"type": "Feature", "geometry": {"type": "Point", "coordinates": [-111.137, 33.2199]}, "properties": {"NAME": "W7A/PN-054", "TITLE": "4110", "REGION": "Pinal County", "ASSOCIATION": "USA - Arizona", "POINTS": "4", "BONUSPOINTS": "3"}}, {"type": "Feature", "geometry": {"type": "Point", "coordinates": [-110.5036, 33.1456]}, "properties": {"NAME": "W7A/PN-055", "TITLE": "Coolidge Benchmark", "REGION": "Pinal County", "ASSOCIATION": "USA - Arizona", "POINTS": "4", "BONUSPOINTS": "3"}}, {"type": "Feature", "geometry": {"type": "Point", "coordinates": [-111.0271, 33.1623]}, "properties": {"NAME": "W7A/PN-056", "TITLE": "Granite Mountain", "REGION": "Pinal County", "ASSOCIATION": "USA - Arizona", "POINTS": "4", "BONUSPOINTS": "3"}}, {"type": "Feature", "geometry": {"type": "Point", "coordinates": [-111.3895, 33.4367]}, "properties": {"NAME": "W7A/PN-057", "TITLE": "4003", "REGION": "Pinal County", "ASSOCIATION": "USA - Arizona", "POINTS": "4", "BONUSPOINTS": "3"}}, {"type": "Feature", "geometry": {"type": "Point", "coordinates": [-111.1229, 33.1557]}, "properties": {"NAME": "W7A/PN-058", "TITLE": "3980", "REGION": "Pinal County", "ASSOCIATION": "USA - Arizona", "POINTS": "4", "BONUSPOINTS": "3"}}, {"type": "Feature", "geometry": {"type": "Point", "coordinates": [-111.0712, 32.8251]}, "properties": {"NAME": "W7A/PN-059", "TITLE": "Coyote Peak", "REGION": "Pinal County", "ASSOCIATION": "USA - Arizona", "POINTS": "4", "BONUSPOINTS": "3"}}, {"type": "Feature", "geometry": {"type": "Point", "coordinates": [-111.3468, 33.4198]}, "properties": {"NAME": "W7A/PN-060", "TITLE": "3826", "REGION": "Pinal County", "ASSOCIATION": "USA - Arizona", "POINTS": "4", "BONUSPOINTS": "3"}}, {"type": "Feature", "geometry": {"type": "Point", "coordinates": [-111.1103, 33.225]}, "properties": {"NAME": "W7A/PN-061", "TITLE": "3820", "REGION": "Pinal County", "ASSOCIATION": "USA - Arizona", "POINTS": "4", "BONUSPOINTS": "3"}}, {"type": "Feature", "geometry": {"type": "Point", "coordinates": [-110.678, 33.0535]}, "properties": {"NAME": "W7A/PN-062", "TITLE": "Lee Mountain", "REGION": "Pinal County", "ASSOCIATION": "USA - Arizona", "POINTS": "4", "BONUSPOINTS": "3"}}, {"type": "Feature", "geometry": {"type": "Point", "coordinates": [-111.0961, 32.8741]}, "properties": {"NAME": "W7A/PN-063", "TITLE": "3757", "REGION": "Pinal County", "ASSOCIATION": "USA - Arizona", "POINTS": "4", "BONUSPOINTS": "3"}}, {"type": "Feature", "geometry": {"type": "Point", "coordinates": [-111.2108, 33.2392]}, "properties": {"NAME": "W7A/PN-064", "TITLE": "3660", "REGION": "Pinal County", "ASSOCIATION": "USA - Arizona", "POINTS": "4", "BONUSPOINTS": "3"}}, {"type": "Feature", "geometry": {"type": "Point", "coordinates": [-111.1125, 32.8483]}, "properties": {"NAME": "W7A/PN-065", "TITLE": "3626", "REGION": "Pinal County", "ASSOCIATION": "USA - Arizona", "POINTS": "4", "BONUSPOINTS": "3"}}, {"type": "Feature", "geometry": {"type": "Point", "coordinates": [-110.972, 33.043]}, "properties": {"NAME": "W7A/PN-066", "TITLE": "3620", "REGION": "Pinal County", "ASSOCIATION": "USA - Arizona", "POINTS": "4", "BONUSPOINTS": "3"}}, {"type": "Feature", "geometry": {"type": "Point", "coordinates": [-110.4915, 33.1516]}, "properties": {"NAME": "W7A/PN-067", "TITLE": "3610", "REGION": "Pinal County", "ASSOCIATION": "USA - Arizona", "POINTS": "4", "BONUSPOINTS": "3"}}, {"type": "Feature", "geometry": {"type": "Point", "coordinates": [-112.1122, 32.5779]}, "properties": {"NAME": "W7A/PN-068", "TITLE": "Vekol Mountains HP", "REGION": "Pinal County", "ASSOCIATION": "USA - Arizona", "POINTS": "4", "BONUSPOINTS": "3"}}, {"type": "Feature", "geometry": {"type": "Point", "coordinates": [-112.1809, 33.1415]}, "properties": {"NAME": "W7A/PN-069", "TITLE": "3595", "REGION": "Pinal County", "ASSOCIATION": "USA - Arizona", "POINTS": "4", "BONUSPOINTS": "3"}}, {"type": "Feature", "geometry": {"type": "Point", "coordinates": [-111.1309, 33.1431]}, "properties": {"NAME": "W7A/PN-070", "TITLE": "3578", "REGION": "Pinal County", "ASSOCIATION": "USA - Arizona", "POINTS": "4", "BONUSPOINTS": "3"}}, {"type": "Feature", "geometry": {"type": "Point", "coordinates": [-111.0985, 33.0767]}, "properties": {"NAME": "W7A/PN-071", "TITLE": "Grayback", "REGION": "Pinal County", "ASSOCIATION": "USA - Arizona", "POINTS": "4", "BONUSPOINTS": "3"}}, {"type": "Feature", "geometry": {"type": "Point", "coordinates": [-111.0876, 33.153]}, "properties": {"NAME": "W7A/PN-072", "TITLE": "Battle Axe Butte", "REGION": "Pinal County", "ASSOCIATION": "USA - Arizona", "POINTS": "4", "BONUSPOINTS": "3"}}, {"type": "Feature", "geometry": {"type": "Point", "coordinates": [-111.3049, 33.3907]}, "properties": {"NAME": "W7A/PN-073", "TITLE": "3521", "REGION": "Pinal County", "ASSOCIATION": "USA - Arizona", "POINTS": "4", "BONUSPOINTS": "3"}}, {"type": "Feature", "geometry": {"type": "Point", "coordinates": [-112.1221, 32.7837]}, "properties": {"NAME": "W7A/PN-074", "TITLE": "3510", "REGION": "Pinal County", "ASSOCIATION": "USA - Arizona", "POINTS": "4", "BONUSPOINTS": "3"}}, {"type": "Feature", "geometry": {"type": "Point", "coordinates": [-111.3301, 33.3704]}, "properties": {"NAME": "W7A/PN-075", "TITLE": "3461", "REGION": "Pinal County", "ASSOCIATION": "USA - Arizona", "POINTS": "4", "BONUSPOINTS": "3"}}, {"type": "Feature", "geometry": {"type": "Point", "coordinates": [-112.1641, 32.7578]}, "properties": {"NAME": "W7A/PN-076", "TITLE": "Bench Benchmark", "REGION": "Pinal County", "ASSOCIATION": "USA - Arizona", "POINTS": "4", "BONUSPOINTS": "3"}}, {"type": "Feature", "geometry": {"type": "Point", "coordinates": [-111.4007, 32.6352]}, "properties": {"NAME": "W7A/PN-077", "TITLE": "Picacho Peak", "REGION": "Pinal County", "ASSOCIATION": "USA - Arizona", "POINTS": "4", "BONUSPOINTS": "3"}}, {"type": "Feature", "geometry": {"type": "Point", "coordinates": [-111.1281, 32.6619]}, "properties": {"NAME": "W7A/PN-078", "TITLE": "Suizo Mountains HP", "REGION": "Pinal County", "ASSOCIATION": "USA - Arizona", "POINTS": "4", "BONUSPOINTS": "3"}}, {"type": "Feature", "geometry": {"type": "Point", "coordinates": [-111.3779, 33.4531]}, "properties": {"NAME": "W7A/PN-079", "TITLE": "Black Top Mesa", "REGION": "Pinal County", "ASSOCIATION": "USA - Arizona", "POINTS": "4", "BONUSPOINTS": "3"}}, {"type": "Feature", "geometry": {"type": "Point", "coordinates": [-111.8893, 32.5458]}, "properties": {"NAME": "W7A/PN-080", "TITLE": "Prieta Peak", "REGION": "Pinal County", "ASSOCIATION": "USA - Arizona", "POINTS": "4", "BONUSPOINTS": "3"}}, {"type": "Feature", "geometry": {"type": "Point", "coordinates": [-112.1721, 32.74]}, "properties": {"NAME": "W7A/PN-081", "TITLE": "Black Mountain", "REGION": "Pinal County", "ASSOCIATION": "USA - Arizona", "POINTS": "4", "BONUSPOINTS": "3"}}, {"type": "Feature", "geometry": {"type": "Point", "coordinates": [-111.0633, 33.1553]}, "properties": {"NAME": "W7A/PN-082", "TITLE": "Copper Butte", "REGION": "Pinal County", "ASSOCIATION": "USA - Arizona", "POINTS": "4", "BONUSPOINTS": "3"}}, {"type": "Feature", "geometry": {"type": "Point", "coordinates": [-111.3195, 33.3839]}, "properties": {"NAME": "W7A/PN-083", "TITLE": "3205", "REGION": "Pinal County", "ASSOCIATION": "USA - Arizona", "POINTS": "4", "BONUSPOINTS": "3"}}, {"type": "Feature", "geometry": {"type": "Point", "coordinates": [-111.0463, 33.1298]}, "properties": {"NAME": "W7A/PN-084", "TITLE": "Spine, The", "REGION": "Pinal County", "ASSOCIATION": "USA - Arizona", "POINTS": "4", "BONUSPOINTS": "3"}}, {"type": "Feature", "geometry": {"type": "Point", "coordinates": [-112.1426, 32.7909]}, "properties": {"NAME": "W7A/PN-085", "TITLE": "3132", "REGION": "Pinal County", "ASSOCIATION": "USA - Arizona", "POINTS": "4", "BONUSPOINTS": "3"}}, {"type": "Feature", "geometry": {"type": "Point", "coordinates": [-112.1742, 32.7982]}, "properties": {"NAME": "W7A/PN-086", "TITLE": "Antelope Peak", "REGION": "Pinal County", "ASSOCIATION": "USA - Arizona", "POINTS": "4", "BONUSPOINTS": "3"}}, {"type": "Feature", "geometry": {"type": "Point", "coordinates": [-111.1471, 33.1306]}, "properties": {"NAME": "W7A/PN-087", "TITLE": "3105", "REGION": "Pinal County", "ASSOCIATION": "USA - Arizona", "POINTS": "4", "BONUSPOINTS": "3"}}, {"type": "Feature", "geometry": {"type": "Point", "coordinates": [-111.7088, 33.1744]}, "properties": {"NAME": "W7A/PN-088", "TITLE": "Santan Mountain", "REGION": "Pinal County", "ASSOCIATION": "USA - Arizona", "POINTS": "4", "BONUSPOINTS": "3"}}, {"type": "Feature", "geometry": {"type": "Point", "coordinates": [-112.1421, 32.7025]}, "properties": {"NAME": "W7A/PN-089", "TITLE": "Little Table Top", "REGION": "Pinal County", "ASSOCIATION": "USA - Arizona", "POINTS": "4", "BONUSPOINTS": "3"}}, {"type": "Feature", "geometry": {"type": "Point", "coordinates": [-111.2792, 33.3611]}, "properties": {"NAME": "W7A/PN-090", "TITLE": "3061", "REGION": "Pinal County", "ASSOCIATION": "USA - Arizona", "POINTS": "4", "BONUSPOINTS": "3"}}, {"type": "Feature", "geometry": {"type": "Point", "coordinates": [-111.2539, 33.2533]}, "properties": {"NAME": "W7A/PN-091", "TITLE": "Dromedary Peak", "REGION": "Pinal County", "ASSOCIATION": "USA - Arizona", "POINTS": "4", "BONUSPOINTS": "3"}}, {"type": "Feature", "geometry": {"type": "Point", "coordinates": [-111.196, 33.1063]}, "properties": {"NAME": "W7A/PN-092", "TITLE": "North Butte", "REGION": "Pinal County", "ASSOCIATION": "USA - Arizona", "POINTS": "2", "BONUSPOINTS": "3"}}, {"type": "Feature", "geometry": {"type": "Point", "coordinates": [-111.8667, 32.5218]}, "properties": {"NAME": "W7A/PN-093", "TITLE": "2981", "REGION": "Pinal County", "ASSOCIATION": "USA - Arizona", "POINTS": "2", "BONUSPOINTS": "3"}}, {"type": "Feature", "geometry": {"type": "Point", "coordinates": [-111.3824, 32.7665]}, "properties": {"NAME": "W7A/PN-094", "TITLE": "2957", "REGION": "Pinal County", "ASSOCIATION": "USA - Arizona", "POINTS": "2", "BONUSPOINTS": "3"}}, {"type": "Feature", "geometry": {"type": "Point", "coordinates": [-112.1801, 32.5442]}, "properties": {"NAME": "W7A/PN-095", "TITLE": "Cathedral Rock", "REGION": "Pinal County", "ASSOCIATION": "USA - Arizona", "POINTS": "2", "BONUSPOINTS": "3"}}, {"type": "Feature", "geometry": {"type": "Point", "coordinates": [-112.1346, 32.6319]}, "properties": {"NAME": "W7A/PN-096", "TITLE": "Bitter Benchmark", "REGION": "Pinal County", "ASSOCIATION": "USA - Arizona", "POINTS": "2", "BONUSPOINTS": "3"}}, {"type": "Feature", "geometry": {"type": "Point", "coordinates": [-112.1404, 32.5721]}, "properties": {"NAME": "W7A/PN-097", "TITLE": "2909", "REGION": "Pinal County", "ASSOCIATION": "USA - Arizona", "POINTS": "2", "BONUSPOINTS": "3"}}, {"type": "Feature", "geometry": {"type": "Point", "coordinates": [-112.1719, 32.5484]}, "properties": {"NAME": "W7A/PN-098", "TITLE": "2860", "REGION": "Pinal County", "ASSOCIATION": "USA - Arizona", "POINTS": "2", "BONUSPOINTS": "3"}}, {"type": "Feature", "geometry": {"type": "Point", "coordinates": [-112.1192, 32.5603]}, "properties": {"NAME": "W7A/PN-099", "TITLE": "2855", "REGION": "Pinal County", "ASSOCIATION": "USA - Arizona", "POINTS": "2", "BONUSPOINTS": "3"}}, {"type": "Feature", "geometry": {"type": "Point", "coordinates": [-111.1948, 33.0823]}, "properties": {"NAME": "W7A/PN-100", "TITLE": "South Butte", "REGION": "Pinal County", "ASSOCIATION": "USA - Arizona", "POINTS": "2", "BONUSPOINTS": "3"}}, {"type": "Feature", "geometry": {"type": "Point", "coordinates": [-112.1613, 32.6024]}, "properties": {"NAME": "W7A/PN-101", "TITLE": "2801", "REGION": "Pinal County", "ASSOCIATION": "USA - Arizona", "POINTS": "2", "BONUSPOINTS": "3"}}, {"type": "Feature", "geometry": {"type": "Point", "coordinates": [-112.0759, 32.5654]}, "properties": {"NAME": "W7A/PN-102", "TITLE": "2772", "REGION": "Pinal County", "ASSOCIATION": "USA - Arizona", "POINTS": "2", "BONUSPOINTS": "3"}}, {"type": "Feature", "geometry": {"type": "Point", "coordinates": [-111.6746, 33.0031]}, "properties": {"NAME": "W7A/PN-103", "TITLE": "Sacaton Peak", "REGION": "Pinal County", "ASSOCIATION": "USA - Arizona", "POINTS": "2", "BONUSPOINTS": "3"}}, {"type": "Feature", "geometry": {"type": "Point", "coordinates": [-111.3612, 33.3734]}, "properties": {"NAME": "W7A/PN-104", "TITLE": "2753", "REGION": "Pinal County", "ASSOCIATION": "USA - Arizona", "POINTS": "2", "BONUSPOINTS": "3"}}, {"type": "Feature", "geometry": {"type": "Point", "coordinates": [-111.269, 33.294]}, "properties": {"NAME": "W7A/PN-105", "TITLE": "Comet Peak", "REGION": "Pinal County", "ASSOCIATION": "USA - Arizona", "POINTS": "2", "BONUSPOINTS": "3"}}, {"type": "Feature", "geometry": {"type": "Point", "coordinates": [-111.4258, 32.5234]}, "properties": {"NAME": "W7A/PN-106", "TITLE": "Cerro Prieto", "REGION": "Pinal County", "ASSOCIATION": "USA - Arizona", "POINTS": "2", "BONUSPOINTS": "3"}}, {"type": "Feature", "geometry": {"type": "Point", "coordinates": [-111.7055, 33.0187]}, "properties": {"NAME": "W7A/PN-107", "TITLE": "Cactus Benchmark", "REGION": "Pinal County", "ASSOCIATION": "USA - Arizona", "POINTS": "2", "BONUSPOINTS": "3"}}, {"type": "Feature", "geometry": {"type": "Point", "coordinates": [-112.1767, 32.8846]}, "properties": {"NAME": "W7A/PN-108", "TITLE": "Ham Benchmark", "REGION": "Pinal County", "ASSOCIATION": "USA - Arizona", "POINTS": "2", "BONUSPOINTS": "3"}}, {"type": "Feature", "geometry": {"type": "Point", "coordinates": [-111.7231, 32.6236]}, "properties": {"NAME": "W7A/PN-109", "TITLE": "Sawtooth Mountains HP", "REGION": "Pinal County", "ASSOCIATION": "USA - Arizona", "POINTS": "2", "BONUSPOINTS": "3"}}, {"type": "Feature", "geometry": {"type": "Point", "coordinates": [-111.3544, 32.8424]}, "properties": {"NAME": "W7A/PN-110", "TITLE": "Lookout Peak", "REGION": "Pinal County", "ASSOCIATION": "USA - Arizona", "POINTS": "2", "BONUSPOINTS": "3"}}, {"type": "Feature", "geometry": {"type": "Point", "coordinates": [-111.8914, 32.6657]}, "properties": {"NAME": "W7A/PN-111", "TITLE": "Tat Momoli Mountains (HP)", "REGION": "Pinal County", "ASSOCIATION": "USA - Arizona", "POINTS": "2", "BONUSPOINTS": "3"}}, {"type": "Feature", "geometry": {"type": "Point", "coordinates": [-110.9933, 33.0989]}, "properties": {"NAME": "W7A/PN-112", "TITLE": "2620", "REGION": "Pinal County", "ASSOCIATION": "USA - Arizona", "POINTS": "2", "BONUSPOINTS": "3"}}, {"type": "Feature", "geometry": {"type": "Point", "coordinates": [-111.7294, 32.6122]}, "properties": {"NAME": "W7A/PN-113", "TITLE": "Little Picacho", "REGION": "Pinal County", "ASSOCIATION": "USA - Arizona", "POINTS": "2", "BONUSPOINTS": "3"}}, {"type": "Feature", "geometry": {"type": "Point", "coordinates": [-111.9964, 32.7167]}, "properties": {"NAME": "W7A/PN-114", "TITLE": "Indian Benchmark", "REGION": "Pinal County", "ASSOCIATION": "USA - Arizona", "POINTS": "2", "BONUSPOINTS": "3"}}, {"type": "Feature", "geometry": {"type": "Point", "coordinates": [-111.673, 33.1381]}, "properties": {"NAME": "W7A/PN-115", "TITLE": "2539", "REGION": "Pinal County", "ASSOCIATION": "USA - Arizona", "POINTS": "2", "BONUSPOINTS": "3"}}, {"type": "Feature", "geometry": {"type": "Point", "coordinates": [-111.7476, 32.579]}, "properties": {"NAME": "W7A/PN-116", "TITLE": "Wildcat Peak", "REGION": "Pinal County", "ASSOCIATION": "USA - Arizona", "POINTS": "2", "BONUSPOINTS": "3"}}, {"type": "Feature", "geometry": {"type": "Point", "coordinates": [-112.167, 32.857]}, "properties": {"NAME": "W7A/PN-117", "TITLE": "2522", "REGION": "Pinal County", "ASSOCIATION": "USA - Arizona", "POINTS": "2", "BONUSPOINTS": "3"}}, {"type": "Feature", "geometry": {"type": "Point", "coordinates": [-111.8036, 32.7062]}, "properties": {"NAME": "W7A/PN-118", "TITLE": "Silver Reef Mountains HP", "REGION": "Pinal County", "ASSOCIATION": "USA - Arizona", "POINTS": "2", "BONUSPOINTS": "3"}}, {"type": "Feature", "geometry": {"type": "Point", "coordinates": [-111.6393, 33.1789]}, "properties": {"NAME": "W7A/PN-119", "TITLE": "Goldmine Mountain", "REGION": "Pinal County", "ASSOCIATION": "USA - Arizona", "POINTS": "2", "BONUSPOINTS": "3"}}, {"type": "Feature", "geometry": {"type": "Point", "coordinates": [-111.4914, 32.5585]}, "properties": {"NAME": "W7A/PN-120", "TITLE": "Rotten Benchmark", "REGION": "Pinal County", "ASSOCIATION": "USA - Arizona", "POINTS": "2", "BONUSPOINTS": "3"}}, {"type": "Feature", "geometry": {"type": "Point", "coordinates": [-111.6897, 33.1637]}, "properties": {"NAME": "W7A/PN-121", "TITLE": "2445", "REGION": "Pinal County", "ASSOCIATION": "USA - Arizona", "POINTS": "2", "BONUSPOINTS": "3"}}, {"type": "Feature", "geometry": {"type": "Point", "coordinates": [-111.4681, 32.5509]}, "properties": {"NAME": "W7A/PN-122", "TITLE": "2428", "REGION": "Pinal County", "ASSOCIATION": "USA - Arizona", "POINTS": "2", "BONUSPOINTS": "3"}}, {"type": "Feature", "geometry": {"type": "Point", "coordinates": [-111.7075, 32.6289]}, "properties": {"NAME": "W7A/PN-123", "TITLE": "2392", "REGION": "Pinal County", "ASSOCIATION": "USA - Arizona", "POINTS": "2", "BONUSPOINTS": "3"}}, {"type": "Feature", "geometry": {"type": "Point", "coordinates": [-111.6482, 33.1546]}, "properties": {"NAME": "W7A/PN-124", "TITLE": "2362", "REGION": "Pinal County", "ASSOCIATION": "USA - Arizona", "POINTS": "2", "BONUSPOINTS": "3"}}, {"type": "Feature", "geometry": {"type": "Point", "coordinates": [-111.7095, 32.8139]}, "properties": {"NAME": "W7A/PN-125", "TITLE": "Casa Grande Mountains HP", "REGION": "Pinal County", "ASSOCIATION": "USA - Arizona", "POINTS": "2", "BONUSPOINTS": "3"}}, {"type": "Feature", "geometry": {"type": "Point", "coordinates": [-111.9018, 32.5881]}, "properties": {"NAME": "W7A/PN-126", "TITLE": "2285", "REGION": "Pinal County", "ASSOCIATION": "USA - Arizona", "POINTS": "2", "BONUSPOINTS": "3"}}, {"type": "Feature", "geometry": {"type": "Point", "coordinates": [-111.6593, 32.9615]}, "properties": {"NAME": "W7A/PN-127", "TITLE": "Signal Peak", "REGION": "Pinal County", "ASSOCIATION": "USA - Arizona", "POINTS": "2", "BONUSPOINTS": "3"}}, {"type": "Feature", "geometry": {"type": "Point", "coordinates": [-111.9946, 32.752]}, "properties": {"NAME": "W7A/PN-128", "TITLE": "Double Peak West", "REGION": "Pinal County", "ASSOCIATION": "USA - Arizona", "POINTS": "2", "BONUSPOINTS": "3"}}, {"type": "Feature", "geometry": {"type": "Point", "coordinates": [-111.8185, 32.9916]}, "properties": {"NAME": "W7A/PN-129", "TITLE": "2239", "REGION": "Pinal County", "ASSOCIATION": "USA - Arizona", "POINTS": "2", "BONUSPOINTS": "3"}}, {"type": "Feature", "geometry": {"type": "Point", "coordinates": [-111.8762, 32.6872]}, "properties": {"NAME": "W7A/PN-130", "TITLE": "2180", "REGION": "Pinal County", "ASSOCIATION": "USA - Arizona", "POINTS": "2", "BONUSPOINTS": "3"}}, {"type": "Feature", "geometry": {"type": "Point", "coordinates": [-111.6486, 33.1152]}, "properties": {"NAME": "W7A/PN-131", "TITLE": "Yellow Peak", "REGION": "Pinal County", "ASSOCIATION": "USA - Arizona", "POINTS": "2", "BONUSPOINTS": "3"}}, {"type": "Feature", "geometry": {"type": "Point", "coordinates": [-112.1614, 33.0036]}, "properties": {"NAME": "W7A/PN-132", "TITLE": "Palo Verde Mountains HP", "REGION": "Pinal County", "ASSOCIATION": "USA - Arizona", "POINTS": "2", "BONUSPOINTS": "3"}}, {"type": "Feature", "geometry": {"type": "Point", "coordinates": [-111.8442, 32.9957]}, "properties": {"NAME": "W7A/PN-133", "TITLE": "2106", "REGION": "Pinal County", "ASSOCIATION": "USA - Arizona", "POINTS": "2", "BONUSPOINTS": "3"}}, {"type": "Feature", "geometry": {"type": "Point", "coordinates": [-112.1737, 32.9155]}, "properties": {"NAME": "W7A/PN-134", "TITLE": "2102", "REGION": "Pinal County", "ASSOCIATION": "USA - Arizona", "POINTS": "2", "BONUSPOINTS": "3"}}, {"type": "Feature", "geometry": {"type": "Point", "coordinates": [-112.1415, 32.9944]}, "properties": {"NAME": "W7A/PN-135", "TITLE": "Papago Butte", "REGION": "Pinal County", "ASSOCIATION": "USA - Arizona", "POINTS": "2", "BONUSPOINTS": "3"}}, {"type": "Feature", "geometry": {"type": "Point", "coordinates": [-111.7864, 32.7319]}, "properties": {"NAME": "W7A/PN-136", "TITLE": "2051", "REGION": "Pinal County", "ASSOCIATION": "USA - Arizona", "POINTS": "2", "BONUSPOINTS": "3"}}, {"type": "Feature", "geometry": {"type": "Point", "coordinates": [-111.7088, 33.0396]}, "properties": {"NAME": "W7A/PN-137", "TITLE": "Hayden Peak", "REGION": "Pinal County", "ASSOCIATION": "USA - Arizona", "POINTS": "2", "BONUSPOINTS": "3"}}, {"type": "Feature", "geometry": {"type": "Point", "coordinates": [-112.1799, 32.9669]}, "properties": {"NAME": "W7A/PN-138", "TITLE": "1982", "REGION": "Pinal County", "ASSOCIATION": "USA - Arizona", "POINTS": "1", "BONUSPOINTS": "3"}}, {"type": "Feature", "geometry": {"type": "Point", "coordinates": [-112.0224, 33.1466]}, "properties": {"NAME": "W7A/PN-139", "TITLE": "Pima Butte", "REGION": "Pinal County", "ASSOCIATION": "USA - Arizona", "POINTS": "1", "BONUSPOINTS": "3"}}, {"type": "Feature", "geometry": {"type": "Point", "coordinates": [-111.0437, 33.3896]}, "properties": {"NAME": "W7A/PN-140", "TITLE": "4998", "REGION": "Pinal County", "ASSOCIATION": "USA - Arizona", "POINTS": "6", "BONUSPOINTS": "3"}}, {"type": "Feature", "geometry": {"type": "Point", "coordinates": [-111.3708, 33.433]}, "properties": {"NAME": "W7A/PN-141", "TITLE": "Weavers Needle", "REGION": "Pinal County", "ASSOCIATION": "USA - Arizona", "POINTS": "6", "BONUSPOINTS": "3"}}, {"type": "Feature", "geometry": {"type": "Point", "coordinates": [-112.1416, 32.762]}, "properties": {"NAME": "W7A/PN-142", "TITLE": "3940", "REGION": "Pinal County", "ASSOCIATION": "USA - Arizona", "POINTS": "4", "BONUSPOINTS": "3"}}, {"type": "Feature", "geometry": {"type": "Point", "coordinates": [-111.2732, 33.3809]}, "properties": {"NAME": "W7A/PN-143", "TITLE": "Buzzard Roost", "REGION": "Pinal County", "ASSOCIATION": "USA - Arizona", "POINTS": "4", "BONUSPOINTS": "3"}}, {"type": "Feature", "geometry": {"type": "Point", "coordinates": [-111.3, 33.3761]}, "properties": {"NAME": "W7A/PN-144", "TITLE": "3356", "REGION": "Pinal County", "ASSOCIATION": "USA - Arizona", "POINTS": "4", "BONUSPOINTS": "3"}}, {"type": "Feature", "geometry": {"type": "Point", "coordinates": [-111.1463, 33.1435]}, "properties": {"NAME": "W7A/PN-145", "TITLE": "3306", "REGION": "Pinal County", "ASSOCIATION": "USA - Arizona", "POINTS": "4", "BONUSPOINTS": "3"}}, {"type": "Feature", "geometry": {"type": "Point", "coordinates": [-110.6869, 33.0321]}, "properties": {"NAME": "W7A/PN-146", "TITLE": "3152", "REGION": "Pinal County", "ASSOCIATION": "USA - Arizona", "POINTS": "4", "BONUSPOINTS": "3"}}, {"type": "Feature", "geometry": {"type": "Point", "coordinates": [-112.1507, 32.7148]}, "properties": {"NAME": "W7A/PN-147", "TITLE": "3020", "REGION": "Pinal County", "ASSOCIATION": "USA - Arizona", "POINTS": "4", "BONUSPOINTS": "3"}}, {"type": "Feature", "geometry": {"type": "Point", "coordinates": [-111.3964, 33.3906]}, "properties": {"NAME": "W7A/PN-148", "TITLE": "Turk's Cap", "REGION": "Pinal County", "ASSOCIATION": "USA - Arizona", "POINTS": "2", "BONUSPOINTS": "3"}}, {"type": "Feature", "geometry": {"type": "Point", "coordinates": [-111.8931, 32.6954]}, "properties": {"NAME": "W7A/PN-149", "TITLE": "2075", "REGION": "Pinal County", "ASSOCIATION": "USA - Arizona", "POINTS": "2", "BONUSPOINTS": "3"}}]}