{"type": "FeatureCollection", "name": "W7A/CO SUMMITS", "features": [{"type": "Feature", "geometry": {"type": "Point", "coordinates": [-110.3048, 31.4129]}, "properties": {"NAME": "W7A/CO-001", "TITLE": "Carr Peak", "REGION": "Cochise County", "ASSOCIATION": "USA - Arizona", "POINTS": "10", "BONUSPOINTS": "3"}}, {"type": "Feature", "geometry": {"type": "Point", "coordinates": [-110.3348, 31.4334]}, "properties": {"NAME": "W7A/CO-002", "TITLE": "Ramsey Peak", "REGION": "Cochise County", "ASSOCIATION": "USA - Arizona", "POINTS": "10", "BONUSPOINTS": "3"}}, {"type": "Feature", "geometry": {"type": "Point", "coordinates": [-109.1567, 31.8636]}, "properties": {"NAME": "W7A/CO-003", "TITLE": "Portal Peak", "REGION": "Cochise County", "ASSOCIATION": "USA - Arizona", "POINTS": "10", "BONUSPOINTS": "3"}}, {"type": "Feature", "geometry": {"type": "Point", "coordinates": [-110.3825, 31.4907]}, "properties": {"NAME": "W7A/CO-004", "TITLE": "Huachuca Peak", "REGION": "Cochise County", "ASSOCIATION": "USA - Arizona", "POINTS": "10", "BONUSPOINTS": "3"}}, {"type": "Feature", "geometry": {"type": "Point", "coordinates": [-109.612, 32.2223]}, "properties": {"NAME": "W7A/CO-005", "TITLE": "Dos Cabezas Peaks, South", "REGION": "Cochise County", "ASSOCIATION": "USA - Arizona", "POINTS": "10", "BONUSPOINTS": "3"}}, {"type": "Feature", "geometry": {"type": "Point", "coordinates": [-109.2177, 31.8244]}, "properties": {"NAME": "W7A/CO-006", "TITLE": "8225", "REGION": "Cochise County", "ASSOCIATION": "USA - Arizona", "POINTS": "10", "BONUSPOINTS": "3"}}, {"type": "Feature", "geometry": {"type": "Point", "coordinates": [-109.2998, 32.0593]}, "properties": {"NAME": "W7A/CO-007", "TITLE": "Cochise Head", "REGION": "Cochise County", "ASSOCIATION": "USA - Arizona", "POINTS": "10", "BONUSPOINTS": "3"}}, {"type": "Feature", "geometry": {"type": "Point", "coordinates": [-109.1899, 31.8256]}, "properties": {"NAME": "W7A/CO-008", "TITLE": "Sulphur Peak", "REGION": "Cochise County", "ASSOCIATION": "USA - Arizona", "POINTS": "10", "BONUSPOINTS": "3"}}, {"type": "Feature", "geometry": {"type": "Point", "coordinates": [-109.3758, 31.8182]}, "properties": {"NAME": "W7A/CO-009", "TITLE": "Stanford Peak", "REGION": "Cochise County", "ASSOCIATION": "USA - Arizona", "POINTS": "10", "BONUSPOINTS": "3"}}, {"type": "Feature", "geometry": {"type": "Point", "coordinates": [-109.5779, 32.2118]}, "properties": {"NAME": "W7A/CO-010", "TITLE": "Cooper Peak", "REGION": "Cochise County", "ASSOCIATION": "USA - Arizona", "POINTS": "10", "BONUSPOINTS": "3"}}, {"type": "Feature", "geometry": {"type": "Point", "coordinates": [-109.3207, 32.0533]}, "properties": {"NAME": "W7A/CO-011", "TITLE": "Chiricahua Nat. Monument Wilderness HP", "REGION": "Cochise County", "ASSOCIATION": "USA - Arizona", "POINTS": "10", "BONUSPOINTS": "3"}}, {"type": "Feature", "geometry": {"type": "Point", "coordinates": [-109.2785, 31.9642]}, "properties": {"NAME": "W7A/CO-012", "TITLE": "Shaw Peak", "REGION": "Cochise County", "ASSOCIATION": "USA - Arizona", "POINTS": "10", "BONUSPOINTS": "3"}}, {"type": "Feature", "geometry": {"type": "Point", "coordinates": [-110.408, 31.5179]}, "properties": {"NAME": "W7A/CO-013", "TITLE": "Geronimo Peak", "REGION": "Cochise County", "ASSOCIATION": "USA - Arizona", "POINTS": "10", "BONUSPOINTS": "3"}}, {"type": "Feature", "geometry": {"type": "Point", "coordinates": [-110.4297, 31.8246]}, "properties": {"NAME": "W7A/CO-014", "TITLE": "Apache Peak", "REGION": "Cochise County", "ASSOCIATION": "USA - Arizona", "POINTS": "10", "BONUSPOINTS": "3"}}, {"type": "Feature", "geometry": {"type": "Point", "coordinates": [-110.1059, 32.3863]}, "properties": {"NAME": "W7A/CO-015", "TITLE": "Reiley Peak", "REGION": "Cochise County", "ASSOCIATION": "USA - Arizona", "POINTS": "10", "BONUSPOINTS": "3"}}, {"type": "Feature", "geometry": {"type": "Point", "coordinates": [-109.5113, 32.2036]}, "properties": {"NAME": "W7A/CO-016", "TITLE": "Government Peak", "REGION": "Cochise County", "ASSOCIATION": "USA - Arizona", "POINTS": "10", "BONUSPOINTS": "3"}}, {"type": "Feature", "geometry": {"type": "Point", "coordinates": [-109.3409, 31.9153]}, "properties": {"NAME": "W7A/CO-017", "TITLE": "7563", "REGION": "Cochise County", "ASSOCIATION": "USA - Arizona", "POINTS": "10", "BONUSPOINTS": "3"}}, {"type": "Feature", "geometry": {"type": "Point", "coordinates": [-109.987, 31.9524]}, "properties": {"NAME": "W7A/CO-018", "TITLE": "Glenn, Mount", "REGION": "Cochise County", "ASSOCIATION": "USA - Arizona", "POINTS": "10", "BONUSPOINTS": "3"}}, {"type": "Feature", "geometry": {"type": "Point", "coordinates": [-109.302, 31.725]}, "properties": {"NAME": "W7A/CO-019", "TITLE": "Swede Peak", "REGION": "Cochise County", "ASSOCIATION": "USA - Arizona", "POINTS": "10", "BONUSPOINTS": "3"}}, {"type": "Feature", "geometry": {"type": "Point", "coordinates": [-109.2921, 32.0441]}, "properties": {"NAME": "W7A/CO-020", "TITLE": "7495", "REGION": "Cochise County", "ASSOCIATION": "USA - Arizona", "POINTS": "8", "BONUSPOINTS": "3"}}, {"type": "Feature", "geometry": {"type": "Point", "coordinates": [-109.3395, 32.0407]}, "properties": {"NAME": "W7A/CO-021", "TITLE": "7470", "REGION": "Cochise County", "ASSOCIATION": "USA - Arizona", "POINTS": "8", "BONUSPOINTS": "3"}}, {"type": "Feature", "geometry": {"type": "Point", "coordinates": [-110.0922, 32.3547]}, "properties": {"NAME": "W7A/CO-022", "TITLE": "Muskhog Mountain", "REGION": "Cochise County", "ASSOCIATION": "USA - Arizona", "POINTS": "8", "BONUSPOINTS": "3"}}, {"type": "Feature", "geometry": {"type": "Point", "coordinates": [-109.1411, 31.8219]}, "properties": {"NAME": "W7A/CO-023", "TITLE": "Darnell Peak", "REGION": "Cochise County", "ASSOCIATION": "USA - Arizona", "POINTS": "8", "BONUSPOINTS": "3"}}, {"type": "Feature", "geometry": {"type": "Point", "coordinates": [-110.439, 31.7753]}, "properties": {"NAME": "W7A/CO-024", "TITLE": "Granite Peak", "REGION": "Cochise County", "ASSOCIATION": "USA - Arizona", "POINTS": "8", "BONUSPOINTS": "3"}}, {"type": "Feature", "geometry": {"type": "Point", "coordinates": [-110.4137, 31.8498]}, "properties": {"NAME": "W7A/CO-025", "TITLE": "7388", "REGION": "Cochise County", "ASSOCIATION": "USA - Arizona", "POINTS": "8", "BONUSPOINTS": "3"}}, {"type": "Feature", "geometry": {"type": "Point", "coordinates": [-109.9639, 31.447]}, "properties": {"NAME": "W7A/CO-026", "TITLE": "Fissure Peak", "REGION": "Cochise County", "ASSOCIATION": "USA - Arizona", "POINTS": "8", "BONUSPOINTS": "3"}}, {"type": "Feature", "geometry": {"type": "Point", "coordinates": [-109.2808, 32.0282]}, "properties": {"NAME": "W7A/CO-027", "TITLE": "7340", "REGION": "Cochise County", "ASSOCIATION": "USA - Arizona", "POINTS": "8", "BONUSPOINTS": "3"}}, {"type": "Feature", "geometry": {"type": "Point", "coordinates": [-110.2437, 31.3679]}, "properties": {"NAME": "W7A/CO-028", "TITLE": "Bob Thompson Peak", "REGION": "Cochise County", "ASSOCIATION": "USA - Arizona", "POINTS": "8", "BONUSPOINTS": "3"}}, {"type": "Feature", "geometry": {"type": "Point", "coordinates": [-109.3337, 32.1214]}, "properties": {"NAME": "W7A/CO-029", "TITLE": "Wood Mountain", "REGION": "Cochise County", "ASSOCIATION": "USA - Arizona", "POINTS": "8", "BONUSPOINTS": "3"}}, {"type": "Feature", "geometry": {"type": "Point", "coordinates": [-109.3007, 31.9913]}, "properties": {"NAME": "W7A/CO-030", "TITLE": "7300", "REGION": "Cochise County", "ASSOCIATION": "USA - Arizona", "POINTS": "8", "BONUSPOINTS": "3"}}, {"type": "Feature", "geometry": {"type": "Point", "coordinates": [-109.3392, 32.1016]}, "properties": {"NAME": "W7A/CO-031", "TITLE": "Rough Mountain", "REGION": "Cochise County", "ASSOCIATION": "USA - Arizona", "POINTS": "8", "BONUSPOINTS": "3"}}, {"type": "Feature", "geometry": {"type": "Point", "coordinates": [-110.3342, 31.3866]}, "properties": {"NAME": "W7A/CO-032", "TITLE": "Sutherland Peak", "REGION": "Cochise County", "ASSOCIATION": "USA - Arizona", "POINTS": "8", "BONUSPOINTS": "3"}}, {"type": "Feature", "geometry": {"type": "Point", "coordinates": [-109.3445, 31.6669]}, "properties": {"NAME": "W7A/CO-033", "TITLE": "Limestone Mountain", "REGION": "Cochise County", "ASSOCIATION": "USA - Arizona", "POINTS": "8", "BONUSPOINTS": "3"}}, {"type": "Feature", "geometry": {"type": "Point", "coordinates": [-109.5361, 31.6746]}, "properties": {"NAME": "W7A/CO-034", "TITLE": "Swisshelm Mountain", "REGION": "Cochise County", "ASSOCIATION": "USA - Arizona", "POINTS": "8", "BONUSPOINTS": "3"}}, {"type": "Feature", "geometry": {"type": "Point", "coordinates": [-109.959, 31.4804]}, "properties": {"NAME": "W7A/CO-035", "TITLE": "Mule Mountain", "REGION": "Cochise County", "ASSOCIATION": "USA - Arizona", "POINTS": "8", "BONUSPOINTS": "3"}}, {"type": "Feature", "geometry": {"type": "Point", "coordinates": [-109.9342, 31.8365]}, "properties": {"NAME": "W7A/CO-036", "TITLE": "7155", "REGION": "Cochise County", "ASSOCIATION": "USA - Arizona", "POINTS": "8", "BONUSPOINTS": "3"}}, {"type": "Feature", "geometry": {"type": "Point", "coordinates": [-109.935, 31.8503]}, "properties": {"NAME": "W7A/CO-037", "TITLE": "Black Diamond Peak", "REGION": "Cochise County", "ASSOCIATION": "USA - Arizona", "POINTS": "8", "BONUSPOINTS": "3"}}, {"type": "Feature", "geometry": {"type": "Point", "coordinates": [-109.9705, 31.8771]}, "properties": {"NAME": "W7A/CO-038", "TITLE": "Sala Benchmark", "REGION": "Cochise County", "ASSOCIATION": "USA - Arizona", "POINTS": "8", "BONUSPOINTS": "3"}}, {"type": "Feature", "geometry": {"type": "Point", "coordinates": [-109.3677, 31.7339]}, "properties": {"NAME": "W7A/CO-039", "TITLE": "Rucker Benchmark", "REGION": "Cochise County", "ASSOCIATION": "USA - Arizona", "POINTS": "8", "BONUSPOINTS": "3"}}, {"type": "Feature", "geometry": {"type": "Point", "coordinates": [-109.3743, 31.7742]}, "properties": {"NAME": "W7A/CO-040", "TITLE": "7111", "REGION": "Cochise County", "ASSOCIATION": "USA - Arizona", "POINTS": "8", "BONUSPOINTS": "3"}}, {"type": "Feature", "geometry": {"type": "Point", "coordinates": [-110.4059, 31.8596]}, "properties": {"NAME": "W7A/CO-041", "TITLE": "Cottonwood Peak", "REGION": "Cochise County", "ASSOCIATION": "USA - Arizona", "POINTS": "8", "BONUSPOINTS": "3"}}, {"type": "Feature", "geometry": {"type": "Point", "coordinates": [-109.3949, 31.9158]}, "properties": {"NAME": "W7A/CO-042", "TITLE": "Rock Benchmark", "REGION": "Cochise County", "ASSOCIATION": "USA - Arizona", "POINTS": "8", "BONUSPOINTS": "3"}}, {"type": "Feature", "geometry": {"type": "Point", "coordinates": [-109.3295, 31.9495]}, "properties": {"NAME": "W7A/CO-043", "TITLE": "6988", "REGION": "Cochise County", "ASSOCIATION": "USA - Arizona", "POINTS": "8", "BONUSPOINTS": "3"}}, {"type": "Feature", "geometry": {"type": "Point", "coordinates": [-109.4305, 32.1201]}, "properties": {"NAME": "W7A/CO-044", "TITLE": "Bowie Mountain", "REGION": "Cochise County", "ASSOCIATION": "USA - Arizona", "POINTS": "8", "BONUSPOINTS": "3"}}, {"type": "Feature", "geometry": {"type": "Point", "coordinates": [-109.9959, 31.8816]}, "properties": {"NAME": "W7A/CO-045", "TITLE": "6977", "REGION": "Cochise County", "ASSOCIATION": "USA - Arizona", "POINTS": "8", "BONUSPOINTS": "3"}}, {"type": "Feature", "geometry": {"type": "Point", "coordinates": [-109.3884, 31.7236]}, "properties": {"NAME": "W7A/CO-046", "TITLE": "Bruno Peak", "REGION": "Cochise County", "ASSOCIATION": "USA - Arizona", "POINTS": "8", "BONUSPOINTS": "3"}}, {"type": "Feature", "geometry": {"type": "Point", "coordinates": [-109.3757, 32.0887]}, "properties": {"NAME": "W7A/CO-047", "TITLE": "Dug Road Mountain", "REGION": "Cochise County", "ASSOCIATION": "USA - Arizona", "POINTS": "8", "BONUSPOINTS": "3"}}, {"type": "Feature", "geometry": {"type": "Point", "coordinates": [-110.3914, 31.858]}, "properties": {"NAME": "W7A/CO-048", "TITLE": "6779", "REGION": "Cochise County", "ASSOCIATION": "USA - Arizona", "POINTS": "8", "BONUSPOINTS": "3"}}, {"type": "Feature", "geometry": {"type": "Point", "coordinates": [-110.1254, 32.0981]}, "properties": {"NAME": "W7A/CO-049", "TITLE": "Mae West Peaks West", "REGION": "Cochise County", "ASSOCIATION": "USA - Arizona", "POINTS": "8", "BONUSPOINTS": "3"}}, {"type": "Feature", "geometry": {"type": "Point", "coordinates": [-110.0945, 32.112]}, "properties": {"NAME": "W7A/CO-050", "TITLE": "Lime Peak", "REGION": "Cochise County", "ASSOCIATION": "USA - Arizona", "POINTS": "8", "BONUSPOINTS": "3"}}, {"type": "Feature", "geometry": {"type": "Point", "coordinates": [-110.3868, 31.8218]}, "properties": {"NAME": "W7A/CO-051", "TITLE": "Mercury Mountain", "REGION": "Cochise County", "ASSOCIATION": "USA - Arizona", "POINTS": "8", "BONUSPOINTS": "3"}}, {"type": "Feature", "geometry": {"type": "Point", "coordinates": [-109.556, 32.2471]}, "properties": {"NAME": "W7A/CO-052", "TITLE": "Rough Mountain", "REGION": "Cochise County", "ASSOCIATION": "USA - Arizona", "POINTS": "8", "BONUSPOINTS": "3"}}, {"type": "Feature", "geometry": {"type": "Point", "coordinates": [-109.8609, 31.4538]}, "properties": {"NAME": "W7A/CO-053", "TITLE": "Grassy Hill", "REGION": "Cochise County", "ASSOCIATION": "USA - Arizona", "POINTS": "8", "BONUSPOINTS": "3"}}, {"type": "Feature", "geometry": {"type": "Point", "coordinates": [-109.6644, 32.2472]}, "properties": {"NAME": "W7A/CO-054", "TITLE": "Silver Peak", "REGION": "Cochise County", "ASSOCIATION": "USA - Arizona", "POINTS": "8", "BONUSPOINTS": "3"}}, {"type": "Feature", "geometry": {"type": "Point", "coordinates": [-110.0274, 31.9737]}, "properties": {"NAME": "W7A/CO-055", "TITLE": "4 F Benchmark", "REGION": "Cochise County", "ASSOCIATION": "USA - Arizona", "POINTS": "8", "BONUSPOINTS": "3"}}, {"type": "Feature", "geometry": {"type": "Point", "coordinates": [-109.3281, 31.7458]}, "properties": {"NAME": "W7A/CO-056", "TITLE": "6569", "REGION": "Cochise County", "ASSOCIATION": "USA - Arizona", "POINTS": "8", "BONUSPOINTS": "3"}}, {"type": "Feature", "geometry": {"type": "Point", "coordinates": [-109.3085, 32.0862]}, "properties": {"NAME": "W7A/CO-057", "TITLE": "6552", "REGION": "Cochise County", "ASSOCIATION": "USA - Arizona", "POINTS": "8", "BONUSPOINTS": "3"}}, {"type": "Feature", "geometry": {"type": "Point", "coordinates": [-109.9898, 32.0014]}, "properties": {"NAME": "W7A/CO-058", "TITLE": "Dragoon Peak", "REGION": "Cochise County", "ASSOCIATION": "USA - Arizona", "POINTS": "8", "BONUSPOINTS": "3"}}, {"type": "Feature", "geometry": {"type": "Point", "coordinates": [-109.0568, 32.375]}, "properties": {"NAME": "W7A/CO-059", "TITLE": "C.E. Uncertain Benchmark", "REGION": "Cochise County", "ASSOCIATION": "USA - Arizona", "POINTS": "8", "BONUSPOINTS": "3"}}, {"type": "Feature", "geometry": {"type": "Point", "coordinates": [-109.3773, 31.608]}, "properties": {"NAME": "W7A/CO-060", "TITLE": "6540", "REGION": "Cochise County", "ASSOCIATION": "USA - Arizona", "POINTS": "8", "BONUSPOINTS": "3"}}, {"type": "Feature", "geometry": {"type": "Point", "coordinates": [-110.0212, 31.9095]}, "properties": {"NAME": "W7A/CO-061", "TITLE": "6535", "REGION": "Cochise County", "ASSOCIATION": "USA - Arizona", "POINTS": "8", "BONUSPOINTS": "3"}}, {"type": "Feature", "geometry": {"type": "Point", "coordinates": [-109.395, 32.106]}, "properties": {"NAME": "W7A/CO-062", "TITLE": "6527", "REGION": "Cochise County", "ASSOCIATION": "USA - Arizona", "POINTS": "8", "BONUSPOINTS": "3"}}, {"type": "Feature", "geometry": {"type": "Point", "coordinates": [-109.0515, 31.5558]}, "properties": {"NAME": "W7A/CO-063", "TITLE": "Peloncillo Benchmark", "REGION": "Cochise County", "ASSOCIATION": "USA - Arizona", "POINTS": "8", "BONUSPOINTS": "3"}}, {"type": "Feature", "geometry": {"type": "Point", "coordinates": [-109.3814, 31.5528]}, "properties": {"NAME": "W7A/CO-064", "TITLE": "CCA Beacon Peak", "REGION": "Cochise County", "ASSOCIATION": "USA - Arizona", "POINTS": "8", "BONUSPOINTS": "3"}}, {"type": "Feature", "geometry": {"type": "Point", "coordinates": [-109.2823, 32.1109]}, "properties": {"NAME": "W7A/CO-065", "TITLE": "Dunn Springs Mountain", "REGION": "Cochise County", "ASSOCIATION": "USA - Arizona", "POINTS": "8", "BONUSPOINTS": "3"}}, {"type": "Feature", "geometry": {"type": "Point", "coordinates": [-109.885, 31.4515]}, "properties": {"NAME": "W7A/CO-066", "TITLE": "Mural Hill", "REGION": "Cochise County", "ASSOCIATION": "USA - Arizona", "POINTS": "8", "BONUSPOINTS": "3"}}, {"type": "Feature", "geometry": {"type": "Point", "coordinates": [-109.8767, 31.7555]}, "properties": {"NAME": "W7A/CO-067", "TITLE": "OK Notch Peak", "REGION": "Cochise County", "ASSOCIATION": "USA - Arizona", "POINTS": "8", "BONUSPOINTS": "0"}}, {"type": "Feature", "geometry": {"type": "Point", "coordinates": [-110.0001, 31.9933]}, "properties": {"NAME": "W7A/CO-068", "TITLE": "Shope's Peak", "REGION": "Cochise County", "ASSOCIATION": "USA - Arizona", "POINTS": "8", "BONUSPOINTS": "0"}}, {"type": "Feature", "geometry": {"type": "Point", "coordinates": [-110.397, 31.4085]}, "properties": {"NAME": "W7A/CO-069", "TITLE": "Lone Mountain", "REGION": "Cochise County", "ASSOCIATION": "USA - Arizona", "POINTS": "8", "BONUSPOINTS": "0"}}, {"type": "Feature", "geometry": {"type": "Point", "coordinates": [-110.053, 32.287]}, "properties": {"NAME": "W7A/CO-070", "TITLE": "6457", "REGION": "Cochise County", "ASSOCIATION": "USA - Arizona", "POINTS": "8", "BONUSPOINTS": "0"}}, {"type": "Feature", "geometry": {"type": "Point", "coordinates": [-109.1611, 31.9344]}, "properties": {"NAME": "W7A/CO-071", "TITLE": "Limestone Hill", "REGION": "Cochise County", "ASSOCIATION": "USA - Arizona", "POINTS": "8", "BONUSPOINTS": "0"}}, {"type": "Feature", "geometry": {"type": "Point", "coordinates": [-109.3958, 31.7057]}, "properties": {"NAME": "W7A/CO-072", "TITLE": "6424", "REGION": "Cochise County", "ASSOCIATION": "USA - Arizona", "POINTS": "8", "BONUSPOINTS": "0"}}, {"type": "Feature", "geometry": {"type": "Point", "coordinates": [-109.3917, 31.5595]}, "properties": {"NAME": "W7A/CO-073", "TITLE": "6412", "REGION": "Cochise County", "ASSOCIATION": "USA - Arizona", "POINTS": "8", "BONUSPOINTS": "0"}}, {"type": "Feature", "geometry": {"type": "Point", "coordinates": [-109.399, 31.5409]}, "properties": {"NAME": "W7A/CO-074", "TITLE": "Pedregosa Benchmark", "REGION": "Cochise County", "ASSOCIATION": "USA - Arizona", "POINTS": "8", "BONUSPOINTS": "0"}}, {"type": "Feature", "geometry": {"type": "Point", "coordinates": [-109.4217, 31.4557]}, "properties": {"NAME": "W7A/CO-075", "TITLE": "South College Peak", "REGION": "Cochise County", "ASSOCIATION": "USA - Arizona", "POINTS": "8", "BONUSPOINTS": "0"}}, {"type": "Feature", "geometry": {"type": "Point", "coordinates": [-109.1545, 31.7588]}, "properties": {"NAME": "W7A/CO-076", "TITLE": "6377", "REGION": "Cochise County", "ASSOCIATION": "USA - Arizona", "POINTS": "8", "BONUSPOINTS": "0"}}, {"type": "Feature", "geometry": {"type": "Point", "coordinates": [-109.4545, 32.1293]}, "properties": {"NAME": "W7A/CO-077", "TITLE": "Helens Dome", "REGION": "Cochise County", "ASSOCIATION": "USA - Arizona", "POINTS": "8", "BONUSPOINTS": "0"}}, {"type": "Feature", "geometry": {"type": "Point", "coordinates": [-109.2052, 31.726]}, "properties": {"NAME": "W7A/CO-078", "TITLE": "May Day Peak", "REGION": "Cochise County", "ASSOCIATION": "USA - Arizona", "POINTS": "8", "BONUSPOINTS": "0"}}, {"type": "Feature", "geometry": {"type": "Point", "coordinates": [-109.7003, 32.2689]}, "properties": {"NAME": "W7A/CO-079", "TITLE": "Camels Back", "REGION": "Cochise County", "ASSOCIATION": "USA - Arizona", "POINTS": "8", "BONUSPOINTS": "0"}}, {"type": "Feature", "geometry": {"type": "Point", "coordinates": [-109.4175, 31.6063]}, "properties": {"NAME": "W7A/CO-080", "TITLE": "Packsaddle Mountain", "REGION": "Cochise County", "ASSOCIATION": "USA - Arizona", "POINTS": "8", "BONUSPOINTS": "0"}}, {"type": "Feature", "geometry": {"type": "Point", "coordinates": [-109.4054, 31.8799]}, "properties": {"NAME": "W7A/CO-081", "TITLE": "6300", "REGION": "Cochise County", "ASSOCIATION": "USA - Arizona", "POINTS": "8", "BONUSPOINTS": "0"}}, {"type": "Feature", "geometry": {"type": "Point", "coordinates": [-109.1987, 31.943]}, "properties": {"NAME": "W7A/CO-082", "TITLE": "6293", "REGION": "Cochise County", "ASSOCIATION": "USA - Arizona", "POINTS": "8", "BONUSPOINTS": "0"}}, {"type": "Feature", "geometry": {"type": "Point", "coordinates": [-110.0499, 32.273]}, "properties": {"NAME": "W7A/CO-083", "TITLE": "6285", "REGION": "Cochise County", "ASSOCIATION": "USA - Arizona", "POINTS": "8", "BONUSPOINTS": "0"}}, {"type": "Feature", "geometry": {"type": "Point", "coordinates": [-109.2014, 31.7126]}, "properties": {"NAME": "W7A/CO-084", "TITLE": "6246", "REGION": "Cochise County", "ASSOCIATION": "USA - Arizona", "POINTS": "8", "BONUSPOINTS": "0"}}, {"type": "Feature", "geometry": {"type": "Point", "coordinates": [-109.4006, 32.0918]}, "properties": {"NAME": "W7A/CO-085", "TITLE": "Red Mountain", "REGION": "Cochise County", "ASSOCIATION": "USA - Arizona", "POINTS": "8", "BONUSPOINTS": "0"}}, {"type": "Feature", "geometry": {"type": "Point", "coordinates": [-109.083, 32.3561]}, "properties": {"NAME": "W7A/CO-086", "TITLE": "6205", "REGION": "Cochise County", "ASSOCIATION": "USA - Arizona", "POINTS": "8", "BONUSPOINTS": "0"}}, {"type": "Feature", "geometry": {"type": "Point", "coordinates": [-109.4495, 31.5625]}, "properties": {"NAME": "W7A/CO-087", "TITLE": "6195", "REGION": "Cochise County", "ASSOCIATION": "USA - Arizona", "POINTS": "8", "BONUSPOINTS": "0"}}, {"type": "Feature", "geometry": {"type": "Point", "coordinates": [-110.4242, 31.7344]}, "properties": {"NAME": "W7A/CO-088", "TITLE": "Mescal Peak", "REGION": "Cochise County", "ASSOCIATION": "USA - Arizona", "POINTS": "8", "BONUSPOINTS": "0"}}, {"type": "Feature", "geometry": {"type": "Point", "coordinates": [-109.4109, 31.6648]}, "properties": {"NAME": "W7A/CO-089", "TITLE": "6151", "REGION": "Cochise County", "ASSOCIATION": "USA - Arizona", "POINTS": "8", "BONUSPOINTS": "0"}}, {"type": "Feature", "geometry": {"type": "Point", "coordinates": [-109.8556, 31.4799]}, "properties": {"NAME": "W7A/CO-090", "TITLE": "Cintura Hill", "REGION": "Cochise County", "ASSOCIATION": "USA - Arizona", "POINTS": "8", "BONUSPOINTS": "0"}}, {"type": "Feature", "geometry": {"type": "Point", "coordinates": [-109.2513, 32.0095]}, "properties": {"NAME": "W7A/CO-091", "TITLE": "6135", "REGION": "Cochise County", "ASSOCIATION": "USA - Arizona", "POINTS": "8", "BONUSPOINTS": "0"}}, {"type": "Feature", "geometry": {"type": "Point", "coordinates": [-110.4321, 32.1275]}, "properties": {"NAME": "W7A/CO-092", "TITLE": "Forest Hill", "REGION": "Cochise County", "ASSOCIATION": "USA - Arizona", "POINTS": "8", "BONUSPOINTS": "0"}}, {"type": "Feature", "geometry": {"type": "Point", "coordinates": [-109.5919, 32.263]}, "properties": {"NAME": "W7A/CO-093", "TITLE": "Maverick Mountain", "REGION": "Cochise County", "ASSOCIATION": "USA - Arizona", "POINTS": "8", "BONUSPOINTS": "0"}}, {"type": "Feature", "geometry": {"type": "Point", "coordinates": [-110.4237, 32.1077]}, "properties": {"NAME": "W7A/CO-094", "TITLE": "North Star Peak", "REGION": "Cochise County", "ASSOCIATION": "USA - Arizona", "POINTS": "8", "BONUSPOINTS": "0"}}, {"type": "Feature", "geometry": {"type": "Point", "coordinates": [-109.4203, 31.6408]}, "properties": {"NAME": "W7A/CO-095", "TITLE": "6005", "REGION": "Cochise County", "ASSOCIATION": "USA - Arizona", "POINTS": "8", "BONUSPOINTS": "0"}}, {"type": "Feature", "geometry": {"type": "Point", "coordinates": [-109.2407, 31.7218]}, "properties": {"NAME": "W7A/CO-096", "TITLE": "5989", "REGION": "Cochise County", "ASSOCIATION": "USA - Arizona", "POINTS": "6", "BONUSPOINTS": "0"}}, {"type": "Feature", "geometry": {"type": "Point", "coordinates": [-109.092, 32.4255]}, "properties": {"NAME": "W7A/CO-097", "TITLE": "Engine Mountain", "REGION": "Cochise County", "ASSOCIATION": "USA - Arizona", "POINTS": "6", "BONUSPOINTS": "0"}}, {"type": "Feature", "geometry": {"type": "Point", "coordinates": [-109.8413, 31.4093]}, "properties": {"NAME": "W7A/CO-098", "TITLE": "5962", "REGION": "Cochise County", "ASSOCIATION": "USA - Arizona", "POINTS": "6", "BONUSPOINTS": "0"}}, {"type": "Feature", "geometry": {"type": "Point", "coordinates": [-109.4352, 31.3849]}, "properties": {"NAME": "W7A/CO-099", "TITLE": "Perilla Mountains HP", "REGION": "Cochise County", "ASSOCIATION": "USA - Arizona", "POINTS": "6", "BONUSPOINTS": "0"}}, {"type": "Feature", "geometry": {"type": "Point", "coordinates": [-110.0049, 31.4437]}, "properties": {"NAME": "W7A/CO-100", "TITLE": "5890", "REGION": "Cochise County", "ASSOCIATION": "USA - Arizona", "POINTS": "6", "BONUSPOINTS": "0"}}, {"type": "Feature", "geometry": {"type": "Point", "coordinates": [-109.5114, 31.7285]}, "properties": {"NAME": "W7A/CO-101", "TITLE": "5859", "REGION": "Cochise County", "ASSOCIATION": "USA - Arizona", "POINTS": "6", "BONUSPOINTS": "0"}}, {"type": "Feature", "geometry": {"type": "Point", "coordinates": [-110.1157, 32.0339]}, "properties": {"NAME": "W7A/CO-102", "TITLE": "Adams Peak", "REGION": "Cochise County", "ASSOCIATION": "USA - Arizona", "POINTS": "6", "BONUSPOINTS": "0"}}, {"type": "Feature", "geometry": {"type": "Point", "coordinates": [-109.8204, 31.7568]}, "properties": {"NAME": "W7A/CO-103", "TITLE": "Browns Peak", "REGION": "Cochise County", "ASSOCIATION": "USA - Arizona", "POINTS": "6", "BONUSPOINTS": "0"}}, {"type": "Feature", "geometry": {"type": "Point", "coordinates": [-110.4342, 31.6902]}, "properties": {"NAME": "W7A/CO-104", "TITLE": "Spire Peak", "REGION": "Cochise County", "ASSOCIATION": "USA - Arizona", "POINTS": "6", "BONUSPOINTS": "0"}}, {"type": "Feature", "geometry": {"type": "Point", "coordinates": [-109.4783, 31.562]}, "properties": {"NAME": "W7A/CO-105", "TITLE": "Castle Dome", "REGION": "Cochise County", "ASSOCIATION": "USA - Arizona", "POINTS": "6", "BONUSPOINTS": "0"}}, {"type": "Feature", "geometry": {"type": "Point", "coordinates": [-109.1919, 31.9706]}, "properties": {"NAME": "W7A/CO-106", "TITLE": "Davis Mountain", "REGION": "Cochise County", "ASSOCIATION": "USA - Arizona", "POINTS": "6", "BONUSPOINTS": "0"}}, {"type": "Feature", "geometry": {"type": "Point", "coordinates": [-109.9794, 31.3959]}, "properties": {"NAME": "W7A/CO-107", "TITLE": "Naco Hills East", "REGION": "Cochise County", "ASSOCIATION": "USA - Arizona", "POINTS": "6", "BONUSPOINTS": "0"}}, {"type": "Feature", "geometry": {"type": "Point", "coordinates": [-109.2054, 32.0193]}, "properties": {"NAME": "W7A/CO-108", "TITLE": "Blue Mountain", "REGION": "Cochise County", "ASSOCIATION": "USA - Arizona", "POINTS": "6", "BONUSPOINTS": "0"}}, {"type": "Feature", "geometry": {"type": "Point", "coordinates": [-110.2319, 32.1391]}, "properties": {"NAME": "W7A/CO-109", "TITLE": "Johnny Lyon Hills", "REGION": "Cochise County", "ASSOCIATION": "USA - Arizona", "POINTS": "6", "BONUSPOINTS": "0"}}, {"type": "Feature", "geometry": {"type": "Point", "coordinates": [-109.397, 31.4434]}, "properties": {"NAME": "W7A/CO-110", "TITLE": "5739", "REGION": "Cochise County", "ASSOCIATION": "USA - Arizona", "POINTS": "6", "BONUSPOINTS": "0"}}, {"type": "Feature", "geometry": {"type": "Point", "coordinates": [-109.535, 31.7274]}, "properties": {"NAME": "W7A/CO-111", "TITLE": "5727", "REGION": "Cochise County", "ASSOCIATION": "USA - Arizona", "POINTS": "6", "BONUSPOINTS": "0"}}, {"type": "Feature", "geometry": {"type": "Point", "coordinates": [-110.0085, 31.591]}, "properties": {"NAME": "W7A/CO-112", "TITLE": "5724", "REGION": "Cochise County", "ASSOCIATION": "USA - Arizona", "POINTS": "6", "BONUSPOINTS": "0"}}, {"type": "Feature", "geometry": {"type": "Point", "coordinates": [-109.9787, 32.3052]}, "properties": {"NAME": "W7A/CO-113", "TITLE": "Square Mountain", "REGION": "Cochise County", "ASSOCIATION": "USA - Arizona", "POINTS": "6", "BONUSPOINTS": "0"}}, {"type": "Feature", "geometry": {"type": "Point", "coordinates": [-109.4347, 31.408]}, "properties": {"NAME": "W7A/CO-114", "TITLE": "5685", "REGION": "Cochise County", "ASSOCIATION": "USA - Arizona", "POINTS": "6", "BONUSPOINTS": "0"}}, {"type": "Feature", "geometry": {"type": "Point", "coordinates": [-110.0268, 31.8879]}, "properties": {"NAME": "W7A/CO-115", "TITLE": "Little Elephant Head", "REGION": "Cochise County", "ASSOCIATION": "USA - Arizona", "POINTS": "6", "BONUSPOINTS": "0"}}, {"type": "Feature", "geometry": {"type": "Point", "coordinates": [-110.2217, 32.116]}, "properties": {"NAME": "W7A/CO-116", "TITLE": "Keith Peak", "REGION": "Cochise County", "ASSOCIATION": "USA - Arizona", "POINTS": "6", "BONUSPOINTS": "0"}}, {"type": "Feature", "geometry": {"type": "Point", "coordinates": [-109.1879, 31.9945]}, "properties": {"NAME": "W7A/CO-117", "TITLE": "Harris Mountain", "REGION": "Cochise County", "ASSOCIATION": "USA - Arizona", "POINTS": "6", "BONUSPOINTS": "0"}}, {"type": "Feature", "geometry": {"type": "Point", "coordinates": [-110.0364, 32.3159]}, "properties": {"NAME": "W7A/CO-118", "TITLE": "5626", "REGION": "Cochise County", "ASSOCIATION": "USA - Arizona", "POINTS": "6", "BONUSPOINTS": "0"}}, {"type": "Feature", "geometry": {"type": "Point", "coordinates": [-109.9366, 31.7095]}, "properties": {"NAME": "W7A/CO-119", "TITLE": "Stockton Hill", "REGION": "Cochise County", "ASSOCIATION": "USA - Arizona", "POINTS": "6", "BONUSPOINTS": "0"}}, {"type": "Feature", "geometry": {"type": "Point", "coordinates": [-109.8208, 31.743]}, "properties": {"NAME": "W7A/CO-120", "TITLE": "5582", "REGION": "Cochise County", "ASSOCIATION": "USA - Arizona", "POINTS": "6", "BONUSPOINTS": "0"}}, {"type": "Feature", "geometry": {"type": "Point", "coordinates": [-110.3703, 32.1485]}, "properties": {"NAME": "W7A/CO-121", "TITLE": "Wildhorse Mountain", "REGION": "Cochise County", "ASSOCIATION": "USA - Arizona", "POINTS": "6", "BONUSPOINTS": "0"}}, {"type": "Feature", "geometry": {"type": "Point", "coordinates": [-109.1444, 32.4029]}, "properties": {"NAME": "W7A/CO-122", "TITLE": "Midway Peak", "REGION": "Cochise County", "ASSOCIATION": "USA - Arizona", "POINTS": "6", "BONUSPOINTS": "0"}}, {"type": "Feature", "geometry": {"type": "Point", "coordinates": [-110.0937, 32.0172]}, "properties": {"NAME": "W7A/CO-123", "TITLE": "Behind The House Hill", "REGION": "Cochise County", "ASSOCIATION": "USA - Arizona", "POINTS": "6", "BONUSPOINTS": "0"}}, {"type": "Feature", "geometry": {"type": "Point", "coordinates": [-109.512, 31.597]}, "properties": {"NAME": "W7A/CO-124", "TITLE": "5529", "REGION": "Cochise County", "ASSOCIATION": "USA - Arizona", "POINTS": "6", "BONUSPOINTS": "0"}}, {"type": "Feature", "geometry": {"type": "Point", "coordinates": [-110.0046, 32.0723]}, "properties": {"NAME": "W7A/CO-125", "TITLE": "Gunnison Hills North", "REGION": "Cochise County", "ASSOCIATION": "USA - Arizona", "POINTS": "6", "BONUSPOINTS": "0"}}, {"type": "Feature", "geometry": {"type": "Point", "coordinates": [-109.0954, 31.4813]}, "properties": {"NAME": "W7A/CO-126", "TITLE": "Big Cairn Peak", "REGION": "Cochise County", "ASSOCIATION": "USA - Arizona", "POINTS": "6", "BONUSPOINTS": "0"}}, {"type": "Feature", "geometry": {"type": "Point", "coordinates": [-109.6032, 31.8119]}, "properties": {"NAME": "W7A/CO-127", "TITLE": "Squaretop Hills", "REGION": "Cochise County", "ASSOCIATION": "USA - Arizona", "POINTS": "6", "BONUSPOINTS": "0"}}, {"type": "Feature", "geometry": {"type": "Point", "coordinates": [-110.3998, 31.7032]}, "properties": {"NAME": "W7A/CO-128", "TITLE": "5487", "REGION": "Cochise County", "ASSOCIATION": "USA - Arizona", "POINTS": "6", "BONUSPOINTS": "0"}}, {"type": "Feature", "geometry": {"type": "Point", "coordinates": [-109.1162, 32.337]}, "properties": {"NAME": "W7A/CO-129", "TITLE": "Fortress Uncertain", "REGION": "Cochise County", "ASSOCIATION": "USA - Arizona", "POINTS": "6", "BONUSPOINTS": "0"}}, {"type": "Feature", "geometry": {"type": "Point", "coordinates": [-109.7988, 31.371]}, "properties": {"NAME": "W7A/CO-130", "TITLE": "5389", "REGION": "Cochise County", "ASSOCIATION": "USA - Arizona", "POINTS": "6", "BONUSPOINTS": "0"}}, {"type": "Feature", "geometry": {"type": "Point", "coordinates": [-109.0632, 32.3143]}, "properties": {"NAME": "W7A/CO-131", "TITLE": "5386", "REGION": "Cochise County", "ASSOCIATION": "USA - Arizona", "POINTS": "6", "BONUSPOINTS": "0"}}, {"type": "Feature", "geometry": {"type": "Point", "coordinates": [-110.2948, 32.4261]}, "properties": {"NAME": "W7A/CO-132", "TITLE": "Cherry Spring Peak", "REGION": "Cochise County", "ASSOCIATION": "USA - Arizona", "POINTS": "6", "BONUSPOINTS": "0"}}, {"type": "Feature", "geometry": {"type": "Point", "coordinates": [-110.0672, 31.6693]}, "properties": {"NAME": "W7A/CO-133", "TITLE": "Tombstone Hills", "REGION": "Cochise County", "ASSOCIATION": "USA - Arizona", "POINTS": "6", "BONUSPOINTS": "0"}}, {"type": "Feature", "geometry": {"type": "Point", "coordinates": [-109.117, 31.3577]}, "properties": {"NAME": "W7A/CO-134", "TITLE": "Border View Peak", "REGION": "Cochise County", "ASSOCIATION": "USA - Arizona", "POINTS": "6", "BONUSPOINTS": "0"}}, {"type": "Feature", "geometry": {"type": "Point", "coordinates": [-110.2171, 32.2348]}, "properties": {"NAME": "W7A/CO-135", "TITLE": "Kelsey Benchmark", "REGION": "Cochise County", "ASSOCIATION": "USA - Arizona", "POINTS": "6", "BONUSPOINTS": "0"}}, {"type": "Feature", "geometry": {"type": "Point", "coordinates": [-109.4703, 31.4693]}, "properties": {"NAME": "W7A/CO-136", "TITLE": "Notch Peak", "REGION": "Cochise County", "ASSOCIATION": "USA - Arizona", "POINTS": "6", "BONUSPOINTS": "0"}}, {"type": "Feature", "geometry": {"type": "Point", "coordinates": [-109.8855, 31.6538]}, "properties": {"NAME": "W7A/CO-137", "TITLE": "Hay Mountain", "REGION": "Cochise County", "ASSOCIATION": "USA - Arizona", "POINTS": "6", "BONUSPOINTS": "0"}}, {"type": "Feature", "geometry": {"type": "Point", "coordinates": [-110.0265, 32.189]}, "properties": {"NAME": "W7A/CO-138", "TITLE": "Steele Hills", "REGION": "Cochise County", "ASSOCIATION": "USA - Arizona", "POINTS": "6", "BONUSPOINTS": "0"}}, {"type": "Feature", "geometry": {"type": "Point", "coordinates": [-110.2764, 32.3822]}, "properties": {"NAME": "W7A/CO-139", "TITLE": "5300", "REGION": "Cochise County", "ASSOCIATION": "USA - Arizona", "POINTS": "6", "BONUSPOINTS": "0"}}, {"type": "Feature", "geometry": {"type": "Point", "coordinates": [-109.4039, 31.3811]}, "properties": {"NAME": "W7A/CO-140", "TITLE": "5282", "REGION": "Cochise County", "ASSOCIATION": "USA - Arizona", "POINTS": "6", "BONUSPOINTS": "0"}}, {"type": "Feature", "geometry": {"type": "Point", "coordinates": [-109.1667, 31.6731]}, "properties": {"NAME": "W7A/CO-141", "TITLE": "Squaw Mountain", "REGION": "Cochise County", "ASSOCIATION": "USA - Arizona", "POINTS": "6", "BONUSPOINTS": "0"}}, {"type": "Feature", "geometry": {"type": "Point", "coordinates": [-110.2477, 32.3173]}, "properties": {"NAME": "W7A/CO-142", "TITLE": "Bass Benchmark", "REGION": "Cochise County", "ASSOCIATION": "USA - Arizona", "POINTS": "6", "BONUSPOINTS": "0"}}, {"type": "Feature", "geometry": {"type": "Point", "coordinates": [-110.0452, 31.6586]}, "properties": {"NAME": "W7A/CO-143", "TITLE": "Government Benchmark", "REGION": "Cochise County", "ASSOCIATION": "USA - Arizona", "POINTS": "6", "BONUSPOINTS": "0"}}, {"type": "Feature", "geometry": {"type": "Point", "coordinates": [-109.2405, 32.4134]}, "properties": {"NAME": "W7A/CO-144", "TITLE": "Orange Butte", "REGION": "Cochise County", "ASSOCIATION": "USA - Arizona", "POINTS": "6", "BONUSPOINTS": "0"}}, {"type": "Feature", "geometry": {"type": "Point", "coordinates": [-109.5963, 31.8284]}, "properties": {"NAME": "W7A/CO-145", "TITLE": "5245", "REGION": "Cochise County", "ASSOCIATION": "USA - Arizona", "POINTS": "6", "BONUSPOINTS": "0"}}, {"type": "Feature", "geometry": {"type": "Point", "coordinates": [-110.246, 32.2791]}, "properties": {"NAME": "W7A/CO-146", "TITLE": "5226", "REGION": "Cochise County", "ASSOCIATION": "USA - Arizona", "POINTS": "6", "BONUSPOINTS": "0"}}, {"type": "Feature", "geometry": {"type": "Point", "coordinates": [-109.8089, 31.8033]}, "properties": {"NAME": "W7A/CO-147", "TITLE": "Mexican Hat Mountain", "REGION": "Cochise County", "ASSOCIATION": "USA - Arizona", "POINTS": "6", "BONUSPOINTS": "0"}}, {"type": "Feature", "geometry": {"type": "Point", "coordinates": [-110.4165, 32.1595]}, "properties": {"NAME": "W7A/CO-148", "TITLE": "Eagle Peak", "REGION": "Cochise County", "ASSOCIATION": "USA - Arizona", "POINTS": "6", "BONUSPOINTS": "0"}}, {"type": "Feature", "geometry": {"type": "Point", "coordinates": [-109.7408, 31.9635]}, "properties": {"NAME": "W7A/CO-149", "TITLE": "Sulphur Hills", "REGION": "Cochise County", "ASSOCIATION": "USA - Arizona", "POINTS": "6", "BONUSPOINTS": "0"}}, {"type": "Feature", "geometry": {"type": "Point", "coordinates": [-109.2122, 32.4126]}, "properties": {"NAME": "W7A/CO-150", "TITLE": "5150", "REGION": "Cochise County", "ASSOCIATION": "USA - Arizona", "POINTS": "6", "BONUSPOINTS": "0"}}, {"type": "Feature", "geometry": {"type": "Point", "coordinates": [-110.1294, 31.7097]}, "properties": {"NAME": "W7A/CO-151", "TITLE": "Three Brothers Hills, The", "REGION": "Cochise County", "ASSOCIATION": "USA - Arizona", "POINTS": "6", "BONUSPOINTS": "0"}}, {"type": "Feature", "geometry": {"type": "Point", "coordinates": [-110.2331, 32.3008]}, "properties": {"NAME": "W7A/CO-152", "TITLE": "5121", "REGION": "Cochise County", "ASSOCIATION": "USA - Arizona", "POINTS": "6", "BONUSPOINTS": "0"}}, {"type": "Feature", "geometry": {"type": "Point", "coordinates": [-110.1178, 31.7112]}, "properties": {"NAME": "W7A/CO-153", "TITLE": "Dome, The", "REGION": "Cochise County", "ASSOCIATION": "USA - Arizona", "POINTS": "6", "BONUSPOINTS": "0"}}, {"type": "Feature", "geometry": {"type": "Point", "coordinates": [-109.9654, 32.1327]}, "properties": {"NAME": "W7A/CO-154", "TITLE": "Red Bird Hills", "REGION": "Cochise County", "ASSOCIATION": "USA - Arizona", "POINTS": "6", "BONUSPOINTS": "0"}}, {"type": "Feature", "geometry": {"type": "Point", "coordinates": [-109.3941, 31.3616]}, "properties": {"NAME": "W7A/CO-155", "TITLE": "5103", "REGION": "Cochise County", "ASSOCIATION": "USA - Arizona", "POINTS": "6", "BONUSPOINTS": "0"}}, {"type": "Feature", "geometry": {"type": "Point", "coordinates": [-110.2935, 32.4031]}, "properties": {"NAME": "W7A/CO-156", "TITLE": "5103", "REGION": "Cochise County", "ASSOCIATION": "USA - Arizona", "POINTS": "6", "BONUSPOINTS": "0"}}, {"type": "Feature", "geometry": {"type": "Point", "coordinates": [-109.1189, 32.3269]}, "properties": {"NAME": "W7A/CO-157", "TITLE": "5060", "REGION": "Cochise County", "ASSOCIATION": "USA - Arizona", "POINTS": "6", "BONUSPOINTS": "0"}}, {"type": "Feature", "geometry": {"type": "Point", "coordinates": [-109.836, 32.3542]}, "properties": {"NAME": "W7A/CO-158", "TITLE": "Circle I Hills", "REGION": "Cochise County", "ASSOCIATION": "USA - Arizona", "POINTS": "6", "BONUSPOINTS": "0"}}, {"type": "Feature", "geometry": {"type": "Point", "coordinates": [-109.6072, 32.4104]}, "properties": {"NAME": "W7A/CO-159", "TITLE": "Fisher Hills", "REGION": "Cochise County", "ASSOCIATION": "USA - Arizona", "POINTS": "6", "BONUSPOINTS": "0"}}, {"type": "Feature", "geometry": {"type": "Point", "coordinates": [-109.1557, 32.3459]}, "properties": {"NAME": "W7A/CO-160", "TITLE": "Gazelle Benchmark", "REGION": "Cochise County", "ASSOCIATION": "USA - Arizona", "POINTS": "6", "BONUSPOINTS": "0"}}, {"type": "Feature", "geometry": {"type": "Point", "coordinates": [-110.3602, 32.1782]}, "properties": {"NAME": "W7A/CO-161", "TITLE": "4961", "REGION": "Cochise County", "ASSOCIATION": "USA - Arizona", "POINTS": "6", "BONUSPOINTS": "0"}}, {"type": "Feature", "geometry": {"type": "Point", "coordinates": [-110.2581, 32.2848]}, "properties": {"NAME": "W7A/CO-162", "TITLE": "4931", "REGION": "Cochise County", "ASSOCIATION": "USA - Arizona", "POINTS": "6", "BONUSPOINTS": "0"}}, {"type": "Feature", "geometry": {"type": "Point", "coordinates": [-109.1455, 32.365]}, "properties": {"NAME": "W7A/CO-163", "TITLE": "McKenzie Peak", "REGION": "Cochise County", "ASSOCIATION": "USA - Arizona", "POINTS": "6", "BONUSPOINTS": "0"}}, {"type": "Feature", "geometry": {"type": "Point", "coordinates": [-109.1564, 32.3628]}, "properties": {"NAME": "W7A/CO-164", "TITLE": "4898", "REGION": "Cochise County", "ASSOCIATION": "USA - Arizona", "POINTS": "6", "BONUSPOINTS": "0"}}, {"type": "Feature", "geometry": {"type": "Point", "coordinates": [-109.7951, 31.9131]}, "properties": {"NAME": "W7A/CO-165", "TITLE": "4874", "REGION": "Cochise County", "ASSOCIATION": "USA - Arizona", "POINTS": "6", "BONUSPOINTS": "0"}}, {"type": "Feature", "geometry": {"type": "Point", "coordinates": [-109.102, 32.3028]}, "properties": {"NAME": "W7A/CO-166", "TITLE": "4815", "REGION": "Cochise County", "ASSOCIATION": "USA - Arizona", "POINTS": "6", "BONUSPOINTS": "0"}}, {"type": "Feature", "geometry": {"type": "Point", "coordinates": [-109.5822, 32.3922]}, "properties": {"NAME": "W7A/CO-167", "TITLE": "4812", "REGION": "Cochise County", "ASSOCIATION": "USA - Arizona", "POINTS": "6", "BONUSPOINTS": "0"}}, {"type": "Feature", "geometry": {"type": "Point", "coordinates": [-109.7708, 31.9951]}, "properties": {"NAME": "W7A/CO-168", "TITLE": "Three Sisters Buttes South", "REGION": "Cochise County", "ASSOCIATION": "USA - Arizona", "POINTS": "6", "BONUSPOINTS": "0"}}, {"type": "Feature", "geometry": {"type": "Point", "coordinates": [-109.1572, 31.34]}, "properties": {"NAME": "W7A/CO-169", "TITLE": "Chipped Tooth", "REGION": "Cochise County", "ASSOCIATION": "USA - Arizona", "POINTS": "6", "BONUSPOINTS": "0"}}, {"type": "Feature", "geometry": {"type": "Point", "coordinates": [-110.1684, 31.6465]}, "properties": {"NAME": "W7A/CO-170", "TITLE": "4628", "REGION": "Cochise County", "ASSOCIATION": "USA - Arizona", "POINTS": "6", "BONUSPOINTS": "0"}}, {"type": "Feature", "geometry": {"type": "Point", "coordinates": [-110.1852, 31.6422]}, "properties": {"NAME": "W7A/CO-171", "TITLE": "4568", "REGION": "Cochise County", "ASSOCIATION": "USA - Arizona", "POINTS": "6", "BONUSPOINTS": "0"}}, {"type": "Feature", "geometry": {"type": "Point", "coordinates": [-109.1901, 31.9011]}, "properties": {"NAME": "W7A/CO-172", "TITLE": "Sceloporus, Mount", "REGION": "Cochise County", "ASSOCIATION": "USA - Arizona", "POINTS": "10", "BONUSPOINTS": "3"}}, {"type": "Feature", "geometry": {"type": "Point", "coordinates": [-109.3124, 31.9092]}, "properties": {"NAME": "W7A/CO-173", "TITLE": "Rattlesnake Peak", "REGION": "Cochise County", "ASSOCIATION": "USA - Arizona", "POINTS": "10", "BONUSPOINTS": "3"}}, {"type": "Feature", "geometry": {"type": "Point", "coordinates": [-109.1435, 31.8195]}, "properties": {"NAME": "W7A/CO-174", "TITLE": "7420", "REGION": "Cochise County", "ASSOCIATION": "USA - Arizona", "POINTS": "8", "BONUSPOINTS": "3"}}, {"type": "Feature", "geometry": {"type": "Point", "coordinates": [-109.3921, 31.7311]}, "properties": {"NAME": "W7A/CO-175", "TITLE": "6878", "REGION": "Cochise County", "ASSOCIATION": "USA - Arizona", "POINTS": "8", "BONUSPOINTS": "3"}}, {"type": "Feature", "geometry": {"type": "Point", "coordinates": [-109.9781, 31.9266]}, "properties": {"NAME": "W7A/CO-176", "TITLE": "Rockfellow Dome", "REGION": "Cochise County", "ASSOCIATION": "USA - Arizona", "POINTS": "8", "BONUSPOINTS": "3"}}, {"type": "Feature", "geometry": {"type": "Point", "coordinates": [-110.2331, 32.1361]}, "properties": {"NAME": "W7A/CO-177", "TITLE": "Johnny Lyon Hills", "REGION": "Cochise County", "ASSOCIATION": "USA - Arizona", "POINTS": "6", "BONUSPOINTS": "0"}}, {"type": "Feature", "geometry": {"type": "Point", "coordinates": [-109.6291, 32.1729]}, "properties": {"NAME": "W7A/CO-178", "TITLE": "5557", "REGION": "Cochise County", "ASSOCIATION": "USA - Arizona", "POINTS": "6", "BONUSPOINTS": "0"}}, {"type": "Feature", "geometry": {"type": "Point", "coordinates": [-109.6613, 32.2011]}, "properties": {"NAME": "W7A/CO-179", "TITLE": "5504", "REGION": "Cochise County", "ASSOCIATION": "USA - Arizona", "POINTS": "6", "BONUSPOINTS": "0"}}, {"type": "Feature", "geometry": {"type": "Point", "coordinates": [-110.3706, 32.1914]}, "properties": {"NAME": "W7A/CO-180", "TITLE": "4955", "REGION": "Cochise County", "ASSOCIATION": "USA - Arizona", "POINTS": "6", "BONUSPOINTS": "0"}}, {"type": "Feature", "geometry": {"type": "Point", "coordinates": [-109.0912, 32.2946]}, "properties": {"NAME": "W7A/CO-181", "TITLE": "Roostercomb", "REGION": "Cochise County", "ASSOCIATION": "USA - Arizona", "POINTS": "6", "BONUSPOINTS": "0"}}, {"type": "Feature", "geometry": {"type": "Point", "coordinates": [-109.3113, 31.435]}, "properties": {"NAME": "W7A/CO-182", "TITLE": "Cinder Hill", "REGION": "Cochise County", "ASSOCIATION": "USA - Arizona", "POINTS": "6", "BONUSPOINTS": "0"}}]}