{"type": "FeatureCollection", "name": "W7A/PZ SUMMITS", "features": [{"type": "Feature", "geometry": {"type": "Point", "coordinates": [-113.3558, 34.065]}, "properties": {"NAME": "W7A/PZ-001", "TITLE": "Smith Peak", "REGION": "La Paz County", "ASSOCIATION": "USA - Arizona", "POINTS": "6", "BONUSPOINTS": "3"}}, {"type": "Feature", "geometry": {"type": "Point", "coordinates": [-113.506, 33.9988]}, "properties": {"NAME": "W7A/PZ-002", "TITLE": "Harcuvar Mountains Wilderness HP", "REGION": "La Paz County", "ASSOCIATION": "USA - Arizona", "POINTS": "6", "BONUSPOINTS": "3"}}, {"type": "Feature", "geometry": {"type": "Point", "coordinates": [-113.4896, 34.0048]}, "properties": {"NAME": "W7A/PZ-003", "TITLE": "4735", "REGION": "La Paz County", "ASSOCIATION": "USA - Arizona", "POINTS": "6", "BONUSPOINTS": "3"}}, {"type": "Feature", "geometry": {"type": "Point", "coordinates": [-113.6188, 33.9158]}, "properties": {"NAME": "W7A/PZ-004", "TITLE": "4430", "REGION": "La Paz County", "ASSOCIATION": "USA - Arizona", "POINTS": "4", "BONUSPOINTS": "3"}}, {"type": "Feature", "geometry": {"type": "Point", "coordinates": [-113.7115, 33.8397]}, "properties": {"NAME": "W7A/PZ-005", "TITLE": "Salome Peak", "REGION": "La Paz County", "ASSOCIATION": "USA - Arizona", "POINTS": "4", "BONUSPOINTS": "3"}}, {"type": "Feature", "geometry": {"type": "Point", "coordinates": [-113.5983, 34.1521]}, "properties": {"NAME": "W7A/PZ-006", "TITLE": "Buckskin Benchmark", "REGION": "La Paz County", "ASSOCIATION": "USA - Arizona", "POINTS": "4", "BONUSPOINTS": "3"}}, {"type": "Feature", "geometry": {"type": "Point", "coordinates": [-113.4558, 33.7598]}, "properties": {"NAME": "W7A/PZ-007", "TITLE": "Socorro Peak", "REGION": "La Paz County", "ASSOCIATION": "USA - Arizona", "POINTS": "4", "BONUSPOINTS": "3"}}, {"type": "Feature", "geometry": {"type": "Point", "coordinates": [-114.0219, 33.5989]}, "properties": {"NAME": "W7A/PZ-008", "TITLE": "Black Mesa West", "REGION": "La Paz County", "ASSOCIATION": "USA - Arizona", "POINTS": "4", "BONUSPOINTS": "3"}}, {"type": "Feature", "geometry": {"type": "Point", "coordinates": [-113.5722, 33.9306]}, "properties": {"NAME": "W7A/PZ-009", "TITLE": "3620", "REGION": "La Paz County", "ASSOCIATION": "USA - Arizona", "POINTS": "4", "BONUSPOINTS": "3"}}, {"type": "Feature", "geometry": {"type": "Point", "coordinates": [-113.701, 33.8726]}, "properties": {"NAME": "W7A/PZ-010", "TITLE": "3587", "REGION": "La Paz County", "ASSOCIATION": "USA - Arizona", "POINTS": "4", "BONUSPOINTS": "3"}}, {"type": "Feature", "geometry": {"type": "Point", "coordinates": [-113.6702, 33.8724]}, "properties": {"NAME": "W7A/PZ-011", "TITLE": "3500", "REGION": "La Paz County", "ASSOCIATION": "USA - Arizona", "POINTS": "4", "BONUSPOINTS": "3"}}, {"type": "Feature", "geometry": {"type": "Point", "coordinates": [-114.0056, 33.5864]}, "properties": {"NAME": "W7A/PZ-012", "TITLE": "Black Mesa East", "REGION": "La Paz County", "ASSOCIATION": "USA - Arizona", "POINTS": "4", "BONUSPOINTS": "3"}}, {"type": "Feature", "geometry": {"type": "Point", "coordinates": [-113.5593, 33.9829]}, "properties": {"NAME": "W7A/PZ-013", "TITLE": "3446", "REGION": "La Paz County", "ASSOCIATION": "USA - Arizona", "POINTS": "4", "BONUSPOINTS": "3"}}, {"type": "Feature", "geometry": {"type": "Point", "coordinates": [-113.7329, 33.8306]}, "properties": {"NAME": "W7A/PZ-014", "TITLE": "3432", "REGION": "La Paz County", "ASSOCIATION": "USA - Arizona", "POINTS": "4", "BONUSPOINTS": "3"}}, {"type": "Feature", "geometry": {"type": "Point", "coordinates": [-114.0714, 33.5857]}, "properties": {"NAME": "W7A/PZ-015", "TITLE": "Dripping Springs Benchmark", "REGION": "La Paz County", "ASSOCIATION": "USA - Arizona", "POINTS": "4", "BONUSPOINTS": "3"}}, {"type": "Feature", "geometry": {"type": "Point", "coordinates": [-113.8568, 33.407]}, "properties": {"NAME": "W7A/PZ-016", "TITLE": "New Water Benchmark", "REGION": "La Paz County", "ASSOCIATION": "USA - Arizona", "POINTS": "4", "BONUSPOINTS": "3"}}, {"type": "Feature", "geometry": {"type": "Point", "coordinates": [-113.4022, 33.4766]}, "properties": {"NAME": "W7A/PZ-017", "TITLE": "Eagle Benchmark", "REGION": "La Paz County", "ASSOCIATION": "USA - Arizona", "POINTS": "4", "BONUSPOINTS": "3"}}, {"type": "Feature", "geometry": {"type": "Point", "coordinates": [-113.8908, 33.4075]}, "properties": {"NAME": "W7A/PZ-018", "TITLE": "3170", "REGION": "La Paz County", "ASSOCIATION": "USA - Arizona", "POINTS": "4", "BONUSPOINTS": "3"}}, {"type": "Feature", "geometry": {"type": "Point", "coordinates": [-113.9816, 34.167]}, "properties": {"NAME": "W7A/PZ-019", "TITLE": "Planet Peak", "REGION": "La Paz County", "ASSOCIATION": "USA - Arizona", "POINTS": "4", "BONUSPOINTS": "3"}}, {"type": "Feature", "geometry": {"type": "Point", "coordinates": [-113.617, 33.6984]}, "properties": {"NAME": "W7A/PZ-020", "TITLE": "Harquar Benchmark", "REGION": "La Paz County", "ASSOCIATION": "USA - Arizona", "POINTS": "4", "BONUSPOINTS": "3"}}, {"type": "Feature", "geometry": {"type": "Point", "coordinates": [-113.5061, 33.7577]}, "properties": {"NAME": "W7A/PZ-021", "TITLE": "Twin Peaks, South", "REGION": "La Paz County", "ASSOCIATION": "USA - Arizona", "POINTS": "4", "BONUSPOINTS": "3"}}, {"type": "Feature", "geometry": {"type": "Point", "coordinates": [-113.7706, 34.0857]}, "properties": {"NAME": "W7A/PZ-022", "TITLE": "Swansea Benchmark", "REGION": "La Paz County", "ASSOCIATION": "USA - Arizona", "POINTS": "4", "BONUSPOINTS": "3"}}, {"type": "Feature", "geometry": {"type": "Point", "coordinates": [-114.3586, 33.6131]}, "properties": {"NAME": "W7A/PZ-023", "TITLE": "Sawtooth Mountain", "REGION": "La Paz County", "ASSOCIATION": "USA - Arizona", "POINTS": "2", "BONUSPOINTS": "3"}}, {"type": "Feature", "geometry": {"type": "Point", "coordinates": [-113.3515, 33.4383]}, "properties": {"NAME": "W7A/PZ-024", "TITLE": "2874", "REGION": "La Paz County", "ASSOCIATION": "USA - Arizona", "POINTS": "2", "BONUSPOINTS": "3"}}, {"type": "Feature", "geometry": {"type": "Point", "coordinates": [-113.6907, 34.1058]}, "properties": {"NAME": "W7A/PZ-025", "TITLE": "2870", "REGION": "La Paz County", "ASSOCIATION": "USA - Arizona", "POINTS": "2", "BONUSPOINTS": "3"}}, {"type": "Feature", "geometry": {"type": "Point", "coordinates": [-114.0773, 33.7243]}, "properties": {"NAME": "W7A/PZ-026", "TITLE": "2860", "REGION": "La Paz County", "ASSOCIATION": "USA - Arizona", "POINTS": "2", "BONUSPOINTS": "3"}}, {"type": "Feature", "geometry": {"type": "Point", "coordinates": [-114.289, 33.5142]}, "properties": {"NAME": "W7A/PZ-027", "TITLE": "2851", "REGION": "La Paz County", "ASSOCIATION": "USA - Arizona", "POINTS": "2", "BONUSPOINTS": "3"}}, {"type": "Feature", "geometry": {"type": "Point", "coordinates": [-113.8632, 33.5652]}, "properties": {"NAME": "W7A/PZ-028", "TITLE": "New Water Mountains HP", "REGION": "La Paz County", "ASSOCIATION": "USA - Arizona", "POINTS": "2", "BONUSPOINTS": "3"}}, {"type": "Feature", "geometry": {"type": "Point", "coordinates": [-114.3206, 33.263]}, "properties": {"NAME": "W7A/PZ-029", "TITLE": "Twin Benchmark", "REGION": "La Paz County", "ASSOCIATION": "USA - Arizona", "POINTS": "2", "BONUSPOINTS": "3"}}, {"type": "Feature", "geometry": {"type": "Point", "coordinates": [-114.0334, 33.7684]}, "properties": {"NAME": "W7A/PZ-030", "TITLE": "Ibex Peak", "REGION": "La Paz County", "ASSOCIATION": "USA - Arizona", "POINTS": "2", "BONUSPOINTS": "3"}}, {"type": "Feature", "geometry": {"type": "Point", "coordinates": [-114.0408, 33.6823]}, "properties": {"NAME": "W7A/PZ-031", "TITLE": "2820", "REGION": "La Paz County", "ASSOCIATION": "USA - Arizona", "POINTS": "2", "BONUSPOINTS": "3"}}, {"type": "Feature", "geometry": {"type": "Point", "coordinates": [-113.7319, 33.383]}, "properties": {"NAME": "W7A/PZ-032", "TITLE": "2817", "REGION": "La Paz County", "ASSOCIATION": "USA - Arizona", "POINTS": "2", "BONUSPOINTS": "3"}}, {"type": "Feature", "geometry": {"type": "Point", "coordinates": [-113.6255, 33.3788]}, "properties": {"NAME": "W7A/PZ-033", "TITLE": "2810", "REGION": "La Paz County", "ASSOCIATION": "USA - Arizona", "POINTS": "2", "BONUSPOINTS": "3"}}, {"type": "Feature", "geometry": {"type": "Point", "coordinates": [-113.8934, 33.5907]}, "properties": {"NAME": "W7A/PZ-034", "TITLE": "Hidden Benchmark", "REGION": "La Paz County", "ASSOCIATION": "USA - Arizona", "POINTS": "2", "BONUSPOINTS": "3"}}, {"type": "Feature", "geometry": {"type": "Point", "coordinates": [-113.5092, 34.1047]}, "properties": {"NAME": "W7A/PZ-035", "TITLE": "Little Buckskin Mountains (HP)", "REGION": "La Paz County", "ASSOCIATION": "USA - Arizona", "POINTS": "2", "BONUSPOINTS": "3"}}, {"type": "Feature", "geometry": {"type": "Point", "coordinates": [-113.3409, 33.4141]}, "properties": {"NAME": "W7A/PZ-036", "TITLE": "Anvil Mountain", "REGION": "La Paz County", "ASSOCIATION": "USA - Arizona", "POINTS": "2", "BONUSPOINTS": "3"}}, {"type": "Feature", "geometry": {"type": "Point", "coordinates": [-114.0207, 33.7738]}, "properties": {"NAME": "W7A/PZ-037", "TITLE": "Haystack Peak", "REGION": "La Paz County", "ASSOCIATION": "USA - Arizona", "POINTS": "2", "BONUSPOINTS": "3"}}, {"type": "Feature", "geometry": {"type": "Point", "coordinates": [-113.5592, 33.6831]}, "properties": {"NAME": "W7A/PZ-038", "TITLE": "2780", "REGION": "La Paz County", "ASSOCIATION": "USA - Arizona", "POINTS": "2", "BONUSPOINTS": "3"}}, {"type": "Feature", "geometry": {"type": "Point", "coordinates": [-114.3476, 33.5925]}, "properties": {"NAME": "W7A/PZ-039", "TITLE": "2780", "REGION": "La Paz County", "ASSOCIATION": "USA - Arizona", "POINTS": "2", "BONUSPOINTS": "3"}}, {"type": "Feature", "geometry": {"type": "Point", "coordinates": [-113.9336, 33.5975]}, "properties": {"NAME": "W7A/PZ-040", "TITLE": "Twin Peaks South", "REGION": "La Paz County", "ASSOCIATION": "USA - Arizona", "POINTS": "2", "BONUSPOINTS": "3"}}, {"type": "Feature", "geometry": {"type": "Point", "coordinates": [-114.4915, 33.2769]}, "properties": {"NAME": "W7A/PZ-041", "TITLE": "Mohave Peak", "REGION": "La Paz County", "ASSOCIATION": "USA - Arizona", "POINTS": "2", "BONUSPOINTS": "3"}}, {"type": "Feature", "geometry": {"type": "Point", "coordinates": [-113.8691, 33.4494]}, "properties": {"NAME": "W7A/PZ-042", "TITLE": "2767", "REGION": "La Paz County", "ASSOCIATION": "USA - Arizona", "POINTS": "2", "BONUSPOINTS": "3"}}, {"type": "Feature", "geometry": {"type": "Point", "coordinates": [-113.6954, 33.7623]}, "properties": {"NAME": "W7A/PZ-043", "TITLE": "Winchester Peak", "REGION": "La Paz County", "ASSOCIATION": "USA - Arizona", "POINTS": "2", "BONUSPOINTS": "3"}}, {"type": "Feature", "geometry": {"type": "Point", "coordinates": [-114.3614, 33.5037]}, "properties": {"NAME": "W7A/PZ-044", "TITLE": "2747", "REGION": "La Paz County", "ASSOCIATION": "USA - Arizona", "POINTS": "2", "BONUSPOINTS": "3"}}, {"type": "Feature", "geometry": {"type": "Point", "coordinates": [-113.3409, 33.4218]}, "properties": {"NAME": "W7A/PZ-045", "TITLE": "2747", "REGION": "La Paz County", "ASSOCIATION": "USA - Arizona", "POINTS": "2", "BONUSPOINTS": "3"}}, {"type": "Feature", "geometry": {"type": "Point", "coordinates": [-114.034, 33.6357]}, "properties": {"NAME": "W7A/PZ-046", "TITLE": "2740", "REGION": "La Paz County", "ASSOCIATION": "USA - Arizona", "POINTS": "2", "BONUSPOINTS": "3"}}, {"type": "Feature", "geometry": {"type": "Point", "coordinates": [-113.3923, 33.4684]}, "properties": {"NAME": "W7A/PZ-047", "TITLE": "2734", "REGION": "La Paz County", "ASSOCIATION": "USA - Arizona", "POINTS": "2", "BONUSPOINTS": "3"}}, {"type": "Feature", "geometry": {"type": "Point", "coordinates": [-113.8512, 33.4448]}, "properties": {"NAME": "W7A/PZ-048", "TITLE": "2716", "REGION": "La Paz County", "ASSOCIATION": "USA - Arizona", "POINTS": "2", "BONUSPOINTS": "3"}}, {"type": "Feature", "geometry": {"type": "Point", "coordinates": [-114.0916, 33.6317]}, "properties": {"NAME": "W7A/PZ-049", "TITLE": "Elephant Back Mountain", "REGION": "La Paz County", "ASSOCIATION": "USA - Arizona", "POINTS": "2", "BONUSPOINTS": "3"}}, {"type": "Feature", "geometry": {"type": "Point", "coordinates": [-114.3387, 33.4226]}, "properties": {"NAME": "W7A/PZ-050", "TITLE": "South Trigo Peaks East", "REGION": "La Paz County", "ASSOCIATION": "USA - Arizona", "POINTS": "2", "BONUSPOINTS": "3"}}, {"type": "Feature", "geometry": {"type": "Point", "coordinates": [-113.7433, 33.7998]}, "properties": {"NAME": "W7A/PZ-051", "TITLE": "2660", "REGION": "La Paz County", "ASSOCIATION": "USA - Arizona", "POINTS": "2", "BONUSPOINTS": "3"}}, {"type": "Feature", "geometry": {"type": "Point", "coordinates": [-114.1109, 33.4969]}, "properties": {"NAME": "W7A/PZ-052", "TITLE": "Livingston Hills", "REGION": "La Paz County", "ASSOCIATION": "USA - Arizona", "POINTS": "2", "BONUSPOINTS": "3"}}, {"type": "Feature", "geometry": {"type": "Point", "coordinates": [-113.58, 33.3835]}, "properties": {"NAME": "W7A/PZ-053", "TITLE": "2620", "REGION": "La Paz County", "ASSOCIATION": "USA - Arizona", "POINTS": "2", "BONUSPOINTS": "3"}}, {"type": "Feature", "geometry": {"type": "Point", "coordinates": [-114.3463, 33.4884]}, "properties": {"NAME": "W7A/PZ-054", "TITLE": "2580", "REGION": "La Paz County", "ASSOCIATION": "USA - Arizona", "POINTS": "2", "BONUSPOINTS": "3"}}, {"type": "Feature", "geometry": {"type": "Point", "coordinates": [-114.0894, 33.6467]}, "properties": {"NAME": "W7A/PZ-055", "TITLE": "2580", "REGION": "La Paz County", "ASSOCIATION": "USA - Arizona", "POINTS": "2", "BONUSPOINTS": "3"}}, {"type": "Feature", "geometry": {"type": "Point", "coordinates": [-114.5564, 33.3103]}, "properties": {"NAME": "W7A/PZ-056", "TITLE": "2562", "REGION": "La Paz County", "ASSOCIATION": "USA - Arizona", "POINTS": "2", "BONUSPOINTS": "3"}}, {"type": "Feature", "geometry": {"type": "Point", "coordinates": [-113.5304, 33.7086]}, "properties": {"NAME": "W7A/PZ-057", "TITLE": "2558", "REGION": "La Paz County", "ASSOCIATION": "USA - Arizona", "POINTS": "2", "BONUSPOINTS": "3"}}, {"type": "Feature", "geometry": {"type": "Point", "coordinates": [-114.1253, 33.4741]}, "properties": {"NAME": "W7A/PZ-058", "TITLE": "2554", "REGION": "La Paz County", "ASSOCIATION": "USA - Arizona", "POINTS": "2", "BONUSPOINTS": "3"}}, {"type": "Feature", "geometry": {"type": "Point", "coordinates": [-113.8352, 33.5416]}, "properties": {"NAME": "W7A/PZ-059", "TITLE": "2552", "REGION": "La Paz County", "ASSOCIATION": "USA - Arizona", "POINTS": "2", "BONUSPOINTS": "3"}}, {"type": "Feature", "geometry": {"type": "Point", "coordinates": [-114.0595, 33.6675]}, "properties": {"NAME": "W7A/PZ-060", "TITLE": "Guadalupe Mountain", "REGION": "La Paz County", "ASSOCIATION": "USA - Arizona", "POINTS": "2", "BONUSPOINTS": "3"}}, {"type": "Feature", "geometry": {"type": "Point", "coordinates": [-113.9337, 34.197]}, "properties": {"NAME": "W7A/PZ-061", "TITLE": "2540", "REGION": "La Paz County", "ASSOCIATION": "USA - Arizona", "POINTS": "2", "BONUSPOINTS": "3"}}, {"type": "Feature", "geometry": {"type": "Point", "coordinates": [-114.5634, 33.2794]}, "properties": {"NAME": "W7A/PZ-062", "TITLE": "Chocolate Benchmark", "REGION": "La Paz County", "ASSOCIATION": "USA - Arizona", "POINTS": "2", "BONUSPOINTS": "3"}}, {"type": "Feature", "geometry": {"type": "Point", "coordinates": [-113.5315, 33.6998]}, "properties": {"NAME": "W7A/PZ-063", "TITLE": "2539", "REGION": "La Paz County", "ASSOCIATION": "USA - Arizona", "POINTS": "2", "BONUSPOINTS": "3"}}, {"type": "Feature", "geometry": {"type": "Point", "coordinates": [-114.1328, 33.5745]}, "properties": {"NAME": "W7A/PZ-064", "TITLE": "2530", "REGION": "La Paz County", "ASSOCIATION": "USA - Arizona", "POINTS": "2", "BONUSPOINTS": "3"}}, {"type": "Feature", "geometry": {"type": "Point", "coordinates": [-114.3367, 33.6759]}, "properties": {"NAME": "W7A/PZ-065", "TITLE": "Middle Camp Mountain", "REGION": "La Paz County", "ASSOCIATION": "USA - Arizona", "POINTS": "2", "BONUSPOINTS": "3"}}, {"type": "Feature", "geometry": {"type": "Point", "coordinates": [-114.3556, 33.2433]}, "properties": {"NAME": "W7A/PZ-066", "TITLE": "2504", "REGION": "La Paz County", "ASSOCIATION": "USA - Arizona", "POINTS": "2", "BONUSPOINTS": "3"}}, {"type": "Feature", "geometry": {"type": "Point", "coordinates": [-114.1203, 33.4983]}, "properties": {"NAME": "W7A/PZ-067", "TITLE": "2500", "REGION": "La Paz County", "ASSOCIATION": "USA - Arizona", "POINTS": "2", "BONUSPOINTS": "3"}}, {"type": "Feature", "geometry": {"type": "Point", "coordinates": [-113.3412, 33.4367]}, "properties": {"NAME": "W7A/PZ-068", "TITLE": "2476", "REGION": "La Paz County", "ASSOCIATION": "USA - Arizona", "POINTS": "2", "BONUSPOINTS": "3"}}, {"type": "Feature", "geometry": {"type": "Point", "coordinates": [-114.0521, 33.7046]}, "properties": {"NAME": "W7A/PZ-069", "TITLE": "2460", "REGION": "La Paz County", "ASSOCIATION": "USA - Arizona", "POINTS": "2", "BONUSPOINTS": "3"}}, {"type": "Feature", "geometry": {"type": "Point", "coordinates": [-114.3023, 33.2445]}, "properties": {"NAME": "W7A/PZ-070", "TITLE": "2455", "REGION": "La Paz County", "ASSOCIATION": "USA - Arizona", "POINTS": "2", "BONUSPOINTS": "3"}}, {"type": "Feature", "geometry": {"type": "Point", "coordinates": [-114.0623, 33.6461]}, "properties": {"NAME": "W7A/PZ-071", "TITLE": "2455", "REGION": "La Paz County", "ASSOCIATION": "USA - Arizona", "POINTS": "2", "BONUSPOINTS": "3"}}, {"type": "Feature", "geometry": {"type": "Point", "coordinates": [-114.487, 33.2443]}, "properties": {"NAME": "W7A/PZ-072", "TITLE": "Tuff Benchmark", "REGION": "La Paz County", "ASSOCIATION": "USA - Arizona", "POINTS": "2", "BONUSPOINTS": "3"}}, {"type": "Feature", "geometry": {"type": "Point", "coordinates": [-114.3635, 33.2398]}, "properties": {"NAME": "W7A/PZ-073", "TITLE": "2403", "REGION": "La Paz County", "ASSOCIATION": "USA - Arizona", "POINTS": "2", "BONUSPOINTS": "3"}}, {"type": "Feature", "geometry": {"type": "Point", "coordinates": [-113.8119, 34.1639]}, "properties": {"NAME": "W7A/PZ-074", "TITLE": "Clara Peak", "REGION": "La Paz County", "ASSOCIATION": "USA - Arizona", "POINTS": "2", "BONUSPOINTS": "3"}}, {"type": "Feature", "geometry": {"type": "Point", "coordinates": [-113.518, 33.405]}, "properties": {"NAME": "W7A/PZ-075", "TITLE": "Deadman Mountain", "REGION": "La Paz County", "ASSOCIATION": "USA - Arizona", "POINTS": "2", "BONUSPOINTS": "3"}}, {"type": "Feature", "geometry": {"type": "Point", "coordinates": [-114.5579, 33.2856]}, "properties": {"NAME": "W7A/PZ-076", "TITLE": "2368", "REGION": "La Paz County", "ASSOCIATION": "USA - Arizona", "POINTS": "2", "BONUSPOINTS": "3"}}, {"type": "Feature", "geometry": {"type": "Point", "coordinates": [-114.3993, 33.4343]}, "properties": {"NAME": "W7A/PZ-077", "TITLE": "South Trigo Peaks West", "REGION": "La Paz County", "ASSOCIATION": "USA - Arizona", "POINTS": "2", "BONUSPOINTS": "3"}}, {"type": "Feature", "geometry": {"type": "Point", "coordinates": [-114.3603, 33.5847]}, "properties": {"NAME": "W7A/PZ-078", "TITLE": "2354", "REGION": "La Paz County", "ASSOCIATION": "USA - Arizona", "POINTS": "2", "BONUSPOINTS": "3"}}, {"type": "Feature", "geometry": {"type": "Point", "coordinates": [-114.0115, 33.784]}, "properties": {"NAME": "W7A/PZ-079", "TITLE": "2340", "REGION": "La Paz County", "ASSOCIATION": "USA - Arizona", "POINTS": "2", "BONUSPOINTS": "3"}}, {"type": "Feature", "geometry": {"type": "Point", "coordinates": [-113.5906, 33.6627]}, "properties": {"NAME": "W7A/PZ-080", "TITLE": "Martin Peak", "REGION": "La Paz County", "ASSOCIATION": "USA - Arizona", "POINTS": "2", "BONUSPOINTS": "3"}}, {"type": "Feature", "geometry": {"type": "Point", "coordinates": [-113.4734, 33.5139]}, "properties": {"NAME": "W7A/PZ-081", "TITLE": "2303", "REGION": "La Paz County", "ASSOCIATION": "USA - Arizona", "POINTS": "2", "BONUSPOINTS": "3"}}, {"type": "Feature", "geometry": {"type": "Point", "coordinates": [-113.7265, 33.4849]}, "properties": {"NAME": "W7A/PZ-082", "TITLE": "Coyote Peak", "REGION": "La Paz County", "ASSOCIATION": "USA - Arizona", "POINTS": "2", "BONUSPOINTS": "3"}}, {"type": "Feature", "geometry": {"type": "Point", "coordinates": [-114.3166, 33.61]}, "properties": {"NAME": "W7A/PZ-083", "TITLE": "La Cholla Mountain East", "REGION": "La Paz County", "ASSOCIATION": "USA - Arizona", "POINTS": "2", "BONUSPOINTS": "3"}}, {"type": "Feature", "geometry": {"type": "Point", "coordinates": [-114.5435, 33.3061]}, "properties": {"NAME": "W7A/PZ-084", "TITLE": "2275", "REGION": "La Paz County", "ASSOCIATION": "USA - Arizona", "POINTS": "2", "BONUSPOINTS": "3"}}, {"type": "Feature", "geometry": {"type": "Point", "coordinates": [-114.1028, 33.8364]}, "properties": {"NAME": "W7A/PZ-085", "TITLE": "Plomosa Benchmark", "REGION": "La Paz County", "ASSOCIATION": "USA - Arizona", "POINTS": "2", "BONUSPOINTS": "3"}}, {"type": "Feature", "geometry": {"type": "Point", "coordinates": [-113.6238, 33.3909]}, "properties": {"NAME": "W7A/PZ-086", "TITLE": "2270", "REGION": "La Paz County", "ASSOCIATION": "USA - Arizona", "POINTS": "2", "BONUSPOINTS": "3"}}, {"type": "Feature", "geometry": {"type": "Point", "coordinates": [-113.517, 33.5145]}, "properties": {"NAME": "W7A/PZ-087", "TITLE": "2266", "REGION": "La Paz County", "ASSOCIATION": "USA - Arizona", "POINTS": "2", "BONUSPOINTS": "3"}}, {"type": "Feature", "geometry": {"type": "Point", "coordinates": [-114.3769, 33.2448]}, "properties": {"NAME": "W7A/PZ-088", "TITLE": "2260", "REGION": "La Paz County", "ASSOCIATION": "USA - Arizona", "POINTS": "2", "BONUSPOINTS": "3"}}, {"type": "Feature", "geometry": {"type": "Point", "coordinates": [-114.0642, 33.768]}, "properties": {"NAME": "W7A/PZ-089", "TITLE": "2260", "REGION": "La Paz County", "ASSOCIATION": "USA - Arizona", "POINTS": "2", "BONUSPOINTS": "3"}}, {"type": "Feature", "geometry": {"type": "Point", "coordinates": [-113.9508, 34.1661]}, "properties": {"NAME": "W7A/PZ-090", "TITLE": "Squaw Peak", "REGION": "La Paz County", "ASSOCIATION": "USA - Arizona", "POINTS": "2", "BONUSPOINTS": "3"}}, {"type": "Feature", "geometry": {"type": "Point", "coordinates": [-113.5598, 33.4804]}, "properties": {"NAME": "W7A/PZ-091", "TITLE": "Fish Benchmark", "REGION": "La Paz County", "ASSOCIATION": "USA - Arizona", "POINTS": "2", "BONUSPOINTS": "3"}}, {"type": "Feature", "geometry": {"type": "Point", "coordinates": [-114.0881, 33.6995]}, "properties": {"NAME": "W7A/PZ-092", "TITLE": "2237", "REGION": "La Paz County", "ASSOCIATION": "USA - Arizona", "POINTS": "2", "BONUSPOINTS": "3"}}, {"type": "Feature", "geometry": {"type": "Point", "coordinates": [-114.3094, 33.2991]}, "properties": {"NAME": "W7A/PZ-093", "TITLE": "2220", "REGION": "La Paz County", "ASSOCIATION": "USA - Arizona", "POINTS": "2", "BONUSPOINTS": "3"}}, {"type": "Feature", "geometry": {"type": "Point", "coordinates": [-113.9097, 33.6674]}, "properties": {"NAME": "W7A/PZ-094", "TITLE": "Bear Hills", "REGION": "La Paz County", "ASSOCIATION": "USA - Arizona", "POINTS": "2", "BONUSPOINTS": "3"}}, {"type": "Feature", "geometry": {"type": "Point", "coordinates": [-113.8596, 34.1573]}, "properties": {"NAME": "W7A/PZ-095", "TITLE": "2180", "REGION": "La Paz County", "ASSOCIATION": "USA - Arizona", "POINTS": "2", "BONUSPOINTS": "3"}}, {"type": "Feature", "geometry": {"type": "Point", "coordinates": [-114.0915, 34.2604]}, "properties": {"NAME": "W7A/PZ-096", "TITLE": "Mesa, The", "REGION": "La Paz County", "ASSOCIATION": "USA - Arizona", "POINTS": "2", "BONUSPOINTS": "3"}}, {"type": "Feature", "geometry": {"type": "Point", "coordinates": [-114.2686, 33.2955]}, "properties": {"NAME": "W7A/PZ-097", "TITLE": "2171", "REGION": "La Paz County", "ASSOCIATION": "USA - Arizona", "POINTS": "2", "BONUSPOINTS": "3"}}, {"type": "Feature", "geometry": {"type": "Point", "coordinates": [-114.4192, 33.4668]}, "properties": {"NAME": "W7A/PZ-098", "TITLE": "North Trigo Peaks East", "REGION": "La Paz County", "ASSOCIATION": "USA - Arizona", "POINTS": "2", "BONUSPOINTS": "3"}}, {"type": "Feature", "geometry": {"type": "Point", "coordinates": [-114.3187, 33.5298]}, "properties": {"NAME": "W7A/PZ-099", "TITLE": "2168", "REGION": "La Paz County", "ASSOCIATION": "USA - Arizona", "POINTS": "2", "BONUSPOINTS": "3"}}, {"type": "Feature", "geometry": {"type": "Point", "coordinates": [-113.6373, 33.6282]}, "properties": {"NAME": "W7A/PZ-100", "TITLE": "2148", "REGION": "La Paz County", "ASSOCIATION": "USA - Arizona", "POINTS": "2", "BONUSPOINTS": "3"}}, {"type": "Feature", "geometry": {"type": "Point", "coordinates": [-113.6841, 33.6829]}, "properties": {"NAME": "W7A/PZ-101", "TITLE": "Pyramid Peak", "REGION": "La Paz County", "ASSOCIATION": "USA - Arizona", "POINTS": "2", "BONUSPOINTS": "3"}}, {"type": "Feature", "geometry": {"type": "Point", "coordinates": [-113.7172, 33.7009]}, "properties": {"NAME": "W7A/PZ-102", "TITLE": "2130", "REGION": "La Paz County", "ASSOCIATION": "USA - Arizona", "POINTS": "2", "BONUSPOINTS": "3"}}, {"type": "Feature", "geometry": {"type": "Point", "coordinates": [-113.4892, 33.5104]}, "properties": {"NAME": "W7A/PZ-103", "TITLE": "2127", "REGION": "La Paz County", "ASSOCIATION": "USA - Arizona", "POINTS": "2", "BONUSPOINTS": "3"}}, {"type": "Feature", "geometry": {"type": "Point", "coordinates": [-114.0983, 34.2132]}, "properties": {"NAME": "W7A/PZ-104", "TITLE": "Gibraltar Mountain Wilderness HP", "REGION": "La Paz County", "ASSOCIATION": "USA - Arizona", "POINTS": "2", "BONUSPOINTS": "3"}}, {"type": "Feature", "geometry": {"type": "Point", "coordinates": [-114.3004, 33.6861]}, "properties": {"NAME": "W7A/PZ-105", "TITLE": "Oldman Mountain", "REGION": "La Paz County", "ASSOCIATION": "USA - Arizona", "POINTS": "2", "BONUSPOINTS": "3"}}, {"type": "Feature", "geometry": {"type": "Point", "coordinates": [-113.5051, 33.4139]}, "properties": {"NAME": "W7A/PZ-106", "TITLE": "2089", "REGION": "La Paz County", "ASSOCIATION": "USA - Arizona", "POINTS": "2", "BONUSPOINTS": "3"}}, {"type": "Feature", "geometry": {"type": "Point", "coordinates": [-113.6724, 33.6757]}, "properties": {"NAME": "W7A/PZ-107", "TITLE": "2064", "REGION": "La Paz County", "ASSOCIATION": "USA - Arizona", "POINTS": "2", "BONUSPOINTS": "3"}}, {"type": "Feature", "geometry": {"type": "Point", "coordinates": [-114.3641, 33.6679]}, "properties": {"NAME": "W7A/PZ-108", "TITLE": "2059", "REGION": "La Paz County", "ASSOCIATION": "USA - Arizona", "POINTS": "2", "BONUSPOINTS": "3"}}, {"type": "Feature", "geometry": {"type": "Point", "coordinates": [-114.4549, 33.3882]}, "properties": {"NAME": "W7A/PZ-109", "TITLE": "2053", "REGION": "La Paz County", "ASSOCIATION": "USA - Arizona", "POINTS": "2", "BONUSPOINTS": "3"}}, {"type": "Feature", "geometry": {"type": "Point", "coordinates": [-114.2995, 33.3622]}, "properties": {"NAME": "W7A/PZ-110", "TITLE": "Felipe Benchmark", "REGION": "La Paz County", "ASSOCIATION": "USA - Arizona", "POINTS": "2", "BONUSPOINTS": "3"}}, {"type": "Feature", "geometry": {"type": "Point", "coordinates": [-114.1304, 33.5489]}, "properties": {"NAME": "W7A/PZ-111", "TITLE": "2046", "REGION": "La Paz County", "ASSOCIATION": "USA - Arizona", "POINTS": "2", "BONUSPOINTS": "3"}}, {"type": "Feature", "geometry": {"type": "Point", "coordinates": [-114.3099, 33.7023]}, "properties": {"NAME": "W7A/PZ-112", "TITLE": "2024", "REGION": "La Paz County", "ASSOCIATION": "USA - Arizona", "POINTS": "2", "BONUSPOINTS": "3"}}, {"type": "Feature", "geometry": {"type": "Point", "coordinates": [-114.5616, 33.2508]}, "properties": {"NAME": "W7A/PZ-113", "TITLE": "2020", "REGION": "La Paz County", "ASSOCIATION": "USA - Arizona", "POINTS": "2", "BONUSPOINTS": "3"}}, {"type": "Feature", "geometry": {"type": "Point", "coordinates": [-114.5338, 33.3461]}, "properties": {"NAME": "W7A/PZ-114", "TITLE": "2007", "REGION": "La Paz County", "ASSOCIATION": "USA - Arizona", "POINTS": "2", "BONUSPOINTS": "3"}}, {"type": "Feature", "geometry": {"type": "Point", "coordinates": [-114.1106, 34.1393]}, "properties": {"NAME": "W7A/PZ-115", "TITLE": "1983", "REGION": "La Paz County", "ASSOCIATION": "USA - Arizona", "POINTS": "1", "BONUSPOINTS": "3"}}, {"type": "Feature", "geometry": {"type": "Point", "coordinates": [-114.4435, 33.2226]}, "properties": {"NAME": "W7A/PZ-116", "TITLE": "Trip Mountain", "REGION": "La Paz County", "ASSOCIATION": "USA - Arizona", "POINTS": "1", "BONUSPOINTS": "3"}}, {"type": "Feature", "geometry": {"type": "Point", "coordinates": [-114.4577, 33.2346]}, "properties": {"NAME": "W7A/PZ-117", "TITLE": "1940", "REGION": "La Paz County", "ASSOCIATION": "USA - Arizona", "POINTS": "1", "BONUSPOINTS": "3"}}, {"type": "Feature", "geometry": {"type": "Point", "coordinates": [-114.4423, 33.3335]}, "properties": {"NAME": "W7A/PZ-118", "TITLE": "1932", "REGION": "La Paz County", "ASSOCIATION": "USA - Arizona", "POINTS": "1", "BONUSPOINTS": "3"}}, {"type": "Feature", "geometry": {"type": "Point", "coordinates": [-114.3425, 33.4605]}, "properties": {"NAME": "W7A/PZ-119", "TITLE": "1931", "REGION": "La Paz County", "ASSOCIATION": "USA - Arizona", "POINTS": "1", "BONUSPOINTS": "3"}}, {"type": "Feature", "geometry": {"type": "Point", "coordinates": [-114.5979, 33.2442]}, "properties": {"NAME": "W7A/PZ-120", "TITLE": "Trigo Mountain Wilderness HP", "REGION": "La Paz County", "ASSOCIATION": "USA - Arizona", "POINTS": "1", "BONUSPOINTS": "3"}}, {"type": "Feature", "geometry": {"type": "Point", "coordinates": [-114.3111, 33.627]}, "properties": {"NAME": "W7A/PZ-121", "TITLE": "1911", "REGION": "La Paz County", "ASSOCIATION": "USA - Arizona", "POINTS": "1", "BONUSPOINTS": "3"}}, {"type": "Feature", "geometry": {"type": "Point", "coordinates": [-114.1212, 34.2382]}, "properties": {"NAME": "W7A/PZ-122", "TITLE": "1908", "REGION": "La Paz County", "ASSOCIATION": "USA - Arizona", "POINTS": "1", "BONUSPOINTS": "3"}}, {"type": "Feature", "geometry": {"type": "Point", "coordinates": [-114.0864, 33.9119]}, "properties": {"NAME": "W7A/PZ-123", "TITLE": "Lamosa Benchmark", "REGION": "La Paz County", "ASSOCIATION": "USA - Arizona", "POINTS": "1", "BONUSPOINTS": "3"}}, {"type": "Feature", "geometry": {"type": "Point", "coordinates": [-114.1362, 34.235]}, "properties": {"NAME": "W7A/PZ-124", "TITLE": "Giers Mountain", "REGION": "La Paz County", "ASSOCIATION": "USA - Arizona", "POINTS": "1", "BONUSPOINTS": "3"}}, {"type": "Feature", "geometry": {"type": "Point", "coordinates": [-114.5262, 33.3342]}, "properties": {"NAME": "W7A/PZ-125", "TITLE": "1846", "REGION": "La Paz County", "ASSOCIATION": "USA - Arizona", "POINTS": "1", "BONUSPOINTS": "3"}}, {"type": "Feature", "geometry": {"type": "Point", "coordinates": [-114.4353, 33.4763]}, "properties": {"NAME": "W7A/PZ-126", "TITLE": "North Trigo Peaks West", "REGION": "La Paz County", "ASSOCIATION": "USA - Arizona", "POINTS": "1", "BONUSPOINTS": "3"}}, {"type": "Feature", "geometry": {"type": "Point", "coordinates": [-114.2843, 33.9917]}, "properties": {"NAME": "W7A/PZ-127", "TITLE": "Mesquite Mountain North", "REGION": "La Paz County", "ASSOCIATION": "USA - Arizona", "POINTS": "1", "BONUSPOINTS": "3"}}, {"type": "Feature", "geometry": {"type": "Point", "coordinates": [-114.5102, 33.3817]}, "properties": {"NAME": "W7A/PZ-128", "TITLE": "1783", "REGION": "La Paz County", "ASSOCIATION": "USA - Arizona", "POINTS": "1", "BONUSPOINTS": "3"}}, {"type": "Feature", "geometry": {"type": "Point", "coordinates": [-114.5295, 33.2992]}, "properties": {"NAME": "W7A/PZ-129", "TITLE": "1740", "REGION": "La Paz County", "ASSOCIATION": "USA - Arizona", "POINTS": "1", "BONUSPOINTS": "3"}}, {"type": "Feature", "geometry": {"type": "Point", "coordinates": [-114.528, 33.3269]}, "properties": {"NAME": "W7A/PZ-130", "TITLE": "1730", "REGION": "La Paz County", "ASSOCIATION": "USA - Arizona", "POINTS": "1", "BONUSPOINTS": "3"}}, {"type": "Feature", "geometry": {"type": "Point", "coordinates": [-114.3783, 33.6544]}, "properties": {"NAME": "W7A/PZ-131", "TITLE": "1712", "REGION": "La Paz County", "ASSOCIATION": "USA - Arizona", "POINTS": "1", "BONUSPOINTS": "3"}}, {"type": "Feature", "geometry": {"type": "Point", "coordinates": [-114.2509, 33.6473]}, "properties": {"NAME": "W7A/PZ-132", "TITLE": "Granite Mountain", "REGION": "La Paz County", "ASSOCIATION": "USA - Arizona", "POINTS": "1", "BONUSPOINTS": "3"}}, {"type": "Feature", "geometry": {"type": "Point", "coordinates": [-114.3064, 33.9749]}, "properties": {"NAME": "W7A/PZ-133", "TITLE": "Mesquite Mountain South", "REGION": "La Paz County", "ASSOCIATION": "USA - Arizona", "POINTS": "1", "BONUSPOINTS": "3"}}, {"type": "Feature", "geometry": {"type": "Point", "coordinates": [-114.5135, 33.3737]}, "properties": {"NAME": "W7A/PZ-134", "TITLE": "1673", "REGION": "La Paz County", "ASSOCIATION": "USA - Arizona", "POINTS": "1", "BONUSPOINTS": "3"}}, {"type": "Feature", "geometry": {"type": "Point", "coordinates": [-114.2113, 34.1246]}, "properties": {"NAME": "W7A/PZ-135", "TITLE": "Black Peak", "REGION": "La Paz County", "ASSOCIATION": "USA - Arizona", "POINTS": "1", "BONUSPOINTS": "3"}}, {"type": "Feature", "geometry": {"type": "Point", "coordinates": [-114.5714, 33.1552]}, "properties": {"NAME": "W7A/PZ-136", "TITLE": "1620", "REGION": "La Paz County", "ASSOCIATION": "USA - Arizona", "POINTS": "1", "BONUSPOINTS": "3"}}, {"type": "Feature", "geometry": {"type": "Point", "coordinates": [-114.555, 33.1694]}, "properties": {"NAME": "W7A/PZ-137", "TITLE": "1620", "REGION": "La Paz County", "ASSOCIATION": "USA - Arizona", "POINTS": "1", "BONUSPOINTS": "3"}}, {"type": "Feature", "geometry": {"type": "Point", "coordinates": [-114.3334, 33.7494]}, "properties": {"NAME": "W7A/PZ-138", "TITLE": "1540", "REGION": "La Paz County", "ASSOCIATION": "USA - Arizona", "POINTS": "1", "BONUSPOINTS": "3"}}, {"type": "Feature", "geometry": {"type": "Point", "coordinates": [-114.4315, 33.1554]}, "properties": {"NAME": "W7A/PZ-139", "TITLE": "Red Hill", "REGION": "La Paz County", "ASSOCIATION": "USA - Arizona", "POINTS": "1", "BONUSPOINTS": "3"}}, {"type": "Feature", "geometry": {"type": "Point", "coordinates": [-114.1849, 34.1292]}, "properties": {"NAME": "W7A/PZ-140", "TITLE": "1464", "REGION": "La Paz County", "ASSOCIATION": "USA - Arizona", "POINTS": "1", "BONUSPOINTS": "3"}}, {"type": "Feature", "geometry": {"type": "Point", "coordinates": [-114.5212, 33.1449]}, "properties": {"NAME": "W7A/PZ-141", "TITLE": "1455", "REGION": "La Paz County", "ASSOCIATION": "USA - Arizona", "POINTS": "1", "BONUSPOINTS": "3"}}, {"type": "Feature", "geometry": {"type": "Point", "coordinates": [-114.3812, 33.6954]}, "properties": {"NAME": "W7A/PZ-142", "TITLE": "1444", "REGION": "La Paz County", "ASSOCIATION": "USA - Arizona", "POINTS": "1", "BONUSPOINTS": "3"}}, {"type": "Feature", "geometry": {"type": "Point", "coordinates": [-114.3428, 33.8227]}, "properties": {"NAME": "W7A/PZ-143", "TITLE": "Valen Benchmark", "REGION": "La Paz County", "ASSOCIATION": "USA - Arizona", "POINTS": "1", "BONUSPOINTS": "3"}}, {"type": "Feature", "geometry": {"type": "Point", "coordinates": [-114.4211, 33.6936]}, "properties": {"NAME": "W7A/PZ-144", "TITLE": "La Paz Mountain", "REGION": "La Paz County", "ASSOCIATION": "USA - Arizona", "POINTS": "1", "BONUSPOINTS": "3"}}, {"type": "Feature", "geometry": {"type": "Point", "coordinates": [-114.5564, 33.0498]}, "properties": {"NAME": "W7A/PZ-145", "TITLE": "Peck Benchmark", "REGION": "La Paz County", "ASSOCIATION": "USA - Arizona", "POINTS": "1", "BONUSPOINTS": "3"}}, {"type": "Feature", "geometry": {"type": "Point", "coordinates": [-113.4067, 33.7826]}, "properties": {"NAME": "W7A/PZ-146", "TITLE": "4114", "REGION": "La Paz County", "ASSOCIATION": "USA - Arizona", "POINTS": "4", "BONUSPOINTS": "3"}}, {"type": "Feature", "geometry": {"type": "Point", "coordinates": [-113.3605, 33.4642]}, "properties": {"NAME": "W7A/PZ-147", "TITLE": "Courthouse Rock", "REGION": "La Paz County", "ASSOCIATION": "USA - Arizona", "POINTS": "2", "BONUSPOINTS": "3"}}, {"type": "Feature", "geometry": {"type": "Point", "coordinates": [-114.0695, 33.7186]}, "properties": {"NAME": "W7A/PZ-148", "TITLE": "2860", "REGION": "La Paz County", "ASSOCIATION": "USA - Arizona", "POINTS": "2", "BONUSPOINTS": "3"}}, {"type": "Feature", "geometry": {"type": "Point", "coordinates": [-113.3915, 33.4702]}, "properties": {"NAME": "W7A/PZ-149", "TITLE": "2750", "REGION": "La Paz County", "ASSOCIATION": "USA - Arizona", "POINTS": "2", "BONUSPOINTS": "3"}}, {"type": "Feature", "geometry": {"type": "Point", "coordinates": [-114.3185, 33.2492]}, "properties": {"NAME": "W7A/PZ-150", "TITLE": "2500", "REGION": "La Paz County", "ASSOCIATION": "USA - Arizona", "POINTS": "2", "BONUSPOINTS": "3"}}, {"type": "Feature", "geometry": {"type": "Point", "coordinates": [-114.0696, 33.7721]}, "properties": {"NAME": "W7A/PZ-151", "TITLE": "2260", "REGION": "La Paz County", "ASSOCIATION": "USA - Arizona", "POINTS": "2", "BONUSPOINTS": "3"}}, {"type": "Feature", "geometry": {"type": "Point", "coordinates": [-114.466, 33.366]}, "properties": {"NAME": "W7A/PZ-152", "TITLE": "1998", "REGION": "La Paz County", "ASSOCIATION": "USA - Arizona", "POINTS": "1", "BONUSPOINTS": "3"}}, {"type": "Feature", "geometry": {"type": "Point", "coordinates": [-114.3929, 33.6461]}, "properties": {"NAME": "W7A/PZ-153", "TITLE": "1523", "REGION": "La Paz County", "ASSOCIATION": "USA - Arizona", "POINTS": "1", "BONUSPOINTS": "3"}}]}