{"type": "FeatureCollection", "name": "W7A/GR SUMMITS", "features": [{"type": "Feature", "geometry": {"type": "Point", "coordinates": [-109.3482, 33.5926]}, "properties": {"NAME": "W7A/GR-001", "TITLE": "Mogollon Rim", "REGION": "Greelee County", "ASSOCIATION": "USA - Arizona", "POINTS": "10", "BONUSPOINTS": "3"}}, {"type": "Feature", "geometry": {"type": "Point", "coordinates": [-109.2602, 33.7663]}, "properties": {"NAME": "W7A/GR-002", "TITLE": "Middle Mountain", "REGION": "Greelee County", "ASSOCIATION": "USA - Arizona", "POINTS": "10", "BONUSPOINTS": "3"}}, {"type": "Feature", "geometry": {"type": "Point", "coordinates": [-109.1442, 33.5333]}, "properties": {"NAME": "W7A/GR-003", "TITLE": "Bear Mountain", "REGION": "Greelee County", "ASSOCIATION": "USA - Arizona", "POINTS": "10", "BONUSPOINTS": "3"}}, {"type": "Feature", "geometry": {"type": "Point", "coordinates": [-109.096, 33.7239]}, "properties": {"NAME": "W7A/GR-004", "TITLE": "8201", "REGION": "Greelee County", "ASSOCIATION": "USA - Arizona", "POINTS": "10", "BONUSPOINTS": "3"}}, {"type": "Feature", "geometry": {"type": "Point", "coordinates": [-109.2812, 33.4492]}, "properties": {"NAME": "W7A/GR-005", "TITLE": "Red Mountain", "REGION": "Greelee County", "ASSOCIATION": "USA - Arizona", "POINTS": "10", "BONUSPOINTS": "3"}}, {"type": "Feature", "geometry": {"type": "Point", "coordinates": [-109.1041, 33.307]}, "properties": {"NAME": "W7A/GR-006", "TITLE": "Coalson Peak", "REGION": "Greelee County", "ASSOCIATION": "USA - Arizona", "POINTS": "10", "BONUSPOINTS": "3"}}, {"type": "Feature", "geometry": {"type": "Point", "coordinates": [-109.3671, 33.2194]}, "properties": {"NAME": "W7A/GR-007", "TITLE": "Mitchell Peak", "REGION": "Greelee County", "ASSOCIATION": "USA - Arizona", "POINTS": "10", "BONUSPOINTS": "3"}}, {"type": "Feature", "geometry": {"type": "Point", "coordinates": [-109.1046, 33.4902]}, "properties": {"NAME": "W7A/GR-008", "TITLE": "Horse Mountain", "REGION": "Greelee County", "ASSOCIATION": "USA - Arizona", "POINTS": "10", "BONUSPOINTS": "3"}}, {"type": "Feature", "geometry": {"type": "Point", "coordinates": [-109.0797, 33.322]}, "properties": {"NAME": "W7A/GR-009", "TITLE": "Bullard Peak", "REGION": "Greelee County", "ASSOCIATION": "USA - Arizona", "POINTS": "10", "BONUSPOINTS": "3"}}, {"type": "Feature", "geometry": {"type": "Point", "coordinates": [-109.4076, 33.2295]}, "properties": {"NAME": "W7A/GR-010", "TITLE": "Grey Peak", "REGION": "Greelee County", "ASSOCIATION": "USA - Arizona", "POINTS": "10", "BONUSPOINTS": "3"}}, {"type": "Feature", "geometry": {"type": "Point", "coordinates": [-109.3991, 33.1323]}, "properties": {"NAME": "W7A/GR-011", "TITLE": "Coronado Mountain", "REGION": "Greelee County", "ASSOCIATION": "USA - Arizona", "POINTS": "10", "BONUSPOINTS": "3"}}, {"type": "Feature", "geometry": {"type": "Point", "coordinates": [-109.3913, 33.1751]}, "properties": {"NAME": "W7A/GR-012", "TITLE": "Enebro Mountain", "REGION": "Greelee County", "ASSOCIATION": "USA - Arizona", "POINTS": "10", "BONUSPOINTS": "3"}}, {"type": "Feature", "geometry": {"type": "Point", "coordinates": [-109.3226, 33.374]}, "properties": {"NAME": "W7A/GR-013", "TITLE": "Pipestem Mountain", "REGION": "Greelee County", "ASSOCIATION": "USA - Arizona", "POINTS": "8", "BONUSPOINTS": "3"}}, {"type": "Feature", "geometry": {"type": "Point", "coordinates": [-109.1131, 33.0791]}, "properties": {"NAME": "W7A/GR-014", "TITLE": "Big Lue Mountains HP", "REGION": "Greelee County", "ASSOCIATION": "USA - Arizona", "POINTS": "8", "BONUSPOINTS": "3"}}, {"type": "Feature", "geometry": {"type": "Point", "coordinates": [-109.1355, 33.0924]}, "properties": {"NAME": "W7A/GR-015", "TITLE": "Cold Spring Mountain", "REGION": "Greelee County", "ASSOCIATION": "USA - Arizona", "POINTS": "8", "BONUSPOINTS": "3"}}, {"type": "Feature", "geometry": {"type": "Point", "coordinates": [-109.2881, 33.4036]}, "properties": {"NAME": "W7A/GR-016", "TITLE": "7004", "REGION": "Greelee County", "ASSOCIATION": "USA - Arizona", "POINTS": "8", "BONUSPOINTS": "3"}}, {"type": "Feature", "geometry": {"type": "Point", "coordinates": [-109.3347, 33.1545]}, "properties": {"NAME": "W7A/GR-017", "TITLE": "Malpais Mountain", "REGION": "Greelee County", "ASSOCIATION": "USA - Arizona", "POINTS": "8", "BONUSPOINTS": "3"}}, {"type": "Feature", "geometry": {"type": "Point", "coordinates": [-109.2275, 33.1226]}, "properties": {"NAME": "W7A/GR-018", "TITLE": "Sunset Peak", "REGION": "Greelee County", "ASSOCIATION": "USA - Arizona", "POINTS": "8", "BONUSPOINTS": "3"}}, {"type": "Feature", "geometry": {"type": "Point", "coordinates": [-109.0776, 32.9978]}, "properties": {"NAME": "W7A/GR-019", "TITLE": "Hells Hole Peak", "REGION": "Greelee County", "ASSOCIATION": "USA - Arizona", "POINTS": "8", "BONUSPOINTS": "3"}}, {"type": "Feature", "geometry": {"type": "Point", "coordinates": [-109.3069, 33.186]}, "properties": {"NAME": "W7A/GR-020", "TITLE": "Walker Butte", "REGION": "Greelee County", "ASSOCIATION": "USA - Arizona", "POINTS": "8", "BONUSPOINTS": "3"}}, {"type": "Feature", "geometry": {"type": "Point", "coordinates": [-109.331, 33.1199]}, "properties": {"NAME": "W7A/GR-021", "TITLE": "Copper King Mountain", "REGION": "Greelee County", "ASSOCIATION": "USA - Arizona", "POINTS": "8", "BONUSPOINTS": "3"}}, {"type": "Feature", "geometry": {"type": "Point", "coordinates": [-109.2477, 33.3453]}, "properties": {"NAME": "W7A/GR-022", "TITLE": "6748", "REGION": "Greelee County", "ASSOCIATION": "USA - Arizona", "POINTS": "8", "BONUSPOINTS": "3"}}, {"type": "Feature", "geometry": {"type": "Point", "coordinates": [-109.2385, 33.375]}, "properties": {"NAME": "W7A/GR-023", "TITLE": "Alder Peak", "REGION": "Greelee County", "ASSOCIATION": "USA - Arizona", "POINTS": "8", "BONUSPOINTS": "3"}}, {"type": "Feature", "geometry": {"type": "Point", "coordinates": [-109.2423, 33.2486]}, "properties": {"NAME": "W7A/GR-024", "TITLE": "Pat Mountain", "REGION": "Greelee County", "ASSOCIATION": "USA - Arizona", "POINTS": "8", "BONUSPOINTS": "3"}}, {"type": "Feature", "geometry": {"type": "Point", "coordinates": [-109.1904, 33.1195]}, "properties": {"NAME": "W7A/GR-025", "TITLE": "Brushy Mountain", "REGION": "Greelee County", "ASSOCIATION": "USA - Arizona", "POINTS": "8", "BONUSPOINTS": "0"}}, {"type": "Feature", "geometry": {"type": "Point", "coordinates": [-109.2128, 33.151]}, "properties": {"NAME": "W7A/GR-026", "TITLE": "Bee Mesa", "REGION": "Greelee County", "ASSOCIATION": "USA - Arizona", "POINTS": "8", "BONUSPOINTS": "0"}}, {"type": "Feature", "geometry": {"type": "Point", "coordinates": [-109.1712, 33.4184]}, "properties": {"NAME": "W7A/GR-027", "TITLE": "6405", "REGION": "Greelee County", "ASSOCIATION": "USA - Arizona", "POINTS": "8", "BONUSPOINTS": "0"}}, {"type": "Feature", "geometry": {"type": "Point", "coordinates": [-109.0769, 33.1592]}, "properties": {"NAME": "W7A/GR-028", "TITLE": "Baldy Mountain", "REGION": "Greelee County", "ASSOCIATION": "USA - Arizona", "POINTS": "8", "BONUSPOINTS": "0"}}, {"type": "Feature", "geometry": {"type": "Point", "coordinates": [-109.2108, 33.114]}, "properties": {"NAME": "W7A/GR-029", "TITLE": "6310", "REGION": "Greelee County", "ASSOCIATION": "USA - Arizona", "POINTS": "8", "BONUSPOINTS": "0"}}, {"type": "Feature", "geometry": {"type": "Point", "coordinates": [-109.1396, 33.451]}, "properties": {"NAME": "W7A/GR-030", "TITLE": "6242", "REGION": "Greelee County", "ASSOCIATION": "USA - Arizona", "POINTS": "8", "BONUSPOINTS": "0"}}, {"type": "Feature", "geometry": {"type": "Point", "coordinates": [-109.1174, 33.4138]}, "properties": {"NAME": "W7A/GR-031", "TITLE": "6210", "REGION": "Greelee County", "ASSOCIATION": "USA - Arizona", "POINTS": "8", "BONUSPOINTS": "0"}}, {"type": "Feature", "geometry": {"type": "Point", "coordinates": [-109.1313, 33.4254]}, "properties": {"NAME": "W7A/GR-032", "TITLE": "6179", "REGION": "Greelee County", "ASSOCIATION": "USA - Arizona", "POINTS": "8", "BONUSPOINTS": "0"}}, {"type": "Feature", "geometry": {"type": "Point", "coordinates": [-109.4673, 33.2383]}, "properties": {"NAME": "W7A/GR-033", "TITLE": "Tule Benchmark", "REGION": "Greelee County", "ASSOCIATION": "USA - Arizona", "POINTS": "8", "BONUSPOINTS": "0"}}, {"type": "Feature", "geometry": {"type": "Point", "coordinates": [-109.4819, 33.0801]}, "properties": {"NAME": "W7A/GR-034", "TITLE": "6043", "REGION": "Greelee County", "ASSOCIATION": "USA - Arizona", "POINTS": "8", "BONUSPOINTS": "0"}}, {"type": "Feature", "geometry": {"type": "Point", "coordinates": [-109.1454, 33.0686]}, "properties": {"NAME": "W7A/GR-035", "TITLE": "White Peaks North", "REGION": "Greelee County", "ASSOCIATION": "USA - Arizona", "POINTS": "8", "BONUSPOINTS": "0"}}, {"type": "Feature", "geometry": {"type": "Point", "coordinates": [-109.1341, 33.0137]}, "properties": {"NAME": "W7A/GR-036", "TITLE": "5708", "REGION": "Greelee County", "ASSOCIATION": "USA - Arizona", "POINTS": "6", "BONUSPOINTS": "0"}}, {"type": "Feature", "geometry": {"type": "Point", "coordinates": [-109.2125, 32.6538]}, "properties": {"NAME": "W7A/GR-037", "TITLE": "5622", "REGION": "Greelee County", "ASSOCIATION": "USA - Arizona", "POINTS": "6", "BONUSPOINTS": "0"}}, {"type": "Feature", "geometry": {"type": "Point", "coordinates": [-109.062, 32.9395]}, "properties": {"NAME": "W7A/GR-038", "TITLE": "Twin Peaks West", "REGION": "Greelee County", "ASSOCIATION": "USA - Arizona", "POINTS": "6", "BONUSPOINTS": "0"}}, {"type": "Feature", "geometry": {"type": "Point", "coordinates": [-109.2659, 33.072]}, "properties": {"NAME": "W7A/GR-039", "TITLE": "Mulligan Peak", "REGION": "Greelee County", "ASSOCIATION": "USA - Arizona", "POINTS": "6", "BONUSPOINTS": "0"}}, {"type": "Feature", "geometry": {"type": "Point", "coordinates": [-109.262, 32.7516]}, "properties": {"NAME": "W7A/GR-040", "TITLE": "Ash Peak", "REGION": "Greelee County", "ASSOCIATION": "USA - Arizona", "POINTS": "6", "BONUSPOINTS": "0"}}, {"type": "Feature", "geometry": {"type": "Point", "coordinates": [-109.265, 32.8141]}, "properties": {"NAME": "W7A/GR-041", "TITLE": "5561", "REGION": "Greelee County", "ASSOCIATION": "USA - Arizona", "POINTS": "6", "BONUSPOINTS": "0"}}, {"type": "Feature", "geometry": {"type": "Point", "coordinates": [-109.1481, 32.4361]}, "properties": {"NAME": "W7A/GR-042", "TITLE": "Horsecamp Benchmark", "REGION": "Greelee County", "ASSOCIATION": "USA - Arizona", "POINTS": "6", "BONUSPOINTS": "0"}}, {"type": "Feature", "geometry": {"type": "Point", "coordinates": [-109.0753, 32.9605]}, "properties": {"NAME": "W7A/GR-043", "TITLE": "5460", "REGION": "Greelee County", "ASSOCIATION": "USA - Arizona", "POINTS": "6", "BONUSPOINTS": "0"}}, {"type": "Feature", "geometry": {"type": "Point", "coordinates": [-109.2004, 32.68]}, "properties": {"NAME": "W7A/GR-044", "TITLE": "Flat Top", "REGION": "Greelee County", "ASSOCIATION": "USA - Arizona", "POINTS": "6", "BONUSPOINTS": "0"}}, {"type": "Feature", "geometry": {"type": "Point", "coordinates": [-109.2482, 33.2822]}, "properties": {"NAME": "W7A/GR-045", "TITLE": "5392", "REGION": "Greelee County", "ASSOCIATION": "USA - Arizona", "POINTS": "6", "BONUSPOINTS": "0"}}, {"type": "Feature", "geometry": {"type": "Point", "coordinates": [-109.0519, 32.8551]}, "properties": {"NAME": "W7A/GR-046", "TITLE": "5319", "REGION": "Greelee County", "ASSOCIATION": "USA - Arizona", "POINTS": "6", "BONUSPOINTS": "0"}}, {"type": "Feature", "geometry": {"type": "Point", "coordinates": [-109.0948, 32.8664]}, "properties": {"NAME": "W7A/GR-047", "TITLE": "5144", "REGION": "Greelee County", "ASSOCIATION": "USA - Arizona", "POINTS": "6", "BONUSPOINTS": "0"}}, {"type": "Feature", "geometry": {"type": "Point", "coordinates": [-109.2698, 32.9392]}, "properties": {"NAME": "W7A/GR-048", "TITLE": "Guthrie Mountain", "REGION": "Greelee County", "ASSOCIATION": "USA - Arizona", "POINTS": "4", "BONUSPOINTS": "0"}}, {"type": "Feature", "geometry": {"type": "Point", "coordinates": [-109.1844, 32.7687]}, "properties": {"NAME": "W7A/GR-049", "TITLE": "4374", "REGION": "Greelee County", "ASSOCIATION": "USA - Arizona", "POINTS": "4", "BONUSPOINTS": "0"}}]}