{"type": "FeatureCollection", "name": "US-WI POTA PARKS", "features": [{"type": "Feature", "geometry": {"type": "Point", "coordinates": [-89.3973, 43.6898]}, "properties": {"NAME": "US-0598", "TITLE": "Fox River National Wildlife Refuge"}}, {"type": "Feature", "geometry": {"type": "Point", "coordinates": [-86.9548, 45.3085]}, "properties": {"NAME": "US-0600", "TITLE": "Green Bay National Wildlife Refuge"}}, {"type": "Feature", "geometry": {"type": "Point", "coordinates": [-88.6714, 43.633]}, "properties": {"NAME": "US-0601", "TITLE": "Horicon National Wildlife Refuge"}}, {"type": "Feature", "geometry": {"type": "Point", "coordinates": [-89.3062, 43.5616]}, "properties": {"NAME": "US-0602", "TITLE": "Leopold Wetland Management District"}}, {"type": "Feature", "geometry": {"type": "Point", "coordinates": [-90.1562, 44.026]}, "properties": {"NAME": "US-0603", "TITLE": "Necedah National Wildlife Refuge"}}, {"type": "Feature", "geometry": {"type": "Point", "coordinates": [-92.4776, 45.1056]}, "properties": {"NAME": "US-0604", "TITLE": "St. Croix Wetland Management District"}}, {"type": "Feature", "geometry": {"type": "Point", "coordinates": [-91.5157, 44.0529]}, "properties": {"NAME": "US-0605", "TITLE": "Trempealeau National Wildlife Refuge"}}, {"type": "Feature", "geometry": {"type": "Point", "coordinates": [-90.9551, 46.5979]}, "properties": {"NAME": "US-0606", "TITLE": "Whittlesey Creek National Wildlife Refuge"}}, {"type": "Feature", "geometry": {"type": "Point", "coordinates": [-92.4468, 46.0126]}, "properties": {"NAME": "US-0673", "TITLE": "Saint Croix National Wild and Scenic River"}}, {"type": "Feature", "geometry": {"type": "Point", "coordinates": [-91.0478, 46.8831]}, "properties": {"NAME": "US-0764", "TITLE": "Apostle Islands National Lakeshore"}}, {"type": "Feature", "geometry": {"type": "Point", "coordinates": [-91.8885, 46.6078]}, "properties": {"NAME": "US-1436", "TITLE": "Amnicon Falls State Park"}}, {"type": "Feature", "geometry": {"type": "Point", "coordinates": [-88.8643, 43.0646]}, "properties": {"NAME": "US-1437", "TITLE": "Aztalan State Park"}}, {"type": "Feature", "geometry": {"type": "Point", "coordinates": [-90.3493, 42.769]}, "properties": {"NAME": "US-1438", "TITLE": "Belmont Mound State Park"}}, {"type": "Feature", "geometry": {"type": "Point", "coordinates": [-90.6754, 46.7879]}, "properties": {"NAME": "US-1439", "TITLE": "Big Bay State Park"}}, {"type": "Feature", "geometry": {"type": "Point", "coordinates": [-88.4338, 42.566]}, "properties": {"NAME": "US-1440", "TITLE": "Big Foot Beach State Park"}}, {"type": "Feature", "geometry": {"type": "Point", "coordinates": [-89.8442, 43.0258]}, "properties": {"NAME": "US-1441", "TITLE": "Blue Mound State Park"}}, {"type": "Feature", "geometry": {"type": "Point", "coordinates": [-91.1616, 45.1815]}, "properties": {"NAME": "US-1442", "TITLE": "Brunet Island State Park"}}, {"type": "Feature", "geometry": {"type": "Point", "coordinates": [-90.0035, 43.946]}, "properties": {"NAME": "US-1443", "TITLE": "Buckhorn State Park"}}, {"type": "Feature", "geometry": {"type": "Point", "coordinates": [-88.3305, 43.6185]}, "properties": {"NAME": "US-1444", "TITLE": "Campbellsport Drumlin State Park"}}, {"type": "Feature", "geometry": {"type": "Point", "coordinates": [-87.8988, 44.8871]}, "properties": {"NAME": "US-1445", "TITLE": "Copper Culture State Park"}}, {"type": "Feature", "geometry": {"type": "Point", "coordinates": [-90.6452, 46.3525]}, "properties": {"NAME": "US-1446", "TITLE": "Copper Falls State Park"}}, {"type": "Feature", "geometry": {"type": "Point", "coordinates": [-89.7347, 45.187]}, "properties": {"NAME": "US-1447", "TITLE": "Council Grounds State Park"}}, {"type": "Feature", "geometry": {"type": "Point", "coordinates": [-89.6091, 43.0822]}, "properties": {"NAME": "US-1448", "TITLE": "Cross Plains State Park"}}, {"type": "Feature", "geometry": {"type": "Point", "coordinates": [-89.7308, 43.4287]}, "properties": {"NAME": "US-1449", "TITLE": "Devil's Lake State Park"}}, {"type": "Feature", "geometry": {"type": "Point", "coordinates": [-86.9238, 45.3301]}, "properties": {"NAME": "US-1450", "TITLE": "Grand Traverse Island State Park"}}, {"type": "Feature", "geometry": {"type": "Point", "coordinates": [-90.1203, 43.0119]}, "properties": {"NAME": "US-1451", "TITLE": "Governor Dodge State Park"}}, {"type": "Feature", "geometry": {"type": "Point", "coordinates": [-89.4347, 43.1332]}, "properties": {"NAME": "US-1452", "TITLE": "Governor Nelson State Park"}}, {"type": "Feature", "geometry": {"type": "Point", "coordinates": [-88.2218, 45.3233]}, "properties": {"NAME": "US-1453", "TITLE": "Governor Thompson State Park"}}, {"type": "Feature", "geometry": {"type": "Point", "coordinates": [-87.8047, 43.4935]}, "properties": {"NAME": "US-1454", "TITLE": "Harrington Beach State Park"}}, {"type": "Feature", "geometry": {"type": "Point", "coordinates": [-89.2139, 44.3294]}, "properties": {"NAME": "US-1455", "TITLE": "Hartman Creek State Park"}}, {"type": "Feature", "geometry": {"type": "Point", "coordinates": [-88.2912, 44.167]}, "properties": {"NAME": "US-1456", "TITLE": "High Cliff State Park"}}, {"type": "Feature", "geometry": {"type": "Point", "coordinates": [-92.7338, 44.835]}, "properties": {"NAME": "US-1457", "TITLE": "Kinnickinnic State Park"}}, {"type": "Feature", "geometry": {"type": "Point", "coordinates": [-87.7197, 43.665]}, "properties": {"NAME": "US-1458", "TITLE": "Kohler-Andrae State Park"}}, {"type": "Feature", "geometry": {"type": "Point", "coordinates": [-89.2327, 42.9733]}, "properties": {"NAME": "US-1459", "TITLE": "Lake Kegonsa State Park"}}, {"type": "Feature", "geometry": {"type": "Point", "coordinates": [-91.3108, 44.9799]}, "properties": {"NAME": "US-1460", "TITLE": "Lake Wissota State Park"}}, {"type": "Feature", "geometry": {"type": "Point", "coordinates": [-87.8949, 43.0312]}, "properties": {"NAME": "US-1461", "TITLE": "Lakeshore State Park"}}, {"type": "Feature", "geometry": {"type": "Point", "coordinates": [-91.76, 44.1579]}, "properties": {"NAME": "US-1462", "TITLE": "Merrick State Park"}}, {"type": "Feature", "geometry": {"type": "Point", "coordinates": [-90.3189, 43.9564]}, "properties": {"NAME": "US-1463", "TITLE": "Mill Bluff State Park"}}, {"type": "Feature", "geometry": {"type": "Point", "coordinates": [-89.8082, 43.575]}, "properties": {"NAME": "US-1464", "TITLE": "Mirror Lake State Park"}}, {"type": "Feature", "geometry": {"type": "Point", "coordinates": [-89.9323, 43.3463]}, "properties": {"NAME": "US-1465", "TITLE": "Natural Bridge State Park"}}, {"type": "Feature", "geometry": {"type": "Point", "coordinates": [-91.0175, 42.731]}, "properties": {"NAME": "US-1466", "TITLE": "Nelson Dewey State Park"}}, {"type": "Feature", "geometry": {"type": "Point", "coordinates": [-89.6341, 42.789]}, "properties": {"NAME": "US-1467", "TITLE": "New Glarus Woods State Park"}}, {"type": "Feature", "geometry": {"type": "Point", "coordinates": [-86.9988, 45.2346]}, "properties": {"NAME": "US-1468", "TITLE": "Newport State Park"}}, {"type": "Feature", "geometry": {"type": "Point", "coordinates": [-92.1197, 46.5369]}, "properties": {"NAME": "US-1469", "TITLE": "Pattison State Park"}}, {"type": "Feature", "geometry": {"type": "Point", "coordinates": [-87.2381, 45.1335]}, "properties": {"NAME": "US-1470", "TITLE": "Peninsula State Park"}}, {"type": "Feature", "geometry": {"type": "Point", "coordinates": [-91.4745, 44.0157]}, "properties": {"NAME": "US-1471", "TITLE": "Perrot State Park"}}, {"type": "Feature", "geometry": {"type": "Point", "coordinates": [-87.4253, 44.8519]}, "properties": {"NAME": "US-1472", "TITLE": "Potawatomi State Park"}}, {"type": "Feature", "geometry": {"type": "Point", "coordinates": [-89.6889, 44.921]}, "properties": {"NAME": "US-1473", "TITLE": "Rib Mountain State Park"}}, {"type": "Feature", "geometry": {"type": "Point", "coordinates": [-89.8132, 44.0011]}, "properties": {"NAME": "US-1474", "TITLE": "Roche-A-Cri State Park"}}, {"type": "Feature", "geometry": {"type": "Point", "coordinates": [-86.8291, 45.4093]}, "properties": {"NAME": "US-1475", "TITLE": "Rock Island State Park"}}, {"type": "Feature", "geometry": {"type": "Point", "coordinates": [-89.8058, 43.6419]}, "properties": {"NAME": "US-1476", "TITLE": "Rocky Arbor State Park"}}, {"type": "Feature", "geometry": {"type": "Point", "coordinates": [-92.4056, 45.6]}, "properties": {"NAME": "US-1477", "TITLE": "Straight Lake State Park"}}, {"type": "Feature", "geometry": {"type": "Point", "coordinates": [-90.048, 43.1472]}, "properties": {"NAME": "US-1478", "TITLE": "Tower Hill State Park"}}, {"type": "Feature", "geometry": {"type": "Point", "coordinates": [-87.1823, 44.9283]}, "properties": {"NAME": "US-1479", "TITLE": "Whitefish Dunes State Park"}}, {"type": "Feature", "geometry": {"type": "Point", "coordinates": [-90.5707, 43.7019]}, "properties": {"NAME": "US-1480", "TITLE": "Wildcat Mountain State Park"}}, {"type": "Feature", "geometry": {"type": "Point", "coordinates": [-92.6773, 45.0124]}, "properties": {"NAME": "US-1481", "TITLE": "Willow River State Park"}}, {"type": "Feature", "geometry": {"type": "Point", "coordinates": [-91.1138, 42.977]}, "properties": {"NAME": "US-1482", "TITLE": "Wyalusing State Park"}}, {"type": "Feature", "geometry": {"type": "Point", "coordinates": [-89.9854, 42.7708]}, "properties": {"NAME": "US-1483", "TITLE": "Yellowstone Lake State Park"}}, {"type": "Feature", "geometry": {"type": "Point", "coordinates": [-91.6333, 44.0523]}, "properties": {"NAME": "US-4236", "TITLE": "Upper Mississippi River National Wildlife Refuge"}}, {"type": "Feature", "geometry": {"type": "Point", "coordinates": [-89.2137, 44.3527]}, "properties": {"NAME": "US-4238", "TITLE": "Ice Age National Scenic Trail"}}, {"type": "Feature", "geometry": {"type": "Point", "coordinates": [-101.453, 47.5195]}, "properties": {"NAME": "US-4239", "TITLE": "North Country Trail National Scenic Trail"}}, {"type": "Feature", "geometry": {"type": "Point", "coordinates": [-90.6521, 42.5726]}, "properties": {"NAME": "US-4242", "TITLE": "Fenley State Recreation Area"}}, {"type": "Feature", "geometry": {"type": "Point", "coordinates": [-89.7243, 43.3696]}, "properties": {"NAME": "US-4243", "TITLE": "Sauk Prairie State Recreation Area"}}, {"type": "Feature", "geometry": {"type": "Point", "coordinates": [-90.6845, 46.8099]}, "properties": {"NAME": "US-4244", "TITLE": "Big Bay Sand Spit and Bog State Natural Area"}}, {"type": "Feature", "geometry": {"type": "Point", "coordinates": [-87.5448, 44.3274]}, "properties": {"NAME": "US-4245", "TITLE": "Two Creeks Buried Forest State Natural Area"}}, {"type": "Feature", "geometry": {"type": "Point", "coordinates": [-87.1934, 44.9257]}, "properties": {"NAME": "US-4246", "TITLE": "Whitefish Dunes State Natural Area"}}, {"type": "Feature", "geometry": {"type": "Point", "coordinates": [-88.0295, 44.4736]}, "properties": {"NAME": "US-4247", "TITLE": "Heritage Hill State Park"}}, {"type": "Feature", "geometry": {"type": "Point", "coordinates": [-88.1244, 44.3891]}, "properties": {"NAME": "US-4248", "TITLE": "Lost Dauphin State Park"}}, {"type": "Feature", "geometry": {"type": "Point", "coordinates": [-92.6531, 45.3882]}, "properties": {"NAME": "US-4249", "TITLE": "WI Interstate State Park"}}, {"type": "Feature", "geometry": {"type": "Point", "coordinates": [-89.3459, 43.0224]}, "properties": {"NAME": "US-4250", "TITLE": "Capitol Springs State Recreation Area"}}, {"type": "Feature", "geometry": {"type": "Point", "coordinates": [-91.0897, 46.3758]}, "properties": {"NAME": "US-4251", "TITLE": "Bibon Swamp State Natural Area"}}, {"type": "Feature", "geometry": {"type": "Point", "coordinates": [-91.7611, 46.4009]}, "properties": {"NAME": "US-4252", "TITLE": "Brule Glacial Spillway State Natural Area"}}, {"type": "Feature", "geometry": {"type": "Point", "coordinates": [-87.998, 43.4073]}, "properties": {"NAME": "US-4253", "TITLE": "Cedarburg Bog State Natural Area"}}, {"type": "Feature", "geometry": {"type": "Point", "coordinates": [-91.4602, 44.4841]}, "properties": {"NAME": "US-4254", "TITLE": "Chimney Rock Oak Savanna State Natural Area"}}, {"type": "Feature", "geometry": {"type": "Point", "coordinates": [-89.5677, 43.2735]}, "properties": {"NAME": "US-4255", "TITLE": "Lodi Marsh State Natural Area"}}, {"type": "Feature", "geometry": {"type": "Point", "coordinates": [-89.7664, 42.583]}, "properties": {"NAME": "US-4256", "TITLE": "Cadiz Springs State Recreation Area"}}, {"type": "Feature", "geometry": {"type": "Point", "coordinates": [-91.4132, 45.2235]}, "properties": {"NAME": "US-4257", "TITLE": "Chippewa Moraine State Recreation Area"}}, {"type": "Feature", "geometry": {"type": "Point", "coordinates": [-87.7199, 43.9389]}, "properties": {"NAME": "US-4258", "TITLE": "Fischer Creek State Recreation Area"}}, {"type": "Feature", "geometry": {"type": "Point", "coordinates": [-91.7827, 44.947]}, "properties": {"NAME": "US-4259", "TITLE": "Hoffman Hills State Recreation Area"}}, {"type": "Feature", "geometry": {"type": "Point", "coordinates": [-88.1659, 43.6651]}, "properties": {"NAME": "US-4260", "TITLE": "Long Lake State Recreation Area"}}, {"type": "Feature", "geometry": {"type": "Point", "coordinates": [-88.176, 43.5937]}, "properties": {"NAME": "US-4261", "TITLE": "Mauthe Lake State Recreation Area"}}, {"type": "Feature", "geometry": {"type": "Point", "coordinates": [-87.7895, 45.5848]}, "properties": {"NAME": "US-4262", "TITLE": "Pemene Falls Unit of Menominee River State Recreation Area"}}, {"type": "Feature", "geometry": {"type": "Point", "coordinates": [-87.9682, 45.7581]}, "properties": {"NAME": "US-4263", "TITLE": "Piers Gorge Unit of Menominee River State Recreation Area"}}, {"type": "Feature", "geometry": {"type": "Point", "coordinates": [-87.8236, 45.6563]}, "properties": {"NAME": "US-4264", "TITLE": "Quiver Falls Unit of Menominee River State Recreation Area"}}, {"type": "Feature", "geometry": {"type": "Point", "coordinates": [-88.1316, 42.6288]}, "properties": {"NAME": "US-4265", "TITLE": "Richard Bong State Recreation Area"}}, {"type": "Feature", "geometry": {"type": "Point", "coordinates": [-89.3858, 45.1466]}, "properties": {"NAME": "US-4266", "TITLE": "Ackley State Wildlife Area"}}, {"type": "Feature", "geometry": {"type": "Point", "coordinates": [-88.0553, 45.4781]}, "properties": {"NAME": "US-4267", "TITLE": "Amberg State Wildlife Area"}}, {"type": "Feature", "geometry": {"type": "Point", "coordinates": [-92.4779, 45.8119]}, "properties": {"NAME": "US-4268", "TITLE": "Amsterdam Sloughs State Wildlife Area"}}, {"type": "Feature", "geometry": {"type": "Point", "coordinates": [-91.1147, 44.7395]}, "properties": {"NAME": "US-4269", "TITLE": "Augusta State Wildlife Area"}}, {"type": "Feature", "geometry": {"type": "Point", "coordinates": [-92.463, 45.3599]}, "properties": {"NAME": "US-4270", "TITLE": "Balsam Branch State Wildlife Area"}}, {"type": "Feature", "geometry": {"type": "Point", "coordinates": [-91.8416, 45.7722]}, "properties": {"NAME": "US-4271", "TITLE": "Beaver Brook State Wildlife Area"}}, {"type": "Feature", "geometry": {"type": "Point", "coordinates": [-89.7916, 45.2908]}, "properties": {"NAME": "US-4272", "TITLE": "Bill Cross State Wildlife Area"}}, {"type": "Feature", "geometry": {"type": "Point", "coordinates": [-91.4875, 44.4566]}, "properties": {"NAME": "US-4273", "TITLE": "Borst Valley State Wildlife Area"}}, {"type": "Feature", "geometry": {"type": "Point", "coordinates": [-88.1044, 44.17]}, "properties": {"NAME": "US-4274", "TITLE": "Brillion State Wildlife Area"}}, {"type": "Feature", "geometry": {"type": "Point", "coordinates": [-91.2416, 46.0119]}, "properties": {"NAME": "US-4275", "TITLE": "Chief River State Wildlife Area"}}, {"type": "Feature", "geometry": {"type": "Point", "coordinates": [-91.4618, 44.4912]}, "properties": {"NAME": "US-4276", "TITLE": "Chimney Rock State Wildlife Area"}}, {"type": "Feature", "geometry": {"type": "Point", "coordinates": [-87.9681, 44.0841]}, "properties": {"NAME": "US-4277", "TITLE": "Collins Marsh State Wildlife Area"}}, {"type": "Feature", "geometry": {"type": "Point", "coordinates": [-92.6815, 45.8027]}, "properties": {"NAME": "US-4278", "TITLE": "Crex Meadows State Wildlife Area"}}, {"type": "Feature", "geometry": {"type": "Point", "coordinates": [-92.344, 45.183]}, "properties": {"NAME": "US-4279", "TITLE": "Cylon State Wildlife Area"}}, {"type": "Feature", "geometry": {"type": "Point", "coordinates": [-88.6369, 44.576]}, "properties": {"NAME": "US-4280", "TITLE": "Deer Creek State Wildlife Area"}}, {"type": "Feature", "geometry": {"type": "Point", "coordinates": [-89.9137, 43.6159]}, "properties": {"NAME": "US-4281", "TITLE": "Dell Creek State Wildlife Area"}}, {"type": "Feature", "geometry": {"type": "Point", "coordinates": [-91.8376, 46.3168]}, "properties": {"NAME": "US-4282", "TITLE": "Douglas County State Wildlife Area"}}, {"type": "Feature", "geometry": {"type": "Point", "coordinates": [-91.8702, 44.7081]}, "properties": {"NAME": "US-4283", "TITLE": "Dunnville State Wildlife Area"}}, {"type": "Feature", "geometry": {"type": "Point", "coordinates": [-88.5816, 43.819]}, "properties": {"NAME": "US-4284", "TITLE": "Eldorado State Wildlife Area"}}, {"type": "Feature", "geometry": {"type": "Point", "coordinates": [-92.7818, 45.7315]}, "properties": {"NAME": "US-4285", "TITLE": "Fish Lake State Wildlife Area"}}, {"type": "Feature", "geometry": {"type": "Point", "coordinates": [-89.3935, 43.627]}, "properties": {"NAME": "US-4286", "TITLE": "French Creek State Wildlife Area"}}, {"type": "Feature", "geometry": {"type": "Point", "coordinates": [-87.5998, 44.8008]}, "properties": {"NAME": "US-4287", "TITLE": "Gardner Swamp State Wildlife Area"}}, {"type": "Feature", "geometry": {"type": "Point", "coordinates": [-89.2747, 43.9051]}, "properties": {"NAME": "US-4288", "TITLE": "Germania Marsh State Wildlife Area"}}, {"type": "Feature", "geometry": {"type": "Point", "coordinates": [-89.047, 43.093]}, "properties": {"NAME": "US-4289", "TITLE": "Goose Lake State Wildlife Area"}}, {"type": "Feature", "geometry": {"type": "Point", "coordinates": [-89.2073, 43.7263]}, "properties": {"NAME": "US-4290", "TITLE": "Grand River Marsh State Wildlife Area"}}, {"type": "Feature", "geometry": {"type": "Point", "coordinates": [-88.0163, 44.5915]}, "properties": {"NAME": "US-4291", "TITLE": "Green Bay West Shores State Wildlife Area"}}, {"type": "Feature", "geometry": {"type": "Point", "coordinates": [-90.2414, 46.0128]}, "properties": {"NAME": "US-4292", "TITLE": "Hay Creek-Hoffman Lake State Wildlife Area"}}, {"type": "Feature", "geometry": {"type": "Point", "coordinates": [-88.0503, 44.2986]}, "properties": {"NAME": "US-4293", "TITLE": "Holland State Wildlife Area"}}, {"type": "Feature", "geometry": {"type": "Point", "coordinates": [-88.5918, 43.5052]}, "properties": {"NAME": "US-4294", "TITLE": "Horicon Marsh State Wildlife Area"}}, {"type": "Feature", "geometry": {"type": "Point", "coordinates": [-92.2596, 45.3949]}, "properties": {"NAME": "US-4295", "TITLE": "Joel Marsh State Wildlife Area"}}, {"type": "Feature", "geometry": {"type": "Point", "coordinates": [-90.8222, 43.2806]}, "properties": {"NAME": "US-4296", "TITLE": "Kickapoo River State Wildlife Area"}}, {"type": "Feature", "geometry": {"type": "Point", "coordinates": [-88.042, 43.9059]}, "properties": {"NAME": "US-4297", "TITLE": "Kiel Marsh State Wildlife Area"}}, {"type": "Feature", "geometry": {"type": "Point", "coordinates": [-88.0625, 44.0263]}, "properties": {"NAME": "US-4298", "TITLE": "Killsnake State Wildlife Area"}}, {"type": "Feature", "geometry": {"type": "Point", "coordinates": [-90.6045, 45.7406]}, "properties": {"NAME": "US-4299", "TITLE": "Kimberly Clark State Wildlife Area"}}, {"type": "Feature", "geometry": {"type": "Point", "coordinates": [-91.5357, 46.0408]}, "properties": {"NAME": "US-4300", "TITLE": "Kissick Swamp State Wildlife Area"}}, {"type": "Feature", "geometry": {"type": "Point", "coordinates": [-87.8418, 45.2582]}, "properties": {"NAME": "US-4301", "TITLE": "Lake Noquebay State Wildlife Area"}}, {"type": "Feature", "geometry": {"type": "Point", "coordinates": [-89.5927, 43.8963]}, "properties": {"NAME": "US-4302", "TITLE": "Lawrence Creek State Fish and Wildlife Area"}}, {"type": "Feature", "geometry": {"type": "Point", "coordinates": [-88.9789, 45.6197]}, "properties": {"NAME": "US-4303", "TITLE": "Little Rice State Wildlife Area"}}, {"type": "Feature", "geometry": {"type": "Point", "coordinates": [-89.547, 43.2824]}, "properties": {"NAME": "US-4304", "TITLE": "Lodi Marsh State Wildlife Area"}}, {"type": "Feature", "geometry": {"type": "Point", "coordinates": [-92.0877, 45.4787]}, "properties": {"NAME": "US-4305", "TITLE": "Loon Lake State Wildlife Area"}}, {"type": "Feature", "geometry": {"type": "Point", "coordinates": [-88.5145, 44.4631]}, "properties": {"NAME": "US-4306", "TITLE": "Mack State Wildlife Area"}}, {"type": "Feature", "geometry": {"type": "Point", "coordinates": [-88.5318, 44.5396]}, "properties": {"NAME": "US-4307", "TITLE": "Maine State Wildlife Area"}}, {"type": "Feature", "geometry": {"type": "Point", "coordinates": [-92.2969, 45.5971]}, "properties": {"NAME": "US-4308", "TITLE": "McKenzie Creek State Wildlife Area"}}, {"type": "Feature", "geometry": {"type": "Point", "coordinates": [-90.1852, 44.7034]}, "properties": {"NAME": "US-4309", "TITLE": "McMillan Marsh State Wildlife Area"}}, {"type": "Feature", "geometry": {"type": "Point", "coordinates": [-89.8592, 44.7208]}, "properties": {"NAME": "US-4310", "TITLE": "Mead State Wildlife Area"}}, {"type": "Feature", "geometry": {"type": "Point", "coordinates": [-90.2212, 44.2166]}, "properties": {"NAME": "US-4311", "TITLE": "Meadow Valley State Wildlife Area"}}, {"type": "Feature", "geometry": {"type": "Point", "coordinates": [-87.0865, 45.1128]}, "properties": {"NAME": "US-4312", "TITLE": "Mud Lake State Wildlife Area"}}, {"type": "Feature", "geometry": {"type": "Point", "coordinates": [-91.7526, 44.8865]}, "properties": {"NAME": "US-4313", "TITLE": "Muddy Creek State Wildlife Area"}}, {"type": "Feature", "geometry": {"type": "Point", "coordinates": [-88.787, 44.3981]}, "properties": {"NAME": "US-4314", "TITLE": "Mukwa State Wildlife Area"}}, {"type": "Feature", "geometry": {"type": "Point", "coordinates": [-88.1712, 43.7564]}, "properties": {"NAME": "US-4315", "TITLE": "Mullet Creek State Wildlife Area"}}, {"type": "Feature", "geometry": {"type": "Point", "coordinates": [-88.5813, 44.6567]}, "properties": {"NAME": "US-4316", "TITLE": "Navarino State Wildlife Area"}}, {"type": "Feature", "geometry": {"type": "Point", "coordinates": [-91.583, 45.2302]}, "properties": {"NAME": "US-4317", "TITLE": "New Auburn State Wildlife Area"}}, {"type": "Feature", "geometry": {"type": "Point", "coordinates": [-89.9259, 45.2991]}, "properties": {"NAME": "US-4318", "TITLE": "New Wood State Wildlife Area"}}, {"type": "Feature", "geometry": {"type": "Point", "coordinates": [-90.8234, 45.2346]}, "properties": {"NAME": "US-4319", "TITLE": "Pershing State Wildlife Area"}}, {"type": "Feature", "geometry": {"type": "Point", "coordinates": [-88.3424, 45.0844]}, "properties": {"NAME": "US-4320", "TITLE": "Peshtigo Brook State Wildlife Area"}}, {"type": "Feature", "geometry": {"type": "Point", "coordinates": [-89.0611, 45.2776]}, "properties": {"NAME": "US-4321", "TITLE": "Peters Marsh State Wildlife Area"}}, {"type": "Feature", "geometry": {"type": "Point", "coordinates": [-89.5825, 43.5424]}, "properties": {"NAME": "US-4322", "TITLE": "Pine Island State Wildlife Area"}}, {"type": "Feature", "geometry": {"type": "Point", "coordinates": [-91.3911, 45.3403]}, "properties": {"NAME": "US-4323", "TITLE": "Potato Creek State Wildlife Area"}}, {"type": "Feature", "geometry": {"type": "Point", "coordinates": [-89.9006, 46.0939]}, "properties": {"NAME": "US-4324", "TITLE": "Powell Marsh State Wildlife Area"}}, {"type": "Feature", "geometry": {"type": "Point", "coordinates": [-88.9208, 44.1022]}, "properties": {"NAME": "US-4325", "TITLE": "Poygan Marsh State Wildlife Area"}}, {"type": "Feature", "geometry": {"type": "Point", "coordinates": [-88.6461, 44.2359]}, "properties": {"NAME": "US-4326", "TITLE": "Rat River State Wildlife Area"}}, {"type": "Feature", "geometry": {"type": "Point", "coordinates": [-92.2289, 45.4964]}, "properties": {"NAME": "US-4327", "TITLE": "Rice Beds Creek State Wildlife Area"}}, {"type": "Feature", "geometry": {"type": "Point", "coordinates": [-90.1312, 44.3075]}, "properties": {"NAME": "US-4328", "TITLE": "Sandhill State Wildlife Area"}}, {"type": "Feature", "geometry": {"type": "Point", "coordinates": [-88.1014, 43.8176]}, "properties": {"NAME": "US-4329", "TITLE": "Sheboygan Marsh State Wildlife Area"}}, {"type": "Feature", "geometry": {"type": "Point", "coordinates": [-90.4711, 45.5939]}, "properties": {"NAME": "US-4330", "TITLE": "Spring Creek State Wildlife Area"}}, {"type": "Feature", "geometry": {"type": "Point", "coordinates": [-89.4246, 43.5407]}, "properties": {"NAME": "US-4331", "TITLE": "Swan Lake State Wildlife Area"}}, {"type": "Feature", "geometry": {"type": "Point", "coordinates": [-88.425, 43.5217]}, "properties": {"NAME": "US-4332", "TITLE": "Theresa Marsh State Wildlife Area"}}, {"type": "Feature", "geometry": {"type": "Point", "coordinates": [-89.188, 45.8139]}, "properties": {"NAME": "US-4333", "TITLE": "Thunder Lake State Wildlife Area"}}, {"type": "Feature", "geometry": {"type": "Point", "coordinates": [-91.2355, 45.0195]}, "properties": {"NAME": "US-4334", "TITLE": "Tom Lawin State Wildlife Area"}}, {"type": "Feature", "geometry": {"type": "Point", "coordinates": [-91.3916, 46.1632]}, "properties": {"NAME": "US-4335", "TITLE": "Totagatic Lake State Wildlife Area"}}, {"type": "Feature", "geometry": {"type": "Point", "coordinates": [-91.5165, 46.0998]}, "properties": {"NAME": "US-4336", "TITLE": "Totogatic State Wildlife Area"}}, {"type": "Feature", "geometry": {"type": "Point", "coordinates": [-90.0841, 46.3032]}, "properties": {"NAME": "US-4337", "TITLE": "Underwood State Wildlife Area"}}, {"type": "Feature", "geometry": {"type": "Point", "coordinates": [-91.2289, 45.3331]}, "properties": {"NAME": "US-4338", "TITLE": "Washington Creek State Wildlife Area"}}, {"type": "Feature", "geometry": {"type": "Point", "coordinates": [-89.5309, 43.1912]}, "properties": {"NAME": "US-4339", "TITLE": "Waunakee Marsh State Wildlife Area"}}, {"type": "Feature", "geometry": {"type": "Point", "coordinates": [-91.2633, 45.7117]}, "properties": {"NAME": "US-4340", "TITLE": "Weirgor Springs State Wildlife Area"}}, {"type": "Feature", "geometry": {"type": "Point", "coordinates": [-89.0943, 43.9385]}, "properties": {"NAME": "US-4341", "TITLE": "White River Marsh State Wildlife Area"}}, {"type": "Feature", "geometry": {"type": "Point", "coordinates": [-88.5932, 44.5245]}, "properties": {"NAME": "US-4342", "TITLE": "Herb Behnke Unit of Wolf River Bottoms State Wildlife Area"}}, {"type": "Feature", "geometry": {"type": "Point", "coordinates": [-88.6101, 44.3814]}, "properties": {"NAME": "US-4343", "TITLE": "LaSage Unit of Wolf River Bottoms State Wildlife Area"}}, {"type": "Feature", "geometry": {"type": "Point", "coordinates": [-88.8109, 44.2274]}, "properties": {"NAME": "US-4344", "TITLE": "Wolf River State Wildlife Area"}}, {"type": "Feature", "geometry": {"type": "Point", "coordinates": [-89.6515, 45.6155]}, "properties": {"NAME": "US-4345", "TITLE": "Woodboro Lakes State Wildlife Area"}}, {"type": "Feature", "geometry": {"type": "Point", "coordinates": [-90.023, 43.9485]}, "properties": {"NAME": "US-4346", "TITLE": "Yellow River State Wildlife Area"}}, {"type": "Feature", "geometry": {"type": "Point", "coordinates": [-89.9986, 42.7802]}, "properties": {"NAME": "US-4347", "TITLE": "Yellowstone State Wildlife Area"}}, {"type": "Feature", "geometry": {"type": "Point", "coordinates": [-90.6727, 44.3348]}, "properties": {"NAME": "US-4348", "TITLE": "Black River State Forest"}}, {"type": "Feature", "geometry": {"type": "Point", "coordinates": [-90.7491, 45.7682]}, "properties": {"NAME": "US-4349", "TITLE": "Flambeau River State Forest"}}, {"type": "Feature", "geometry": {"type": "Point", "coordinates": [-92.7763, 45.7729]}, "properties": {"NAME": "US-4350", "TITLE": "Governor Knowles State Forest"}}, {"type": "Feature", "geometry": {"type": "Point", "coordinates": [-88.0889, 43.696]}, "properties": {"NAME": "US-4352", "TITLE": "Kettle Moraine State Forest"}}, {"type": "Feature", "geometry": {"type": "Point", "coordinates": [-87.5102, 44.2115]}, "properties": {"NAME": "US-4354", "TITLE": "Point Beach State Forest"}}, {"type": "Feature", "geometry": {"type": "Point", "coordinates": [-90.9113, 46.1748]}, "properties": {"NAME": "US-4533", "TITLE": "Chequamegon-Nicolet National Forest"}}, {"type": "Feature", "geometry": {"type": "Point", "coordinates": [-91.5935, 46.5371]}, "properties": {"NAME": "US-5577", "TITLE": "Brule River State Forest"}}, {"type": "Feature", "geometry": {"type": "Point", "coordinates": [-91.0237, 43.8606]}, "properties": {"NAME": "US-5578", "TITLE": "Coulee Experimental State Forest"}}, {"type": "Feature", "geometry": {"type": "Point", "coordinates": [-87.9694, 43.1287]}, "properties": {"NAME": "US-5579", "TITLE": "Havenwoods State Forest"}}, {"type": "Feature", "geometry": {"type": "Point", "coordinates": [-88.1935, 45.287]}, "properties": {"NAME": "US-5580", "TITLE": "Governor Earl Peshtigo River State Forest"}}, {"type": "Feature", "geometry": {"type": "Point", "coordinates": [-90.3425, 43.1997]}, "properties": {"NAME": "US-5643", "TITLE": "Lower Wisconsin State Riverway State Park"}}, {"type": "Feature", "geometry": {"type": "Point", "coordinates": [-89.6501, 45.8653]}, "properties": {"NAME": "US-7260", "TITLE": "Northern Highland American Legion State Forest"}}, {"type": "Feature", "geometry": {"type": "Point", "coordinates": [-87.1725, 45.055]}, "properties": {"NAME": "US-8205", "TITLE": "Kangaroo Lake State Natural Area"}}, {"type": "Feature", "geometry": {"type": "Point", "coordinates": [-87.1667, 45.0045]}, "properties": {"NAME": "US-8206", "TITLE": "Meridian Park State Natural Area"}}, {"type": "Feature", "geometry": {"type": "Point", "coordinates": [-88.8232, 43.4115]}, "properties": {"NAME": "US-8208", "TITLE": "Shaw Marsh State Wildlife Area"}}, {"type": "Feature", "geometry": {"type": "Point", "coordinates": [-89.5502, 44.6569]}, "properties": {"NAME": "US-8209", "TITLE": "Dewey Marsh State Natural Area"}}, {"type": "Feature", "geometry": {"type": "Point", "coordinates": [-91.2016, 46.8496]}, "properties": {"NAME": "US-8210", "TITLE": "Bark Bay Slough State Natural Area"}}, {"type": "Feature", "geometry": {"type": "Point", "coordinates": [-91.7283, 46.7151]}, "properties": {"NAME": "US-8211", "TITLE": "Bear Beach State Natural Area"}}, {"type": "Feature", "geometry": {"type": "Point", "coordinates": [-92.165, 46.3625]}, "properties": {"NAME": "US-8213", "TITLE": "Belden Swamp State Natural Area"}}, {"type": "Feature", "geometry": {"type": "Point", "coordinates": [-92.0685, 46.3223]}, "properties": {"NAME": "US-8214", "TITLE": "Empire Swamp State Natural Area"}}, {"type": "Feature", "geometry": {"type": "Point", "coordinates": [-92.0277, 46.4545]}, "properties": {"NAME": "US-8215", "TITLE": "Ericson Creek Forest and Wetlands State Natural Area"}}, {"type": "Feature", "geometry": {"type": "Point", "coordinates": [-92.6825, 45.349]}, "properties": {"NAME": "US-8216", "TITLE": "Osceola Bedrock Glades State Natural Area"}}, {"type": "Feature", "geometry": {"type": "Point", "coordinates": [-92.4103, 45.0499]}, "properties": {"NAME": "US-8217", "TITLE": "Casey Lake State Wildlife Area"}}, {"type": "Feature", "geometry": {"type": "Point", "coordinates": [-88.6818, 44.3893]}, "properties": {"NAME": "US-8218", "TITLE": "Hortonville Bog State Natural Area"}}, {"type": "Feature", "geometry": {"type": "Point", "coordinates": [-88.1223, 43.3367]}, "properties": {"NAME": "US-8219", "TITLE": "Jackson Marsh State Natural Area"}}, {"type": "Feature", "geometry": {"type": "Point", "coordinates": [-90.1739, 46.0729]}, "properties": {"NAME": "US-8220", "TITLE": "Turtle Flambeau Flowage State Wilderness Area"}}, {"type": "Feature", "geometry": {"type": "Point", "coordinates": [-91.6746, 44.7515]}, "properties": {"NAME": "US-8221", "TITLE": "Chippewa River State Trail"}}, {"type": "Feature", "geometry": {"type": "Point", "coordinates": [-91.935, 44.7747]}, "properties": {"NAME": "US-8222", "TITLE": "Red Cedar State Trail"}}, {"type": "Feature", "geometry": {"type": "Point", "coordinates": [-91.3414, 44.9846]}, "properties": {"NAME": "US-8223", "TITLE": "Old Abe State Trail"}}, {"type": "Feature", "geometry": {"type": "Point", "coordinates": [-91.6753, 44.7577]}, "properties": {"NAME": "US-8224", "TITLE": "Lower Chippewa River State Natural Area"}}, {"type": "Feature", "geometry": {"type": "Point", "coordinates": [-89.2764, 42.88]}, "properties": {"NAME": "US-8225", "TITLE": "Badfish Creek State Wildlife Area"}}, {"type": "Feature", "geometry": {"type": "Point", "coordinates": [-89.6004, 43.343]}, "properties": {"NAME": "US-8363", "TITLE": "Gibraltar Rock State Natural Area"}}, {"type": "Feature", "geometry": {"type": "Point", "coordinates": [-88.1716, 43.614]}, "properties": {"NAME": "US-8667", "TITLE": "Haskell Noyes Memorial Woods State Natural Area"}}, {"type": "Feature", "geometry": {"type": "Point", "coordinates": [-88.9401, 43.163]}, "properties": {"NAME": "US-8668", "TITLE": "Waterloo Prairie State Natural Area"}}, {"type": "Feature", "geometry": {"type": "Point", "coordinates": [-88.507, 42.9027]}, "properties": {"NAME": "US-8669", "TITLE": "Scuppernong Prairie State Natural Area"}}, {"type": "Feature", "geometry": {"type": "Point", "coordinates": [-88.3205, 42.9023]}, "properties": {"NAME": "US-8670", "TITLE": "Vernon State Wildlife Area"}}, {"type": "Feature", "geometry": {"type": "Point", "coordinates": [-88.2431, 42.8009]}, "properties": {"NAME": "US-8671", "TITLE": "Tichigan State Wildlife Area"}}, {"type": "Feature", "geometry": {"type": "Point", "coordinates": [-91.2583, 43.9277]}, "properties": {"NAME": "US-8672", "TITLE": "Great River State Trail"}}, {"type": "Feature", "geometry": {"type": "Point", "coordinates": [-90.9859, 43.8896]}, "properties": {"NAME": "US-8673", "TITLE": "La Crosse River State Trail"}}, {"type": "Feature", "geometry": {"type": "Point", "coordinates": [-88.1398, 43.4647]}, "properties": {"NAME": "US-9704", "TITLE": "Lizard Mound State Park"}}, {"type": "Feature", "geometry": {"type": "Point", "coordinates": [-90.2123, 43.6402]}, "properties": {"NAME": "US-9762", "TITLE": "400 State Trail"}}, {"type": "Feature", "geometry": {"type": "Point", "coordinates": [-89.4819, 42.9431]}, "properties": {"NAME": "US-9766", "TITLE": "Badger State Trail"}}, {"type": "Feature", "geometry": {"type": "Point", "coordinates": [-89.7016, 45.6368]}, "properties": {"NAME": "US-9768", "TITLE": "Bearskin State Trail"}}, {"type": "Feature", "geometry": {"type": "Point", "coordinates": [-91.129, 44.5863]}, "properties": {"NAME": "US-9771", "TITLE": "Buffalo River State Trail"}}, {"type": "Feature", "geometry": {"type": "Point", "coordinates": [-89.3959, 43.0193]}, "properties": {"NAME": "US-9773", "TITLE": "Capital City State Trail"}}, {"type": "Feature", "geometry": {"type": "Point", "coordinates": [-87.7197, 44.204]}, "properties": {"NAME": "US-9778", "TITLE": "Devilâ€™s River State Trail"}}, {"type": "Feature", "geometry": {"type": "Point", "coordinates": [-90.6213, 43.8332]}, "properties": {"NAME": "US-9783", "TITLE": "Elroy-Sparta State Trail"}}, {"type": "Feature", "geometry": {"type": "Point", "coordinates": [-88.0612, 44.4464]}, "properties": {"NAME": "US-9785", "TITLE": "Fox River State Trail"}}, {"type": "Feature", "geometry": {"type": "Point", "coordinates": [-92.2477, 46.4806]}, "properties": {"NAME": "US-9790", "TITLE": "Gandy Dancer State Trail"}}, {"type": "Feature", "geometry": {"type": "Point", "coordinates": [-88.8068, 43.0367]}, "properties": {"NAME": "US-9792", "TITLE": "Glacial Drumlin State Trail"}}, {"type": "Feature", "geometry": {"type": "Point", "coordinates": [-89.7406, 43.351]}, "properties": {"NAME": "US-9794", "TITLE": "Great Sauk State Trail"}}, {"type": "Feature", "geometry": {"type": "Point", "coordinates": [-89.5492, 44.5551]}, "properties": {"NAME": "US-9796", "TITLE": "Green Circle State Trail"}}, {"type": "Feature", "geometry": {"type": "Point", "coordinates": [-87.8968, 43.026]}, "properties": {"NAME": "US-9800", "TITLE": "Hank Aaron State Trail"}}, {"type": "Feature", "geometry": {"type": "Point", "coordinates": [-89.6227, 43.024]}, "properties": {"NAME": "US-9804", "TITLE": "Military Ridge State Trail"}}, {"type": "Feature", "geometry": {"type": "Point", "coordinates": [-90.4619, 42.7336]}, "properties": {"NAME": "US-9805", "TITLE": "Mound View State Trail"}}, {"type": "Feature", "geometry": {"type": "Point", "coordinates": [-88.0644, 44.5654]}, "properties": {"NAME": "US-9806", "TITLE": "Mountain-Bay State Trail"}}, {"type": "Feature", "geometry": {"type": "Point", "coordinates": [-88.4505, 44.4756]}, "properties": {"NAME": "US-9807", "TITLE": "Newton Blackmour State Trail"}}, {"type": "Feature", "geometry": {"type": "Point", "coordinates": [-88.0425, 44.8841]}, "properties": {"NAME": "US-9809", "TITLE": "Oconto River State Trail"}}, {"type": "Feature", "geometry": {"type": "Point", "coordinates": [-92.4309, 45.3034]}, "properties": {"NAME": "US-9813", "TITLE": "Stower Seven Lakes State Trail"}}, {"type": "Feature", "geometry": {"type": "Point", "coordinates": [-89.4297, 42.7096]}, "properties": {"NAME": "US-9814", "TITLE": "Sugar River State Trail"}}, {"type": "Feature", "geometry": {"type": "Point", "coordinates": [-89.498, 44.4575]}, "properties": {"NAME": "US-9815", "TITLE": "Tomorrow River State Trail"}}, {"type": "Feature", "geometry": {"type": "Point", "coordinates": [-91.7598, 45.5719]}, "properties": {"NAME": "US-9816", "TITLE": "Tuscobia State Trail"}}, {"type": "Feature", "geometry": {"type": "Point", "coordinates": [-91.8826, 45.8304]}, "properties": {"NAME": "US-9819", "TITLE": "Wild Rivers State Trail"}}, {"type": "Feature", "geometry": {"type": "Point", "coordinates": [-88.8533, 45.3045]}, "properties": {"NAME": "US-9821", "TITLE": "Wolf River State Trail"}}, {"type": "Feature", "geometry": {"type": "Point", "coordinates": [-90.2926, 43.0195]}, "properties": {"NAME": "US-9826", "TITLE": "Blackhawk Lake State Recreation Area"}}, {"type": "Feature", "geometry": {"type": "Point", "coordinates": [-89.844, 45.7137]}, "properties": {"NAME": "US-9827", "TITLE": "Willow Flowage State Wilderness Area"}}, {"type": "Feature", "geometry": {"type": "Point", "coordinates": [-91.1944, 45.9253]}, "properties": {"NAME": "US-9828", "TITLE": "Chippewa Flowage State Wilderness Area"}}, {"type": "Feature", "geometry": {"type": "Point", "coordinates": [-87.9393, 43.5997]}, "properties": {"NAME": "US-9829", "TITLE": "Adell State Wildlife Area"}}, {"type": "Feature", "geometry": {"type": "Point", "coordinates": [-89.5297, 42.7243]}, "properties": {"NAME": "US-9830", "TITLE": "Albany State Wildlife Area"}}, {"type": "Feature", "geometry": {"type": "Point", "coordinates": [-88.3406, 43.3978]}, "properties": {"NAME": "US-9831", "TITLE": "Allenton Marsh State Wildlife Area"}}, {"type": "Feature", "geometry": {"type": "Point", "coordinates": [-89.3461, 42.5354]}, "properties": {"NAME": "US-9832", "TITLE": "Avon Bottoms State Wildlife Area"}}, {"type": "Feature", "geometry": {"type": "Point", "coordinates": [-91.8002, 44.5787]}, "properties": {"NAME": "US-9833", "TITLE": "Big Swamp State Wildlife Area"}}, {"type": "Feature", "geometry": {"type": "Point", "coordinates": [-88.3678, 42.553]}, "properties": {"NAME": "US-9834", "TITLE": "Bloomfield State Wildlife Area"}}, {"type": "Feature", "geometry": {"type": "Point", "coordinates": [-89.4992, 42.843]}, "properties": {"NAME": "US-9835", "TITLE": "Brooklyn State Wildlife Area"}}, {"type": "Feature", "geometry": {"type": "Point", "coordinates": [-89.6438, 44.3372]}, "properties": {"NAME": "US-9836", "TITLE": "Buena Vista State Wildlife Area"}}, {"type": "Feature", "geometry": {"type": "Point", "coordinates": [-87.6233, 44.509]}, "properties": {"NAME": "US-9837", "TITLE": "Buzz Besadny State Fish and Wildlife Area"}}, {"type": "Feature", "geometry": {"type": "Point", "coordinates": [-89.6793, 44.112]}, "properties": {"NAME": "US-9838", "TITLE": "Colburn State Wildlife Area"}}, {"type": "Feature", "geometry": {"type": "Point", "coordinates": [-89.1096, 43.2278]}, "properties": {"NAME": "US-9839", "TITLE": "Deansville State Wildlife Area"}}, {"type": "Feature", "geometry": {"type": "Point", "coordinates": [-89.5505, 44.6435]}, "properties": {"NAME": "US-9840", "TITLE": "Dewey Marsh State Wildlife Area"}}, {"type": "Feature", "geometry": {"type": "Point", "coordinates": [-89.2828, 42.7622]}, "properties": {"NAME": "US-9841", "TITLE": "Evansville State Wildlife Area"}}, {"type": "Feature", "geometry": {"type": "Point", "coordinates": [-89.209, 42.6384]}, "properties": {"NAME": "US-9842", "TITLE": "Footville State Wildlife Area"}}, {"type": "Feature", "geometry": {"type": "Point", "coordinates": [-89.161, 43.4254]}, "properties": {"NAME": "US-9843", "TITLE": "Grassy Lake State Wildlife Area"}}, {"type": "Feature", "geometry": {"type": "Point", "coordinates": [-89.4892, 44.0938]}, "properties": {"NAME": "US-9845", "TITLE": "Greenwood State Wildlife Area"}}, {"type": "Feature", "geometry": {"type": "Point", "coordinates": [-89.3219, 42.9332]}, "properties": {"NAME": "US-9846", "TITLE": "Hook Lake Bog - Grass Lake State Wildlife Area"}}, {"type": "Feature", "geometry": {"type": "Point", "coordinates": [-88.7481, 42.9749]}, "properties": {"NAME": "US-9848", "TITLE": "Jefferson Marsh State Wildlife Area"}}, {"type": "Feature", "geometry": {"type": "Point", "coordinates": [-89.1618, 43.4645]}, "properties": {"NAME": "US-9850", "TITLE": "Jennings Creek State Wildlife Area"}}, {"type": "Feature", "geometry": {"type": "Point", "coordinates": [-88.8946, 42.8753]}, "properties": {"NAME": "US-9851", "TITLE": "Koshkonong State Wildlife Area"}}, {"type": "Feature", "geometry": {"type": "Point", "coordinates": [-89.6579, 44.2043]}, "properties": {"NAME": "US-9852", "TITLE": "Leola Marsh State Wildlife Area"}}, {"type": "Feature", "geometry": {"type": "Point", "coordinates": [-89.3983, 42.756]}, "properties": {"NAME": "US-9853", "TITLE": "Liberty Creek State Wildlife Area"}}, {"type": "Feature", "geometry": {"type": "Point", "coordinates": [-88.8583, 42.7825]}, "properties": {"NAME": "US-9854", "TITLE": "Lima Marsh State Wildlife Area"}}, {"type": "Feature", "geometry": {"type": "Point", "coordinates": [-89.3042, 43.4027]}, "properties": {"NAME": "US-9855", "TITLE": "Mud Lake State Wildlife Area"}}, {"type": "Feature", "geometry": {"type": "Point", "coordinates": [-92.071, 46.1132]}, "properties": {"NAME": "US-9856", "TITLE": "Namekagon Barrens State Wildlife Area"}}, {"type": "Feature", "geometry": {"type": "Point", "coordinates": [-88.2365, 42.5512]}, "properties": {"NAME": "US-9857", "TITLE": "New Munster State Wildlife Area"}}, {"type": "Feature", "geometry": {"type": "Point", "coordinates": [-88.0331, 43.6884]}, "properties": {"NAME": "US-9858", "TITLE": "Nichols Creek State Wildlife Area"}}, {"type": "Feature", "geometry": {"type": "Point", "coordinates": [-88.5929, 44.504]}, "properties": {"NAME": "US-9859", "TITLE": "Outagamie State Wildlife Area"}}, {"type": "Feature", "geometry": {"type": "Point", "coordinates": [-89.0565, 43.469]}, "properties": {"NAME": "US-9860", "TITLE": "Paradise Marsh State Wildlife Area"}}, {"type": "Feature", "geometry": {"type": "Point", "coordinates": [-88.5027, 42.9742]}, "properties": {"NAME": "US-9861", "TITLE": "Paradise Valley State Wildlife Area"}}, {"type": "Feature", "geometry": {"type": "Point", "coordinates": [-89.1924, 43.5354]}, "properties": {"NAME": "US-9862", "TITLE": "Peter Helland State Wildlife Area"}}, {"type": "Feature", "geometry": {"type": "Point", "coordinates": [-88.7012, 42.8938]}, "properties": {"NAME": "US-9863", "TITLE": "Prince's Point State Wildlife Area"}}, {"type": "Feature", "geometry": {"type": "Point", "coordinates": [-88.6179, 42.9847]}, "properties": {"NAME": "US-9864", "TITLE": "Rome Pond State Wildlife Area"}}, {"type": "Feature", "geometry": {"type": "Point", "coordinates": [-91.1157, 44.1456]}, "properties": {"NAME": "US-9866", "TITLE": "South Beaver Creek State Wildlife Area"}}, {"type": "Feature", "geometry": {"type": "Point", "coordinates": [-92.0707, 44.4357]}, "properties": {"NAME": "US-9867", "TITLE": "Tiffany State Wildlife Area"}}, {"type": "Feature", "geometry": {"type": "Point", "coordinates": [-88.7819, 42.6111]}, "properties": {"NAME": "US-9868", "TITLE": "Turtle Creek State Wildlife Area"}}, {"type": "Feature", "geometry": {"type": "Point", "coordinates": [-88.5966, 42.7197]}, "properties": {"NAME": "US-9869", "TITLE": "Turtle Valley State Wildlife Area"}}, {"type": "Feature", "geometry": {"type": "Point", "coordinates": [-91.3265, 44.0003]}, "properties": {"NAME": "US-9870", "TITLE": "Van Loon State Wildlife Area"}}, {"type": "Feature", "geometry": {"type": "Point", "coordinates": [-88.9603, 43.2038]}, "properties": {"NAME": "US-9871", "TITLE": "Waterloo State Wildlife Area"}}, {"type": "Feature", "geometry": {"type": "Point", "coordinates": [-90.8326, 46.5054]}, "properties": {"NAME": "US-9872", "TITLE": "White River State Wildlife Area"}}, {"type": "Feature", "geometry": {"type": "Point", "coordinates": [-89.2636, 45.0011]}, "properties": {"NAME": "US-10054", "TITLE": "Plover River State Fish and Wildlife Area"}}, {"type": "Feature", "geometry": {"type": "Point", "coordinates": [-92.3191, 45.2016]}, "properties": {"NAME": "US-10182", "TITLE": "Cylon Marsh State Wildlife Area"}}, {"type": "Feature", "geometry": {"type": "Point", "coordinates": [-92.329, 45.0921]}, "properties": {"NAME": "US-10183", "TITLE": "Emerald Valley State Wildlife Area"}}, {"type": "Feature", "geometry": {"type": "Point", "coordinates": [-92.4214, 45.2019]}, "properties": {"NAME": "US-10184", "TITLE": "Johnson State Wildlife Area"}}, {"type": "Feature", "geometry": {"type": "Point", "coordinates": [-92.5071, 44.9493]}, "properties": {"NAME": "US-10186", "TITLE": "Kinnickinnic River State Fish and Wildlife Area"}}, {"type": "Feature", "geometry": {"type": "Point", "coordinates": [-92.5546, 45.07]}, "properties": {"NAME": "US-10189", "TITLE": "Lundy Pond State Wildlife Area"}}, {"type": "Feature", "geometry": {"type": "Point", "coordinates": [-92.4485, 45.0652]}, "properties": {"NAME": "US-10190", "TITLE": "Nagel State Wildlife Area"}}, {"type": "Feature", "geometry": {"type": "Point", "coordinates": [-92.4055, 45.1585]}, "properties": {"NAME": "US-10191", "TITLE": "Oden State Wildlife Area"}}, {"type": "Feature", "geometry": {"type": "Point", "coordinates": [-92.4862, 44.8977]}, "properties": {"NAME": "US-10192", "TITLE": "Pleasant Valley State Fish and Wildlife Area"}}, {"type": "Feature", "geometry": {"type": "Point", "coordinates": [-92.4573, 45.1014]}, "properties": {"NAME": "US-10194", "TITLE": "Schmit State Wildlife Area"}}, {"type": "Feature", "geometry": {"type": "Point", "coordinates": [-92.5082, 45.1622]}, "properties": {"NAME": "US-10195", "TITLE": "Sette State Wildlife Area"}}, {"type": "Feature", "geometry": {"type": "Point", "coordinates": [-92.7407, 45.1721]}, "properties": {"NAME": "US-10196", "TITLE": "St. Croix Islands State Wildlife Area"}}, {"type": "Feature", "geometry": {"type": "Point", "coordinates": [-92.4854, 45.1946]}, "properties": {"NAME": "US-10197", "TITLE": "Star Prairie Seed Farm State Wildlife Area"}}, {"type": "Feature", "geometry": {"type": "Point", "coordinates": [-92.6137, 44.8863]}, "properties": {"NAME": "US-10198", "TITLE": "Swinging Gate State Fish and Wildlife Area"}}, {"type": "Feature", "geometry": {"type": "Point", "coordinates": [-92.5575, 45.0587]}, "properties": {"NAME": "US-10199", "TITLE": "Ten Mile Creek State Wildlife Area"}}, {"type": "Feature", "geometry": {"type": "Point", "coordinates": [-92.6022, 45.035]}, "properties": {"NAME": "US-10200", "TITLE": "Willow River State Wildlife Area"}}, {"type": "Feature", "geometry": {"type": "Point", "coordinates": [-91.3599, 46.644]}, "properties": {"NAME": "US-10549", "TITLE": "Iron River National Fish Hatchery"}}, {"type": "Feature", "geometry": {"type": "Point", "coordinates": [-89.696, 43.1213]}, "properties": {"NAME": "US-10558", "TITLE": "Black Earth Creek State Fish and Wildlife Area"}}, {"type": "Feature", "geometry": {"type": "Point", "coordinates": [-90.4172, 43.0781]}, "properties": {"NAME": "US-10642", "TITLE": "Big Spring Creek State Fish and Wildlife Area"}}, {"type": "Feature", "geometry": {"type": "Point", "coordinates": [-90.4561, 43.0192]}, "properties": {"NAME": "US-10643", "TITLE": "Blue River State Fish and Wildlife Area"}}, {"type": "Feature", "geometry": {"type": "Point", "coordinates": [-89.9998, 43.0427]}, "properties": {"NAME": "US-10644", "TITLE": "Love and Strutt Creeks State Fish and Wildlife Area"}}, {"type": "Feature", "geometry": {"type": "Point", "coordinates": [-89.9463, 43.048]}, "properties": {"NAME": "US-10645", "TITLE": "Trout Creek State Fish and Wildlife Area"}}, {"type": "Feature", "geometry": {"type": "Point", "coordinates": [-90.2596, 43.3774]}, "properties": {"NAME": "US-10646", "TITLE": "Willow Creek State Fish and Wildlife Area"}}, {"type": "Feature", "geometry": {"type": "Point", "coordinates": [-89.3399, 42.8961]}, "properties": {"NAME": "US-10647", "TITLE": "Anthony Branch State Fish and Wildlife Area"}}, {"type": "Feature", "geometry": {"type": "Point", "coordinates": [-89.3417, 43.1753]}, "properties": {"NAME": "US-10648", "TITLE": "Cherokee Marsh State Fish and Wildlife Area"}}, {"type": "Feature", "geometry": {"type": "Point", "coordinates": [-89.6373, 42.9345]}, "properties": {"NAME": "US-10649", "TITLE": "Mount Vernon Creek State Fish and Wildlife Area"}}, {"type": "Feature", "geometry": {"type": "Point", "coordinates": [-89.3961, 43.0162]}, "properties": {"NAME": "US-10650", "TITLE": "Nevin Springs State Fish and Wildlife Area"}}, {"type": "Feature", "geometry": {"type": "Point", "coordinates": [-89.4329, 43.4099]}, "properties": {"NAME": "US-10651", "TITLE": "Hinkson Creek State Fish and Wildlife Area"}}, {"type": "Feature", "geometry": {"type": "Point", "coordinates": [-89.5384, 43.3282]}, "properties": {"NAME": "US-10652", "TITLE": "Lodi Spring Creek State Fish and Wildlife Area"}}, {"type": "Feature", "geometry": {"type": "Point", "coordinates": [-89.325, 43.4593]}, "properties": {"NAME": "US-10653", "TITLE": "Rocky Run Creek State Fish and Wildlife Area"}}, {"type": "Feature", "geometry": {"type": "Point", "coordinates": [-89.3733, 43.3773]}, "properties": {"NAME": "US-10654", "TITLE": "Rowan Creek State Fish and Wildlife Area"}}, {"type": "Feature", "geometry": {"type": "Point", "coordinates": [-90.1921, 43.3068]}, "properties": {"NAME": "US-10783", "TITLE": "Bear Creek State Fish and Wildlife Area"}}, {"type": "Feature", "geometry": {"type": "Point", "coordinates": [-88.2338, 42.7287]}, "properties": {"NAME": "US-10785", "TITLE": "Honey Creek State Wildlife Area"}}, {"type": "Feature", "geometry": {"type": "Point", "coordinates": [-91.3682, 44.9008]}, "properties": {"NAME": "US-11230", "TITLE": "Hallie Marsh State Wildlife Area"}}, {"type": "Feature", "geometry": {"type": "Point", "coordinates": [-88.0817, 45.5401]}, "properties": {"NAME": "US-11342", "TITLE": "Town Corner State Wildlife Area"}}, {"type": "Feature", "geometry": {"type": "Point", "coordinates": [-88.7582, 45.2131]}, "properties": {"NAME": "US-11927", "TITLE": "Upper Wolf River State Fish and Wildlife Area"}}, {"type": "Feature", "geometry": {"type": "Point", "coordinates": [-91.4395, 45.1873]}, "properties": {"NAME": "US-11928", "TITLE": "McCann Creek State Fish and Wildlife Area"}}, {"type": "Feature", "geometry": {"type": "Point", "coordinates": [-91.5112, 45.1234]}, "properties": {"NAME": "US-11929", "TITLE": "Duncan Creek State Fish and Wildlife Area"}}, {"type": "Feature", "geometry": {"type": "Point", "coordinates": [-91.5826, 45.1946]}, "properties": {"NAME": "US-11930", "TITLE": "Sand Creek State Fish and Wildlife Area"}}, {"type": "Feature", "geometry": {"type": "Point", "coordinates": [-89.2428, 44.3013]}, "properties": {"NAME": "US-11931", "TITLE": "Emmons Creek State Fish and Wildlife Area"}}, {"type": "Feature", "geometry": {"type": "Point", "coordinates": [-89.2245, 44.2566]}, "properties": {"NAME": "US-11932", "TITLE": "Radley Creek State Fish and Wildlife Area"}}, {"type": "Feature", "geometry": {"type": "Point", "coordinates": [-89.3348, 44.5335]}, "properties": {"NAME": "US-11933", "TITLE": "Richard Hemp State Fish and Wildlife Area"}}, {"type": "Feature", "geometry": {"type": "Point", "coordinates": [-89.0724, 44.6192]}, "properties": {"NAME": "US-11934", "TITLE": "Little Wolf River State Fish and Wildlife Area"}}, {"type": "Feature", "geometry": {"type": "Point", "coordinates": [-87.9926, 43.8191]}, "properties": {"NAME": "US-11935", "TITLE": "La Budde Creek State Fish and Wildlife Area"}}, {"type": "Feature", "geometry": {"type": "Point", "coordinates": [-89.3448, 44.079]}, "properties": {"NAME": "US-11936", "TITLE": "White River State Fish and Wildlife Area"}}, {"type": "Feature", "geometry": {"type": "Point", "coordinates": [-89.3394, 43.9525]}, "properties": {"NAME": "US-11937", "TITLE": "Mecan River State Fish and Wildlife Area"}}, {"type": "Feature", "geometry": {"type": "Point", "coordinates": [-91.219, 43.5258]}, "properties": {"NAME": "US-11955", "TITLE": "Genoa National Fish Hatchery"}}, {"type": "Feature", "geometry": {"type": "Point", "coordinates": [-89.2269, 44.2047]}, "properties": {"NAME": "US-11956", "TITLE": "Pine River State Fish and Wildlife Area"}}, {"type": "Feature", "geometry": {"type": "Point", "coordinates": [-89.2285, 44.1663]}, "properties": {"NAME": "US-11957", "TITLE": "Willow Creek State Fish and Wildlife Area"}}, {"type": "Feature", "geometry": {"type": "Point", "coordinates": [-90.9965, 43.7079]}, "properties": {"NAME": "US-11958", "TITLE": "Coon Creek State Fish and Wildlife Area"}}, {"type": "Feature", "geometry": {"type": "Point", "coordinates": [-88.3978, 42.6308]}, "properties": {"NAME": "US-11961", "TITLE": "Lyons State Wildlife Area"}}, {"type": "Feature", "geometry": {"type": "Point", "coordinates": [-89.4633, 45.3652]}, "properties": {"NAME": "US-11976", "TITLE": "Prairie River State Fish and Wildlife Area"}}, {"type": "Feature", "geometry": {"type": "Point", "coordinates": [-89.5615, 45.3532]}, "properties": {"NAME": "US-12029", "TITLE": "Alta State Fish and Wildlife Area"}}, {"type": "Feature", "geometry": {"type": "Point", "coordinates": [-88.4168, 45.0225]}, "properties": {"NAME": "US-12065", "TITLE": "South Branch Oconto River State Fish and Wildlife Area"}}, {"type": "Feature", "geometry": {"type": "Point", "coordinates": [-88.8049, 45.1733]}, "properties": {"NAME": "US-12066", "TITLE": "Evergreen River State Fish and Wildlife Area"}}, {"type": "Feature", "geometry": {"type": "Point", "coordinates": [-88.938, 45.145]}, "properties": {"NAME": "US-12067", "TITLE": "Woods Flowage State Fish and Wildlife Area"}}, {"type": "Feature", "geometry": {"type": "Point", "coordinates": [-90.021, 45.12]}, "properties": {"NAME": "US-12068", "TITLE": "Big Rib River State Fish and Wildlife Area"}}, {"type": "Feature", "geometry": {"type": "Point", "coordinates": [-89.9919, 43.9446]}, "properties": {"NAME": "US-12077", "TITLE": "Buckhorn State Wildlife Area"}}, {"type": "Feature", "geometry": {"type": "Point", "coordinates": [-89.6145, 45.2642]}, "properties": {"NAME": "US-12081", "TITLE": "Spring Lake State Fish and Wildlife Area"}}, {"type": "Feature", "geometry": {"type": "Point", "coordinates": [-89.3266, 43.7865]}, "properties": {"NAME": "US-12213", "TITLE": "Andrew Krakow Memorial State Fish and Wildlife Area"}}, {"type": "Feature", "geometry": {"type": "Point", "coordinates": [-90.7516, 43.774]}, "properties": {"NAME": "US-12358", "TITLE": "Pinnacle Rock State Fish and Wildlife Area"}}]}