{"type": "FeatureCollection", "name": "US-WI POTA PARKS", "features": [{"type": "Feature", "geometry": {"type": "Point", "coordinates": [-89.3973, 43.6898]}, "properties": {"NAME": "K-0598", "TITLE": "Fox River National Wildlife Refuge"}}, {"type": "Feature", "geometry": {"type": "Point", "coordinates": [-86.9548, 45.3085]}, "properties": {"NAME": "K-0600", "TITLE": "Green Bay National Wildlife Refuge"}}, {"type": "Feature", "geometry": {"type": "Point", "coordinates": [-88.6714, 43.633]}, "properties": {"NAME": "K-0601", "TITLE": "Horicon National Wildlife Refuge"}}, {"type": "Feature", "geometry": {"type": "Point", "coordinates": [-89.3062, 43.5616]}, "properties": {"NAME": "K-0602", "TITLE": "Leopold Wetland Management District"}}, {"type": "Feature", "geometry": {"type": "Point", "coordinates": [-90.1562, 44.026]}, "properties": {"NAME": "K-0603", "TITLE": "Necedah National Wildlife Refuge"}}, {"type": "Feature", "geometry": {"type": "Point", "coordinates": [-92.4776, 45.1056]}, "properties": {"NAME": "K-0604", "TITLE": "St. Croix Wetland Management District"}}, {"type": "Feature", "geometry": {"type": "Point", "coordinates": [-91.5157, 44.0529]}, "properties": {"NAME": "K-0605", "TITLE": "Trempealeau National Wildlife Refuge"}}, {"type": "Feature", "geometry": {"type": "Point", "coordinates": [-90.9505, 46.5947]}, "properties": {"NAME": "K-0606", "TITLE": "Whittlesey Creek National Wildlife Refuge"}}, {"type": "Feature", "geometry": {"type": "Point", "coordinates": [-92.4468, 46.0126]}, "properties": {"NAME": "K-0673", "TITLE": "Saint Croix National Wild and Scenic River"}}, {"type": "Feature", "geometry": {"type": "Point", "coordinates": [-90.6523, 46.9093]}, "properties": {"NAME": "K-0764", "TITLE": "Apostle Islands National Lakeshore"}}, {"type": "Feature", "geometry": {"type": "Point", "coordinates": [-89.2636, 45.0011]}, "properties": {"NAME": "K-10054", "TITLE": "Plover River State Fish and Wildlife Area"}}, {"type": "Feature", "geometry": {"type": "Point", "coordinates": [-92.3191, 45.2016]}, "properties": {"NAME": "K-10182", "TITLE": "Cylon Marsh State Wildlife Area"}}, {"type": "Feature", "geometry": {"type": "Point", "coordinates": [-92.329, 45.0921]}, "properties": {"NAME": "K-10183", "TITLE": "Emerald Valley State Wildlife Area"}}, {"type": "Feature", "geometry": {"type": "Point", "coordinates": [-92.4214, 45.2019]}, "properties": {"NAME": "K-10184", "TITLE": "Johnson State Wildlife Area"}}, {"type": "Feature", "geometry": {"type": "Point", "coordinates": [-92.5071, 44.9493]}, "properties": {"NAME": "K-10186", "TITLE": "Kinnickinnic River State Fish and Wildlife Area"}}, {"type": "Feature", "geometry": {"type": "Point", "coordinates": [-92.5546, 45.07]}, "properties": {"NAME": "K-10189", "TITLE": "Lundy Pond State Wildlife Area"}}, {"type": "Feature", "geometry": {"type": "Point", "coordinates": [-92.4485, 45.0652]}, "properties": {"NAME": "K-10190", "TITLE": "Nagel State Wildlife Area"}}, {"type": "Feature", "geometry": {"type": "Point", "coordinates": [-92.4055, 45.1585]}, "properties": {"NAME": "K-10191", "TITLE": "Oden State Wildlife Area"}}, {"type": "Feature", "geometry": {"type": "Point", "coordinates": [-92.4862, 44.8977]}, "properties": {"NAME": "K-10192", "TITLE": "Pleasant Valley State Fish and Wildlife Area"}}, {"type": "Feature", "geometry": {"type": "Point", "coordinates": [-92.4573, 45.1014]}, "properties": {"NAME": "K-10194", "TITLE": "Schmit State Wildlife Area"}}, {"type": "Feature", "geometry": {"type": "Point", "coordinates": [-92.5082, 45.1622]}, "properties": {"NAME": "K-10195", "TITLE": "Sette State Wildlife Area"}}, {"type": "Feature", "geometry": {"type": "Point", "coordinates": [-92.7407, 45.1721]}, "properties": {"NAME": "K-10196", "TITLE": "St. Croix Islands State Wildlife Area"}}, {"type": "Feature", "geometry": {"type": "Point", "coordinates": [-92.4854, 45.1946]}, "properties": {"NAME": "K-10197", "TITLE": "Star Prairie Seed Farm State Wildlife Area"}}, {"type": "Feature", "geometry": {"type": "Point", "coordinates": [-92.6137, 44.8863]}, "properties": {"NAME": "K-10198", "TITLE": "Swinging Gate State Fish and Wildlife Area"}}, {"type": "Feature", "geometry": {"type": "Point", "coordinates": [-92.5575, 45.0587]}, "properties": {"NAME": "K-10199", "TITLE": "Ten Mile Creek State Wildlife Area"}}, {"type": "Feature", "geometry": {"type": "Point", "coordinates": [-92.6022, 45.035]}, "properties": {"NAME": "K-10200", "TITLE": "Willow River State Wildlife Area"}}, {"type": "Feature", "geometry": {"type": "Point", "coordinates": [-91.3599, 46.644]}, "properties": {"NAME": "K-10549", "TITLE": "Iron River National Fish Hatchery"}}, {"type": "Feature", "geometry": {"type": "Point", "coordinates": [-89.696, 43.1213]}, "properties": {"NAME": "K-10558", "TITLE": "Black Earth Creek State Fish and Wildlife Area"}}, {"type": "Feature", "geometry": {"type": "Point", "coordinates": [-90.4172, 43.0781]}, "properties": {"NAME": "K-10642", "TITLE": "Big Spring Creek State Fish and Wildlife Area"}}, {"type": "Feature", "geometry": {"type": "Point", "coordinates": [-90.4561, 43.0192]}, "properties": {"NAME": "K-10643", "TITLE": "Blue River State Fish and Wildlife Area"}}, {"type": "Feature", "geometry": {"type": "Point", "coordinates": [-89.9998, 43.0427]}, "properties": {"NAME": "K-10644", "TITLE": "Love and Strutt Creeks State Fish and Wildlife Area"}}, {"type": "Feature", "geometry": {"type": "Point", "coordinates": [-89.9463, 43.048]}, "properties": {"NAME": "K-10645", "TITLE": "Trout Creek State Fish and Wildlife Area"}}, {"type": "Feature", "geometry": {"type": "Point", "coordinates": [-90.2596, 43.3774]}, "properties": {"NAME": "K-10646", "TITLE": "Willow Creek State Fish and Wildlife Area"}}, {"type": "Feature", "geometry": {"type": "Point", "coordinates": [-89.3399, 42.8961]}, "properties": {"NAME": "K-10647", "TITLE": "Anthony Branch State Fish and Wildlife Area"}}, {"type": "Feature", "geometry": {"type": "Point", "coordinates": [-89.3417, 43.1753]}, "properties": {"NAME": "K-10648", "TITLE": "Cherokee Marsh State Fish and Wildlife Area"}}, {"type": "Feature", "geometry": {"type": "Point", "coordinates": [-89.6373, 42.9345]}, "properties": {"NAME": "K-10649", "TITLE": "Mount Vernon Creek State Fish and Wildlife Area"}}, {"type": "Feature", "geometry": {"type": "Point", "coordinates": [-89.3961, 43.0162]}, "properties": {"NAME": "K-10650", "TITLE": "Nevin Springs State Fish and Wildlife Area"}}, {"type": "Feature", "geometry": {"type": "Point", "coordinates": [-89.4329, 43.4099]}, "properties": {"NAME": "K-10651", "TITLE": "Hinkson Creek State Fish and Wildlife Area"}}, {"type": "Feature", "geometry": {"type": "Point", "coordinates": [-89.5384, 43.3282]}, "properties": {"NAME": "K-10652", "TITLE": "Lodi Spring Creek State Fish and Wildlife Area"}}, {"type": "Feature", "geometry": {"type": "Point", "coordinates": [-89.325, 43.4593]}, "properties": {"NAME": "K-10653", "TITLE": "Rocky Run Creek State Fish and Wildlife Area"}}, {"type": "Feature", "geometry": {"type": "Point", "coordinates": [-89.3733, 43.3773]}, "properties": {"NAME": "K-10654", "TITLE": "Rowan Creek State Fish and Wildlife Area"}}, {"type": "Feature", "geometry": {"type": "Point", "coordinates": [-90.1921, 43.3068]}, "properties": {"NAME": "K-10783", "TITLE": "Bear Creek State Fish and Wildlife Area"}}, {"type": "Feature", "geometry": {"type": "Point", "coordinates": [-88.2338, 42.7287]}, "properties": {"NAME": "K-10785", "TITLE": "Honey Creek State Wildlife Area"}}, {"type": "Feature", "geometry": {"type": "Point", "coordinates": [-91.8885, 46.6078]}, "properties": {"NAME": "K-1436", "TITLE": "Amnicon Falls State Park"}}, {"type": "Feature", "geometry": {"type": "Point", "coordinates": [-88.8643, 43.0646]}, "properties": {"NAME": "K-1437", "TITLE": "Aztalan State Park"}}, {"type": "Feature", "geometry": {"type": "Point", "coordinates": [-90.3493, 42.769]}, "properties": {"NAME": "K-1438", "TITLE": "Belmont Mound State Park"}}, {"type": "Feature", "geometry": {"type": "Point", "coordinates": [-90.6754, 46.7879]}, "properties": {"NAME": "K-1439", "TITLE": "Big Bay State Park"}}, {"type": "Feature", "geometry": {"type": "Point", "coordinates": [-88.4338, 42.566]}, "properties": {"NAME": "K-1440", "TITLE": "Big Foot Beach State Park"}}, {"type": "Feature", "geometry": {"type": "Point", "coordinates": [-89.8442, 43.0258]}, "properties": {"NAME": "K-1441", "TITLE": "Blue Mound State Park"}}, {"type": "Feature", "geometry": {"type": "Point", "coordinates": [-91.1616, 45.1815]}, "properties": {"NAME": "K-1442", "TITLE": "Brunet Island State Park"}}, {"type": "Feature", "geometry": {"type": "Point", "coordinates": [-90.0035, 43.946]}, "properties": {"NAME": "K-1443", "TITLE": "Buckhorn State Park"}}, {"type": "Feature", "geometry": {"type": "Point", "coordinates": [-88.3305, 43.6185]}, "properties": {"NAME": "K-1444", "TITLE": "Campbellsport Drumlin State Park"}}, {"type": "Feature", "geometry": {"type": "Point", "coordinates": [-87.8988, 44.8871]}, "properties": {"NAME": "K-1445", "TITLE": "Copper Culture State Park"}}, {"type": "Feature", "geometry": {"type": "Point", "coordinates": [-90.6452, 46.3525]}, "properties": {"NAME": "K-1446", "TITLE": "Copper Falls State Park"}}, {"type": "Feature", "geometry": {"type": "Point", "coordinates": [-89.7347, 45.187]}, "properties": {"NAME": "K-1447", "TITLE": "Council Grounds State Park"}}, {"type": "Feature", "geometry": {"type": "Point", "coordinates": [-89.6091, 43.0822]}, "properties": {"NAME": "K-1448", "TITLE": "Cross Plains State Park"}}, {"type": "Feature", "geometry": {"type": "Point", "coordinates": [-89.722, 43.4328]}, "properties": {"NAME": "K-1449", "TITLE": "Devil's Lake State Park"}}, {"type": "Feature", "geometry": {"type": "Point", "coordinates": [-86.9238, 45.3301]}, "properties": {"NAME": "K-1450", "TITLE": "Grand Traverse Island State Park"}}, {"type": "Feature", "geometry": {"type": "Point", "coordinates": [-90.1203, 43.0119]}, "properties": {"NAME": "K-1451", "TITLE": "Governor Dodge State Park"}}, {"type": "Feature", "geometry": {"type": "Point", "coordinates": [-89.4347, 43.1332]}, "properties": {"NAME": "K-1452", "TITLE": "Governor Nelson State Park"}}, {"type": "Feature", "geometry": {"type": "Point", "coordinates": [-88.2218, 45.3233]}, "properties": {"NAME": "K-1453", "TITLE": "Governor Thompson State Park"}}, {"type": "Feature", "geometry": {"type": "Point", "coordinates": [-87.8047, 43.4935]}, "properties": {"NAME": "K-1454", "TITLE": "Harrington Beach State Park"}}, {"type": "Feature", "geometry": {"type": "Point", "coordinates": [-89.2139, 44.3294]}, "properties": {"NAME": "K-1455", "TITLE": "Hartman Creek State Park"}}, {"type": "Feature", "geometry": {"type": "Point", "coordinates": [-88.2912, 44.167]}, "properties": {"NAME": "K-1456", "TITLE": "High Cliff State Park"}}, {"type": "Feature", "geometry": {"type": "Point", "coordinates": [-92.7338, 44.835]}, "properties": {"NAME": "K-1457", "TITLE": "Kinnickinnic State Park"}}, {"type": "Feature", "geometry": {"type": "Point", "coordinates": [-87.7197, 43.665]}, "properties": {"NAME": "K-1458", "TITLE": "Kohler-Andrae State Park"}}, {"type": "Feature", "geometry": {"type": "Point", "coordinates": [-89.2327, 42.9733]}, "properties": {"NAME": "K-1459", "TITLE": "Lake Kegonsa State Park"}}, {"type": "Feature", "geometry": {"type": "Point", "coordinates": [-91.3108, 44.9799]}, "properties": {"NAME": "K-1460", "TITLE": "Lake Wissota State Park"}}, {"type": "Feature", "geometry": {"type": "Point", "coordinates": [-87.8949, 43.0312]}, "properties": {"NAME": "K-1461", "TITLE": "Lakeshore State Park"}}, {"type": "Feature", "geometry": {"type": "Point", "coordinates": [-91.76, 44.1579]}, "properties": {"NAME": "K-1462", "TITLE": "Merrick State Park"}}, {"type": "Feature", "geometry": {"type": "Point", "coordinates": [-90.3189, 43.9564]}, "properties": {"NAME": "K-1463", "TITLE": "Mill Bluff State Park"}}, {"type": "Feature", "geometry": {"type": "Point", "coordinates": [-89.8082, 43.575]}, "properties": {"NAME": "K-1464", "TITLE": "Mirror Lake State Park"}}, {"type": "Feature", "geometry": {"type": "Point", "coordinates": [-89.9323, 43.3463]}, "properties": {"NAME": "K-1465", "TITLE": "Natural Bridge State Park"}}, {"type": "Feature", "geometry": {"type": "Point", "coordinates": [-91.0175, 42.731]}, "properties": {"NAME": "K-1466", "TITLE": "Nelson Dewey State Park"}}, {"type": "Feature", "geometry": {"type": "Point", "coordinates": [-89.6341, 42.789]}, "properties": {"NAME": "K-1467", "TITLE": "New Glarus Woods State Park"}}, {"type": "Feature", "geometry": {"type": "Point", "coordinates": [-86.9988, 45.2346]}, "properties": {"NAME": "K-1468", "TITLE": "Newport State Park"}}, {"type": "Feature", "geometry": {"type": "Point", "coordinates": [-92.1197, 46.5369]}, "properties": {"NAME": "K-1469", "TITLE": "Pattison State Park"}}, {"type": "Feature", "geometry": {"type": "Point", "coordinates": [-87.2381, 45.1335]}, "properties": {"NAME": "K-1470", "TITLE": "Peninsula State Park"}}, {"type": "Feature", "geometry": {"type": "Point", "coordinates": [-91.4745, 44.0157]}, "properties": {"NAME": "K-1471", "TITLE": "Perrot State Park"}}, {"type": "Feature", "geometry": {"type": "Point", "coordinates": [-87.4253, 44.8519]}, "properties": {"NAME": "K-1472", "TITLE": "Potawatomi State Park"}}, {"type": "Feature", "geometry": {"type": "Point", "coordinates": [-89.6889, 44.921]}, "properties": {"NAME": "K-1473", "TITLE": "Rib Mountain State Park"}}, {"type": "Feature", "geometry": {"type": "Point", "coordinates": [-89.8132, 44.0011]}, "properties": {"NAME": "K-1474", "TITLE": "Roche-A-Cri State Park"}}, {"type": "Feature", "geometry": {"type": "Point", "coordinates": [-86.8291, 45.4093]}, "properties": {"NAME": "K-1475", "TITLE": "Rock Island State Park"}}, {"type": "Feature", "geometry": {"type": "Point", "coordinates": [-89.8058, 43.6419]}, "properties": {"NAME": "K-1476", "TITLE": "Rocky Arbor State Park"}}, {"type": "Feature", "geometry": {"type": "Point", "coordinates": [-92.4056, 45.6]}, "properties": {"NAME": "K-1477", "TITLE": "Straight Lake State Park"}}, {"type": "Feature", "geometry": {"type": "Point", "coordinates": [-90.048, 43.1472]}, "properties": {"NAME": "K-1478", "TITLE": "Tower Hill State Park"}}, {"type": "Feature", "geometry": {"type": "Point", "coordinates": [-87.1823, 44.9283]}, "properties": {"NAME": "K-1479", "TITLE": "Whitefish Dunes State Park"}}, {"type": "Feature", "geometry": {"type": "Point", "coordinates": [-90.5707, 43.7019]}, "properties": {"NAME": "K-1480", "TITLE": "Wildcat Mountain State Park"}}, {"type": "Feature", "geometry": {"type": "Point", "coordinates": [-92.6773, 45.0124]}, "properties": {"NAME": "K-1481", "TITLE": "Willow River State Park"}}, {"type": "Feature", "geometry": {"type": "Point", "coordinates": [-91.1138, 42.977]}, "properties": {"NAME": "K-1482", "TITLE": "Wyalusing State Park"}}, {"type": "Feature", "geometry": {"type": "Point", "coordinates": [-89.9854, 42.7708]}, "properties": {"NAME": "K-1483", "TITLE": "Yellowstone Lake State Park"}}, {"type": "Feature", "geometry": {"type": "Point", "coordinates": [-91.6333, 44.0523]}, "properties": {"NAME": "K-4236", "TITLE": "Upper Mississippi River National Wildlife Refuge"}}, {"type": "Feature", "geometry": {"type": "Point", "coordinates": [-89.2137, 44.3527]}, "properties": {"NAME": "K-4238", "TITLE": "Ice Age National Scenic Trail"}}, {"type": "Feature", "geometry": {"type": "Point", "coordinates": [-101.453, 47.5195]}, "properties": {"NAME": "K-4239", "TITLE": "North Country Trail National Scenic Trail"}}, {"type": "Feature", "geometry": {"type": "Point", "coordinates": [-90.6521, 42.5726]}, "properties": {"NAME": "K-4242", "TITLE": "Fenley State Recreation Area"}}, {"type": "Feature", "geometry": {"type": "Point", "coordinates": [-89.7243, 43.3696]}, "properties": {"NAME": "K-4243", "TITLE": "Sauk Prairie State Recreation Area"}}, {"type": "Feature", "geometry": {"type": "Point", "coordinates": [-90.6845, 46.8099]}, "properties": {"NAME": "K-4244", "TITLE": "Big Bay Sand Spit and Bog State Natural Area"}}, {"type": "Feature", "geometry": {"type": "Point", "coordinates": [-87.5448, 44.3274]}, "properties": {"NAME": "K-4245", "TITLE": "Two Creeks Buried Forest State Natural Area"}}, {"type": "Feature", "geometry": {"type": "Point", "coordinates": [-87.1934, 44.9257]}, "properties": {"NAME": "K-4246", "TITLE": "Whitefish Dunes State Natural Area"}}, {"type": "Feature", "geometry": {"type": "Point", "coordinates": [-88.0295, 44.4736]}, "properties": {"NAME": "K-4247", "TITLE": "Heritage Hill State Park"}}, {"type": "Feature", "geometry": {"type": "Point", "coordinates": [-88.1244, 44.3891]}, "properties": {"NAME": "K-4248", "TITLE": "Lost Dauphin State Park"}}, {"type": "Feature", "geometry": {"type": "Point", "coordinates": [-92.6531, 45.3882]}, "properties": {"NAME": "K-4249", "TITLE": "WI Interstate State Park"}}, {"type": "Feature", "geometry": {"type": "Point", "coordinates": [-89.3459, 43.0224]}, "properties": {"NAME": "K-4250", "TITLE": "Capitol Springs State Recreation Area"}}, {"type": "Feature", "geometry": {"type": "Point", "coordinates": [-91.0897, 46.3758]}, "properties": {"NAME": "K-4251", "TITLE": "Bibon Swamp State Natural Area"}}, {"type": "Feature", "geometry": {"type": "Point", "coordinates": [-91.7611, 46.4009]}, "properties": {"NAME": "K-4252", "TITLE": "Brule Glacial Spillway State Natural Area"}}, {"type": "Feature", "geometry": {"type": "Point", "coordinates": [-87.998, 43.4073]}, "properties": {"NAME": "K-4253", "TITLE": "Cedarburg Bog State Natural Area"}}, {"type": "Feature", "geometry": {"type": "Point", "coordinates": [-91.4602, 44.4841]}, "properties": {"NAME": "K-4254", "TITLE": "Chimney Rock Oak Savanna State Natural Area"}}, {"type": "Feature", "geometry": {"type": "Point", "coordinates": [-89.5677, 43.2735]}, "properties": {"NAME": "K-4255", "TITLE": "Lodi Marsh State Natural Area"}}, {"type": "Feature", "geometry": {"type": "Point", "coordinates": [-89.7664, 42.583]}, "properties": {"NAME": "K-4256", "TITLE": "Cadiz Springs State Recreation Area"}}, {"type": "Feature", "geometry": {"type": "Point", "coordinates": [-91.4132, 45.2235]}, "properties": {"NAME": "K-4257", "TITLE": "Chippewa Moraine State Recreation Area"}}, {"type": "Feature", "geometry": {"type": "Point", "coordinates": [-87.7199, 43.9389]}, "properties": {"NAME": "K-4258", "TITLE": "Fischer Creek State Recreation Area"}}, {"type": "Feature", "geometry": {"type": "Point", "coordinates": [-91.7827, 44.947]}, "properties": {"NAME": "K-4259", "TITLE": "Hoffman Hills State Recreation Area"}}, {"type": "Feature", "geometry": {"type": "Point", "coordinates": [-88.1659, 43.6651]}, "properties": {"NAME": "K-4260", "TITLE": "Long Lake State Recreation Area"}}, {"type": "Feature", "geometry": {"type": "Point", "coordinates": [-88.176, 43.5937]}, "properties": {"NAME": "K-4261", "TITLE": "Mauthe Lake State Recreation Area"}}, {"type": "Feature", "geometry": {"type": "Point", "coordinates": [-87.7847, 45.5974]}, "properties": {"NAME": "K-4262", "TITLE": "Pemene Falls Unit of Menominee River State Recreation Area"}}, {"type": "Feature", "geometry": {"type": "Point", "coordinates": [-87.9499, 45.7562]}, "properties": {"NAME": "K-4263", "TITLE": "Piers Gorge Unit of Menominee River State Recreation Area"}}, {"type": "Feature", "geometry": {"type": "Point", "coordinates": [-87.8245, 45.6634]}, "properties": {"NAME": "K-4264", "TITLE": "Quiver Falls Unit of Menominee River State Recreation Area"}}, {"type": "Feature", "geometry": {"type": "Point", "coordinates": [-88.1316, 42.6288]}, "properties": {"NAME": "K-4265", "TITLE": "Richard Bong State Recreation Area"}}, {"type": "Feature", "geometry": {"type": "Point", "coordinates": [-89.3858, 45.1466]}, "properties": {"NAME": "K-4266", "TITLE": "Ackley State Wildlife Area"}}, {"type": "Feature", "geometry": {"type": "Point", "coordinates": [-88.0395, 45.4734]}, "properties": {"NAME": "K-4267", "TITLE": "Amberg State Wildlife Area"}}, {"type": "Feature", "geometry": {"type": "Point", "coordinates": [-92.4779, 45.8119]}, "properties": {"NAME": "K-4268", "TITLE": "Amsterdam Sloughs State Wildlife Area"}}, {"type": "Feature", "geometry": {"type": "Point", "coordinates": [-91.1147, 44.7395]}, "properties": {"NAME": "K-4269", "TITLE": "Augusta State Wildlife Area"}}, {"type": "Feature", "geometry": {"type": "Point", "coordinates": [-92.463, 45.3599]}, "properties": {"NAME": "K-4270", "TITLE": "Balsam Branch State Wildlife Area"}}, {"type": "Feature", "geometry": {"type": "Point", "coordinates": [-91.8416, 45.7722]}, "properties": {"NAME": "K-4271", "TITLE": "Beaver Brook State Wildlife Area"}}, {"type": "Feature", "geometry": {"type": "Point", "coordinates": [-89.8123, 45.2576]}, "properties": {"NAME": "K-4272", "TITLE": "Bill Cross State Wildlife Area"}}, {"type": "Feature", "geometry": {"type": "Point", "coordinates": [-91.4875, 44.4566]}, "properties": {"NAME": "K-4273", "TITLE": "Borst Valley State Wildlife Area"}}, {"type": "Feature", "geometry": {"type": "Point", "coordinates": [-88.1044, 44.17]}, "properties": {"NAME": "K-4274", "TITLE": "Brillion State Wildlife Area"}}, {"type": "Feature", "geometry": {"type": "Point", "coordinates": [-91.2416, 46.0119]}, "properties": {"NAME": "K-4275", "TITLE": "Chief River State Wildlife Area"}}, {"type": "Feature", "geometry": {"type": "Point", "coordinates": [-91.4618, 44.4912]}, "properties": {"NAME": "K-4276", "TITLE": "Chimney Rock State Wildlife Area"}}, {"type": "Feature", "geometry": {"type": "Point", "coordinates": [-87.9681, 44.0841]}, "properties": {"NAME": "K-4277", "TITLE": "Collins Marsh State Wildlife Area"}}, {"type": "Feature", "geometry": {"type": "Point", "coordinates": [-92.6815, 45.8027]}, "properties": {"NAME": "K-4278", "TITLE": "Crex Meadows State Wildlife Area"}}, {"type": "Feature", "geometry": {"type": "Point", "coordinates": [-92.344, 45.183]}, "properties": {"NAME": "K-4279", "TITLE": "Cylon State Wildlife Area"}}, {"type": "Feature", "geometry": {"type": "Point", "coordinates": [-88.6369, 44.576]}, "properties": {"NAME": "K-4280", "TITLE": "Deer Creek State Wildlife Area"}}, {"type": "Feature", "geometry": {"type": "Point", "coordinates": [-89.9137, 43.6159]}, "properties": {"NAME": "K-4281", "TITLE": "Dell Creek State Wildlife Area"}}, {"type": "Feature", "geometry": {"type": "Point", "coordinates": [-91.8376, 46.3168]}, "properties": {"NAME": "K-4282", "TITLE": "Douglas County State Wildlife Area"}}, {"type": "Feature", "geometry": {"type": "Point", "coordinates": [-91.8702, 44.7081]}, "properties": {"NAME": "K-4283", "TITLE": "Dunnville State Wildlife Area"}}, {"type": "Feature", "geometry": {"type": "Point", "coordinates": [-88.5816, 43.819]}, "properties": {"NAME": "K-4284", "TITLE": "Eldorado State Wildlife Area"}}, {"type": "Feature", "geometry": {"type": "Point", "coordinates": [-92.7818, 45.7315]}, "properties": {"NAME": "K-4285", "TITLE": "Fish Lake State Wildlife Area"}}, {"type": "Feature", "geometry": {"type": "Point", "coordinates": [-89.3935, 43.627]}, "properties": {"NAME": "K-4286", "TITLE": "French Creek State Wildlife Area"}}, {"type": "Feature", "geometry": {"type": "Point", "coordinates": [-87.5998, 44.8008]}, "properties": {"NAME": "K-4287", "TITLE": "Gardner Swamp State Wildlife Area"}}, {"type": "Feature", "geometry": {"type": "Point", "coordinates": [-89.2747, 43.9051]}, "properties": {"NAME": "K-4288", "TITLE": "Germania Marsh State Wildlife Area"}}, {"type": "Feature", "geometry": {"type": "Point", "coordinates": [-89.047, 43.093]}, "properties": {"NAME": "K-4289", "TITLE": "Goose Lake State Wildlife Area"}}, {"type": "Feature", "geometry": {"type": "Point", "coordinates": [-89.2073, 43.7263]}, "properties": {"NAME": "K-4290", "TITLE": "Grand River Marsh State Wildlife Area"}}, {"type": "Feature", "geometry": {"type": "Point", "coordinates": [-88.0387, 44.5821]}, "properties": {"NAME": "K-4291", "TITLE": "Green Bay West Shores State Wildlife Area"}}, {"type": "Feature", "geometry": {"type": "Point", "coordinates": [-90.2414, 46.0128]}, "properties": {"NAME": "K-4292", "TITLE": "Hay Creek-Hoffman Lake State Wildlife Area"}}, {"type": "Feature", "geometry": {"type": "Point", "coordinates": [-88.0503, 44.2986]}, "properties": {"NAME": "K-4293", "TITLE": "Holland State Wildlife Area"}}, {"type": "Feature", "geometry": {"type": "Point", "coordinates": [-88.5918, 43.5052]}, "properties": {"NAME": "K-4294", "TITLE": "Horicon Marsh State Wildlife Area"}}, {"type": "Feature", "geometry": {"type": "Point", "coordinates": [-92.2596, 45.3949]}, "properties": {"NAME": "K-4295", "TITLE": "Joel Marsh State Wildlife Area"}}, {"type": "Feature", "geometry": {"type": "Point", "coordinates": [-90.8222, 43.2806]}, "properties": {"NAME": "K-4296", "TITLE": "Kickapoo River State Wildlife Area"}}, {"type": "Feature", "geometry": {"type": "Point", "coordinates": [-88.042, 43.9059]}, "properties": {"NAME": "K-4297", "TITLE": "Kiel Marsh State Wildlife Area"}}, {"type": "Feature", "geometry": {"type": "Point", "coordinates": [-88.0822, 44.0698]}, "properties": {"NAME": "K-4298", "TITLE": "Killsnake State Wildlife Area"}}, {"type": "Feature", "geometry": {"type": "Point", "coordinates": [-90.6045, 45.7406]}, "properties": {"NAME": "K-4299", "TITLE": "Kimberly Clark State Wildlife Area"}}, {"type": "Feature", "geometry": {"type": "Point", "coordinates": [-91.5357, 46.0408]}, "properties": {"NAME": "K-4300", "TITLE": "Kissick Swamp State Wildlife Area"}}, {"type": "Feature", "geometry": {"type": "Point", "coordinates": [-87.8418, 45.2582]}, "properties": {"NAME": "K-4301", "TITLE": "Lake Noquebay State Wildlife Area"}}, {"type": "Feature", "geometry": {"type": "Point", "coordinates": [-89.5927, 43.8963]}, "properties": {"NAME": "K-4302", "TITLE": "Lawrence Creek Fish State Wildlife Area"}}, {"type": "Feature", "geometry": {"type": "Point", "coordinates": [-88.9789, 45.6197]}, "properties": {"NAME": "K-4303", "TITLE": "Little Rice State Wildlife Area"}}, {"type": "Feature", "geometry": {"type": "Point", "coordinates": [-89.547, 43.2824]}, "properties": {"NAME": "K-4304", "TITLE": "Lodi Marsh State Wildlife Area"}}, {"type": "Feature", "geometry": {"type": "Point", "coordinates": [-92.0877, 45.4787]}, "properties": {"NAME": "K-4305", "TITLE": "Loon Lake State Wildlife Area"}}, {"type": "Feature", "geometry": {"type": "Point", "coordinates": [-88.5145, 44.4631]}, "properties": {"NAME": "K-4306", "TITLE": "Mack State Wildlife Area"}}, {"type": "Feature", "geometry": {"type": "Point", "coordinates": [-88.5318, 44.5396]}, "properties": {"NAME": "K-4307", "TITLE": "Maine State Wildlife Area"}}, {"type": "Feature", "geometry": {"type": "Point", "coordinates": [-92.2969, 45.5971]}, "properties": {"NAME": "K-4308", "TITLE": "McKenzie Creek State Wildlife Area"}}, {"type": "Feature", "geometry": {"type": "Point", "coordinates": [-90.1852, 44.7034]}, "properties": {"NAME": "K-4309", "TITLE": "McMillan Marsh State Wildlife Area"}}, {"type": "Feature", "geometry": {"type": "Point", "coordinates": [-89.8592, 44.7208]}, "properties": {"NAME": "K-4310", "TITLE": "Mead State Wildlife Area"}}, {"type": "Feature", "geometry": {"type": "Point", "coordinates": [-90.2212, 44.2166]}, "properties": {"NAME": "K-4311", "TITLE": "Meadow Valley State Wildlife Area"}}, {"type": "Feature", "geometry": {"type": "Point", "coordinates": [-87.0865, 45.1128]}, "properties": {"NAME": "K-4312", "TITLE": "Mud Lake State Wildlife Area"}}, {"type": "Feature", "geometry": {"type": "Point", "coordinates": [-91.7526, 44.8865]}, "properties": {"NAME": "K-4313", "TITLE": "Muddy Creek State Wildlife Area"}}, {"type": "Feature", "geometry": {"type": "Point", "coordinates": [-88.787, 44.3981]}, "properties": {"NAME": "K-4314", "TITLE": "Mukwa State Wildlife Area"}}, {"type": "Feature", "geometry": {"type": "Point", "coordinates": [-88.2017, 43.7542]}, "properties": {"NAME": "K-4315", "TITLE": "Mullet Creek State Wildlife Area"}}, {"type": "Feature", "geometry": {"type": "Point", "coordinates": [-88.5813, 44.6567]}, "properties": {"NAME": "K-4316", "TITLE": "Navarino State Wildlife Area"}}, {"type": "Feature", "geometry": {"type": "Point", "coordinates": [-91.583, 45.2302]}, "properties": {"NAME": "K-4317", "TITLE": "New Auburn State Wildlife Area"}}, {"type": "Feature", "geometry": {"type": "Point", "coordinates": [-89.9259, 45.2991]}, "properties": {"NAME": "K-4318", "TITLE": "New Wood State Wildlife Area"}}, {"type": "Feature", "geometry": {"type": "Point", "coordinates": [-90.8024, 45.2821]}, "properties": {"NAME": "K-4319", "TITLE": "Pershing State Wildlife Area"}}, {"type": "Feature", "geometry": {"type": "Point", "coordinates": [-88.3424, 45.0844]}, "properties": {"NAME": "K-4320", "TITLE": "Peshtigo Brook State Wildlife Area"}}, {"type": "Feature", "geometry": {"type": "Point", "coordinates": [-89.0611, 45.2776]}, "properties": {"NAME": "K-4321", "TITLE": "Peters Marsh State Wildlife Area"}}, {"type": "Feature", "geometry": {"type": "Point", "coordinates": [-89.5825, 43.5424]}, "properties": {"NAME": "K-4322", "TITLE": "Pine Island State Wildlife Area"}}, {"type": "Feature", "geometry": {"type": "Point", "coordinates": [-91.3911, 45.3403]}, "properties": {"NAME": "K-4323", "TITLE": "Potato Creek State Wildlife Area"}}, {"type": "Feature", "geometry": {"type": "Point", "coordinates": [-89.9006, 46.0939]}, "properties": {"NAME": "K-4324", "TITLE": "Powell Marsh State Wildlife Area"}}, {"type": "Feature", "geometry": {"type": "Point", "coordinates": [-88.9208, 44.1022]}, "properties": {"NAME": "K-4325", "TITLE": "Poygan Marsh State Wildlife Area"}}, {"type": "Feature", "geometry": {"type": "Point", "coordinates": [-88.6461, 44.2359]}, "properties": {"NAME": "K-4326", "TITLE": "Rat River State Wildlife Area"}}, {"type": "Feature", "geometry": {"type": "Point", "coordinates": [-92.2289, 45.4964]}, "properties": {"NAME": "K-4327", "TITLE": "Rice Beds Creek State Wildlife Area"}}, {"type": "Feature", "geometry": {"type": "Point", "coordinates": [-90.1312, 44.3075]}, "properties": {"NAME": "K-4328", "TITLE": "Sandhill State Wildlife Area"}}, {"type": "Feature", "geometry": {"type": "Point", "coordinates": [-88.1014, 43.8176]}, "properties": {"NAME": "K-4329", "TITLE": "Sheboygan Marsh State Wildlife Area"}}, {"type": "Feature", "geometry": {"type": "Point", "coordinates": [-90.4711, 45.5939]}, "properties": {"NAME": "K-4330", "TITLE": "Spring Creek State Wildlife Area"}}, {"type": "Feature", "geometry": {"type": "Point", "coordinates": [-89.4246, 43.5407]}, "properties": {"NAME": "K-4331", "TITLE": "Swan Lake State Wildlife Area"}}, {"type": "Feature", "geometry": {"type": "Point", "coordinates": [-88.425, 43.5217]}, "properties": {"NAME": "K-4332", "TITLE": "Theresa Marsh State Wildlife Area"}}, {"type": "Feature", "geometry": {"type": "Point", "coordinates": [-89.188, 45.8139]}, "properties": {"NAME": "K-4333", "TITLE": "Thunder Lake State Wildlife Area"}}, {"type": "Feature", "geometry": {"type": "Point", "coordinates": [-91.2355, 45.0195]}, "properties": {"NAME": "K-4334", "TITLE": "Tom Lawin State Wildlife Area"}}, {"type": "Feature", "geometry": {"type": "Point", "coordinates": [-91.3916, 46.1632]}, "properties": {"NAME": "K-4335", "TITLE": "Totagatic Lake State Wildlife Area"}}, {"type": "Feature", "geometry": {"type": "Point", "coordinates": [-91.5165, 46.0998]}, "properties": {"NAME": "K-4336", "TITLE": "Totogatic State Wildlife Area"}}, {"type": "Feature", "geometry": {"type": "Point", "coordinates": [-90.0841, 46.3032]}, "properties": {"NAME": "K-4337", "TITLE": "Underwood State Wildlife Area"}}, {"type": "Feature", "geometry": {"type": "Point", "coordinates": [-91.2289, 45.3331]}, "properties": {"NAME": "K-4338", "TITLE": "Washington Creek State Wildlife Area"}}, {"type": "Feature", "geometry": {"type": "Point", "coordinates": [-89.5309, 43.1912]}, "properties": {"NAME": "K-4339", "TITLE": "Waunakee Marsh State Wildlife Area"}}, {"type": "Feature", "geometry": {"type": "Point", "coordinates": [-91.2633, 45.7117]}, "properties": {"NAME": "K-4340", "TITLE": "Weirgor Springs State Wildlife Area"}}, {"type": "Feature", "geometry": {"type": "Point", "coordinates": [-89.0943, 43.9385]}, "properties": {"NAME": "K-4341", "TITLE": "White River Marsh State Wildlife Area"}}, {"type": "Feature", "geometry": {"type": "Point", "coordinates": [-88.5932, 44.5245]}, "properties": {"NAME": "K-4342", "TITLE": "Herb Behnke Unit of Wolf River Bottoms State Wildlife Area"}}, {"type": "Feature", "geometry": {"type": "Point", "coordinates": [-88.6101, 44.3814]}, "properties": {"NAME": "K-4343", "TITLE": "LaSage Unit of Wolf River Bottoms State Wildlife Area"}}, {"type": "Feature", "geometry": {"type": "Point", "coordinates": [-88.8109, 44.2274]}, "properties": {"NAME": "K-4344", "TITLE": "Wolf River State Wildlife Area"}}, {"type": "Feature", "geometry": {"type": "Point", "coordinates": [-89.6515, 45.6155]}, "properties": {"NAME": "K-4345", "TITLE": "Woodboro Lakes State Wildlife Area"}}, {"type": "Feature", "geometry": {"type": "Point", "coordinates": [-90.023, 43.9485]}, "properties": {"NAME": "K-4346", "TITLE": "Yellow River State Wildlife Area"}}, {"type": "Feature", "geometry": {"type": "Point", "coordinates": [-89.9986, 42.7802]}, "properties": {"NAME": "K-4347", "TITLE": "Yellowstone State Wildlife Area"}}, {"type": "Feature", "geometry": {"type": "Point", "coordinates": [-90.6727, 44.3348]}, "properties": {"NAME": "K-4348", "TITLE": "Black River State Forest"}}, {"type": "Feature", "geometry": {"type": "Point", "coordinates": [-90.7491, 45.7682]}, "properties": {"NAME": "K-4349", "TITLE": "Flambeau River State Forest"}}, {"type": "Feature", "geometry": {"type": "Point", "coordinates": [-92.7763, 45.7729]}, "properties": {"NAME": "K-4350", "TITLE": "Governor Knowles State Forest"}}, {"type": "Feature", "geometry": {"type": "Point", "coordinates": [-88.0889, 43.696]}, "properties": {"NAME": "K-4352", "TITLE": "Kettle Moraine State Forest"}}, {"type": "Feature", "geometry": {"type": "Point", "coordinates": [-87.5102, 44.2115]}, "properties": {"NAME": "K-4354", "TITLE": "Point Beach State Forest"}}, {"type": "Feature", "geometry": {"type": "Point", "coordinates": [-90.9113, 46.1748]}, "properties": {"NAME": "K-4533", "TITLE": "Chequamegon-Nicolet National Forest"}}, {"type": "Feature", "geometry": {"type": "Point", "coordinates": [-91.5935, 46.5371]}, "properties": {"NAME": "K-5577", "TITLE": "Brule River State Forest"}}, {"type": "Feature", "geometry": {"type": "Point", "coordinates": [-91.0237, 43.8606]}, "properties": {"NAME": "K-5578", "TITLE": "Coulee Experimental State Forest"}}, {"type": "Feature", "geometry": {"type": "Point", "coordinates": [-87.9694, 43.1287]}, "properties": {"NAME": "K-5579", "TITLE": "Havenwoods State Forest"}}, {"type": "Feature", "geometry": {"type": "Point", "coordinates": [-88.1935, 45.287]}, "properties": {"NAME": "K-5580", "TITLE": "Governor Earl Peshtigo River State Forest"}}, {"type": "Feature", "geometry": {"type": "Point", "coordinates": [-90.3425, 43.1997]}, "properties": {"NAME": "K-5643", "TITLE": "Lower Wisconsin State Riverway State Park"}}, {"type": "Feature", "geometry": {"type": "Point", "coordinates": [-89.6501, 45.8653]}, "properties": {"NAME": "K-7260", "TITLE": "Northern Highland American Legion State Forest"}}, {"type": "Feature", "geometry": {"type": "Point", "coordinates": [-87.1725, 45.055]}, "properties": {"NAME": "K-8205", "TITLE": "Kangaroo Lake State Natural Area"}}, {"type": "Feature", "geometry": {"type": "Point", "coordinates": [-87.1667, 45.0045]}, "properties": {"NAME": "K-8206", "TITLE": "Meridian Park State Natural Area"}}, {"type": "Feature", "geometry": {"type": "Point", "coordinates": [-88.8232, 43.4115]}, "properties": {"NAME": "K-8208", "TITLE": "Shaw Marsh State Wildlife Area"}}, {"type": "Feature", "geometry": {"type": "Point", "coordinates": [-89.5502, 44.6569]}, "properties": {"NAME": "K-8209", "TITLE": "Dewey Marsh State Natural Area"}}, {"type": "Feature", "geometry": {"type": "Point", "coordinates": [-91.2016, 46.8496]}, "properties": {"NAME": "K-8210", "TITLE": "Bark Bay Slough State Natural Area"}}, {"type": "Feature", "geometry": {"type": "Point", "coordinates": [-91.7283, 46.7151]}, "properties": {"NAME": "K-8211", "TITLE": "Bear Beach State Natural Area"}}, {"type": "Feature", "geometry": {"type": "Point", "coordinates": [-92.165, 46.3625]}, "properties": {"NAME": "K-8213", "TITLE": "Belden Swamp State Natural Area"}}, {"type": "Feature", "geometry": {"type": "Point", "coordinates": [-92.0685, 46.3223]}, "properties": {"NAME": "K-8214", "TITLE": "Empire Swamp State Natural Area"}}, {"type": "Feature", "geometry": {"type": "Point", "coordinates": [-92.0277, 46.4545]}, "properties": {"NAME": "K-8215", "TITLE": "Ericson Creek Forest and Wetlands State Natural Area"}}, {"type": "Feature", "geometry": {"type": "Point", "coordinates": [-92.6825, 45.349]}, "properties": {"NAME": "K-8216", "TITLE": "Osceola Bedrock Glades State Natural Area"}}, {"type": "Feature", "geometry": {"type": "Point", "coordinates": [-92.4103, 45.0499]}, "properties": {"NAME": "K-8217", "TITLE": "Casey Lake State Wildlife Area"}}, {"type": "Feature", "geometry": {"type": "Point", "coordinates": [-88.6818, 44.3893]}, "properties": {"NAME": "K-8218", "TITLE": "Hortonville Bog State Natural Area"}}, {"type": "Feature", "geometry": {"type": "Point", "coordinates": [-88.1223, 43.3367]}, "properties": {"NAME": "K-8219", "TITLE": "Jackson Marsh State Natural Area"}}, {"type": "Feature", "geometry": {"type": "Point", "coordinates": [-90.1739, 46.0729]}, "properties": {"NAME": "K-8220", "TITLE": "Turtle Flambeau Flowage State Wilderness Area"}}, {"type": "Feature", "geometry": {"type": "Point", "coordinates": [-91.6746, 44.7515]}, "properties": {"NAME": "K-8221", "TITLE": "Chippewa River State Trail"}}, {"type": "Feature", "geometry": {"type": "Point", "coordinates": [-91.935, 44.7747]}, "properties": {"NAME": "K-8222", "TITLE": "Red Cedar State Trail"}}, {"type": "Feature", "geometry": {"type": "Point", "coordinates": [-91.3414, 44.9846]}, "properties": {"NAME": "K-8223", "TITLE": "Old Abe State Trail"}}, {"type": "Feature", "geometry": {"type": "Point", "coordinates": [-91.6753, 44.7577]}, "properties": {"NAME": "K-8224", "TITLE": "Lower Chippewa River State Natural Area"}}, {"type": "Feature", "geometry": {"type": "Point", "coordinates": [-89.2764, 42.88]}, "properties": {"NAME": "K-8225", "TITLE": "Badfish Creek State Wildlife Area"}}, {"type": "Feature", "geometry": {"type": "Point", "coordinates": [-89.6004, 43.343]}, "properties": {"NAME": "K-8363", "TITLE": "Gibraltar Rock State Natural Area"}}, {"type": "Feature", "geometry": {"type": "Point", "coordinates": [-88.1716, 43.614]}, "properties": {"NAME": "K-8667", "TITLE": "Haskell Noyes Memorial Woods State Natural Area"}}, {"type": "Feature", "geometry": {"type": "Point", "coordinates": [-88.9401, 43.163]}, "properties": {"NAME": "K-8668", "TITLE": "Waterloo Prairie State Natural Area"}}, {"type": "Feature", "geometry": {"type": "Point", "coordinates": [-88.5012, 42.9007]}, "properties": {"NAME": "K-8669", "TITLE": "Scuppernong Prairie State Natural Area"}}, {"type": "Feature", "geometry": {"type": "Point", "coordinates": [-88.321, 42.922]}, "properties": {"NAME": "K-8670", "TITLE": "Vernon State Wildlife Area"}}, {"type": "Feature", "geometry": {"type": "Point", "coordinates": [-88.2431, 42.8009]}, "properties": {"NAME": "K-8671", "TITLE": "Tichigan State Wildlife Area"}}, {"type": "Feature", "geometry": {"type": "Point", "coordinates": [-91.2583, 43.9277]}, "properties": {"NAME": "K-8672", "TITLE": "Great River State Trail"}}, {"type": "Feature", "geometry": {"type": "Point", "coordinates": [-90.9859, 43.8896]}, "properties": {"NAME": "K-8673", "TITLE": "La Crosse River State Trail"}}, {"type": "Feature", "geometry": {"type": "Point", "coordinates": [-88.1398, 43.4647]}, "properties": {"NAME": "K-9704", "TITLE": "Lizard Mound State Park"}}, {"type": "Feature", "geometry": {"type": "Point", "coordinates": [-90.2123, 43.6402]}, "properties": {"NAME": "K-9762", "TITLE": "400 State Trail"}}, {"type": "Feature", "geometry": {"type": "Point", "coordinates": [-89.4819, 42.9431]}, "properties": {"NAME": "K-9766", "TITLE": "Badger State Trail"}}, {"type": "Feature", "geometry": {"type": "Point", "coordinates": [-89.7016, 45.6368]}, "properties": {"NAME": "K-9768", "TITLE": "Bearskin State Trail"}}, {"type": "Feature", "geometry": {"type": "Point", "coordinates": [-91.129, 44.5863]}, "properties": {"NAME": "K-9771", "TITLE": "Buffalo River State Trail"}}, {"type": "Feature", "geometry": {"type": "Point", "coordinates": [-89.3959, 43.0193]}, "properties": {"NAME": "K-9773", "TITLE": "Capital City State Trail"}}, {"type": "Feature", "geometry": {"type": "Point", "coordinates": [-87.7197, 44.204]}, "properties": {"NAME": "K-9778", "TITLE": "Devilâ€™s River State Trail"}}, {"type": "Feature", "geometry": {"type": "Point", "coordinates": [-90.6213, 43.8332]}, "properties": {"NAME": "K-9783", "TITLE": "Elroy-Sparta State Trail"}}, {"type": "Feature", "geometry": {"type": "Point", "coordinates": [-88.0612, 44.4464]}, "properties": {"NAME": "K-9785", "TITLE": "Fox River State Trail"}}, {"type": "Feature", "geometry": {"type": "Point", "coordinates": [-92.2477, 46.4806]}, "properties": {"NAME": "K-9790", "TITLE": "Gandy Dancer State Trail"}}, {"type": "Feature", "geometry": {"type": "Point", "coordinates": [-88.8068, 43.0367]}, "properties": {"NAME": "K-9792", "TITLE": "Glacial Drumlin State Trail"}}, {"type": "Feature", "geometry": {"type": "Point", "coordinates": [-89.7406, 43.351]}, "properties": {"NAME": "K-9794", "TITLE": "Great Sauk State Trail"}}, {"type": "Feature", "geometry": {"type": "Point", "coordinates": [-89.5492, 44.5551]}, "properties": {"NAME": "K-9796", "TITLE": "Green Circle State Trail"}}, {"type": "Feature", "geometry": {"type": "Point", "coordinates": [-87.8968, 43.026]}, "properties": {"NAME": "K-9800", "TITLE": "Hank Aaron State Trail"}}, {"type": "Feature", "geometry": {"type": "Point", "coordinates": [-89.6227, 43.024]}, "properties": {"NAME": "K-9804", "TITLE": "Military Ridge State Trail"}}, {"type": "Feature", "geometry": {"type": "Point", "coordinates": [-90.4619, 42.7336]}, "properties": {"NAME": "K-9805", "TITLE": "Mound View State Trail"}}, {"type": "Feature", "geometry": {"type": "Point", "coordinates": [-88.0644, 44.5654]}, "properties": {"NAME": "K-9806", "TITLE": "Mountain-Bay State Trail"}}, {"type": "Feature", "geometry": {"type": "Point", "coordinates": [-88.4505, 44.4756]}, "properties": {"NAME": "K-9807", "TITLE": "Newton Blackmour State Trail"}}, {"type": "Feature", "geometry": {"type": "Point", "coordinates": [-88.0425, 44.8841]}, "properties": {"NAME": "K-9809", "TITLE": "Oconto River State Trail"}}, {"type": "Feature", "geometry": {"type": "Point", "coordinates": [-92.4309, 45.3034]}, "properties": {"NAME": "K-9813", "TITLE": "Stower Seven Lakes State Trail"}}, {"type": "Feature", "geometry": {"type": "Point", "coordinates": [-89.4297, 42.7096]}, "properties": {"NAME": "K-9814", "TITLE": "Sugar River State Trail"}}, {"type": "Feature", "geometry": {"type": "Point", "coordinates": [-89.498, 44.4575]}, "properties": {"NAME": "K-9815", "TITLE": "Tomorrow River State Trail"}}, {"type": "Feature", "geometry": {"type": "Point", "coordinates": [-91.7598, 45.5719]}, "properties": {"NAME": "K-9816", "TITLE": "Tuscobia State Trail"}}, {"type": "Feature", "geometry": {"type": "Point", "coordinates": [-91.8826, 45.8304]}, "properties": {"NAME": "K-9819", "TITLE": "Wild Rivers State Trail"}}, {"type": "Feature", "geometry": {"type": "Point", "coordinates": [-88.8533, 45.3045]}, "properties": {"NAME": "K-9821", "TITLE": "Wolf River State Trail"}}, {"type": "Feature", "geometry": {"type": "Point", "coordinates": [-90.2926, 43.0195]}, "properties": {"NAME": "K-9826", "TITLE": "Blackhawk Lake State Recreation Area"}}, {"type": "Feature", "geometry": {"type": "Point", "coordinates": [-89.844, 45.7137]}, "properties": {"NAME": "K-9827", "TITLE": "Willow Flowage State Wilderness Area"}}, {"type": "Feature", "geometry": {"type": "Point", "coordinates": [-91.1944, 45.9253]}, "properties": {"NAME": "K-9828", "TITLE": "Chippewa Flowage State Wilderness Area"}}, {"type": "Feature", "geometry": {"type": "Point", "coordinates": [-87.9393, 43.5997]}, "properties": {"NAME": "K-9829", "TITLE": "Adell State Wildlife Area"}}, {"type": "Feature", "geometry": {"type": "Point", "coordinates": [-89.5297, 42.7243]}, "properties": {"NAME": "K-9830", "TITLE": "Albany State Wildlife Area"}}, {"type": "Feature", "geometry": {"type": "Point", "coordinates": [-88.3406, 43.3978]}, "properties": {"NAME": "K-9831", "TITLE": "Allenton Marsh State Wildlife Area"}}, {"type": "Feature", "geometry": {"type": "Point", "coordinates": [-89.3461, 42.5354]}, "properties": {"NAME": "K-9832", "TITLE": "Avon Bottoms State Wildlife Area"}}, {"type": "Feature", "geometry": {"type": "Point", "coordinates": [-91.8002, 44.5787]}, "properties": {"NAME": "K-9833", "TITLE": "Big Swamp State Wildlife Area"}}, {"type": "Feature", "geometry": {"type": "Point", "coordinates": [-88.3678, 42.553]}, "properties": {"NAME": "K-9834", "TITLE": "Bloomfield State Wildlife Area"}}, {"type": "Feature", "geometry": {"type": "Point", "coordinates": [-89.4992, 42.843]}, "properties": {"NAME": "K-9835", "TITLE": "Brooklyn State Wildlife Area"}}, {"type": "Feature", "geometry": {"type": "Point", "coordinates": [-89.6438, 44.3372]}, "properties": {"NAME": "K-9836", "TITLE": "Buena Vista State Wildlife Area"}}, {"type": "Feature", "geometry": {"type": "Point", "coordinates": [-87.6233, 44.509]}, "properties": {"NAME": "K-9837", "TITLE": "Buzz Besadny State Fish and Wildlife Area"}}, {"type": "Feature", "geometry": {"type": "Point", "coordinates": [-89.6793, 44.112]}, "properties": {"NAME": "K-9838", "TITLE": "Colburn State Wildlife Area"}}, {"type": "Feature", "geometry": {"type": "Point", "coordinates": [-89.1096, 43.2278]}, "properties": {"NAME": "K-9839", "TITLE": "Deansville State Wildlife Area"}}, {"type": "Feature", "geometry": {"type": "Point", "coordinates": [-89.5505, 44.6435]}, "properties": {"NAME": "K-9840", "TITLE": "Dewey Marsh State Wildlife Area"}}, {"type": "Feature", "geometry": {"type": "Point", "coordinates": [-89.2828, 42.7622]}, "properties": {"NAME": "K-9841", "TITLE": "Evansville State Wildlife Area"}}, {"type": "Feature", "geometry": {"type": "Point", "coordinates": [-89.209, 42.6384]}, "properties": {"NAME": "K-9842", "TITLE": "Footville State Wildlife Area"}}, {"type": "Feature", "geometry": {"type": "Point", "coordinates": [-89.161, 43.4254]}, "properties": {"NAME": "K-9843", "TITLE": "Grassy Lake State Wildlife Area"}}, {"type": "Feature", "geometry": {"type": "Point", "coordinates": [-89.4892, 44.0938]}, "properties": {"NAME": "K-9845", "TITLE": "Greenwood State Wildlife Area"}}, {"type": "Feature", "geometry": {"type": "Point", "coordinates": [-89.3219, 42.9332]}, "properties": {"NAME": "K-9846", "TITLE": "Hook Lake Bog - Grass Lake State Wildlife Area"}}, {"type": "Feature", "geometry": {"type": "Point", "coordinates": [-88.7466, 42.9752]}, "properties": {"NAME": "K-9848", "TITLE": "Jefferson Marsh State Wildlife Area"}}, {"type": "Feature", "geometry": {"type": "Point", "coordinates": [-89.1618, 43.4645]}, "properties": {"NAME": "K-9850", "TITLE": "Jennings Creek State Wildlife Area"}}, {"type": "Feature", "geometry": {"type": "Point", "coordinates": [-88.8946, 42.8753]}, "properties": {"NAME": "K-9851", "TITLE": "Koshkonong State Wildlife Area"}}, {"type": "Feature", "geometry": {"type": "Point", "coordinates": [-89.6579, 44.2043]}, "properties": {"NAME": "K-9852", "TITLE": "Leola Marsh State Wildlife Area"}}, {"type": "Feature", "geometry": {"type": "Point", "coordinates": [-89.3983, 42.756]}, "properties": {"NAME": "K-9853", "TITLE": "Liberty Creek State Wildlife Area"}}, {"type": "Feature", "geometry": {"type": "Point", "coordinates": [-88.8583, 42.7825]}, "properties": {"NAME": "K-9854", "TITLE": "Lima Marsh State Wildlife Area"}}, {"type": "Feature", "geometry": {"type": "Point", "coordinates": [-89.3042, 43.4027]}, "properties": {"NAME": "K-9855", "TITLE": "Mud Lake State Wildlife Area"}}, {"type": "Feature", "geometry": {"type": "Point", "coordinates": [-92.071, 46.1132]}, "properties": {"NAME": "K-9856", "TITLE": "Namekagon Barrens State Wildlife Area"}}, {"type": "Feature", "geometry": {"type": "Point", "coordinates": [-88.2365, 42.5512]}, "properties": {"NAME": "K-9857", "TITLE": "New Munster State Wildlife Area"}}, {"type": "Feature", "geometry": {"type": "Point", "coordinates": [-88.0203, 43.6849]}, "properties": {"NAME": "K-9858", "TITLE": "Nichols Creek State Wildlife Area"}}, {"type": "Feature", "geometry": {"type": "Point", "coordinates": [-88.5929, 44.504]}, "properties": {"NAME": "K-9859", "TITLE": "Outagamie State Wildlife Area"}}, {"type": "Feature", "geometry": {"type": "Point", "coordinates": [-89.0565, 43.469]}, "properties": {"NAME": "K-9860", "TITLE": "Paradise Marsh State Wildlife Area"}}, {"type": "Feature", "geometry": {"type": "Point", "coordinates": [-88.5027, 42.9742]}, "properties": {"NAME": "K-9861", "TITLE": "Paradise Valley State Wildlife Area"}}, {"type": "Feature", "geometry": {"type": "Point", "coordinates": [-89.1924, 43.5354]}, "properties": {"NAME": "K-9862", "TITLE": "Peter Helland State Wildlife Area"}}, {"type": "Feature", "geometry": {"type": "Point", "coordinates": [-88.7012, 42.8938]}, "properties": {"NAME": "K-9863", "TITLE": "Prince's Point State Wildlife Area"}}, {"type": "Feature", "geometry": {"type": "Point", "coordinates": [-88.6179, 42.9847]}, "properties": {"NAME": "K-9864", "TITLE": "Rome Pond State Wildlife Area"}}, {"type": "Feature", "geometry": {"type": "Point", "coordinates": [-91.1157, 44.1456]}, "properties": {"NAME": "K-9866", "TITLE": "South Beaver Creek State Wildlife Area"}}, {"type": "Feature", "geometry": {"type": "Point", "coordinates": [-92.0707, 44.4357]}, "properties": {"NAME": "K-9867", "TITLE": "Tiffany State Wildlife Area"}}, {"type": "Feature", "geometry": {"type": "Point", "coordinates": [-88.7819, 42.6111]}, "properties": {"NAME": "K-9868", "TITLE": "Turtle Creek State Wildlife Area"}}, {"type": "Feature", "geometry": {"type": "Point", "coordinates": [-88.5966, 42.7197]}, "properties": {"NAME": "K-9869", "TITLE": "Turtle Valley State Wildlife Area"}}, {"type": "Feature", "geometry": {"type": "Point", "coordinates": [-91.3265, 44.0003]}, "properties": {"NAME": "K-9870", "TITLE": "Van Loon State Wildlife Area"}}, {"type": "Feature", "geometry": {"type": "Point", "coordinates": [-88.9603, 43.2038]}, "properties": {"NAME": "K-9871", "TITLE": "Waterloo State Wildlife Area"}}, {"type": "Feature", "geometry": {"type": "Point", "coordinates": [-90.8326, 46.5054]}, "properties": {"NAME": "K-9872", "TITLE": "White River State Wildlife Area"}}]}