{"type": "FeatureCollection", "name": "W4C/WP SUMMITS", "features": [{"type": "Feature", "geometry": {"type": "Point", "coordinates": [-81.3284, 35.9966]}, "properties": {"NAME": "W4C/WP-001", "TITLE": "Hickory Knob", "REGION": "NC-Western Piedmont", "ASSOCIATION": "USA - Carolinas", "POINTS": "2", "BONUSPOINTS": "0"}}, {"type": "Feature", "geometry": {"type": "Point", "coordinates": [-81.1673, 36.0255]}, "properties": {"NAME": "W4C/WP-002", "TITLE": "Chestnut Mountain", "REGION": "NC-Western Piedmont", "ASSOCIATION": "USA - Carolinas", "POINTS": "2", "BONUSPOINTS": "0"}}, {"type": "Feature", "geometry": {"type": "Point", "coordinates": [-81.2162, 36.0311]}, "properties": {"NAME": "W4C/WP-003", "TITLE": "Bald Rock Mountain", "REGION": "NC-Western Piedmont", "ASSOCIATION": "USA - Carolinas", "POINTS": "2", "BONUSPOINTS": "0"}}, {"type": "Feature", "geometry": {"type": "Point", "coordinates": [-81.2051, 36.007]}, "properties": {"NAME": "W4C/WP-004", "TITLE": "Lowe Mountain", "REGION": "NC-Western Piedmont", "ASSOCIATION": "USA - Carolinas", "POINTS": "1", "BONUSPOINTS": "0"}}, {"type": "Feature", "geometry": {"type": "Point", "coordinates": [-81.2692, 35.8833]}, "properties": {"NAME": "W4C/WP-005", "TITLE": "Bald Knob", "REGION": "NC-Western Piedmont", "ASSOCIATION": "USA - Carolinas", "POINTS": "1", "BONUSPOINTS": "0"}}, {"type": "Feature", "geometry": {"type": "Point", "coordinates": [-81.1091, 35.9723]}, "properties": {"NAME": "W4C/WP-006", "TITLE": "Rocky Face", "REGION": "NC-Western Piedmont", "ASSOCIATION": "USA - Carolinas", "POINTS": "1", "BONUSPOINTS": "0"}}, {"type": "Feature", "geometry": {"type": "Point", "coordinates": [-81.4015, 35.6606]}, "properties": {"NAME": "W4C/WP-007", "TITLE": "Baker Mountain", "REGION": "NC-Western Piedmont", "ASSOCIATION": "USA - Carolinas", "POINTS": "1", "BONUSPOINTS": "0"}}, {"type": "Feature", "geometry": {"type": "Point", "coordinates": [-81.0385, 35.9631]}, "properties": {"NAME": "W4C/WP-008", "TITLE": "Asbury Mountain", "REGION": "NC-Western Piedmont", "ASSOCIATION": "USA - Carolinas", "POINTS": "1", "BONUSPOINTS": "0"}}, {"type": "Feature", "geometry": {"type": "Point", "coordinates": [-81.1484, 35.9646]}, "properties": {"NAME": "W4C/WP-009", "TITLE": "Round Top", "REGION": "NC-Western Piedmont", "ASSOCIATION": "USA - Carolinas", "POINTS": "1", "BONUSPOINTS": "0"}}, {"type": "Feature", "geometry": {"type": "Point", "coordinates": [-81.3125, 35.2078]}, "properties": {"NAME": "W4C/WP-010", "TITLE": "The Pinnacle", "REGION": "NC-Western Piedmont", "ASSOCIATION": "USA - Carolinas", "POINTS": "1", "BONUSPOINTS": "0"}}, {"type": "Feature", "geometry": {"type": "Point", "coordinates": [-81.2767, 35.2323]}, "properties": {"NAME": "W4C/WP-011", "TITLE": "Crowders Mountain", "REGION": "NC-Western Piedmont", "ASSOCIATION": "USA - Carolinas", "POINTS": "1", "BONUSPOINTS": "0"}}, {"type": "Feature", "geometry": {"type": "Point", "coordinates": [-81.0894, 35.5672]}, "properties": {"NAME": "W4C/WP-012", "TITLE": "Anderson Mountain", "REGION": "NC-Western Piedmont", "ASSOCIATION": "USA - Carolinas", "POINTS": "1", "BONUSPOINTS": "0"}}]}