{"type": "FeatureCollection", "name": "W7M/FN SUMMITS", "features": [{"type": "Feature", "geometry": {"type": "Point", "coordinates": [-113.6105, 48.5141]}, "properties": {"NAME": "W7M/FN-001", "TITLE": "Mount Stimson", "REGION": "MT - North Flathead County", "ASSOCIATION": "USA - Montana", "POINTS": "8", "BONUSPOINTS": "3"}}, {"type": "Feature", "geometry": {"type": "Point", "coordinates": [-114.1713, 48.9439]}, "properties": {"NAME": "W7M/FN-002", "TITLE": "Kintla Peak", "REGION": "MT - North Flathead County", "ASSOCIATION": "USA - Montana", "POINTS": "8", "BONUSPOINTS": "3"}}, {"type": "Feature", "geometry": {"type": "Point", "coordinates": [-113.7219, 48.6004]}, "properties": {"NAME": "W7M/FN-003", "TITLE": "Mount Jackson", "REGION": "MT - North Flathead County", "ASSOCIATION": "USA - Montana", "POINTS": "8", "BONUSPOINTS": "3"}}, {"type": "Feature", "geometry": {"type": "Point", "coordinates": [-114.1653, 48.9561]}, "properties": {"NAME": "W7M/FN-004", "TITLE": "Kinnerly Peak", "REGION": "MT - North Flathead County", "ASSOCIATION": "USA - Montana", "POINTS": "8", "BONUSPOINTS": "3"}}, {"type": "Feature", "geometry": {"type": "Point", "coordinates": [-114.0971, 48.8786]}, "properties": {"NAME": "W7M/FN-005", "TITLE": "Rainbow Peak", "REGION": "MT - North Flathead County", "ASSOCIATION": "USA - Montana", "POINTS": "8", "BONUSPOINTS": "3"}}, {"type": "Feature", "geometry": {"type": "Point", "coordinates": [-114.0777, 48.8921]}, "properties": {"NAME": "W7M/FN-006", "TITLE": "Mount Carter", "REGION": "MT - North Flathead County", "ASSOCIATION": "USA - Montana", "POINTS": "8", "BONUSPOINTS": "3"}}, {"type": "Feature", "geometry": {"type": "Point", "coordinates": [-114.2114, 48.9981]}, "properties": {"NAME": "W7M/FN-007", "TITLE": "Long Knife Peak", "REGION": "MT - North Flathead County", "ASSOCIATION": "USA - Montana", "POINTS": "8", "BONUSPOINTS": "3"}}, {"type": "Feature", "geometry": {"type": "Point", "coordinates": [-114.024, 48.8372]}, "properties": {"NAME": "W7M/FN-008", "TITLE": "Vulture Peak", "REGION": "MT - North Flathead County", "ASSOCIATION": "USA - Montana", "POINTS": "8", "BONUSPOINTS": "3"}}, {"type": "Feature", "geometry": {"type": "Point", "coordinates": [-113.6684, 48.5819]}, "properties": {"NAME": "W7M/FN-009", "TITLE": "Blackfoot Mountain", "REGION": "MT - North Flathead County", "ASSOCIATION": "USA - Montana", "POINTS": "8", "BONUSPOINTS": "3"}}, {"type": "Feature", "geometry": {"type": "Point", "coordinates": [-113.715, 48.7426]}, "properties": {"NAME": "W7M/FN-010", "TITLE": "Mount Gould", "REGION": "MT - North Flathead County", "ASSOCIATION": "USA - Montana", "POINTS": "8", "BONUSPOINTS": "3"}}, {"type": "Feature", "geometry": {"type": "Point", "coordinates": [-113.5251, 48.4774]}, "properties": {"NAME": "W7M/FN-011", "TITLE": "Mount Phillips", "REGION": "MT - North Flathead County", "ASSOCIATION": "USA - Montana", "POINTS": "8", "BONUSPOINTS": "3"}}, {"type": "Feature", "geometry": {"type": "Point", "coordinates": [-114.2217, 48.9311]}, "properties": {"NAME": "W7M/FN-012", "TITLE": "9430", "REGION": "MT - North Flathead County", "ASSOCIATION": "USA - Montana", "POINTS": "8", "BONUSPOINTS": "3"}}, {"type": "Feature", "geometry": {"type": "Point", "coordinates": [-114.0241, 48.9627]}, "properties": {"NAME": "W7M/FN-013", "TITLE": "Chapman Peak", "REGION": "MT - North Flathead County", "ASSOCIATION": "USA - Montana", "POINTS": "8", "BONUSPOINTS": "3"}}, {"type": "Feature", "geometry": {"type": "Point", "coordinates": [-114.0308, 48.8215]}, "properties": {"NAME": "W7M/FN-014", "TITLE": "South Summit Vulture Peak", "REGION": "MT - North Flathead County", "ASSOCIATION": "USA - Montana", "POINTS": "8", "BONUSPOINTS": "3"}}, {"type": "Feature", "geometry": {"type": "Point", "coordinates": [-113.5503, 48.3914]}, "properties": {"NAME": "W7M/FN-015", "TITLE": "Mount Saint Nicholas", "REGION": "MT - North Flathead County", "ASSOCIATION": "USA - Montana", "POINTS": "8", "BONUSPOINTS": "3"}}, {"type": "Feature", "geometry": {"type": "Point", "coordinates": [-114.017, 48.9157]}, "properties": {"NAME": "W7M/FN-016", "TITLE": "The Guardhouse", "REGION": "MT - North Flathead County", "ASSOCIATION": "USA - Montana", "POINTS": "8", "BONUSPOINTS": "3"}}, {"type": "Feature", "geometry": {"type": "Point", "coordinates": [-113.5951, 48.4955]}, "properties": {"NAME": "W7M/FN-017", "TITLE": "Mount Pinchot", "REGION": "MT - North Flathead County", "ASSOCIATION": "USA - Montana", "POINTS": "8", "BONUSPOINTS": "3"}}, {"type": "Feature", "geometry": {"type": "Point", "coordinates": [-113.4508, 48.4432]}, "properties": {"NAME": "W7M/FN-018", "TITLE": "Mount Rockwell", "REGION": "MT - North Flathead County", "ASSOCIATION": "USA - Montana", "POINTS": "8", "BONUSPOINTS": "3"}}, {"type": "Feature", "geometry": {"type": "Point", "coordinates": [-113.7681, 48.6147]}, "properties": {"NAME": "W7M/FN-019", "TITLE": "Gunsight Mountain", "REGION": "MT - North Flathead County", "ASSOCIATION": "USA - Montana", "POINTS": "8", "BONUSPOINTS": "3"}}, {"type": "Feature", "geometry": {"type": "Point", "coordinates": [-113.6421, 48.6005]}, "properties": {"NAME": "W7M/FN-020", "TITLE": "Mount Logan", "REGION": "MT - North Flathead County", "ASSOCIATION": "USA - Montana", "POINTS": "8", "BONUSPOINTS": "3"}}, {"type": "Feature", "geometry": {"type": "Point", "coordinates": [-113.4663, 48.4983]}, "properties": {"NAME": "W7M/FN-021", "TITLE": "Flinsch Peak", "REGION": "MT - North Flathead County", "ASSOCIATION": "USA - Montana", "POINTS": "8", "BONUSPOINTS": "3"}}, {"type": "Feature", "geometry": {"type": "Point", "coordinates": [-114.1406, 48.9297]}, "properties": {"NAME": "W7M/FN-022", "TITLE": "Mount Peabody", "REGION": "MT - North Flathead County", "ASSOCIATION": "USA - Montana", "POINTS": "8", "BONUSPOINTS": "3"}}, {"type": "Feature", "geometry": {"type": "Point", "coordinates": [-113.703, 48.7162]}, "properties": {"NAME": "W7M/FN-023", "TITLE": "Pollock Mountain", "REGION": "MT - North Flathead County", "ASSOCIATION": "USA - Montana", "POINTS": "8", "BONUSPOINTS": "3"}}, {"type": "Feature", "geometry": {"type": "Point", "coordinates": [-114.0582, 48.8889]}, "properties": {"NAME": "W7M/FN-024", "TITLE": "9164", "REGION": "MT - North Flathead County", "ASSOCIATION": "USA - Montana", "POINTS": "8", "BONUSPOINTS": "3"}}, {"type": "Feature", "geometry": {"type": "Point", "coordinates": [-113.7601, 48.8143]}, "properties": {"NAME": "W7M/FN-025", "TITLE": "Iceberg Peak", "REGION": "MT - North Flathead County", "ASSOCIATION": "USA - Montana", "POINTS": "8", "BONUSPOINTS": "3"}}, {"type": "Feature", "geometry": {"type": "Point", "coordinates": [-113.6054, 48.4736]}, "properties": {"NAME": "W7M/FN-026", "TITLE": "Eaglehead Mountain", "REGION": "MT - North Flathead County", "ASSOCIATION": "USA - Montana", "POINTS": "8", "BONUSPOINTS": "3"}}, {"type": "Feature", "geometry": {"type": "Point", "coordinates": [-114.025, 48.9334]}, "properties": {"NAME": "W7M/FN-027", "TITLE": "9125", "REGION": "MT - North Flathead County", "ASSOCIATION": "USA - Montana", "POINTS": "8", "BONUSPOINTS": "3"}}, {"type": "Feature", "geometry": {"type": "Point", "coordinates": [-113.7874, 48.6226]}, "properties": {"NAME": "W7M/FN-028", "TITLE": "Edwards Mountain", "REGION": "MT - North Flathead County", "ASSOCIATION": "USA - Montana", "POINTS": "8", "BONUSPOINTS": "3"}}, {"type": "Feature", "geometry": {"type": "Point", "coordinates": [-113.4024, 48.4184]}, "properties": {"NAME": "W7M/FN-029", "TITLE": "Grizzly Mountain", "REGION": "MT - North Flathead County", "ASSOCIATION": "USA - Montana", "POINTS": "8", "BONUSPOINTS": "3"}}, {"type": "Feature", "geometry": {"type": "Point", "coordinates": [-114.2392, 48.9456]}, "properties": {"NAME": "W7M/FN-030", "TITLE": "Parke Peak", "REGION": "MT - North Flathead County", "ASSOCIATION": "USA - Montana", "POINTS": "8", "BONUSPOINTS": "3"}}, {"type": "Feature", "geometry": {"type": "Point", "coordinates": [-113.5701, 48.4991]}, "properties": {"NAME": "W7M/FN-031", "TITLE": "9010", "REGION": "MT - North Flathead County", "ASSOCIATION": "USA - Montana", "POINTS": "8", "BONUSPOINTS": "3"}}, {"type": "Feature", "geometry": {"type": "Point", "coordinates": [-114.1614, 48.9035]}, "properties": {"NAME": "W7M/FN-032", "TITLE": "Numa Peak", "REGION": "MT - North Flathead County", "ASSOCIATION": "USA - Montana", "POINTS": "8", "BONUSPOINTS": "3"}}, {"type": "Feature", "geometry": {"type": "Point", "coordinates": [-113.8562, 48.7083]}, "properties": {"NAME": "W7M/FN-033", "TITLE": "Heavens Peak", "REGION": "MT - North Flathead County", "ASSOCIATION": "USA - Montana", "POINTS": "6", "BONUSPOINTS": "3"}}, {"type": "Feature", "geometry": {"type": "Point", "coordinates": [-113.7749, 48.6924]}, "properties": {"NAME": "W7M/FN-034", "TITLE": "Mount Cannon", "REGION": "MT - North Flathead County", "ASSOCIATION": "USA - Montana", "POINTS": "6", "BONUSPOINTS": "3"}}, {"type": "Feature", "geometry": {"type": "Point", "coordinates": [-113.7329, 48.5755]}, "properties": {"NAME": "W7M/FN-035", "TITLE": "Walton Mountain", "REGION": "MT - North Flathead County", "ASSOCIATION": "USA - Montana", "POINTS": "6", "BONUSPOINTS": "3"}}, {"type": "Feature", "geometry": {"type": "Point", "coordinates": [-113.9386, 48.7453]}, "properties": {"NAME": "W7M/FN-036", "TITLE": "Longfellow Peak", "REGION": "MT - North Flathead County", "ASSOCIATION": "USA - Montana", "POINTS": "6", "BONUSPOINTS": "3"}}, {"type": "Feature", "geometry": {"type": "Point", "coordinates": [-113.4436, 48.378]}, "properties": {"NAME": "W7M/FN-037", "TITLE": "8888", "REGION": "MT - North Flathead County", "ASSOCIATION": "USA - Montana", "POINTS": "6", "BONUSPOINTS": "3"}}, {"type": "Feature", "geometry": {"type": "Point", "coordinates": [-113.6893, 48.5935]}, "properties": {"NAME": "W7M/FN-038", "TITLE": "8884", "REGION": "MT - North Flathead County", "ASSOCIATION": "USA - Montana", "POINTS": "6", "BONUSPOINTS": "3"}}, {"type": "Feature", "geometry": {"type": "Point", "coordinates": [-114.0582, 48.98]}, "properties": {"NAME": "W7M/FN-039", "TITLE": "Mount Custer", "REGION": "MT - North Flathead County", "ASSOCIATION": "USA - Montana", "POINTS": "6", "BONUSPOINTS": "3"}}, {"type": "Feature", "geometry": {"type": "Point", "coordinates": [-113.534, 48.5766]}, "properties": {"NAME": "W7M/FN-040", "TITLE": "Norris Mountain", "REGION": "MT - North Flathead County", "ASSOCIATION": "USA - Montana", "POINTS": "6", "BONUSPOINTS": "3"}}, {"type": "Feature", "geometry": {"type": "Point", "coordinates": [-113.8748, 48.6804]}, "properties": {"NAME": "W7M/FN-041", "TITLE": "Mount Vaught", "REGION": "MT - North Flathead County", "ASSOCIATION": "USA - Montana", "POINTS": "6", "BONUSPOINTS": "3"}}, {"type": "Feature", "geometry": {"type": "Point", "coordinates": [-113.6859, 48.5598]}, "properties": {"NAME": "W7M/FN-042", "TITLE": "8846", "REGION": "MT - North Flathead County", "ASSOCIATION": "USA - Montana", "POINTS": "6", "BONUSPOINTS": "3"}}, {"type": "Feature", "geometry": {"type": "Point", "coordinates": [-113.8408, 48.856]}, "properties": {"NAME": "W7M/FN-043", "TITLE": "Mount Kipp", "REGION": "MT - North Flathead County", "ASSOCIATION": "USA - Montana", "POINTS": "6", "BONUSPOINTS": "3"}}, {"type": "Feature", "geometry": {"type": "Point", "coordinates": [-113.5182, 48.4147]}, "properties": {"NAME": "W7M/FN-044", "TITLE": "Battlement Mountain", "REGION": "MT - North Flathead County", "ASSOCIATION": "USA - Montana", "POINTS": "6", "BONUSPOINTS": "3"}}, {"type": "Feature", "geometry": {"type": "Point", "coordinates": [-113.5137, 48.3816]}, "properties": {"NAME": "W7M/FN-045", "TITLE": "Church Butte", "REGION": "MT - North Flathead County", "ASSOCIATION": "USA - Montana", "POINTS": "6", "BONUSPOINTS": "3"}}, {"type": "Feature", "geometry": {"type": "Point", "coordinates": [-114.0456, 48.9334]}, "properties": {"NAME": "W7M/FN-046", "TITLE": "Thunderbird Mountain", "REGION": "MT - North Flathead County", "ASSOCIATION": "USA - Montana", "POINTS": "6", "BONUSPOINTS": "3"}}, {"type": "Feature", "geometry": {"type": "Point", "coordinates": [-114.1044, 48.8664]}, "properties": {"NAME": "W7M/FN-047", "TITLE": "Square Peak", "REGION": "MT - North Flathead County", "ASSOCIATION": "USA - Montana", "POINTS": "6", "BONUSPOINTS": "3"}}, {"type": "Feature", "geometry": {"type": "Point", "coordinates": [-113.3703, 48.3539]}, "properties": {"NAME": "W7M/FN-048", "TITLE": "Summit Mountain", "REGION": "MT - North Flathead County", "ASSOCIATION": "USA - Montana", "POINTS": "6", "BONUSPOINTS": "3"}}, {"type": "Feature", "geometry": {"type": "Point", "coordinates": [-114.2017, 48.9117]}, "properties": {"NAME": "W7M/FN-049", "TITLE": "Reuter Peak", "REGION": "MT - North Flathead County", "ASSOCIATION": "USA - Montana", "POINTS": "6", "BONUSPOINTS": "3"}}, {"type": "Feature", "geometry": {"type": "Point", "coordinates": [-113.4729, 48.5138]}, "properties": {"NAME": "W7M/FN-050", "TITLE": "Mount Morgan", "REGION": "MT - North Flathead County", "ASSOCIATION": "USA - Montana", "POINTS": "6", "BONUSPOINTS": "3"}}, {"type": "Feature", "geometry": {"type": "Point", "coordinates": [-113.7411, 48.6925]}, "properties": {"NAME": "W7M/FN-051", "TITLE": "Clements Mountain", "REGION": "MT - North Flathead County", "ASSOCIATION": "USA - Montana", "POINTS": "6", "BONUSPOINTS": "3"}}, {"type": "Feature", "geometry": {"type": "Point", "coordinates": [-113.5508, 48.4459]}, "properties": {"NAME": "W7M/FN-052", "TITLE": "8710", "REGION": "MT - North Flathead County", "ASSOCIATION": "USA - Montana", "POINTS": "6", "BONUSPOINTS": "3"}}, {"type": "Feature", "geometry": {"type": "Point", "coordinates": [-113.7772, 48.3356]}, "properties": {"NAME": "W7M/FN-053", "TITLE": "Great Northern Mountain", "REGION": "MT - North Flathead County", "ASSOCIATION": "USA - Montana", "POINTS": "6", "BONUSPOINTS": "3"}}, {"type": "Feature", "geometry": {"type": "Point", "coordinates": [-113.569, 48.4339]}, "properties": {"NAME": "W7M/FN-054", "TITLE": "South Cloudcroft Peaks", "REGION": "MT - North Flathead County", "ASSOCIATION": "USA - Montana", "POINTS": "6", "BONUSPOINTS": "3"}}, {"type": "Feature", "geometry": {"type": "Point", "coordinates": [-113.7637, 48.6669]}, "properties": {"NAME": "W7M/FN-055", "TITLE": "Bearhat Mountain", "REGION": "MT - North Flathead County", "ASSOCIATION": "USA - Montana", "POINTS": "6", "BONUSPOINTS": "3"}}, {"type": "Feature", "geometry": {"type": "Point", "coordinates": [-114.2431, 48.9534]}, "properties": {"NAME": "W7M/FN-056", "TITLE": "8680", "REGION": "MT - North Flathead County", "ASSOCIATION": "USA - Montana", "POINTS": "6", "BONUSPOINTS": "3"}}, {"type": "Feature", "geometry": {"type": "Point", "coordinates": [-113.5904, 48.4564]}, "properties": {"NAME": "W7M/FN-057", "TITLE": "Peril Peak", "REGION": "MT - North Flathead County", "ASSOCIATION": "USA - Montana", "POINTS": "6", "BONUSPOINTS": "3"}}, {"type": "Feature", "geometry": {"type": "Point", "coordinates": [-113.4736, 48.5524]}, "properties": {"NAME": "W7M/FN-058", "TITLE": "8619", "REGION": "MT - North Flathead County", "ASSOCIATION": "USA - Montana", "POINTS": "6", "BONUSPOINTS": "3"}}, {"type": "Feature", "geometry": {"type": "Point", "coordinates": [-113.6172, 48.5878]}, "properties": {"NAME": "W7M/FN-059", "TITLE": "Clyde Peak", "REGION": "MT - North Flathead County", "ASSOCIATION": "USA - Montana", "POINTS": "6", "BONUSPOINTS": "3"}}, {"type": "Feature", "geometry": {"type": "Point", "coordinates": [-113.3867, 48.343]}, "properties": {"NAME": "W7M/FN-060", "TITLE": "Little Dog Mountain", "REGION": "MT - North Flathead County", "ASSOCIATION": "USA - Montana", "POINTS": "6", "BONUSPOINTS": "3"}}, {"type": "Feature", "geometry": {"type": "Point", "coordinates": [-113.5162, 48.5566]}, "properties": {"NAME": "W7M/FN-061", "TITLE": "Razoredge Mountain", "REGION": "MT - North Flathead County", "ASSOCIATION": "USA - Montana", "POINTS": "6", "BONUSPOINTS": "3"}}, {"type": "Feature", "geometry": {"type": "Point", "coordinates": [-113.4843, 48.4158]}, "properties": {"NAME": "W7M/FN-062", "TITLE": "Vigil Peak", "REGION": "MT - North Flathead County", "ASSOCIATION": "USA - Montana", "POINTS": "6", "BONUSPOINTS": "3"}}, {"type": "Feature", "geometry": {"type": "Point", "coordinates": [-113.7558, 48.3247]}, "properties": {"NAME": "W7M/FN-063", "TITLE": "Mount Grant", "REGION": "MT - North Flathead County", "ASSOCIATION": "USA - Montana", "POINTS": "6", "BONUSPOINTS": "3"}}, {"type": "Feature", "geometry": {"type": "Point", "coordinates": [-113.4318, 48.3989]}, "properties": {"NAME": "W7M/FN-064", "TITLE": "Mount Despair", "REGION": "MT - North Flathead County", "ASSOCIATION": "USA - Montana", "POINTS": "6", "BONUSPOINTS": "3"}}, {"type": "Feature", "geometry": {"type": "Point", "coordinates": [-113.741, 48.6567]}, "properties": {"NAME": "W7M/FN-065", "TITLE": "The Dragon's Tail", "REGION": "MT - North Flathead County", "ASSOCIATION": "USA - Montana", "POINTS": "6", "BONUSPOINTS": "3"}}, {"type": "Feature", "geometry": {"type": "Point", "coordinates": [-113.573, 48.5763]}, "properties": {"NAME": "W7M/FN-066", "TITLE": "Goat Peak", "REGION": "MT - North Flathead County", "ASSOCIATION": "USA - Montana", "POINTS": "6", "BONUSPOINTS": "3"}}, {"type": "Feature", "geometry": {"type": "Point", "coordinates": [-113.4709, 48.3416]}, "properties": {"NAME": "W7M/FN-067", "TITLE": "Sheep Mountain", "REGION": "MT - North Flathead County", "ASSOCIATION": "USA - Montana", "POINTS": "6", "BONUSPOINTS": "3"}}, {"type": "Feature", "geometry": {"type": "Point", "coordinates": [-114.0471, 48.8058]}, "properties": {"NAME": "W7M/FN-068", "TITLE": "Logging Mountain", "REGION": "MT - North Flathead County", "ASSOCIATION": "USA - Montana", "POINTS": "6", "BONUSPOINTS": "3"}}, {"type": "Feature", "geometry": {"type": "Point", "coordinates": [-113.8189, 48.6379]}, "properties": {"NAME": "W7M/FN-069", "TITLE": "Mount Brown", "REGION": "MT - North Flathead County", "ASSOCIATION": "USA - Montana", "POINTS": "6", "BONUSPOINTS": "3"}}, {"type": "Feature", "geometry": {"type": "Point", "coordinates": [-113.4665, 48.4746]}, "properties": {"NAME": "W7M/FN-070", "TITLE": "Mount Helen", "REGION": "MT - North Flathead County", "ASSOCIATION": "USA - Montana", "POINTS": "6", "BONUSPOINTS": "3"}}, {"type": "Feature", "geometry": {"type": "Point", "coordinates": [-114.083, 48.9722]}, "properties": {"NAME": "W7M/FN-071", "TITLE": "8528", "REGION": "MT - North Flathead County", "ASSOCIATION": "USA - Montana", "POINTS": "6", "BONUSPOINTS": "3"}}, {"type": "Feature", "geometry": {"type": "Point", "coordinates": [-114.0912, 48.9555]}, "properties": {"NAME": "W7M/FN-072", "TITLE": "Boulder Peak", "REGION": "MT - North Flathead County", "ASSOCIATION": "USA - Montana", "POINTS": "6", "BONUSPOINTS": "3"}}, {"type": "Feature", "geometry": {"type": "Point", "coordinates": [-114.0469, 48.928]}, "properties": {"NAME": "W7M/FN-073", "TITLE": "8520", "REGION": "MT - North Flathead County", "ASSOCIATION": "USA - Montana", "POINTS": "6", "BONUSPOINTS": "3"}}, {"type": "Feature", "geometry": {"type": "Point", "coordinates": [-113.3817, 48.417]}, "properties": {"NAME": "W7M/FN-074", "TITLE": "8508", "REGION": "MT - North Flathead County", "ASSOCIATION": "USA - Montana", "POINTS": "6", "BONUSPOINTS": "3"}}, {"type": "Feature", "geometry": {"type": "Point", "coordinates": [-113.4791, 48.4531]}, "properties": {"NAME": "W7M/FN-075", "TITLE": "Lone Walker Mountain", "REGION": "MT - North Flathead County", "ASSOCIATION": "USA - Montana", "POINTS": "6", "BONUSPOINTS": "3"}}, {"type": "Feature", "geometry": {"type": "Point", "coordinates": [-114.026, 48.8722]}, "properties": {"NAME": "W7M/FN-076", "TITLE": "8500", "REGION": "MT - North Flathead County", "ASSOCIATION": "USA - Montana", "POINTS": "6", "BONUSPOINTS": "3"}}, {"type": "Feature", "geometry": {"type": "Point", "coordinates": [-113.4609, 48.3589]}, "properties": {"NAME": "W7M/FN-077", "TITLE": "Brave Dog Mountain", "REGION": "MT - North Flathead County", "ASSOCIATION": "USA - Montana", "POINTS": "6", "BONUSPOINTS": "3"}}, {"type": "Feature", "geometry": {"type": "Point", "coordinates": [-113.5864, 48.4389]}, "properties": {"NAME": "W7M/FN-078", "TITLE": "8455", "REGION": "MT - North Flathead County", "ASSOCIATION": "USA - Montana", "POINTS": "6", "BONUSPOINTS": "3"}}, {"type": "Feature", "geometry": {"type": "Point", "coordinates": [-113.5065, 48.5246]}, "properties": {"NAME": "W7M/FN-079", "TITLE": "Tinkham Mountain", "REGION": "MT - North Flathead County", "ASSOCIATION": "USA - Montana", "POINTS": "6", "BONUSPOINTS": "3"}}, {"type": "Feature", "geometry": {"type": "Point", "coordinates": [-113.767, 48.7854]}, "properties": {"NAME": "W7M/FN-080", "TITLE": "Swiftcurrent Mountain", "REGION": "MT - North Flathead County", "ASSOCIATION": "USA - Montana", "POINTS": "6", "BONUSPOINTS": "3"}}, {"type": "Feature", "geometry": {"type": "Point", "coordinates": [-113.9617, 48.7938]}, "properties": {"NAME": "W7M/FN-081", "TITLE": "8414", "REGION": "MT - North Flathead County", "ASSOCIATION": "USA - Montana", "POINTS": "6", "BONUSPOINTS": "3"}}, {"type": "Feature", "geometry": {"type": "Point", "coordinates": [-113.3564, 48.4239]}, "properties": {"NAME": "W7M/FN-082", "TITLE": "Bearhead Mountain", "REGION": "MT - North Flathead County", "ASSOCIATION": "USA - Montana", "POINTS": "6", "BONUSPOINTS": "3"}}, {"type": "Feature", "geometry": {"type": "Point", "coordinates": [-113.4055, 48.4013]}, "properties": {"NAME": "W7M/FN-083", "TITLE": "8406", "REGION": "MT - North Flathead County", "ASSOCIATION": "USA - Montana", "POINTS": "6", "BONUSPOINTS": "3"}}, {"type": "Feature", "geometry": {"type": "Point", "coordinates": [-113.6628, 48.5477]}, "properties": {"NAME": "W7M/FN-084", "TITLE": "8340", "REGION": "MT - North Flathead County", "ASSOCIATION": "USA - Montana", "POINTS": "6", "BONUSPOINTS": "3"}}, {"type": "Feature", "geometry": {"type": "Point", "coordinates": [-113.4984, 48.4339]}, "properties": {"NAME": "W7M/FN-085", "TITLE": "Caper Peak", "REGION": "MT - North Flathead County", "ASSOCIATION": "USA - Montana", "POINTS": "6", "BONUSPOINTS": "3"}}, {"type": "Feature", "geometry": {"type": "Point", "coordinates": [-114.1586, 48.9944]}, "properties": {"NAME": "W7M/FN-086", "TITLE": "8290", "REGION": "MT - North Flathead County", "ASSOCIATION": "USA - Montana", "POINTS": "6", "BONUSPOINTS": "3"}}, {"type": "Feature", "geometry": {"type": "Point", "coordinates": [-113.9735, 48.768]}, "properties": {"NAME": "W7M/FN-087", "TITLE": "Anaconda Peak", "REGION": "MT - North Flathead County", "ASSOCIATION": "USA - Montana", "POINTS": "6", "BONUSPOINTS": "3"}}, {"type": "Feature", "geometry": {"type": "Point", "coordinates": [-113.4918, 48.3916]}, "properties": {"NAME": "W7M/FN-088", "TITLE": "Statuary Mountain", "REGION": "MT - North Flathead County", "ASSOCIATION": "USA - Montana", "POINTS": "6", "BONUSPOINTS": "3"}}, {"type": "Feature", "geometry": {"type": "Point", "coordinates": [-113.6556, 48.4902]}, "properties": {"NAME": "W7M/FN-089", "TITLE": "Threesuns Mountain", "REGION": "MT - North Flathead County", "ASSOCIATION": "USA - Montana", "POINTS": "6", "BONUSPOINTS": "3"}}, {"type": "Feature", "geometry": {"type": "Point", "coordinates": [-114.1075, 48.9689]}, "properties": {"NAME": "W7M/FN-090", "TITLE": "8201", "REGION": "MT - North Flathead County", "ASSOCIATION": "USA - Montana", "POINTS": "6", "BONUSPOINTS": "3"}}, {"type": "Feature", "geometry": {"type": "Point", "coordinates": [-113.9897, 48.8408]}, "properties": {"NAME": "W7M/FN-091", "TITLE": "Nahsukin Mountain", "REGION": "MT - North Flathead County", "ASSOCIATION": "USA - Montana", "POINTS": "6", "BONUSPOINTS": "3"}}, {"type": "Feature", "geometry": {"type": "Point", "coordinates": [-114.1224, 48.9486]}, "properties": {"NAME": "W7M/FN-092", "TITLE": "8190", "REGION": "MT - North Flathead County", "ASSOCIATION": "USA - Montana", "POINTS": "6", "BONUSPOINTS": "3"}}, {"type": "Feature", "geometry": {"type": "Point", "coordinates": [-113.7363, 48.7042]}, "properties": {"NAME": "W7M/FN-093", "TITLE": "Mount Oberlin", "REGION": "MT - North Flathead County", "ASSOCIATION": "USA - Montana", "POINTS": "6", "BONUSPOINTS": "3"}}, {"type": "Feature", "geometry": {"type": "Point", "coordinates": [-114.0063, 48.8649]}, "properties": {"NAME": "W7M/FN-094", "TITLE": "Redhorn Peak", "REGION": "MT - North Flathead County", "ASSOCIATION": "USA - Montana", "POINTS": "6", "BONUSPOINTS": "3"}}, {"type": "Feature", "geometry": {"type": "Point", "coordinates": [-114.1064, 48.8527]}, "properties": {"NAME": "W7M/FN-095", "TITLE": "North Cerulean Ridge", "REGION": "MT - North Flathead County", "ASSOCIATION": "USA - Montana", "POINTS": "6", "BONUSPOINTS": "3"}}, {"type": "Feature", "geometry": {"type": "Point", "coordinates": [-114.5775, 48.795]}, "properties": {"NAME": "W7M/FN-096", "TITLE": "Nasukoin Mountain", "REGION": "MT - North Flathead County", "ASSOCIATION": "USA - Montana", "POINTS": "6", "BONUSPOINTS": "3"}}, {"type": "Feature", "geometry": {"type": "Point", "coordinates": [-113.7331, 48.3081]}, "properties": {"NAME": "W7M/FN-097", "TITLE": "Mount Liebig", "REGION": "MT - North Flathead County", "ASSOCIATION": "USA - Montana", "POINTS": "6", "BONUSPOINTS": "3"}}, {"type": "Feature", "geometry": {"type": "Point", "coordinates": [-113.765, 48.5793]}, "properties": {"NAME": "W7M/FN-098", "TITLE": "8022", "REGION": "MT - North Flathead County", "ASSOCIATION": "USA - Montana", "POINTS": "6", "BONUSPOINTS": "3"}}, {"type": "Feature", "geometry": {"type": "Point", "coordinates": [-113.9946, 48.7492]}, "properties": {"NAME": "W7M/FN-099", "TITLE": "Wolf Gun Mountain", "REGION": "MT - North Flathead County", "ASSOCIATION": "USA - Montana", "POINTS": "6", "BONUSPOINTS": "3"}}, {"type": "Feature", "geometry": {"type": "Point", "coordinates": [-113.7032, 48.5245]}, "properties": {"NAME": "W7M/FN-100", "TITLE": "7972", "REGION": "MT - North Flathead County", "ASSOCIATION": "USA - Montana", "POINTS": "6", "BONUSPOINTS": "3"}}, {"type": "Feature", "geometry": {"type": "Point", "coordinates": [-114.044, 48.7933]}, "properties": {"NAME": "W7M/FN-101", "TITLE": "7961", "REGION": "MT - North Flathead County", "ASSOCIATION": "USA - Montana", "POINTS": "6", "BONUSPOINTS": "3"}}, {"type": "Feature", "geometry": {"type": "Point", "coordinates": [-113.3333, 48.3872]}, "properties": {"NAME": "W7M/FN-102", "TITLE": "Calf Robe Mountain", "REGION": "MT - North Flathead County", "ASSOCIATION": "USA - Montana", "POINTS": "6", "BONUSPOINTS": "3"}}, {"type": "Feature", "geometry": {"type": "Point", "coordinates": [-113.9152, 48.732]}, "properties": {"NAME": "W7M/FN-103", "TITLE": "7907", "REGION": "MT - North Flathead County", "ASSOCIATION": "USA - Montana", "POINTS": "6", "BONUSPOINTS": "3"}}, {"type": "Feature", "geometry": {"type": "Point", "coordinates": [-113.3486, 48.4012]}, "properties": {"NAME": "W7M/FN-104", "TITLE": "Red Crow Mountain", "REGION": "MT - North Flathead County", "ASSOCIATION": "USA - Montana", "POINTS": "6", "BONUSPOINTS": "3"}}, {"type": "Feature", "geometry": {"type": "Point", "coordinates": [-113.7852, 48.6356]}, "properties": {"NAME": "W7M/FN-105", "TITLE": "Little Matterhorn", "REGION": "MT - North Flathead County", "ASSOCIATION": "USA - Montana", "POINTS": "6", "BONUSPOINTS": "3"}}, {"type": "Feature", "geometry": {"type": "Point", "coordinates": [-113.8373, 48.4094]}, "properties": {"NAME": "W7M/FN-106", "TITLE": "Mount Penrose", "REGION": "MT - North Flathead County", "ASSOCIATION": "USA - Montana", "POINTS": "6", "BONUSPOINTS": "3"}}, {"type": "Feature", "geometry": {"type": "Point", "coordinates": [-113.9975, 48.7589]}, "properties": {"NAME": "W7M/FN-107", "TITLE": "7862", "REGION": "MT - North Flathead County", "ASSOCIATION": "USA - Montana", "POINTS": "6", "BONUSPOINTS": "3"}}, {"type": "Feature", "geometry": {"type": "Point", "coordinates": [-113.7244, 48.2769]}, "properties": {"NAME": "W7M/FN-108", "TITLE": "7852", "REGION": "MT - North Flathead County", "ASSOCIATION": "USA - Montana", "POINTS": "6", "BONUSPOINTS": "3"}}, {"type": "Feature", "geometry": {"type": "Point", "coordinates": [-114.5814, 48.8144]}, "properties": {"NAME": "W7M/FN-109", "TITLE": "7849", "REGION": "MT - North Flathead County", "ASSOCIATION": "USA - Montana", "POINTS": "6", "BONUSPOINTS": "3"}}, {"type": "Feature", "geometry": {"type": "Point", "coordinates": [-113.4445, 48.3066]}, "properties": {"NAME": "W7M/FN-110", "TITLE": "Elk Mountain", "REGION": "MT - North Flathead County", "ASSOCIATION": "USA - Montana", "POINTS": "6", "BONUSPOINTS": "3"}}, {"type": "Feature", "geometry": {"type": "Point", "coordinates": [-113.9078, 48.721]}, "properties": {"NAME": "W7M/FN-111", "TITLE": "7820", "REGION": "MT - North Flathead County", "ASSOCIATION": "USA - Montana", "POINTS": "6", "BONUSPOINTS": "3"}}, {"type": "Feature", "geometry": {"type": "Point", "coordinates": [-114.6515, 48.8703]}, "properties": {"NAME": "W7M/FN-112", "TITLE": "Mount Thompson-Seton", "REGION": "MT - North Flathead County", "ASSOCIATION": "USA - Montana", "POINTS": "6", "BONUSPOINTS": "3"}}, {"type": "Feature", "geometry": {"type": "Point", "coordinates": [-113.7297, 48.2847]}, "properties": {"NAME": "W7M/FN-113", "TITLE": "7804", "REGION": "MT - North Flathead County", "ASSOCIATION": "USA - Montana", "POINTS": "6", "BONUSPOINTS": "3"}}, {"type": "Feature", "geometry": {"type": "Point", "coordinates": [-113.6967, 48.2622]}, "properties": {"NAME": "W7M/FN-114", "TITLE": "7798", "REGION": "MT - North Flathead County", "ASSOCIATION": "USA - Montana", "POINTS": "6", "BONUSPOINTS": "3"}}, {"type": "Feature", "geometry": {"type": "Point", "coordinates": [-114.6749, 48.9764]}, "properties": {"NAME": "W7M/FN-115", "TITLE": "Tuchuck Mountain", "REGION": "MT - North Flathead County", "ASSOCIATION": "USA - Montana", "POINTS": "6", "BONUSPOINTS": "3"}}, {"type": "Feature", "geometry": {"type": "Point", "coordinates": [-114.1753, 48.8894]}, "properties": {"NAME": "W7M/FN-116", "TITLE": "North Numa Ridge", "REGION": "MT - North Flathead County", "ASSOCIATION": "USA - Montana", "POINTS": "6", "BONUSPOINTS": "3"}}, {"type": "Feature", "geometry": {"type": "Point", "coordinates": [-113.815, 48.3959]}, "properties": {"NAME": "W7M/FN-117", "TITLE": "Nyack Mountain", "REGION": "MT - North Flathead County", "ASSOCIATION": "USA - Montana", "POINTS": "6", "BONUSPOINTS": "3"}}, {"type": "Feature", "geometry": {"type": "Point", "coordinates": [-113.894, 48.66]}, "properties": {"NAME": "W7M/FN-118", "TITLE": "Stanton Mountain", "REGION": "MT - North Flathead County", "ASSOCIATION": "USA - Montana", "POINTS": "6", "BONUSPOINTS": "3"}}, {"type": "Feature", "geometry": {"type": "Point", "coordinates": [-113.5408, 48.2589]}, "properties": {"NAME": "W7M/FN-119", "TITLE": "Running Rabbit Mountain", "REGION": "MT - North Flathead County", "ASSOCIATION": "USA - Montana", "POINTS": "6", "BONUSPOINTS": "3"}}, {"type": "Feature", "geometry": {"type": "Point", "coordinates": [-113.88, 48.4109]}, "properties": {"NAME": "W7M/FN-120", "TITLE": "Great Bear Mountain", "REGION": "MT - North Flathead County", "ASSOCIATION": "USA - Montana", "POINTS": "6", "BONUSPOINTS": "3"}}, {"type": "Feature", "geometry": {"type": "Point", "coordinates": [-113.8687, 48.4325]}, "properties": {"NAME": "W7M/FN-121", "TITLE": "Triangle Benchmark", "REGION": "MT - North Flathead County", "ASSOCIATION": "USA - Montana", "POINTS": "6", "BONUSPOINTS": "3"}}, {"type": "Feature", "geometry": {"type": "Point", "coordinates": [-114.5315, 48.8035]}, "properties": {"NAME": "W7M/FN-122", "TITLE": "7624", "REGION": "MT - North Flathead County", "ASSOCIATION": "USA - Montana", "POINTS": "6", "BONUSPOINTS": "3"}}, {"type": "Feature", "geometry": {"type": "Point", "coordinates": [-113.2979, 48.2843]}, "properties": {"NAME": "W7M/FN-123", "TITLE": "Elkcalf Mountain", "REGION": "MT - North Flathead County", "ASSOCIATION": "USA - Montana", "POINTS": "6", "BONUSPOINTS": "3"}}, {"type": "Feature", "geometry": {"type": "Point", "coordinates": [-114.5521, 48.7499]}, "properties": {"NAME": "W7M/FN-124", "TITLE": "Red Benchmark", "REGION": "MT - North Flathead County", "ASSOCIATION": "USA - Montana", "POINTS": "6", "BONUSPOINTS": "3"}}, {"type": "Feature", "geometry": {"type": "Point", "coordinates": [-114.5725, 48.9983]}, "properties": {"NAME": "W7M/FN-125", "TITLE": "Mount Hefty", "REGION": "MT - North Flathead County", "ASSOCIATION": "USA - Montana", "POINTS": "6", "BONUSPOINTS": "3"}}, {"type": "Feature", "geometry": {"type": "Point", "coordinates": [-113.8852, 48.4213]}, "properties": {"NAME": "W7M/FN-126", "TITLE": "Triangle Peak", "REGION": "MT - North Flathead County", "ASSOCIATION": "USA - Montana", "POINTS": "6", "BONUSPOINTS": "3"}}, {"type": "Feature", "geometry": {"type": "Point", "coordinates": [-113.793, 48.378]}, "properties": {"NAME": "W7M/FN-127", "TITLE": "7540", "REGION": "MT - North Flathead County", "ASSOCIATION": "USA - Montana", "POINTS": "6", "BONUSPOINTS": "3"}}, {"type": "Feature", "geometry": {"type": "Point", "coordinates": [-114.4263, 48.6433]}, "properties": {"NAME": "W7M/FN-128", "TITLE": "Moose Peak", "REGION": "MT - North Flathead County", "ASSOCIATION": "USA - Montana", "POINTS": "6", "BONUSPOINTS": "3"}}, {"type": "Feature", "geometry": {"type": "Point", "coordinates": [-113.9001, 48.4452]}, "properties": {"NAME": "W7M/FN-129", "TITLE": "7460", "REGION": "MT - North Flathead County", "ASSOCIATION": "USA - Montana", "POINTS": "4", "BONUSPOINTS": "3"}}, {"type": "Feature", "geometry": {"type": "Point", "coordinates": [-114.6074, 48.7522]}, "properties": {"NAME": "W7M/FN-130", "TITLE": "Whitefish Mountain", "REGION": "MT - North Flathead County", "ASSOCIATION": "USA - Montana", "POINTS": "4", "BONUSPOINTS": "3"}}, {"type": "Feature", "geometry": {"type": "Point", "coordinates": [-114.5507, 48.6999]}, "properties": {"NAME": "W7M/FN-131", "TITLE": "7445", "REGION": "MT - North Flathead County", "ASSOCIATION": "USA - Montana", "POINTS": "4", "BONUSPOINTS": "3"}}, {"type": "Feature", "geometry": {"type": "Point", "coordinates": [-114.6892, 48.8555]}, "properties": {"NAME": "W7M/FN-132", "TITLE": "7442", "REGION": "MT - North Flathead County", "ASSOCIATION": "USA - Montana", "POINTS": "4", "BONUSPOINTS": "3"}}, {"type": "Feature", "geometry": {"type": "Point", "coordinates": [-114.0772, 48.3036]}, "properties": {"NAME": "W7M/FN-133", "TITLE": "Doris Mountain", "REGION": "MT - North Flathead County", "ASSOCIATION": "USA - Montana", "POINTS": "4", "BONUSPOINTS": "3"}}, {"type": "Feature", "geometry": {"type": "Point", "coordinates": [-113.7977, 48.36]}, "properties": {"NAME": "W7M/FN-134", "TITLE": "7429", "REGION": "MT - North Flathead County", "ASSOCIATION": "USA - Montana", "POINTS": "4", "BONUSPOINTS": "3"}}, {"type": "Feature", "geometry": {"type": "Point", "coordinates": [-114.4907, 48.7296]}, "properties": {"NAME": "W7M/FN-135", "TITLE": "Coal Ridge", "REGION": "MT - North Flathead County", "ASSOCIATION": "USA - Montana", "POINTS": "4", "BONUSPOINTS": "3"}}, {"type": "Feature", "geometry": {"type": "Point", "coordinates": [-114.4044, 48.6575]}, "properties": {"NAME": "W7M/FN-136", "TITLE": "7421", "REGION": "MT - North Flathead County", "ASSOCIATION": "USA - Montana", "POINTS": "4", "BONUSPOINTS": "3"}}, {"type": "Feature", "geometry": {"type": "Point", "coordinates": [-114.4199, 48.7355]}, "properties": {"NAME": "W7M/FN-137", "TITLE": "Moran Peak", "REGION": "MT - North Flathead County", "ASSOCIATION": "USA - Montana", "POINTS": "4", "BONUSPOINTS": "3"}}, {"type": "Feature", "geometry": {"type": "Point", "coordinates": [-114.6612, 48.8066]}, "properties": {"NAME": "W7M/FN-138", "TITLE": "Huntsberger Peak", "REGION": "MT - North Flathead County", "ASSOCIATION": "USA - Montana", "POINTS": "4", "BONUSPOINTS": "3"}}, {"type": "Feature", "geometry": {"type": "Point", "coordinates": [-113.9372, 48.6865]}, "properties": {"NAME": "W7M/FN-139", "TITLE": "Rogers Peak", "REGION": "MT - North Flathead County", "ASSOCIATION": "USA - Montana", "POINTS": "4", "BONUSPOINTS": "3"}}, {"type": "Feature", "geometry": {"type": "Point", "coordinates": [-114.6921, 48.6847]}, "properties": {"NAME": "W7M/FN-140", "TITLE": "Stryker Peak", "REGION": "MT - North Flathead County", "ASSOCIATION": "USA - Montana", "POINTS": "4", "BONUSPOINTS": "3"}}, {"type": "Feature", "geometry": {"type": "Point", "coordinates": [-114.6229, 48.8837]}, "properties": {"NAME": "W7M/FN-141", "TITLE": "7331", "REGION": "MT - North Flathead County", "ASSOCIATION": "USA - Montana", "POINTS": "4", "BONUSPOINTS": "3"}}, {"type": "Feature", "geometry": {"type": "Point", "coordinates": [-114.4863, 48.6515]}, "properties": {"NAME": "W7M/FN-142", "TITLE": "7325", "REGION": "MT - North Flathead County", "ASSOCIATION": "USA - Montana", "POINTS": "4", "BONUSPOINTS": "3"}}, {"type": "Feature", "geometry": {"type": "Point", "coordinates": [-114.6296, 48.9552]}, "properties": {"NAME": "W7M/FN-143", "TITLE": "7315", "REGION": "MT - North Flathead County", "ASSOCIATION": "USA - Montana", "POINTS": "4", "BONUSPOINTS": "3"}}, {"type": "Feature", "geometry": {"type": "Point", "coordinates": [-114.5308, 48.9133]}, "properties": {"NAME": "W7M/FN-144", "TITLE": "Cleft Rock Mountain", "REGION": "MT - North Flathead County", "ASSOCIATION": "USA - Montana", "POINTS": "4", "BONUSPOINTS": "3"}}, {"type": "Feature", "geometry": {"type": "Point", "coordinates": [-114.6769, 48.9239]}, "properties": {"NAME": "W7M/FN-145", "TITLE": "Review Mountain", "REGION": "MT - North Flathead County", "ASSOCIATION": "USA - Montana", "POINTS": "4", "BONUSPOINTS": "3"}}, {"type": "Feature", "geometry": {"type": "Point", "coordinates": [-114.6834, 48.7189]}, "properties": {"NAME": "W7M/FN-146", "TITLE": "Herrig Mountain", "REGION": "MT - North Flathead County", "ASSOCIATION": "USA - Montana", "POINTS": "4", "BONUSPOINTS": "3"}}, {"type": "Feature", "geometry": {"type": "Point", "coordinates": [-114.6302, 48.8005]}, "properties": {"NAME": "W7M/FN-147", "TITLE": "Mount Young", "REGION": "MT - North Flathead County", "ASSOCIATION": "USA - Montana", "POINTS": "4", "BONUSPOINTS": "3"}}, {"type": "Feature", "geometry": {"type": "Point", "coordinates": [-114.5136, 48.6531]}, "properties": {"NAME": "W7M/FN-148", "TITLE": "7260", "REGION": "MT - North Flathead County", "ASSOCIATION": "USA - Montana", "POINTS": "4", "BONUSPOINTS": "3"}}, {"type": "Feature", "geometry": {"type": "Point", "coordinates": [-114.5754, 48.76]}, "properties": {"NAME": "W7M/FN-149", "TITLE": "Link Mountain", "REGION": "MT - North Flathead County", "ASSOCIATION": "USA - Montana", "POINTS": "4", "BONUSPOINTS": "3"}}, {"type": "Feature", "geometry": {"type": "Point", "coordinates": [-114.5501, 48.9663]}, "properties": {"NAME": "W7M/FN-150", "TITLE": "7220", "REGION": "MT - North Flathead County", "ASSOCIATION": "USA - Montana", "POINTS": "4", "BONUSPOINTS": "3"}}, {"type": "Feature", "geometry": {"type": "Point", "coordinates": [-113.6678, 48.3039]}, "properties": {"NAME": "W7M/FN-151", "TITLE": "Paola Ridge", "REGION": "MT - North Flathead County", "ASSOCIATION": "USA - Montana", "POINTS": "4", "BONUSPOINTS": "3"}}, {"type": "Feature", "geometry": {"type": "Point", "coordinates": [-114.7268, 48.8283]}, "properties": {"NAME": "W7M/FN-152", "TITLE": "Mount Locke", "REGION": "MT - North Flathead County", "ASSOCIATION": "USA - Montana", "POINTS": "4", "BONUSPOINTS": "3"}}, {"type": "Feature", "geometry": {"type": "Point", "coordinates": [-114.2471, 48.5419]}, "properties": {"NAME": "W7M/FN-153", "TITLE": "Standard Peak", "REGION": "MT - North Flathead County", "ASSOCIATION": "USA - Montana", "POINTS": "4", "BONUSPOINTS": "3"}}, {"type": "Feature", "geometry": {"type": "Point", "coordinates": [-113.7694, 48.4891]}, "properties": {"NAME": "W7M/FN-154", "TITLE": "Loneman Mountain", "REGION": "MT - North Flathead County", "ASSOCIATION": "USA - Montana", "POINTS": "4", "BONUSPOINTS": "3"}}, {"type": "Feature", "geometry": {"type": "Point", "coordinates": [-113.6783, 48.2725]}, "properties": {"NAME": "W7M/FN-155", "TITLE": "7180", "REGION": "MT - North Flathead County", "ASSOCIATION": "USA - Montana", "POINTS": "4", "BONUSPOINTS": "3"}}, {"type": "Feature", "geometry": {"type": "Point", "coordinates": [-114.5118, 48.7177]}, "properties": {"NAME": "W7M/FN-156", "TITLE": "West Coal Ridge", "REGION": "MT - North Flathead County", "ASSOCIATION": "USA - Montana", "POINTS": "4", "BONUSPOINTS": "3"}}, {"type": "Feature", "geometry": {"type": "Point", "coordinates": [-113.8876, 48.4652]}, "properties": {"NAME": "W7M/FN-157", "TITLE": "Ousel Peak", "REGION": "MT - North Flathead County", "ASSOCIATION": "USA - Montana", "POINTS": "4", "BONUSPOINTS": "3"}}, {"type": "Feature", "geometry": {"type": "Point", "coordinates": [-113.7139, 48.3589]}, "properties": {"NAME": "W7M/FN-158", "TITLE": "7140", "REGION": "MT - North Flathead County", "ASSOCIATION": "USA - Montana", "POINTS": "4", "BONUSPOINTS": "3"}}, {"type": "Feature", "geometry": {"type": "Point", "coordinates": [-113.5144, 48.3185]}, "properties": {"NAME": "W7M/FN-159", "TITLE": "7135", "REGION": "MT - North Flathead County", "ASSOCIATION": "USA - Montana", "POINTS": "4", "BONUSPOINTS": "3"}}, {"type": "Feature", "geometry": {"type": "Point", "coordinates": [-113.7532, 48.497]}, "properties": {"NAME": "W7M/FN-160", "TITLE": "7130", "REGION": "MT - North Flathead County", "ASSOCIATION": "USA - Montana", "POINTS": "4", "BONUSPOINTS": "3"}}, {"type": "Feature", "geometry": {"type": "Point", "coordinates": [-114.4519, 48.6018]}, "properties": {"NAME": "W7M/FN-161", "TITLE": "7124", "REGION": "MT - North Flathead County", "ASSOCIATION": "USA - Montana", "POINTS": "4", "BONUSPOINTS": "3"}}, {"type": "Feature", "geometry": {"type": "Point", "coordinates": [-114.0484, 48.2521]}, "properties": {"NAME": "W7M/FN-162", "TITLE": "7090", "REGION": "MT - North Flathead County", "ASSOCIATION": "USA - Montana", "POINTS": "4", "BONUSPOINTS": "3"}}, {"type": "Feature", "geometry": {"type": "Point", "coordinates": [-114.4643, 48.6865]}, "properties": {"NAME": "W7M/FN-163", "TITLE": "7082", "REGION": "MT - North Flathead County", "ASSOCIATION": "USA - Montana", "POINTS": "4", "BONUSPOINTS": "3"}}, {"type": "Feature", "geometry": {"type": "Point", "coordinates": [-113.9058, 48.7576]}, "properties": {"NAME": "W7M/FN-164", "TITLE": "7078", "REGION": "MT - North Flathead County", "ASSOCIATION": "USA - Montana", "POINTS": "4", "BONUSPOINTS": "3"}}, {"type": "Feature", "geometry": {"type": "Point", "coordinates": [-114.6654, 48.6728]}, "properties": {"NAME": "W7M/FN-165", "TITLE": "Stryker Ridge", "REGION": "MT - North Flathead County", "ASSOCIATION": "USA - Montana", "POINTS": "4", "BONUSPOINTS": "3"}}, {"type": "Feature", "geometry": {"type": "Point", "coordinates": [-114.7179, 48.9319]}, "properties": {"NAME": "W7M/FN-166", "TITLE": "Bald Mountain", "REGION": "MT - North Flathead County", "ASSOCIATION": "USA - Montana", "POINTS": "4", "BONUSPOINTS": "3"}}, {"type": "Feature", "geometry": {"type": "Point", "coordinates": [-113.4812, 48.2833]}, "properties": {"NAME": "W7M/FN-167", "TITLE": "6996", "REGION": "MT - North Flathead County", "ASSOCIATION": "USA - Montana", "POINTS": "4", "BONUSPOINTS": "3"}}, {"type": "Feature", "geometry": {"type": "Point", "coordinates": [-113.6639, 48.2644]}, "properties": {"NAME": "W7M/FN-168", "TITLE": "Essex Mountain", "REGION": "MT - North Flathead County", "ASSOCIATION": "USA - Montana", "POINTS": "4", "BONUSPOINTS": "3"}}, {"type": "Feature", "geometry": {"type": "Point", "coordinates": [-114.2682, 48.5692]}, "properties": {"NAME": "W7M/FN-169", "TITLE": "6977", "REGION": "MT - North Flathead County", "ASSOCIATION": "USA - Montana", "POINTS": "4", "BONUSPOINTS": "3"}}, {"type": "Feature", "geometry": {"type": "Point", "coordinates": [-113.5441, 48.3083]}, "properties": {"NAME": "W7M/FN-170", "TITLE": "6953", "REGION": "MT - North Flathead County", "ASSOCIATION": "USA - Montana", "POINTS": "4", "BONUSPOINTS": "3"}}, {"type": "Feature", "geometry": {"type": "Point", "coordinates": [-114.2891, 48.5197]}, "properties": {"NAME": "W7M/FN-171", "TITLE": "6895", "REGION": "MT - North Flathead County", "ASSOCIATION": "USA - Montana", "POINTS": "4", "BONUSPOINTS": "3"}}, {"type": "Feature", "geometry": {"type": "Point", "coordinates": [-113.6797, 48.3269]}, "properties": {"NAME": "W7M/FN-172", "TITLE": "6885", "REGION": "MT - North Flathead County", "ASSOCIATION": "USA - Montana", "POINTS": "4", "BONUSPOINTS": "3"}}, {"type": "Feature", "geometry": {"type": "Point", "coordinates": [-113.8665, 48.8021]}, "properties": {"NAME": "W7M/FN-173", "TITLE": "Flattop Mountain", "REGION": "MT - North Flathead County", "ASSOCIATION": "USA - Montana", "POINTS": "4", "BONUSPOINTS": "3"}}, {"type": "Feature", "geometry": {"type": "Point", "coordinates": [-113.5884, 48.346]}, "properties": {"NAME": "W7M/FN-174", "TITLE": "Rampage Mountain", "REGION": "MT - North Flathead County", "ASSOCIATION": "USA - Montana", "POINTS": "4", "BONUSPOINTS": "3"}}, {"type": "Feature", "geometry": {"type": "Point", "coordinates": [-113.9117, 48.85]}, "properties": {"NAME": "W7M/FN-175", "TITLE": "West Flattop Mountain", "REGION": "MT - North Flathead County", "ASSOCIATION": "USA - Montana", "POINTS": "4", "BONUSPOINTS": "3"}}, {"type": "Feature", "geometry": {"type": "Point", "coordinates": [-114.348, 48.5061]}, "properties": {"NAME": "W7M/FN-176", "TITLE": "Big Mountain", "REGION": "MT - North Flathead County", "ASSOCIATION": "USA - Montana", "POINTS": "4", "BONUSPOINTS": "3"}}, {"type": "Feature", "geometry": {"type": "Point", "coordinates": [-113.7044, 48.4577]}, "properties": {"NAME": "W7M/FN-177", "TITLE": "North Threetops Mountain", "REGION": "MT - North Flathead County", "ASSOCIATION": "USA - Montana", "POINTS": "4", "BONUSPOINTS": "3"}}, {"type": "Feature", "geometry": {"type": "Point", "coordinates": [-114.5131, 48.8797]}, "properties": {"NAME": "W7M/FN-178", "TITLE": "Hornet Mountain", "REGION": "MT - North Flathead County", "ASSOCIATION": "USA - Montana", "POINTS": "4", "BONUSPOINTS": "3"}}, {"type": "Feature", "geometry": {"type": "Point", "coordinates": [-114.5972, 48.8706]}, "properties": {"NAME": "W7M/FN-179", "TITLE": "6666", "REGION": "MT - North Flathead County", "ASSOCIATION": "USA - Montana", "POINTS": "4", "BONUSPOINTS": "3"}}, {"type": "Feature", "geometry": {"type": "Point", "coordinates": [-114.0823, 48.5583]}, "properties": {"NAME": "W7M/FN-180", "TITLE": "Apgar Mountains HP", "REGION": "MT - North Flathead County", "ASSOCIATION": "USA - Montana", "POINTS": "4", "BONUSPOINTS": "3"}}, {"type": "Feature", "geometry": {"type": "Point", "coordinates": [-114.1259, 48.593]}, "properties": {"NAME": "W7M/FN-181", "TITLE": "6613", "REGION": "MT - North Flathead County", "ASSOCIATION": "USA - Montana", "POINTS": "4", "BONUSPOINTS": "3"}}, {"type": "Feature", "geometry": {"type": "Point", "coordinates": [-114.4997, 48.8908]}, "properties": {"NAME": "W7M/FN-182", "TITLE": "Wedge Mountain", "REGION": "MT - North Flathead County", "ASSOCIATION": "USA - Montana", "POINTS": "4", "BONUSPOINTS": "3"}}, {"type": "Feature", "geometry": {"type": "Point", "coordinates": [-114.3454, 48.598]}, "properties": {"NAME": "W7M/FN-183", "TITLE": "Forks Lookout", "REGION": "MT - North Flathead County", "ASSOCIATION": "USA - Montana", "POINTS": "2", "BONUSPOINTS": "3"}}, {"type": "Feature", "geometry": {"type": "Point", "coordinates": [-113.9663, 48.4314]}, "properties": {"NAME": "W7M/FN-184", "TITLE": "Desert Mountain", "REGION": "MT - North Flathead County", "ASSOCIATION": "USA - Montana", "POINTS": "2", "BONUSPOINTS": "3"}}, {"type": "Feature", "geometry": {"type": "Point", "coordinates": [-114.3668, 48.6325]}, "properties": {"NAME": "W7M/FN-185", "TITLE": "6430", "REGION": "MT - North Flathead County", "ASSOCIATION": "USA - Montana", "POINTS": "2", "BONUSPOINTS": "3"}}, {"type": "Feature", "geometry": {"type": "Point", "coordinates": [-113.7902, 48.5287]}, "properties": {"NAME": "W7M/FN-186", "TITLE": "6418", "REGION": "MT - North Flathead County", "ASSOCIATION": "USA - Montana", "POINTS": "2", "BONUSPOINTS": "3"}}, {"type": "Feature", "geometry": {"type": "Point", "coordinates": [-113.6162, 48.3669]}, "properties": {"NAME": "W7M/FN-187", "TITLE": "Riverview Mountain", "REGION": "MT - North Flathead County", "ASSOCIATION": "USA - Montana", "POINTS": "2", "BONUSPOINTS": "3"}}, {"type": "Feature", "geometry": {"type": "Point", "coordinates": [-114.7783, 48.4089]}, "properties": {"NAME": "W7M/FN-188", "TITLE": "Mount Swaney", "REGION": "MT - North Flathead County", "ASSOCIATION": "USA - Montana", "POINTS": "2", "BONUSPOINTS": "3"}}, {"type": "Feature", "geometry": {"type": "Point", "coordinates": [-113.9298, 48.5219]}, "properties": {"NAME": "W7M/FN-189", "TITLE": "Belton Hills", "REGION": "MT - North Flathead County", "ASSOCIATION": "USA - Montana", "POINTS": "2", "BONUSPOINTS": "3"}}, {"type": "Feature", "geometry": {"type": "Point", "coordinates": [-114.3281, 48.6591]}, "properties": {"NAME": "W7M/FN-190", "TITLE": "6326", "REGION": "MT - North Flathead County", "ASSOCIATION": "USA - Montana", "POINTS": "2", "BONUSPOINTS": "3"}}, {"type": "Feature", "geometry": {"type": "Point", "coordinates": [-114.4205, 48.7945]}, "properties": {"NAME": "W7M/FN-191", "TITLE": "6311", "REGION": "MT - North Flathead County", "ASSOCIATION": "USA - Montana", "POINTS": "2", "BONUSPOINTS": "3"}}, {"type": "Feature", "geometry": {"type": "Point", "coordinates": [-114.0656, 48.541]}, "properties": {"NAME": "W7M/FN-192", "TITLE": "6304", "REGION": "MT - North Flathead County", "ASSOCIATION": "USA - Montana", "POINTS": "2", "BONUSPOINTS": "3"}}, {"type": "Feature", "geometry": {"type": "Point", "coordinates": [-114.7121, 48.2814]}, "properties": {"NAME": "W7M/FN-193", "TITLE": "Ashley Mountain", "REGION": "MT - North Flathead County", "ASSOCIATION": "USA - Montana", "POINTS": "2", "BONUSPOINTS": "3"}}, {"type": "Feature", "geometry": {"type": "Point", "coordinates": [-114.3511, 48.7379]}, "properties": {"NAME": "W7M/FN-194", "TITLE": "6244", "REGION": "MT - North Flathead County", "ASSOCIATION": "USA - Montana", "POINTS": "2", "BONUSPOINTS": "3"}}, {"type": "Feature", "geometry": {"type": "Point", "coordinates": [-114.1943, 48.6331]}, "properties": {"NAME": "W7M/FN-195", "TITLE": "Demers Ridge", "REGION": "MT - North Flathead County", "ASSOCIATION": "USA - Montana", "POINTS": "2", "BONUSPOINTS": "3"}}, {"type": "Feature", "geometry": {"type": "Point", "coordinates": [-114.7581, 48.3578]}, "properties": {"NAME": "W7M/FN-196", "TITLE": "Ingalls Mountain", "REGION": "MT - North Flathead County", "ASSOCIATION": "USA - Montana", "POINTS": "2", "BONUSPOINTS": "3"}}, {"type": "Feature", "geometry": {"type": "Point", "coordinates": [-114.2446, 48.6151]}, "properties": {"NAME": "W7M/FN-197", "TITLE": "6110", "REGION": "MT - North Flathead County", "ASSOCIATION": "USA - Montana", "POINTS": "2", "BONUSPOINTS": "3"}}, {"type": "Feature", "geometry": {"type": "Point", "coordinates": [-113.3965, 48.3025]}, "properties": {"NAME": "W7M/FN-198", "TITLE": "Blacktail Hills", "REGION": "MT - North Flathead County", "ASSOCIATION": "USA - Montana", "POINTS": "2", "BONUSPOINTS": "3"}}, {"type": "Feature", "geometry": {"type": "Point", "coordinates": [-114.396, 48.7791]}, "properties": {"NAME": "W7M/FN-199", "TITLE": "6086", "REGION": "MT - North Flathead County", "ASSOCIATION": "USA - Montana", "POINTS": "2", "BONUSPOINTS": "3"}}, {"type": "Feature", "geometry": {"type": "Point", "coordinates": [-114.0826, 48.5351]}, "properties": {"NAME": "W7M/FN-200", "TITLE": "6060", "REGION": "MT - North Flathead County", "ASSOCIATION": "USA - Montana", "POINTS": "2", "BONUSPOINTS": "3"}}, {"type": "Feature", "geometry": {"type": "Point", "coordinates": [-114.5613, 48.933]}, "properties": {"NAME": "W7M/FN-201", "TITLE": "6052", "REGION": "MT - North Flathead County", "ASSOCIATION": "USA - Montana", "POINTS": "2", "BONUSPOINTS": "3"}}, {"type": "Feature", "geometry": {"type": "Point", "coordinates": [-114.3081, 48.6352]}, "properties": {"NAME": "W7M/FN-202", "TITLE": "Dead Horse Ridge", "REGION": "MT - North Flathead County", "ASSOCIATION": "USA - Montana", "POINTS": "2", "BONUSPOINTS": "3"}}, {"type": "Feature", "geometry": {"type": "Point", "coordinates": [-114.3154, 48.7244]}, "properties": {"NAME": "W7M/FN-203", "TITLE": "Cyclone Peak", "REGION": "MT - North Flathead County", "ASSOCIATION": "USA - Montana", "POINTS": "2", "BONUSPOINTS": "3"}}, {"type": "Feature", "geometry": {"type": "Point", "coordinates": [-114.8367, 48.2906]}, "properties": {"NAME": "W7M/FN-204", "TITLE": "Sanders Mountain", "REGION": "MT - North Flathead County", "ASSOCIATION": "USA - Montana", "POINTS": "2", "BONUSPOINTS": "3"}}, {"type": "Feature", "geometry": {"type": "Point", "coordinates": [-114.686, 48.4497]}, "properties": {"NAME": "W7M/FN-205", "TITLE": "Johnson Peak", "REGION": "MT - North Flathead County", "ASSOCIATION": "USA - Montana", "POINTS": "2", "BONUSPOINTS": "3"}}, {"type": "Feature", "geometry": {"type": "Point", "coordinates": [-114.8015, 48.519]}, "properties": {"NAME": "W7M/FN-206", "TITLE": "6005", "REGION": "MT - North Flathead County", "ASSOCIATION": "USA - Montana", "POINTS": "2", "BONUSPOINTS": "3"}}, {"type": "Feature", "geometry": {"type": "Point", "coordinates": [-113.6528, 48.4001]}, "properties": {"NAME": "W7M/FN-207", "TITLE": "West Double Mountain", "REGION": "MT - North Flathead County", "ASSOCIATION": "USA - Montana", "POINTS": "2", "BONUSPOINTS": "3"}}, {"type": "Feature", "geometry": {"type": "Point", "coordinates": [-114.7622, 48.5534]}, "properties": {"NAME": "W7M/FN-208", "TITLE": "5970", "REGION": "MT - North Flathead County", "ASSOCIATION": "USA - Montana", "POINTS": "2", "BONUSPOINTS": "3"}}, {"type": "Feature", "geometry": {"type": "Point", "coordinates": [-114.1066, 48.4028]}, "properties": {"NAME": "W7M/FN-209", "TITLE": "South Teakettle Mountain", "REGION": "MT - North Flathead County", "ASSOCIATION": "USA - Montana", "POINTS": "2", "BONUSPOINTS": "3"}}, {"type": "Feature", "geometry": {"type": "Point", "coordinates": [-114.5937, 48.3464]}, "properties": {"NAME": "W7M/FN-210", "TITLE": "Reid Divide", "REGION": "MT - North Flathead County", "ASSOCIATION": "USA - Montana", "POINTS": "2", "BONUSPOINTS": "3"}}, {"type": "Feature", "geometry": {"type": "Point", "coordinates": [-114.8083, 48.3494]}, "properties": {"NAME": "W7M/FN-211", "TITLE": "5881", "REGION": "MT - North Flathead County", "ASSOCIATION": "USA - Montana", "POINTS": "2", "BONUSPOINTS": "3"}}, {"type": "Feature", "geometry": {"type": "Point", "coordinates": [-114.2025, 48.4865]}, "properties": {"NAME": "W7M/FN-212", "TITLE": "5834", "REGION": "MT - North Flathead County", "ASSOCIATION": "USA - Montana", "POINTS": "2", "BONUSPOINTS": "3"}}, {"type": "Feature", "geometry": {"type": "Point", "coordinates": [-114.7377, 48.5203]}, "properties": {"NAME": "W7M/FN-213", "TITLE": "Grouse Mountain", "REGION": "MT - North Flathead County", "ASSOCIATION": "USA - Montana", "POINTS": "2", "BONUSPOINTS": "3"}}, {"type": "Feature", "geometry": {"type": "Point", "coordinates": [-113.8779, 48.3327]}, "properties": {"NAME": "W7M/FN-214", "TITLE": "Firefighter Mountain", "REGION": "MT - North Flathead County", "ASSOCIATION": "USA - Montana", "POINTS": "2", "BONUSPOINTS": "3"}}, {"type": "Feature", "geometry": {"type": "Point", "coordinates": [-114.7469, 48.5869]}, "properties": {"NAME": "W7M/FN-215", "TITLE": "5660", "REGION": "MT - North Flathead County", "ASSOCIATION": "USA - Montana", "POINTS": "2", "BONUSPOINTS": "3"}}, {"type": "Feature", "geometry": {"type": "Point", "coordinates": [-113.9049, 48.3694]}, "properties": {"NAME": "W7M/FN-216", "TITLE": "Hungry Horse Mountain", "REGION": "MT - North Flathead County", "ASSOCIATION": "USA - Montana", "POINTS": "2", "BONUSPOINTS": "3"}}, {"type": "Feature", "geometry": {"type": "Point", "coordinates": [-114.636, 48.2717]}, "properties": {"NAME": "W7M/FN-217", "TITLE": "5580", "REGION": "MT - North Flathead County", "ASSOCIATION": "USA - Montana", "POINTS": "2", "BONUSPOINTS": "3"}}, {"type": "Feature", "geometry": {"type": "Point", "coordinates": [-113.8244, 48.5305]}, "properties": {"NAME": "W7M/FN-218", "TITLE": "5562", "REGION": "MT - North Flathead County", "ASSOCIATION": "USA - Montana", "POINTS": "2", "BONUSPOINTS": "3"}}, {"type": "Feature", "geometry": {"type": "Point", "coordinates": [-114.7894, 48.6141]}, "properties": {"NAME": "W7M/FN-219", "TITLE": "Paul Mountain", "REGION": "MT - North Flathead County", "ASSOCIATION": "USA - Montana", "POINTS": "2", "BONUSPOINTS": "3"}}, {"type": "Feature", "geometry": {"type": "Point", "coordinates": [-114.851, 48.593]}, "properties": {"NAME": "W7M/FN-220", "TITLE": "Sunday Mountain", "REGION": "MT - North Flathead County", "ASSOCIATION": "USA - Montana", "POINTS": "2", "BONUSPOINTS": "3"}}, {"type": "Feature", "geometry": {"type": "Point", "coordinates": [-114.2768, 48.7036]}, "properties": {"NAME": "W7M/FN-221", "TITLE": "North Winona Ridge", "REGION": "MT - North Flathead County", "ASSOCIATION": "USA - Montana", "POINTS": "2", "BONUSPOINTS": "3"}}, {"type": "Feature", "geometry": {"type": "Point", "coordinates": [-114.8275, 48.2578]}, "properties": {"NAME": "W7M/FN-222", "TITLE": "Grubb Mountain", "REGION": "MT - North Flathead County", "ASSOCIATION": "USA - Montana", "POINTS": "2", "BONUSPOINTS": "3"}}, {"type": "Feature", "geometry": {"type": "Point", "coordinates": [-114.2366, 48.679]}, "properties": {"NAME": "W7M/FN-223", "TITLE": "South Winona Ridge", "REGION": "MT - North Flathead County", "ASSOCIATION": "USA - Montana", "POINTS": "2", "BONUSPOINTS": "3"}}, {"type": "Feature", "geometry": {"type": "Point", "coordinates": [-114.1246, 48.4189]}, "properties": {"NAME": "W7M/FN-224", "TITLE": "North Teakettle Mountain", "REGION": "MT - North Flathead County", "ASSOCIATION": "USA - Montana", "POINTS": "2", "BONUSPOINTS": "3"}}, {"type": "Feature", "geometry": {"type": "Point", "coordinates": [-114.3373, 48.9675]}, "properties": {"NAME": "W7M/FN-225", "TITLE": "Starvation Ridge", "REGION": "MT - North Flathead County", "ASSOCIATION": "USA - Montana", "POINTS": "2", "BONUSPOINTS": "3"}}, {"type": "Feature", "geometry": {"type": "Point", "coordinates": [-114.4639, 48.854]}, "properties": {"NAME": "W7M/FN-226", "TITLE": "West Whale Buttes", "REGION": "MT - North Flathead County", "ASSOCIATION": "USA - Montana", "POINTS": "2", "BONUSPOINTS": "3"}}, {"type": "Feature", "geometry": {"type": "Point", "coordinates": [-114.4364, 48.8532]}, "properties": {"NAME": "W7M/FN-227", "TITLE": "Center Mountain", "REGION": "MT - North Flathead County", "ASSOCIATION": "USA - Montana", "POINTS": "2", "BONUSPOINTS": "3"}}, {"type": "Feature", "geometry": {"type": "Point", "coordinates": [-114.1912, 48.4551]}, "properties": {"NAME": "W7M/FN-228", "TITLE": "5087", "REGION": "MT - North Flathead County", "ASSOCIATION": "USA - Montana", "POINTS": "2", "BONUSPOINTS": "3"}}, {"type": "Feature", "geometry": {"type": "Point", "coordinates": [-113.9965, 48.6527]}, "properties": {"NAME": "W7M/FN-229", "TITLE": "Camas Ridge", "REGION": "MT - North Flathead County", "ASSOCIATION": "USA - Montana", "POINTS": "2", "BONUSPOINTS": "3"}}, {"type": "Feature", "geometry": {"type": "Point", "coordinates": [-114.5475, 48.2568]}, "properties": {"NAME": "W7M/FN-230", "TITLE": "5020", "REGION": "MT - North Flathead County", "ASSOCIATION": "USA - Montana", "POINTS": "2", "BONUSPOINTS": "3"}}, {"type": "Feature", "geometry": {"type": "Point", "coordinates": [-113.8761, 48.3607]}, "properties": {"NAME": "W7M/FN-231", "TITLE": "4990", "REGION": "MT - North Flathead County", "ASSOCIATION": "USA - Montana", "POINTS": "1", "BONUSPOINTS": "0"}}, {"type": "Feature", "geometry": {"type": "Point", "coordinates": [-114.6061, 48.4055]}, "properties": {"NAME": "W7M/FN-232", "TITLE": "4858", "REGION": "MT - North Flathead County", "ASSOCIATION": "USA - Montana", "POINTS": "1", "BONUSPOINTS": "0"}}, {"type": "Feature", "geometry": {"type": "Point", "coordinates": [-114.0143, 48.3566]}, "properties": {"NAME": "W7M/FN-233", "TITLE": "Lion Hill", "REGION": "MT - North Flathead County", "ASSOCIATION": "USA - Montana", "POINTS": "1", "BONUSPOINTS": "0"}}, {"type": "Feature", "geometry": {"type": "Point", "coordinates": [-113.7429, 48.4267]}, "properties": {"NAME": "W7M/FN-234", "TITLE": "4625", "REGION": "MT - North Flathead County", "ASSOCIATION": "USA - Montana", "POINTS": "1", "BONUSPOINTS": "0"}}, {"type": "Feature", "geometry": {"type": "Point", "coordinates": [-114.5425, 48.4121]}, "properties": {"NAME": "W7M/FN-235", "TITLE": "4590", "REGION": "MT - North Flathead County", "ASSOCIATION": "USA - Montana", "POINTS": "1", "BONUSPOINTS": "0"}}, {"type": "Feature", "geometry": {"type": "Point", "coordinates": [-113.9572, 48.5046]}, "properties": {"NAME": "W7M/FN-236", "TITLE": "4500", "REGION": "MT - North Flathead County", "ASSOCIATION": "USA - Montana", "POINTS": "1", "BONUSPOINTS": "0"}}, {"type": "Feature", "geometry": {"type": "Point", "coordinates": [-114.3982, 48.4202]}, "properties": {"NAME": "W7M/FN-237", "TITLE": "Lion Mountain", "REGION": "MT - North Flathead County", "ASSOCIATION": "USA - Montana", "POINTS": "1", "BONUSPOINTS": "0"}}, {"type": "Feature", "geometry": {"type": "Point", "coordinates": [-114.6107, 48.4334]}, "properties": {"NAME": "W7M/FN-238", "TITLE": "4313", "REGION": "MT - North Flathead County", "ASSOCIATION": "USA - Montana", "POINTS": "1", "BONUSPOINTS": "0"}}, {"type": "Feature", "geometry": {"type": "Point", "coordinates": [-114.4876, 48.3664]}, "properties": {"NAME": "W7M/FN-239", "TITLE": "Pilot Knob", "REGION": "MT - North Flathead County", "ASSOCIATION": "USA - Montana", "POINTS": "1", "BONUSPOINTS": "0"}}, {"type": "Feature", "geometry": {"type": "Point", "coordinates": [-114.15, 48.4658]}, "properties": {"NAME": "W7M/FN-240", "TITLE": "4175", "REGION": "MT - North Flathead County", "ASSOCIATION": "USA - Montana", "POINTS": "1", "BONUSPOINTS": "0"}}, {"type": "Feature", "geometry": {"type": "Point", "coordinates": [-114.4332, 48.4516]}, "properties": {"NAME": "W7M/FN-241", "TITLE": "4030", "REGION": "MT - North Flathead County", "ASSOCIATION": "USA - Montana", "POINTS": "1", "BONUSPOINTS": "0"}}, {"type": "Feature", "geometry": {"type": "Point", "coordinates": [-114.4014, 48.3777]}, "properties": {"NAME": "W7M/FN-242", "TITLE": "3887", "REGION": "MT - North Flathead County", "ASSOCIATION": "USA - Montana", "POINTS": "1", "BONUSPOINTS": "0"}}, {"type": "Feature", "geometry": {"type": "Point", "coordinates": [-114.4705, 48.3263]}, "properties": {"NAME": "W7M/FN-243", "TITLE": "Pete Ridge South", "REGION": "MT - North Flathead County", "ASSOCIATION": "USA - Montana", "POINTS": "1", "BONUSPOINTS": "0"}}, {"type": "Feature", "geometry": {"type": "Point", "coordinates": [-113.3911, 48.3932]}, "properties": {"NAME": "W7M/FN-244", "TITLE": "7497", "REGION": "MT - North Flathead County", "ASSOCIATION": "USA - Montana", "POINTS": "4", "BONUSPOINTS": "3"}}, {"type": "Feature", "geometry": {"type": "Point", "coordinates": [-113.9232, 48.4575]}, "properties": {"NAME": "W7M/FN-245", "TITLE": "7352", "REGION": "MT - North Flathead County", "ASSOCIATION": "USA - Montana", "POINTS": "4", "BONUSPOINTS": "3"}}, {"type": "Feature", "geometry": {"type": "Point", "coordinates": [-114.6389, 48.7875]}, "properties": {"NAME": "W7M/FN-246", "TITLE": "7272", "REGION": "MT - North Flathead County", "ASSOCIATION": "USA - Montana", "POINTS": "4", "BONUSPOINTS": "3"}}, {"type": "Feature", "geometry": {"type": "Point", "coordinates": [-113.7672, 48.2756]}, "properties": {"NAME": "W7M/FN-247", "TITLE": "Mount Murray", "REGION": "MT - North Flathead County", "ASSOCIATION": "USA - Montana", "POINTS": "4", "BONUSPOINTS": "3"}}, {"type": "Feature", "geometry": {"type": "Point", "coordinates": [-113.5748, 48.3]}, "properties": {"NAME": "W7M/FN-248", "TITLE": "Scalplock Mountain", "REGION": "MT - North Flathead County", "ASSOCIATION": "USA - Montana", "POINTS": "4", "BONUSPOINTS": "3"}}]}