{"type": "FeatureCollection", "name": "W7M/BR SUMMITS", "features": [{"type": "Feature", "geometry": {"type": "Point", "coordinates": [-111.4595, 44.9166]}, "properties": {"NAME": "W7M/BR-001", "TITLE": "Hilgard Peak", "REGION": "MT - Butte Region", "ASSOCIATION": "USA - Montana", "POINTS": "10", "BONUSPOINTS": "3"}}, {"type": "Feature", "geometry": {"type": "Point", "coordinates": [-111.459, 45.0372]}, "properties": {"NAME": "W7M/BR-002", "TITLE": "Koch Peak", "REGION": "MT - Butte Region", "ASSOCIATION": "USA - Montana", "POINTS": "10", "BONUSPOINTS": "3"}}, {"type": "Feature", "geometry": {"type": "Point", "coordinates": [-111.4645, 44.9427]}, "properties": {"NAME": "W7M/BR-003", "TITLE": "Echo Peak", "REGION": "MT - Butte Region", "ASSOCIATION": "USA - Montana", "POINTS": "10", "BONUSPOINTS": "3"}}, {"type": "Feature", "geometry": {"type": "Point", "coordinates": [-111.4569, 44.9917]}, "properties": {"NAME": "W7M/BR-004", "TITLE": "Imp Peak", "REGION": "MT - Butte Region", "ASSOCIATION": "USA - Montana", "POINTS": "10", "BONUSPOINTS": "3"}}, {"type": "Feature", "geometry": {"type": "Point", "coordinates": [-111.4506, 45.2782]}, "properties": {"NAME": "W7M/BR-005", "TITLE": "Lone Mountain", "REGION": "MT - Butte Region", "ASSOCIATION": "USA - Montana", "POINTS": "10", "BONUSPOINTS": "3"}}, {"type": "Feature", "geometry": {"type": "Point", "coordinates": [-111.4797, 45.0389]}, "properties": {"NAME": "W7M/BR-006", "TITLE": "11049", "REGION": "MT - Butte Region", "ASSOCIATION": "USA - Montana", "POINTS": "10", "BONUSPOINTS": "3"}}, {"type": "Feature", "geometry": {"type": "Point", "coordinates": [-111.4886, 45.0182]}, "properties": {"NAME": "W7M/BR-007", "TITLE": "11020", "REGION": "MT - Butte Region", "ASSOCIATION": "USA - Montana", "POINTS": "10", "BONUSPOINTS": "3"}}, {"type": "Feature", "geometry": {"type": "Point", "coordinates": [-111.3658, 45.3683]}, "properties": {"NAME": "W7M/BR-008", "TITLE": "Gallatin Peak", "REGION": "MT - Butte Region", "ASSOCIATION": "USA - Montana", "POINTS": "10", "BONUSPOINTS": "3"}}, {"type": "Feature", "geometry": {"type": "Point", "coordinates": [-111.4785, 44.9646]}, "properties": {"NAME": "W7M/BR-009", "TITLE": "10938", "REGION": "MT - Butte Region", "ASSOCIATION": "USA - Montana", "POINTS": "10", "BONUSPOINTS": "3"}}, {"type": "Feature", "geometry": {"type": "Point", "coordinates": [-111.4344, 44.9747]}, "properties": {"NAME": "W7M/BR-010", "TITLE": "10930", "REGION": "MT - Butte Region", "ASSOCIATION": "USA - Montana", "POINTS": "10", "BONUSPOINTS": "3"}}, {"type": "Feature", "geometry": {"type": "Point", "coordinates": [-111.4795, 45.1576]}, "properties": {"NAME": "W7M/BR-011", "TITLE": "Sphinx Mountain", "REGION": "MT - Butte Region", "ASSOCIATION": "USA - Montana", "POINTS": "10", "BONUSPOINTS": "3"}}, {"type": "Feature", "geometry": {"type": "Point", "coordinates": [-111.451, 45.0531]}, "properties": {"NAME": "W7M/BR-012", "TITLE": "10829", "REGION": "MT - Butte Region", "ASSOCIATION": "USA - Montana", "POINTS": "10", "BONUSPOINTS": "3"}}, {"type": "Feature", "geometry": {"type": "Point", "coordinates": [-111.4301, 45.0017]}, "properties": {"NAME": "W7M/BR-013", "TITLE": "10809", "REGION": "MT - Butte Region", "ASSOCIATION": "USA - Montana", "POINTS": "10", "BONUSPOINTS": "3"}}, {"type": "Feature", "geometry": {"type": "Point", "coordinates": [-113.395, 45.9625]}, "properties": {"NAME": "W7M/BR-014", "TITLE": "West Goat Peak", "REGION": "MT - Butte Region", "ASSOCIATION": "USA - Montana", "POINTS": "10", "BONUSPOINTS": "3"}}, {"type": "Feature", "geometry": {"type": "Point", "coordinates": [-111.5292, 45.2277]}, "properties": {"NAME": "W7M/BR-015", "TITLE": "West Cedar Mountain", "REGION": "MT - Butte Region", "ASSOCIATION": "USA - Montana", "POINTS": "10", "BONUSPOINTS": "3"}}, {"type": "Feature", "geometry": {"type": "Point", "coordinates": [-111.4365, 45.0398]}, "properties": {"NAME": "W7M/BR-016", "TITLE": "10764", "REGION": "MT - Butte Region", "ASSOCIATION": "USA - Montana", "POINTS": "10", "BONUSPOINTS": "3"}}, {"type": "Feature", "geometry": {"type": "Point", "coordinates": [-111.4056, 45.354]}, "properties": {"NAME": "W7M/BR-017", "TITLE": "Beehive Peak", "REGION": "MT - Butte Region", "ASSOCIATION": "USA - Montana", "POINTS": "10", "BONUSPOINTS": "3"}}, {"type": "Feature", "geometry": {"type": "Point", "coordinates": [-111.4924, 44.9819]}, "properties": {"NAME": "W7M/BR-018", "TITLE": "Finger Mountain", "REGION": "MT - Butte Region", "ASSOCIATION": "USA - Montana", "POINTS": "10", "BONUSPOINTS": "3"}}, {"type": "Feature", "geometry": {"type": "Point", "coordinates": [-111.3866, 45.3832]}, "properties": {"NAME": "W7M/BR-019", "TITLE": "10642", "REGION": "MT - Butte Region", "ASSOCIATION": "USA - Montana", "POINTS": "10", "BONUSPOINTS": "3"}}, {"type": "Feature", "geometry": {"type": "Point", "coordinates": [-113.1903, 46.05]}, "properties": {"NAME": "W7M/BR-020", "TITLE": "Mount Evans", "REGION": "MT - Butte Region", "ASSOCIATION": "USA - Montana", "POINTS": "10", "BONUSPOINTS": "3"}}, {"type": "Feature", "geometry": {"type": "Point", "coordinates": [-113.0962, 46.087]}, "properties": {"NAME": "W7M/BR-021", "TITLE": "Mount Haggin", "REGION": "MT - Butte Region", "ASSOCIATION": "USA - Montana", "POINTS": "10", "BONUSPOINTS": "3"}}, {"type": "Feature", "geometry": {"type": "Point", "coordinates": [-111.3906, 44.7633]}, "properties": {"NAME": "W7M/BR-022", "TITLE": "Sheep Point", "REGION": "MT - Butte Region", "ASSOCIATION": "USA - Montana", "POINTS": "10", "BONUSPOINTS": "3"}}, {"type": "Feature", "geometry": {"type": "Point", "coordinates": [-112.0082, 45.6115]}, "properties": {"NAME": "W7M/BR-023", "TITLE": "Hollowtop Mountain", "REGION": "MT - Butte Region", "ASSOCIATION": "USA - Montana", "POINTS": "10", "BONUSPOINTS": "3"}}, {"type": "Feature", "geometry": {"type": "Point", "coordinates": [-112.1466, 44.856]}, "properties": {"NAME": "W7M/BR-024", "TITLE": "Sunset Peak", "REGION": "MT - Butte Region", "ASSOCIATION": "USA - Montana", "POINTS": "10", "BONUSPOINTS": "3"}}, {"type": "Feature", "geometry": {"type": "Point", "coordinates": [-112.111, 45.6098]}, "properties": {"NAME": "W7M/BR-025", "TITLE": "10580", "REGION": "MT - Butte Region", "ASSOCIATION": "USA - Montana", "POINTS": "10", "BONUSPOINTS": "3"}}, {"type": "Feature", "geometry": {"type": "Point", "coordinates": [-112.043, 45.5655]}, "properties": {"NAME": "W7M/BR-026", "TITLE": "Granite Peak", "REGION": "MT - Butte Region", "ASSOCIATION": "USA - Montana", "POINTS": "10", "BONUSPOINTS": "3"}}, {"type": "Feature", "geometry": {"type": "Point", "coordinates": [-112.1239, 44.8944]}, "properties": {"NAME": "W7M/BR-027", "TITLE": "Hogback Mountain", "REGION": "MT - Butte Region", "ASSOCIATION": "USA - Montana", "POINTS": "10", "BONUSPOINTS": "3"}}, {"type": "Feature", "geometry": {"type": "Point", "coordinates": [-111.8551, 44.9041]}, "properties": {"NAME": "W7M/BR-028", "TITLE": "Black Butte", "REGION": "MT - Butte Region", "ASSOCIATION": "USA - Montana", "POINTS": "10", "BONUSPOINTS": "3"}}, {"type": "Feature", "geometry": {"type": "Point", "coordinates": [-111.9878, 45.5308]}, "properties": {"NAME": "W7M/BR-029", "TITLE": "Branham Peaks", "REGION": "MT - Butte Region", "ASSOCIATION": "USA - Montana", "POINTS": "10", "BONUSPOINTS": "3"}}, {"type": "Feature", "geometry": {"type": "Point", "coordinates": [-112.1394, 44.8691]}, "properties": {"NAME": "W7M/BR-030", "TITLE": "Olson Peak", "REGION": "MT - Butte Region", "ASSOCIATION": "USA - Montana", "POINTS": "8", "BONUSPOINTS": "3"}}, {"type": "Feature", "geometry": {"type": "Point", "coordinates": [-111.4762, 44.8784]}, "properties": {"NAME": "W7M/BR-031", "TITLE": "10481", "REGION": "MT - Butte Region", "ASSOCIATION": "USA - Montana", "POINTS": "8", "BONUSPOINTS": "3"}}, {"type": "Feature", "geometry": {"type": "Point", "coordinates": [-113.2164, 46.048]}, "properties": {"NAME": "W7M/BR-032", "TITLE": "Mount Howe", "REGION": "MT - Butte Region", "ASSOCIATION": "USA - Montana", "POINTS": "8", "BONUSPOINTS": "3"}}, {"type": "Feature", "geometry": {"type": "Point", "coordinates": [-112.0524, 44.9426]}, "properties": {"NAME": "W7M/BR-033", "TITLE": "Sliderock Mountain", "REGION": "MT - Butte Region", "ASSOCIATION": "USA - Montana", "POINTS": "8", "BONUSPOINTS": "3"}}, {"type": "Feature", "geometry": {"type": "Point", "coordinates": [-112.0837, 45.5701]}, "properties": {"NAME": "W7M/BR-034", "TITLE": "Spuhler Peak", "REGION": "MT - Butte Region", "ASSOCIATION": "USA - Montana", "POINTS": "8", "BONUSPOINTS": "3"}}, {"type": "Feature", "geometry": {"type": "Point", "coordinates": [-112.018, 45.5498]}, "properties": {"NAME": "W7M/BR-035", "TITLE": "Lonesome Peak", "REGION": "MT - Butte Region", "ASSOCIATION": "USA - Montana", "POINTS": "8", "BONUSPOINTS": "3"}}, {"type": "Feature", "geometry": {"type": "Point", "coordinates": [-112.1215, 45.5923]}, "properties": {"NAME": "W7M/BR-036", "TITLE": "A P A Mountain", "REGION": "MT - Butte Region", "ASSOCIATION": "USA - Montana", "POINTS": "8", "BONUSPOINTS": "3"}}, {"type": "Feature", "geometry": {"type": "Point", "coordinates": [-112.0216, 45.5293]}, "properties": {"NAME": "W7M/BR-037", "TITLE": "Thompson Peak", "REGION": "MT - Butte Region", "ASSOCIATION": "USA - Montana", "POINTS": "8", "BONUSPOINTS": "3"}}, {"type": "Feature", "geometry": {"type": "Point", "coordinates": [-111.4623, 44.8644]}, "properties": {"NAME": "W7M/BR-038", "TITLE": "10382", "REGION": "MT - Butte Region", "ASSOCIATION": "USA - Montana", "POINTS": "8", "BONUSPOINTS": "3"}}, {"type": "Feature", "geometry": {"type": "Point", "coordinates": [-111.4366, 44.9602]}, "properties": {"NAME": "W7M/BR-039", "TITLE": "10380", "REGION": "MT - Butte Region", "ASSOCIATION": "USA - Montana", "POINTS": "8", "BONUSPOINTS": "3"}}, {"type": "Feature", "geometry": {"type": "Point", "coordinates": [-112.0517, 45.5868]}, "properties": {"NAME": "W7M/BR-040", "TITLE": "Middle Mountain", "REGION": "MT - Butte Region", "ASSOCIATION": "USA - Montana", "POINTS": "8", "BONUSPOINTS": "3"}}, {"type": "Feature", "geometry": {"type": "Point", "coordinates": [-113.1672, 46.0622]}, "properties": {"NAME": "W7M/BR-041", "TITLE": "10379", "REGION": "MT - Butte Region", "ASSOCIATION": "USA - Montana", "POINTS": "8", "BONUSPOINTS": "3"}}, {"type": "Feature", "geometry": {"type": "Point", "coordinates": [-111.9756, 45.5203]}, "properties": {"NAME": "W7M/BR-042", "TITLE": "Mount Bradley", "REGION": "MT - Butte Region", "ASSOCIATION": "USA - Montana", "POINTS": "8", "BONUSPOINTS": "3"}}, {"type": "Feature", "geometry": {"type": "Point", "coordinates": [-113.121, 46.0603]}, "properties": {"NAME": "W7M/BR-043", "TITLE": "10349", "REGION": "MT - Butte Region", "ASSOCIATION": "USA - Montana", "POINTS": "8", "BONUSPOINTS": "3"}}, {"type": "Feature", "geometry": {"type": "Point", "coordinates": [-112.0243, 45.578]}, "properties": {"NAME": "W7M/BR-044", "TITLE": "Little Granite Peak", "REGION": "MT - Butte Region", "ASSOCIATION": "USA - Montana", "POINTS": "8", "BONUSPOINTS": "3"}}, {"type": "Feature", "geometry": {"type": "Point", "coordinates": [-111.5237, 45.2981]}, "properties": {"NAME": "W7M/BR-045", "TITLE": "Fan Mountain", "REGION": "MT - Butte Region", "ASSOCIATION": "USA - Montana", "POINTS": "8", "BONUSPOINTS": "3"}}, {"type": "Feature", "geometry": {"type": "Point", "coordinates": [-111.4091, 44.9247]}, "properties": {"NAME": "W7M/BR-046", "TITLE": "10295", "REGION": "MT - Butte Region", "ASSOCIATION": "USA - Montana", "POINTS": "8", "BONUSPOINTS": "3"}}, {"type": "Feature", "geometry": {"type": "Point", "coordinates": [-113.1636, 46.0845]}, "properties": {"NAME": "W7M/BR-047", "TITLE": "10282", "REGION": "MT - Butte Region", "ASSOCIATION": "USA - Montana", "POINTS": "8", "BONUSPOINTS": "3"}}, {"type": "Feature", "geometry": {"type": "Point", "coordinates": [-111.8, 44.9238]}, "properties": {"NAME": "W7M/BR-048", "TITLE": "Big Horn Mountain", "REGION": "MT - Butte Region", "ASSOCIATION": "USA - Montana", "POINTS": "8", "BONUSPOINTS": "3"}}, {"type": "Feature", "geometry": {"type": "Point", "coordinates": [-113.442, 45.981]}, "properties": {"NAME": "W7M/BR-049", "TITLE": "10259", "REGION": "MT - Butte Region", "ASSOCIATION": "USA - Montana", "POINTS": "8", "BONUSPOINTS": "3"}}, {"type": "Feature", "geometry": {"type": "Point", "coordinates": [-111.9278, 45.4717]}, "properties": {"NAME": "W7M/BR-050", "TITLE": "10239", "REGION": "MT - Butte Region", "ASSOCIATION": "USA - Montana", "POINTS": "8", "BONUSPOINTS": "3"}}, {"type": "Feature", "geometry": {"type": "Point", "coordinates": [-111.4146, 44.7108]}, "properties": {"NAME": "W7M/BR-051", "TITLE": "Black Mountain", "REGION": "MT - Butte Region", "ASSOCIATION": "USA - Montana", "POINTS": "8", "BONUSPOINTS": "3"}}, {"type": "Feature", "geometry": {"type": "Point", "coordinates": [-113.3357, 46.0053]}, "properties": {"NAME": "W7M/BR-052", "TITLE": "Fish Peak", "REGION": "MT - Butte Region", "ASSOCIATION": "USA - Montana", "POINTS": "8", "BONUSPOINTS": "3"}}, {"type": "Feature", "geometry": {"type": "Point", "coordinates": [-112.4617, 45.7427]}, "properties": {"NAME": "W7M/BR-053", "TITLE": "Table Mountain", "REGION": "MT - Butte Region", "ASSOCIATION": "USA - Montana", "POINTS": "8", "BONUSPOINTS": "3"}}, {"type": "Feature", "geometry": {"type": "Point", "coordinates": [-111.9178, 45.4856]}, "properties": {"NAME": "W7M/BR-054", "TITLE": "Ward Peak", "REGION": "MT - Butte Region", "ASSOCIATION": "USA - Montana", "POINTS": "8", "BONUSPOINTS": "3"}}, {"type": "Feature", "geometry": {"type": "Point", "coordinates": [-112.0183, 45.5142]}, "properties": {"NAME": "W7M/BR-055", "TITLE": "Leggat Mountain", "REGION": "MT - Butte Region", "ASSOCIATION": "USA - Montana", "POINTS": "8", "BONUSPOINTS": "3"}}, {"type": "Feature", "geometry": {"type": "Point", "coordinates": [-111.4366, 45.364]}, "properties": {"NAME": "W7M/BR-056", "TITLE": "10180", "REGION": "MT - Butte Region", "ASSOCIATION": "USA - Montana", "POINTS": "8", "BONUSPOINTS": "3"}}, {"type": "Feature", "geometry": {"type": "Point", "coordinates": [-111.4862, 45.3879]}, "properties": {"NAME": "W7M/BR-057", "TITLE": "10161", "REGION": "MT - Butte Region", "ASSOCIATION": "USA - Montana", "POINTS": "8", "BONUSPOINTS": "3"}}, {"type": "Feature", "geometry": {"type": "Point", "coordinates": [-111.7947, 44.8805]}, "properties": {"NAME": "W7M/BR-058", "TITLE": "Lion Mountain", "REGION": "MT - Butte Region", "ASSOCIATION": "USA - Montana", "POINTS": "8", "BONUSPOINTS": "3"}}, {"type": "Feature", "geometry": {"type": "Point", "coordinates": [-112.0723, 45.5459]}, "properties": {"NAME": "W7M/BR-059", "TITLE": "Cloudrest Peak", "REGION": "MT - Butte Region", "ASSOCIATION": "USA - Montana", "POINTS": "8", "BONUSPOINTS": "3"}}, {"type": "Feature", "geometry": {"type": "Point", "coordinates": [-113.3009, 46.0233]}, "properties": {"NAME": "W7M/BR-060", "TITLE": "Queener Mountain", "REGION": "MT - Butte Region", "ASSOCIATION": "USA - Montana", "POINTS": "8", "BONUSPOINTS": "3"}}, {"type": "Feature", "geometry": {"type": "Point", "coordinates": [-112.4815, 45.7531]}, "properties": {"NAME": "W7M/BR-061", "TITLE": "10136", "REGION": "MT - Butte Region", "ASSOCIATION": "USA - Montana", "POINTS": "8", "BONUSPOINTS": "3"}}, {"type": "Feature", "geometry": {"type": "Point", "coordinates": [-111.5019, 45.3953]}, "properties": {"NAME": "W7M/BR-062", "TITLE": "10100", "REGION": "MT - Butte Region", "ASSOCIATION": "USA - Montana", "POINTS": "8", "BONUSPOINTS": "3"}}, {"type": "Feature", "geometry": {"type": "Point", "coordinates": [-111.4005, 44.8784]}, "properties": {"NAME": "W7M/BR-063", "TITLE": "10077", "REGION": "MT - Butte Region", "ASSOCIATION": "USA - Montana", "POINTS": "8", "BONUSPOINTS": "3"}}, {"type": "Feature", "geometry": {"type": "Point", "coordinates": [-112.0986, 44.8494]}, "properties": {"NAME": "W7M/BR-064", "TITLE": "Stonehouse Mountain", "REGION": "MT - Butte Region", "ASSOCIATION": "USA - Montana", "POINTS": "8", "BONUSPOINTS": "3"}}, {"type": "Feature", "geometry": {"type": "Point", "coordinates": [-113.3943, 46.0073]}, "properties": {"NAME": "W7M/BR-065", "TITLE": "10060", "REGION": "MT - Butte Region", "ASSOCIATION": "USA - Montana", "POINTS": "8", "BONUSPOINTS": "3"}}, {"type": "Feature", "geometry": {"type": "Point", "coordinates": [-112.0709, 45.6436]}, "properties": {"NAME": "W7M/BR-066", "TITLE": "10059", "REGION": "MT - Butte Region", "ASSOCIATION": "USA - Montana", "POINTS": "8", "BONUSPOINTS": "3"}}, {"type": "Feature", "geometry": {"type": "Point", "coordinates": [-111.5388, 45.2509]}, "properties": {"NAME": "W7M/BR-067", "TITLE": "10044", "REGION": "MT - Butte Region", "ASSOCIATION": "USA - Montana", "POINTS": "8", "BONUSPOINTS": "3"}}, {"type": "Feature", "geometry": {"type": "Point", "coordinates": [-112.0417, 44.955]}, "properties": {"NAME": "W7M/BR-068", "TITLE": "10008", "REGION": "MT - Butte Region", "ASSOCIATION": "USA - Montana", "POINTS": "8", "BONUSPOINTS": "3"}}, {"type": "Feature", "geometry": {"type": "Point", "coordinates": [-111.8187, 44.8921]}, "properties": {"NAME": "W7M/BR-069", "TITLE": "10007", "REGION": "MT - Butte Region", "ASSOCIATION": "USA - Montana", "POINTS": "8", "BONUSPOINTS": "3"}}, {"type": "Feature", "geometry": {"type": "Point", "coordinates": [-111.4581, 45.1752]}, "properties": {"NAME": "W7M/BR-070", "TITLE": "9993", "REGION": "MT - Butte Region", "ASSOCIATION": "USA - Montana", "POINTS": "8", "BONUSPOINTS": "3"}}, {"type": "Feature", "geometry": {"type": "Point", "coordinates": [-113.2562, 46.0553]}, "properties": {"NAME": "W7M/BR-071", "TITLE": "Little Rainbow Mountain", "REGION": "MT - Butte Region", "ASSOCIATION": "USA - Montana", "POINTS": "8", "BONUSPOINTS": "3"}}, {"type": "Feature", "geometry": {"type": "Point", "coordinates": [-112.0752, 45.6647]}, "properties": {"NAME": "W7M/BR-072", "TITLE": "Manhead Mountain", "REGION": "MT - Butte Region", "ASSOCIATION": "USA - Montana", "POINTS": "8", "BONUSPOINTS": "3"}}, {"type": "Feature", "geometry": {"type": "Point", "coordinates": [-111.4285, 45.0928]}, "properties": {"NAME": "W7M/BR-073", "TITLE": "Shedhorn Mountain", "REGION": "MT - Butte Region", "ASSOCIATION": "USA - Montana", "POINTS": "8", "BONUSPOINTS": "3"}}, {"type": "Feature", "geometry": {"type": "Point", "coordinates": [-111.7656, 44.9036]}, "properties": {"NAME": "W7M/BR-074", "TITLE": "Cave Mountain", "REGION": "MT - Butte Region", "ASSOCIATION": "USA - Montana", "POINTS": "8", "BONUSPOINTS": "3"}}, {"type": "Feature", "geometry": {"type": "Point", "coordinates": [-111.7869, 44.9713]}, "properties": {"NAME": "W7M/BR-075", "TITLE": "Flatiron Mountain", "REGION": "MT - Butte Region", "ASSOCIATION": "USA - Montana", "POINTS": "8", "BONUSPOINTS": "3"}}, {"type": "Feature", "geometry": {"type": "Point", "coordinates": [-112.1485, 45.5639]}, "properties": {"NAME": "W7M/BR-076", "TITLE": "Old Baldy Mountain", "REGION": "MT - Butte Region", "ASSOCIATION": "USA - Montana", "POINTS": "8", "BONUSPOINTS": "3"}}, {"type": "Feature", "geometry": {"type": "Point", "coordinates": [-113.1456, 46.0885]}, "properties": {"NAME": "W7M/BR-077", "TITLE": "9893", "REGION": "MT - Butte Region", "ASSOCIATION": "USA - Montana", "POINTS": "8", "BONUSPOINTS": "3"}}, {"type": "Feature", "geometry": {"type": "Point", "coordinates": [-111.4505, 45.2319]}, "properties": {"NAME": "W7M/BR-078", "TITLE": "Pioneer Mountain", "REGION": "MT - Butte Region", "ASSOCIATION": "USA - Montana", "POINTS": "8", "BONUSPOINTS": "3"}}, {"type": "Feature", "geometry": {"type": "Point", "coordinates": [-113.2743, 46.0592]}, "properties": {"NAME": "W7M/BR-079", "TITLE": "Mount Tiny", "REGION": "MT - Butte Region", "ASSOCIATION": "USA - Montana", "POINTS": "8", "BONUSPOINTS": "3"}}, {"type": "Feature", "geometry": {"type": "Point", "coordinates": [-113.4718, 45.953]}, "properties": {"NAME": "W7M/BR-080", "TITLE": "9805", "REGION": "MT - Butte Region", "ASSOCIATION": "USA - Montana", "POINTS": "8", "BONUSPOINTS": "3"}}, {"type": "Feature", "geometry": {"type": "Point", "coordinates": [-111.7951, 44.9919]}, "properties": {"NAME": "W7M/BR-081", "TITLE": "Specimen Butte", "REGION": "MT - Butte Region", "ASSOCIATION": "USA - Montana", "POINTS": "8", "BONUSPOINTS": "3"}}, {"type": "Feature", "geometry": {"type": "Point", "coordinates": [-111.4346, 45.1995]}, "properties": {"NAME": "W7M/BR-082", "TITLE": "9762", "REGION": "MT - Butte Region", "ASSOCIATION": "USA - Montana", "POINTS": "8", "BONUSPOINTS": "3"}}, {"type": "Feature", "geometry": {"type": "Point", "coordinates": [-111.8268, 44.9691]}, "properties": {"NAME": "W7M/BR-083", "TITLE": "9742", "REGION": "MT - Butte Region", "ASSOCIATION": "USA - Montana", "POINTS": "8", "BONUSPOINTS": "3"}}, {"type": "Feature", "geometry": {"type": "Point", "coordinates": [-111.8188, 44.9786]}, "properties": {"NAME": "W7M/BR-084", "TITLE": "Marmot Mountain", "REGION": "MT - Butte Region", "ASSOCIATION": "USA - Montana", "POINTS": "8", "BONUSPOINTS": "3"}}, {"type": "Feature", "geometry": {"type": "Point", "coordinates": [-111.9658, 45.1224]}, "properties": {"NAME": "W7M/BR-085", "TITLE": "Sheep Mountain", "REGION": "MT - Butte Region", "ASSOCIATION": "USA - Montana", "POINTS": "8", "BONUSPOINTS": "3"}}, {"type": "Feature", "geometry": {"type": "Point", "coordinates": [-113.4438, 45.9446]}, "properties": {"NAME": "W7M/BR-086", "TITLE": "9700", "REGION": "MT - Butte Region", "ASSOCIATION": "USA - Montana", "POINTS": "8", "BONUSPOINTS": "3"}}, {"type": "Feature", "geometry": {"type": "Point", "coordinates": [-111.5002, 45.1659]}, "properties": {"NAME": "W7M/BR-087", "TITLE": "The Helmet", "REGION": "MT - Butte Region", "ASSOCIATION": "USA - Montana", "POINTS": "8", "BONUSPOINTS": "3"}}, {"type": "Feature", "geometry": {"type": "Point", "coordinates": [-112.1388, 45.5801]}, "properties": {"NAME": "W7M/BR-088", "TITLE": "9620", "REGION": "MT - Butte Region", "ASSOCIATION": "USA - Montana", "POINTS": "8", "BONUSPOINTS": "3"}}, {"type": "Feature", "geometry": {"type": "Point", "coordinates": [-111.9616, 45.1896]}, "properties": {"NAME": "W7M/BR-089", "TITLE": "Baldy Mountain", "REGION": "MT - Butte Region", "ASSOCIATION": "USA - Montana", "POINTS": "8", "BONUSPOINTS": "3"}}, {"type": "Feature", "geometry": {"type": "Point", "coordinates": [-113.2494, 46.0763]}, "properties": {"NAME": "W7M/BR-090", "TITLE": "9611", "REGION": "MT - Butte Region", "ASSOCIATION": "USA - Montana", "POINTS": "8", "BONUSPOINTS": "3"}}, {"type": "Feature", "geometry": {"type": "Point", "coordinates": [-111.7252, 44.8444]}, "properties": {"NAME": "W7M/BR-091", "TITLE": "Freezeout Mountain", "REGION": "MT - Butte Region", "ASSOCIATION": "USA - Montana", "POINTS": "8", "BONUSPOINTS": "3"}}, {"type": "Feature", "geometry": {"type": "Point", "coordinates": [-111.7907, 44.8146]}, "properties": {"NAME": "W7M/BR-092", "TITLE": "Lobo Mesa", "REGION": "MT - Butte Region", "ASSOCIATION": "USA - Montana", "POINTS": "8", "BONUSPOINTS": "3"}}, {"type": "Feature", "geometry": {"type": "Point", "coordinates": [-111.86, 44.8666]}, "properties": {"NAME": "W7M/BR-093", "TITLE": "Monument Hill", "REGION": "MT - Butte Region", "ASSOCIATION": "USA - Montana", "POINTS": "8", "BONUSPOINTS": "3"}}, {"type": "Feature", "geometry": {"type": "Point", "coordinates": [-113.5002, 45.9484]}, "properties": {"NAME": "W7M/BR-094", "TITLE": "East Pintler Peak", "REGION": "MT - Butte Region", "ASSOCIATION": "USA - Montana", "POINTS": "8", "BONUSPOINTS": "3"}}, {"type": "Feature", "geometry": {"type": "Point", "coordinates": [-112.8019, 45.8264]}, "properties": {"NAME": "W7M/BR-095", "TITLE": "Mount Fleecer", "REGION": "MT - Butte Region", "ASSOCIATION": "USA - Montana", "POINTS": "8", "BONUSPOINTS": "3"}}, {"type": "Feature", "geometry": {"type": "Point", "coordinates": [-112.2279, 45.3129]}, "properties": {"NAME": "W7M/BR-096", "TITLE": "Ruby Benchmark", "REGION": "MT - Butte Region", "ASSOCIATION": "USA - Montana", "POINTS": "8", "BONUSPOINTS": "3"}}, {"type": "Feature", "geometry": {"type": "Point", "coordinates": [-111.5085, 45.1314]}, "properties": {"NAME": "W7M/BR-097", "TITLE": "9340", "REGION": "MT - Butte Region", "ASSOCIATION": "USA - Montana", "POINTS": "8", "BONUSPOINTS": "3"}}, {"type": "Feature", "geometry": {"type": "Point", "coordinates": [-112.0463, 45.7147]}, "properties": {"NAME": "W7M/BR-098", "TITLE": "Brownback Mountain", "REGION": "MT - Butte Region", "ASSOCIATION": "USA - Montana", "POINTS": "8", "BONUSPOINTS": "3"}}, {"type": "Feature", "geometry": {"type": "Point", "coordinates": [-112.0578, 45.6247]}, "properties": {"NAME": "W7M/BR-099", "TITLE": "9281", "REGION": "MT - Butte Region", "ASSOCIATION": "USA - Montana", "POINTS": "8", "BONUSPOINTS": "3"}}, {"type": "Feature", "geometry": {"type": "Point", "coordinates": [-112.2307, 45.339]}, "properties": {"NAME": "W7M/BR-100", "TITLE": "9242", "REGION": "MT - Butte Region", "ASSOCIATION": "USA - Montana", "POINTS": "8", "BONUSPOINTS": "3"}}, {"type": "Feature", "geometry": {"type": "Point", "coordinates": [-112.9366, 45.8652]}, "properties": {"NAME": "W7M/BR-101", "TITLE": "Granulated Mountain", "REGION": "MT - Butte Region", "ASSOCIATION": "USA - Montana", "POINTS": "8", "BONUSPOINTS": "3"}}, {"type": "Feature", "geometry": {"type": "Point", "coordinates": [-112.9822, 45.8973]}, "properties": {"NAME": "W7M/BR-102", "TITLE": "Dickie Peak", "REGION": "MT - Butte Region", "ASSOCIATION": "USA - Montana", "POINTS": "8", "BONUSPOINTS": "3"}}, {"type": "Feature", "geometry": {"type": "Point", "coordinates": [-112.0003, 45.1742]}, "properties": {"NAME": "W7M/BR-103", "TITLE": "8980", "REGION": "MT - Butte Region", "ASSOCIATION": "USA - Montana", "POINTS": "6", "BONUSPOINTS": "3"}}, {"type": "Feature", "geometry": {"type": "Point", "coordinates": [-112.9323, 45.9544]}, "properties": {"NAME": "W7M/BR-104", "TITLE": "8909", "REGION": "MT - Butte Region", "ASSOCIATION": "USA - Montana", "POINTS": "6", "BONUSPOINTS": "3"}}, {"type": "Feature", "geometry": {"type": "Point", "coordinates": [-111.9795, 45.6657]}, "properties": {"NAME": "W7M/BR-105", "TITLE": "Queens Hill", "REGION": "MT - Butte Region", "ASSOCIATION": "USA - Montana", "POINTS": "6", "BONUSPOINTS": "3"}}, {"type": "Feature", "geometry": {"type": "Point", "coordinates": [-113.078, 46.2073]}, "properties": {"NAME": "W7M/BR-106", "TITLE": "Olson Mountain", "REGION": "MT - Butte Region", "ASSOCIATION": "USA - Montana", "POINTS": "6", "BONUSPOINTS": "3"}}, {"type": "Feature", "geometry": {"type": "Point", "coordinates": [-112.2345, 45.2844]}, "properties": {"NAME": "W7M/BR-107", "TITLE": "8778", "REGION": "MT - Butte Region", "ASSOCIATION": "USA - Montana", "POINTS": "6", "BONUSPOINTS": "3"}}, {"type": "Feature", "geometry": {"type": "Point", "coordinates": [-112.2945, 45.2451]}, "properties": {"NAME": "W7M/BR-108", "TITLE": "8765", "REGION": "MT - Butte Region", "ASSOCIATION": "USA - Montana", "POINTS": "6", "BONUSPOINTS": "3"}}, {"type": "Feature", "geometry": {"type": "Point", "coordinates": [-111.9761, 45.0963]}, "properties": {"NAME": "W7M/BR-109", "TITLE": "8728", "REGION": "MT - Butte Region", "ASSOCIATION": "USA - Montana", "POINTS": "6", "BONUSPOINTS": "3"}}, {"type": "Feature", "geometry": {"type": "Point", "coordinates": [-111.5646, 45.3887]}, "properties": {"NAME": "W7M/BR-110", "TITLE": "8602", "REGION": "MT - Butte Region", "ASSOCIATION": "USA - Montana", "POINTS": "6", "BONUSPOINTS": "3"}}, {"type": "Feature", "geometry": {"type": "Point", "coordinates": [-111.997, 45.1353]}, "properties": {"NAME": "W7M/BR-111", "TITLE": "8580", "REGION": "MT - Butte Region", "ASSOCIATION": "USA - Montana", "POINTS": "6", "BONUSPOINTS": "3"}}, {"type": "Feature", "geometry": {"type": "Point", "coordinates": [-111.4597, 45.1309]}, "properties": {"NAME": "W7M/BR-112", "TITLE": "Circle Mountain", "REGION": "MT - Butte Region", "ASSOCIATION": "USA - Montana", "POINTS": "6", "BONUSPOINTS": "3"}}, {"type": "Feature", "geometry": {"type": "Point", "coordinates": [-111.563, 45.323]}, "properties": {"NAME": "W7M/BR-113", "TITLE": "8467", "REGION": "MT - Butte Region", "ASSOCIATION": "USA - Montana", "POINTS": "6", "BONUSPOINTS": "3"}}, {"type": "Feature", "geometry": {"type": "Point", "coordinates": [-111.8819, 45.5497]}, "properties": {"NAME": "W7M/BR-114", "TITLE": "8426", "REGION": "MT - Butte Region", "ASSOCIATION": "USA - Montana", "POINTS": "6", "BONUSPOINTS": "3"}}, {"type": "Feature", "geometry": {"type": "Point", "coordinates": [-112.8275, 45.9333]}, "properties": {"NAME": "W7M/BR-115", "TITLE": "Burnt Mountain", "REGION": "MT - Butte Region", "ASSOCIATION": "USA - Montana", "POINTS": "6", "BONUSPOINTS": "3"}}, {"type": "Feature", "geometry": {"type": "Point", "coordinates": [-112.6094, 45.7299]}, "properties": {"NAME": "W7M/BR-116", "TITLE": "Negro Mountain", "REGION": "MT - Butte Region", "ASSOCIATION": "USA - Montana", "POINTS": "6", "BONUSPOINTS": "3"}}, {"type": "Feature", "geometry": {"type": "Point", "coordinates": [-112.6223, 45.5292]}, "properties": {"NAME": "W7M/BR-117", "TITLE": "McCartney Mountain", "REGION": "MT - Butte Region", "ASSOCIATION": "USA - Montana", "POINTS": "6", "BONUSPOINTS": "3"}}, {"type": "Feature", "geometry": {"type": "Point", "coordinates": [-112.0361, 45.7334]}, "properties": {"NAME": "W7M/BR-118", "TITLE": "8312", "REGION": "MT - Butte Region", "ASSOCIATION": "USA - Montana", "POINTS": "6", "BONUSPOINTS": "3"}}, {"type": "Feature", "geometry": {"type": "Point", "coordinates": [-111.6517, 44.7163]}, "properties": {"NAME": "W7M/BR-119", "TITLE": "Brimstone Benchmark", "REGION": "MT - Butte Region", "ASSOCIATION": "USA - Montana", "POINTS": "6", "BONUSPOINTS": "3"}}, {"type": "Feature", "geometry": {"type": "Point", "coordinates": [-112.6111, 45.7932]}, "properties": {"NAME": "W7M/BR-120", "TITLE": "Mount Humbug", "REGION": "MT - Butte Region", "ASSOCIATION": "USA - Montana", "POINTS": "6", "BONUSPOINTS": "3"}}, {"type": "Feature", "geometry": {"type": "Point", "coordinates": [-112.0265, 45.2014]}, "properties": {"NAME": "W7M/BR-121", "TITLE": "8256", "REGION": "MT - Butte Region", "ASSOCIATION": "USA - Montana", "POINTS": "6", "BONUSPOINTS": "3"}}, {"type": "Feature", "geometry": {"type": "Point", "coordinates": [-112.2718, 45.2755]}, "properties": {"NAME": "W7M/BR-122", "TITLE": "8232", "REGION": "MT - Butte Region", "ASSOCIATION": "USA - Montana", "POINTS": "6", "BONUSPOINTS": "3"}}, {"type": "Feature", "geometry": {"type": "Point", "coordinates": [-111.5823, 45.4997]}, "properties": {"NAME": "W7M/BR-123", "TITLE": "8088", "REGION": "MT - Butte Region", "ASSOCIATION": "USA - Montana", "POINTS": "6", "BONUSPOINTS": "3"}}, {"type": "Feature", "geometry": {"type": "Point", "coordinates": [-112.4595, 45.8151]}, "properties": {"NAME": "W7M/BR-124", "TITLE": "Limekiln Hill", "REGION": "MT - Butte Region", "ASSOCIATION": "USA - Montana", "POINTS": "6", "BONUSPOINTS": "3"}}, {"type": "Feature", "geometry": {"type": "Point", "coordinates": [-113.0904, 46.1455]}, "properties": {"NAME": "W7M/BR-125", "TITLE": "Garrity Mountain", "REGION": "MT - Butte Region", "ASSOCIATION": "USA - Montana", "POINTS": "6", "BONUSPOINTS": "3"}}, {"type": "Feature", "geometry": {"type": "Point", "coordinates": [-113.0354, 45.8683]}, "properties": {"NAME": "W7M/BR-126", "TITLE": "Dickie Hills", "REGION": "MT - Butte Region", "ASSOCIATION": "USA - Montana", "POINTS": "6", "BONUSPOINTS": "3"}}, {"type": "Feature", "geometry": {"type": "Point", "coordinates": [-112.6147, 45.4974]}, "properties": {"NAME": "W7M/BR-127", "TITLE": "Bell Peak", "REGION": "MT - Butte Region", "ASSOCIATION": "USA - Montana", "POINTS": "6", "BONUSPOINTS": "3"}}, {"type": "Feature", "geometry": {"type": "Point", "coordinates": [-113.2324, 46.1398]}, "properties": {"NAME": "W7M/BR-128", "TITLE": "Silver Hill", "REGION": "MT - Butte Region", "ASSOCIATION": "USA - Montana", "POINTS": "6", "BONUSPOINTS": "3"}}, {"type": "Feature", "geometry": {"type": "Point", "coordinates": [-112.9276, 46.0096]}, "properties": {"NAME": "W7M/BR-129", "TITLE": "7780", "REGION": "MT - Butte Region", "ASSOCIATION": "USA - Montana", "POINTS": "6", "BONUSPOINTS": "3"}}, {"type": "Feature", "geometry": {"type": "Point", "coordinates": [-112.956, 46.0135]}, "properties": {"NAME": "W7M/BR-130", "TITLE": "Sugarloaf Mountain", "REGION": "MT - Butte Region", "ASSOCIATION": "USA - Montana", "POINTS": "6", "BONUSPOINTS": "3"}}, {"type": "Feature", "geometry": {"type": "Point", "coordinates": [-112.3781, 45.175]}, "properties": {"NAME": "W7M/BR-131", "TITLE": "7725", "REGION": "MT - Butte Region", "ASSOCIATION": "USA - Montana", "POINTS": "6", "BONUSPOINTS": "3"}}, {"type": "Feature", "geometry": {"type": "Point", "coordinates": [-111.4983, 44.7382]}, "properties": {"NAME": "W7M/BR-132", "TITLE": "Horn Mountains HP", "REGION": "MT - Butte Region", "ASSOCIATION": "USA - Montana", "POINTS": "6", "BONUSPOINTS": "3"}}, {"type": "Feature", "geometry": {"type": "Point", "coordinates": [-111.4873, 45.346]}, "properties": {"NAME": "W7M/BR-133", "TITLE": "7683", "REGION": "MT - Butte Region", "ASSOCIATION": "USA - Montana", "POINTS": "6", "BONUSPOINTS": "3"}}, {"type": "Feature", "geometry": {"type": "Point", "coordinates": [-112.6423, 45.7479]}, "properties": {"NAME": "W7M/BR-134", "TITLE": "7676", "REGION": "MT - Butte Region", "ASSOCIATION": "USA - Montana", "POINTS": "6", "BONUSPOINTS": "3"}}, {"type": "Feature", "geometry": {"type": "Point", "coordinates": [-112.5791, 46.2208]}, "properties": {"NAME": "W7M/BR-135", "TITLE": "7498", "REGION": "MT - Butte Region", "ASSOCIATION": "USA - Montana", "POINTS": "4", "BONUSPOINTS": "3"}}, {"type": "Feature", "geometry": {"type": "Point", "coordinates": [-112.9619, 45.8277]}, "properties": {"NAME": "W7M/BR-136", "TITLE": "7474", "REGION": "MT - Butte Region", "ASSOCIATION": "USA - Montana", "POINTS": "4", "BONUSPOINTS": "3"}}, {"type": "Feature", "geometry": {"type": "Point", "coordinates": [-112.8132, 45.7833]}, "properties": {"NAME": "W7M/BR-137", "TITLE": "7449", "REGION": "MT - Butte Region", "ASSOCIATION": "USA - Montana", "POINTS": "4", "BONUSPOINTS": "3"}}, {"type": "Feature", "geometry": {"type": "Point", "coordinates": [-112.5725, 45.6671]}, "properties": {"NAME": "W7M/BR-138", "TITLE": "7388", "REGION": "MT - Butte Region", "ASSOCIATION": "USA - Montana", "POINTS": "4", "BONUSPOINTS": "3"}}, {"type": "Feature", "geometry": {"type": "Point", "coordinates": [-112.0461, 45.7547]}, "properties": {"NAME": "W7M/BR-139", "TITLE": "7321", "REGION": "MT - Butte Region", "ASSOCIATION": "USA - Montana", "POINTS": "4", "BONUSPOINTS": "3"}}, {"type": "Feature", "geometry": {"type": "Point", "coordinates": [-112.7593, 45.9254]}, "properties": {"NAME": "W7M/BR-140", "TITLE": "7246", "REGION": "MT - Butte Region", "ASSOCIATION": "USA - Montana", "POINTS": "4", "BONUSPOINTS": "3"}}, {"type": "Feature", "geometry": {"type": "Point", "coordinates": [-112.9505, 46.204]}, "properties": {"NAME": "W7M/BR-141", "TITLE": "7215", "REGION": "MT - Butte Region", "ASSOCIATION": "USA - Montana", "POINTS": "4", "BONUSPOINTS": "3"}}, {"type": "Feature", "geometry": {"type": "Point", "coordinates": [-112.9506, 46.1009]}, "properties": {"NAME": "W7M/BR-142", "TITLE": "7193", "REGION": "MT - Butte Region", "ASSOCIATION": "USA - Montana", "POINTS": "4", "BONUSPOINTS": "3"}}, {"type": "Feature", "geometry": {"type": "Point", "coordinates": [-113.177, 46.1952]}, "properties": {"NAME": "W7M/BR-143", "TITLE": "Grouse Hill", "REGION": "MT - Butte Region", "ASSOCIATION": "USA - Montana", "POINTS": "4", "BONUSPOINTS": "3"}}, {"type": "Feature", "geometry": {"type": "Point", "coordinates": [-112.5896, 46.1246]}, "properties": {"NAME": "W7M/BR-144", "TITLE": "7188", "REGION": "MT - Butte Region", "ASSOCIATION": "USA - Montana", "POINTS": "4", "BONUSPOINTS": "3"}}, {"type": "Feature", "geometry": {"type": "Point", "coordinates": [-113.079, 45.9093]}, "properties": {"NAME": "W7M/BR-145", "TITLE": "7129", "REGION": "MT - Butte Region", "ASSOCIATION": "USA - Montana", "POINTS": "4", "BONUSPOINTS": "3"}}, {"type": "Feature", "geometry": {"type": "Point", "coordinates": [-112.5412, 46.1495]}, "properties": {"NAME": "W7M/BR-146", "TITLE": "7019", "REGION": "MT - Butte Region", "ASSOCIATION": "USA - Montana", "POINTS": "4", "BONUSPOINTS": "3"}}, {"type": "Feature", "geometry": {"type": "Point", "coordinates": [-111.5543, 44.7802]}, "properties": {"NAME": "W7M/BR-147", "TITLE": "6995", "REGION": "MT - Butte Region", "ASSOCIATION": "USA - Montana", "POINTS": "4", "BONUSPOINTS": "3"}}, {"type": "Feature", "geometry": {"type": "Point", "coordinates": [-112.6415, 46.2222]}, "properties": {"NAME": "W7M/BR-148", "TITLE": "Cottonwood Mountain", "REGION": "MT - Butte Region", "ASSOCIATION": "USA - Montana", "POINTS": "4", "BONUSPOINTS": "3"}}, {"type": "Feature", "geometry": {"type": "Point", "coordinates": [-112.6428, 46.2416]}, "properties": {"NAME": "W7M/BR-149", "TITLE": "Orofino Mountain", "REGION": "MT - Butte Region", "ASSOCIATION": "USA - Montana", "POINTS": "4", "BONUSPOINTS": "3"}}, {"type": "Feature", "geometry": {"type": "Point", "coordinates": [-112.676, 45.7493]}, "properties": {"NAME": "W7M/BR-150", "TITLE": "6870", "REGION": "MT - Butte Region", "ASSOCIATION": "USA - Montana", "POINTS": "4", "BONUSPOINTS": "3"}}, {"type": "Feature", "geometry": {"type": "Point", "coordinates": [-112.6731, 46.0629]}, "properties": {"NAME": "W7M/BR-151", "TITLE": "6802", "REGION": "MT - Butte Region", "ASSOCIATION": "USA - Montana", "POINTS": "4", "BONUSPOINTS": "3"}}, {"type": "Feature", "geometry": {"type": "Point", "coordinates": [-111.9507, 45.7295]}, "properties": {"NAME": "W7M/BR-152", "TITLE": "6791", "REGION": "MT - Butte Region", "ASSOCIATION": "USA - Montana", "POINTS": "4", "BONUSPOINTS": "3"}}, {"type": "Feature", "geometry": {"type": "Point", "coordinates": [-111.3924, 45.5018]}, "properties": {"NAME": "W7M/BR-153", "TITLE": "Finnegan Ridge", "REGION": "MT - Butte Region", "ASSOCIATION": "USA - Montana", "POINTS": "4", "BONUSPOINTS": "3"}}, {"type": "Feature", "geometry": {"type": "Point", "coordinates": [-111.5694, 45.5418]}, "properties": {"NAME": "W7M/BR-154", "TITLE": "6700", "REGION": "MT - Butte Region", "ASSOCIATION": "USA - Montana", "POINTS": "4", "BONUSPOINTS": "3"}}, {"type": "Feature", "geometry": {"type": "Point", "coordinates": [-112.6857, 45.7328]}, "properties": {"NAME": "W7M/BR-155", "TITLE": "6697", "REGION": "MT - Butte Region", "ASSOCIATION": "USA - Montana", "POINTS": "4", "BONUSPOINTS": "3"}}, {"type": "Feature", "geometry": {"type": "Point", "coordinates": [-111.4613, 45.5511]}, "properties": {"NAME": "W7M/BR-156", "TITLE": "Elk Mountain", "REGION": "MT - Butte Region", "ASSOCIATION": "USA - Montana", "POINTS": "4", "BONUSPOINTS": "3"}}, {"type": "Feature", "geometry": {"type": "Point", "coordinates": [-112.7159, 45.6878]}, "properties": {"NAME": "W7M/BR-157", "TITLE": "6533", "REGION": "MT - Butte Region", "ASSOCIATION": "USA - Montana", "POINTS": "4", "BONUSPOINTS": "3"}}, {"type": "Feature", "geometry": {"type": "Point", "coordinates": [-112.7439, 45.7127]}, "properties": {"NAME": "W7M/BR-158", "TITLE": "Goat Mountain", "REGION": "MT - Butte Region", "ASSOCIATION": "USA - Montana", "POINTS": "4", "BONUSPOINTS": "3"}}, {"type": "Feature", "geometry": {"type": "Point", "coordinates": [-111.6286, 45.5342]}, "properties": {"NAME": "W7M/BR-159", "TITLE": "6490", "REGION": "MT - Butte Region", "ASSOCIATION": "USA - Montana", "POINTS": "2", "BONUSPOINTS": "3"}}, {"type": "Feature", "geometry": {"type": "Point", "coordinates": [-111.946, 45.7533]}, "properties": {"NAME": "W7M/BR-160", "TITLE": "6460", "REGION": "MT - Butte Region", "ASSOCIATION": "USA - Montana", "POINTS": "2", "BONUSPOINTS": "3"}}, {"type": "Feature", "geometry": {"type": "Point", "coordinates": [-112.7121, 46.0538]}, "properties": {"NAME": "W7M/BR-161", "TITLE": "6448", "REGION": "MT - Butte Region", "ASSOCIATION": "USA - Montana", "POINTS": "2", "BONUSPOINTS": "3"}}, {"type": "Feature", "geometry": {"type": "Point", "coordinates": [-111.8992, 45.815]}, "properties": {"NAME": "W7M/BR-162", "TITLE": "London Peak", "REGION": "MT - Butte Region", "ASSOCIATION": "USA - Montana", "POINTS": "2", "BONUSPOINTS": "3"}}, {"type": "Feature", "geometry": {"type": "Point", "coordinates": [-111.8719, 45.7959]}, "properties": {"NAME": "W7M/BR-163", "TITLE": "East London Hills", "REGION": "MT - Butte Region", "ASSOCIATION": "USA - Montana", "POINTS": "2", "BONUSPOINTS": "3"}}, {"type": "Feature", "geometry": {"type": "Point", "coordinates": [-111.9871, 45.8007]}, "properties": {"NAME": "W7M/BR-164", "TITLE": "6140", "REGION": "MT - Butte Region", "ASSOCIATION": "USA - Montana", "POINTS": "2", "BONUSPOINTS": "3"}}, {"type": "Feature", "geometry": {"type": "Point", "coordinates": [-112.7647, 46.0242]}, "properties": {"NAME": "W7M/BR-165", "TITLE": "5980", "REGION": "MT - Butte Region", "ASSOCIATION": "USA - Montana", "POINTS": "2", "BONUSPOINTS": "3"}}, {"type": "Feature", "geometry": {"type": "Point", "coordinates": [-111.6928, 45.6194]}, "properties": {"NAME": "W7M/BR-166", "TITLE": "5743", "REGION": "MT - Butte Region", "ASSOCIATION": "USA - Montana", "POINTS": "2", "BONUSPOINTS": "3"}}, {"type": "Feature", "geometry": {"type": "Point", "coordinates": [-111.58, 45.6212]}, "properties": {"NAME": "W7M/BR-167", "TITLE": "Red Mountain", "REGION": "MT - Butte Region", "ASSOCIATION": "USA - Montana", "POINTS": "2", "BONUSPOINTS": "3"}}, {"type": "Feature", "geometry": {"type": "Point", "coordinates": [-111.6199, 45.6466]}, "properties": {"NAME": "W7M/BR-168", "TITLE": "5702", "REGION": "MT - Butte Region", "ASSOCIATION": "USA - Montana", "POINTS": "2", "BONUSPOINTS": "3"}}, {"type": "Feature", "geometry": {"type": "Point", "coordinates": [-111.79, 45.768]}, "properties": {"NAME": "W7M/BR-169", "TITLE": "5612", "REGION": "MT - Butte Region", "ASSOCIATION": "USA - Montana", "POINTS": "2", "BONUSPOINTS": "3"}}, {"type": "Feature", "geometry": {"type": "Point", "coordinates": [-111.4142, 45.0097]}, "properties": {"NAME": "W7M/BR-170", "TITLE": "Woodward Mountain", "REGION": "MT - Butte Region", "ASSOCIATION": "USA - Montana", "POINTS": "10", "BONUSPOINTS": "3"}}, {"type": "Feature", "geometry": {"type": "Point", "coordinates": [-112.0606, 45.564]}, "properties": {"NAME": "W7M/BR-171", "TITLE": "Noble Peak", "REGION": "MT - Butte Region", "ASSOCIATION": "USA - Montana", "POINTS": "8", "BONUSPOINTS": "3"}}, {"type": "Feature", "geometry": {"type": "Point", "coordinates": [-112.4509, 45.1036]}, "properties": {"NAME": "W7M/BR-172", "TITLE": "8486", "REGION": "MT - Butte Region", "ASSOCIATION": "USA - Montana", "POINTS": "6", "BONUSPOINTS": "3"}}, {"type": "Feature", "geometry": {"type": "Point", "coordinates": [-112.5405, 45.8102]}, "properties": {"NAME": "W7M/BR-173", "TITLE": "7752", "REGION": "MT - Butte Region", "ASSOCIATION": "USA - Montana", "POINTS": "6", "BONUSPOINTS": "3"}}, {"type": "Feature", "geometry": {"type": "Point", "coordinates": [-113.0665, 45.8845]}, "properties": {"NAME": "W7M/BR-174", "TITLE": "7066", "REGION": "MT - Butte Region", "ASSOCIATION": "USA - Montana", "POINTS": "4", "BONUSPOINTS": "3"}}]}