{"type": "FeatureCollection", "name": "W7M/LM SUMMITS", "features": [{"type": "Feature", "geometry": {"type": "Point", "coordinates": [-113.9193, 47.3827]}, "properties": {"NAME": "W7M/LM-001", "TITLE": "McDonald Peak", "REGION": "MT - Lake-Missoula", "ASSOCIATION": "USA - Montana", "POINTS": "8", "BONUSPOINTS": "3"}}, {"type": "Feature", "geometry": {"type": "Point", "coordinates": [-113.9118, 47.3024]}, "properties": {"NAME": "W7M/LM-002", "TITLE": "East Saint Marys Peak", "REGION": "MT - Lake-Missoula", "ASSOCIATION": "USA - Montana", "POINTS": "8", "BONUSPOINTS": "3"}}, {"type": "Feature", "geometry": {"type": "Point", "coordinates": [-113.9372, 47.3844]}, "properties": {"NAME": "W7M/LM-003", "TITLE": "9417", "REGION": "MT - Lake-Missoula", "ASSOCIATION": "USA - Montana", "POINTS": "8", "BONUSPOINTS": "3"}}, {"type": "Feature", "geometry": {"type": "Point", "coordinates": [-113.8982, 47.3599]}, "properties": {"NAME": "W7M/LM-004", "TITLE": "Glacier Peaks", "REGION": "MT - Lake-Missoula", "ASSOCIATION": "USA - Montana", "POINTS": "8", "BONUSPOINTS": "3"}}, {"type": "Feature", "geometry": {"type": "Point", "coordinates": [-113.9007, 47.313]}, "properties": {"NAME": "W7M/LM-005", "TITLE": "Lowary Peak", "REGION": "MT - Lake-Missoula", "ASSOCIATION": "USA - Montana", "POINTS": "8", "BONUSPOINTS": "3"}}, {"type": "Feature", "geometry": {"type": "Point", "coordinates": [-113.5825, 47.5349]}, "properties": {"NAME": "W7M/LM-006", "TITLE": "Holland Peak", "REGION": "MT - Lake-Missoula", "ASSOCIATION": "USA - Montana", "POINTS": "8", "BONUSPOINTS": "3"}}, {"type": "Feature", "geometry": {"type": "Point", "coordinates": [-113.9138, 47.3663]}, "properties": {"NAME": "W7M/LM-007", "TITLE": "9328", "REGION": "MT - Lake-Missoula", "ASSOCIATION": "USA - Montana", "POINTS": "8", "BONUSPOINTS": "3"}}, {"type": "Feature", "geometry": {"type": "Point", "coordinates": [-113.6415, 47.7194]}, "properties": {"NAME": "W7M/LM-008", "TITLE": "Swan Peak", "REGION": "MT - Lake-Missoula", "ASSOCIATION": "USA - Montana", "POINTS": "8", "BONUSPOINTS": "3"}}, {"type": "Feature", "geometry": {"type": "Point", "coordinates": [-113.8826, 47.3396]}, "properties": {"NAME": "W7M/LM-009", "TITLE": "Mountaineer Peak", "REGION": "MT - Lake-Missoula", "ASSOCIATION": "USA - Montana", "POINTS": "8", "BONUSPOINTS": "3"}}, {"type": "Feature", "geometry": {"type": "Point", "coordinates": [-114.2445, 46.6748]}, "properties": {"NAME": "W7M/LM-010", "TITLE": "Lolo Peak", "REGION": "MT - Lake-Missoula", "ASSOCIATION": "USA - Montana", "POINTS": "8", "BONUSPOINTS": "3"}}, {"type": "Feature", "geometry": {"type": "Point", "coordinates": [-113.513, 47.3977]}, "properties": {"NAME": "W7M/LM-011", "TITLE": "Ptarmigan Benchmark", "REGION": "MT - Lake-Missoula", "ASSOCIATION": "USA - Montana", "POINTS": "8", "BONUSPOINTS": "3"}}, {"type": "Feature", "geometry": {"type": "Point", "coordinates": [-113.5968, 47.5843]}, "properties": {"NAME": "W7M/LM-012", "TITLE": "9075", "REGION": "MT - Lake-Missoula", "ASSOCIATION": "USA - Montana", "POINTS": "8", "BONUSPOINTS": "3"}}, {"type": "Feature", "geometry": {"type": "Point", "coordinates": [-113.9434, 47.4576]}, "properties": {"NAME": "W7M/LM-013", "TITLE": "Mount Calowahcan", "REGION": "MT - Lake-Missoula", "ASSOCIATION": "USA - Montana", "POINTS": "8", "BONUSPOINTS": "3"}}, {"type": "Feature", "geometry": {"type": "Point", "coordinates": [-113.5736, 47.5163]}, "properties": {"NAME": "W7M/LM-014", "TITLE": "9003", "REGION": "MT - Lake-Missoula", "ASSOCIATION": "USA - Montana", "POINTS": "8", "BONUSPOINTS": "3"}}, {"type": "Feature", "geometry": {"type": "Point", "coordinates": [-113.8712, 47.2881]}, "properties": {"NAME": "W7M/LM-015", "TITLE": "Gray Wolf Peak", "REGION": "MT - Lake-Missoula", "ASSOCIATION": "USA - Montana", "POINTS": "8", "BONUSPOINTS": "3"}}, {"type": "Feature", "geometry": {"type": "Point", "coordinates": [-113.4992, 47.3853]}, "properties": {"NAME": "W7M/LM-016", "TITLE": "8894", "REGION": "MT - Lake-Missoula", "ASSOCIATION": "USA - Montana", "POINTS": "6", "BONUSPOINTS": "3"}}, {"type": "Feature", "geometry": {"type": "Point", "coordinates": [-113.9465, 47.3625]}, "properties": {"NAME": "W7M/LM-017", "TITLE": "8893", "REGION": "MT - Lake-Missoula", "ASSOCIATION": "USA - Montana", "POINTS": "6", "BONUSPOINTS": "3"}}, {"type": "Feature", "geometry": {"type": "Point", "coordinates": [-113.4955, 47.3648]}, "properties": {"NAME": "W7M/LM-018", "TITLE": "Fisher Peak", "REGION": "MT - Lake-Missoula", "ASSOCIATION": "USA - Montana", "POINTS": "6", "BONUSPOINTS": "3"}}, {"type": "Feature", "geometry": {"type": "Point", "coordinates": [-113.6398, 47.6252]}, "properties": {"NAME": "W7M/LM-019", "TITLE": "Union Peak", "REGION": "MT - Lake-Missoula", "ASSOCIATION": "USA - Montana", "POINTS": "6", "BONUSPOINTS": "3"}}, {"type": "Feature", "geometry": {"type": "Point", "coordinates": [-113.8501, 47.3444]}, "properties": {"NAME": "W7M/LM-020", "TITLE": "Daughter of The Sun Mtn", "REGION": "MT - Lake-Missoula", "ASSOCIATION": "USA - Montana", "POINTS": "6", "BONUSPOINTS": "3"}}, {"type": "Feature", "geometry": {"type": "Point", "coordinates": [-113.5365, 47.4265]}, "properties": {"NAME": "W7M/LM-021", "TITLE": "Wolverine Peak", "REGION": "MT - Lake-Missoula", "ASSOCIATION": "USA - Montana", "POINTS": "6", "BONUSPOINTS": "3"}}, {"type": "Feature", "geometry": {"type": "Point", "coordinates": [-113.6202, 47.5793]}, "properties": {"NAME": "W7M/LM-022", "TITLE": "Cooney Mountain", "REGION": "MT - Lake-Missoula", "ASSOCIATION": "USA - Montana", "POINTS": "6", "BONUSPOINTS": "3"}}, {"type": "Feature", "geometry": {"type": "Point", "coordinates": [-113.8767, 47.3703]}, "properties": {"NAME": "W7M/LM-023", "TITLE": "8660", "REGION": "MT - Lake-Missoula", "ASSOCIATION": "USA - Montana", "POINTS": "6", "BONUSPOINTS": "3"}}, {"type": "Feature", "geometry": {"type": "Point", "coordinates": [-113.9305, 47.5002]}, "properties": {"NAME": "W7M/LM-024", "TITLE": "8650", "REGION": "MT - Lake-Missoula", "ASSOCIATION": "USA - Montana", "POINTS": "6", "BONUSPOINTS": "3"}}, {"type": "Feature", "geometry": {"type": "Point", "coordinates": [-113.9419, 47.4922]}, "properties": {"NAME": "W7M/LM-025", "TITLE": "8632", "REGION": "MT - Lake-Missoula", "ASSOCIATION": "USA - Montana", "POINTS": "6", "BONUSPOINTS": "3"}}, {"type": "Feature", "geometry": {"type": "Point", "coordinates": [-113.9229, 47.0952]}, "properties": {"NAME": "W7M/LM-026", "TITLE": "McLeod Peak", "REGION": "MT - Lake-Missoula", "ASSOCIATION": "USA - Montana", "POINTS": "6", "BONUSPOINTS": "3"}}, {"type": "Feature", "geometry": {"type": "Point", "coordinates": [-114.1904, 46.6703]}, "properties": {"NAME": "W7M/LM-027", "TITLE": "8620", "REGION": "MT - Lake-Missoula", "ASSOCIATION": "USA - Montana", "POINTS": "6", "BONUSPOINTS": "3"}}, {"type": "Feature", "geometry": {"type": "Point", "coordinates": [-113.5403, 47.4425]}, "properties": {"NAME": "W7M/LM-028", "TITLE": "Carmine Peak", "REGION": "MT - Lake-Missoula", "ASSOCIATION": "USA - Montana", "POINTS": "6", "BONUSPOINTS": "3"}}, {"type": "Feature", "geometry": {"type": "Point", "coordinates": [-113.9084, 47.5144]}, "properties": {"NAME": "W7M/LM-029", "TITLE": "8522", "REGION": "MT - Lake-Missoula", "ASSOCIATION": "USA - Montana", "POINTS": "6", "BONUSPOINTS": "3"}}, {"type": "Feature", "geometry": {"type": "Point", "coordinates": [-113.6551, 47.5957]}, "properties": {"NAME": "W7M/LM-030", "TITLE": "Condon Benchmark", "REGION": "MT - Lake-Missoula", "ASSOCIATION": "USA - Montana", "POINTS": "6", "BONUSPOINTS": "3"}}, {"type": "Feature", "geometry": {"type": "Point", "coordinates": [-113.6259, 47.5887]}, "properties": {"NAME": "W7M/LM-031", "TITLE": "8430", "REGION": "MT - Lake-Missoula", "ASSOCIATION": "USA - Montana", "POINTS": "6", "BONUSPOINTS": "3"}}, {"type": "Feature", "geometry": {"type": "Point", "coordinates": [-113.9367, 47.5364]}, "properties": {"NAME": "W7M/LM-032", "TITLE": "8429", "REGION": "MT - Lake-Missoula", "ASSOCIATION": "USA - Montana", "POINTS": "6", "BONUSPOINTS": "3"}}, {"type": "Feature", "geometry": {"type": "Point", "coordinates": [-113.8234, 47.3543]}, "properties": {"NAME": "W7M/LM-033", "TITLE": "Lindy Peak", "REGION": "MT - Lake-Missoula", "ASSOCIATION": "USA - Montana", "POINTS": "6", "BONUSPOINTS": "3"}}, {"type": "Feature", "geometry": {"type": "Point", "coordinates": [-113.8905, 47.4318]}, "properties": {"NAME": "W7M/LM-034", "TITLE": "Weisner Peak", "REGION": "MT - Lake-Missoula", "ASSOCIATION": "USA - Montana", "POINTS": "6", "BONUSPOINTS": "3"}}, {"type": "Feature", "geometry": {"type": "Point", "coordinates": [-113.8391, 47.3045]}, "properties": {"NAME": "W7M/LM-035", "TITLE": "Sunset Peak", "REGION": "MT - Lake-Missoula", "ASSOCIATION": "USA - Montana", "POINTS": "6", "BONUSPOINTS": "3"}}, {"type": "Feature", "geometry": {"type": "Point", "coordinates": [-113.9288, 47.4658]}, "properties": {"NAME": "W7M/LM-036", "TITLE": "8366", "REGION": "MT - Lake-Missoula", "ASSOCIATION": "USA - Montana", "POINTS": "6", "BONUSPOINTS": "3"}}, {"type": "Feature", "geometry": {"type": "Point", "coordinates": [-113.5109, 47.4684]}, "properties": {"NAME": "W7M/LM-037", "TITLE": "Waldbillig Mountain", "REGION": "MT - Lake-Missoula", "ASSOCIATION": "USA - Montana", "POINTS": "6", "BONUSPOINTS": "3"}}, {"type": "Feature", "geometry": {"type": "Point", "coordinates": [-113.9207, 47.4704]}, "properties": {"NAME": "W7M/LM-038", "TITLE": "8300", "REGION": "MT - Lake-Missoula", "ASSOCIATION": "USA - Montana", "POINTS": "6", "BONUSPOINTS": "3"}}, {"type": "Feature", "geometry": {"type": "Point", "coordinates": [-113.8649, 47.4285]}, "properties": {"NAME": "W7M/LM-039", "TITLE": "8292", "REGION": "MT - Lake-Missoula", "ASSOCIATION": "USA - Montana", "POINTS": "6", "BONUSPOINTS": "3"}}, {"type": "Feature", "geometry": {"type": "Point", "coordinates": [-113.9127, 47.5057]}, "properties": {"NAME": "W7M/LM-040", "TITLE": "8282", "REGION": "MT - Lake-Missoula", "ASSOCIATION": "USA - Montana", "POINTS": "6", "BONUSPOINTS": "3"}}, {"type": "Feature", "geometry": {"type": "Point", "coordinates": [-113.9454, 47.4386]}, "properties": {"NAME": "W7M/LM-041", "TITLE": "8263", "REGION": "MT - Lake-Missoula", "ASSOCIATION": "USA - Montana", "POINTS": "6", "BONUSPOINTS": "3"}}, {"type": "Feature", "geometry": {"type": "Point", "coordinates": [-113.9331, 47.516]}, "properties": {"NAME": "W7M/LM-042", "TITLE": "8183", "REGION": "MT - Lake-Missoula", "ASSOCIATION": "USA - Montana", "POINTS": "6", "BONUSPOINTS": "3"}}, {"type": "Feature", "geometry": {"type": "Point", "coordinates": [-113.9749, 47.0569]}, "properties": {"NAME": "W7M/LM-043", "TITLE": "Murphy Peak", "REGION": "MT - Lake-Missoula", "ASSOCIATION": "USA - Montana", "POINTS": "6", "BONUSPOINTS": "3"}}, {"type": "Feature", "geometry": {"type": "Point", "coordinates": [-113.4668, 47.4511]}, "properties": {"NAME": "W7M/LM-044", "TITLE": "Shaw Mountain", "REGION": "MT - Lake-Missoula", "ASSOCIATION": "USA - Montana", "POINTS": "6", "BONUSPOINTS": "3"}}, {"type": "Feature", "geometry": {"type": "Point", "coordinates": [-113.822, 47.2736]}, "properties": {"NAME": "W7M/LM-045", "TITLE": "8106", "REGION": "MT - Lake-Missoula", "ASSOCIATION": "USA - Montana", "POINTS": "6", "BONUSPOINTS": "3"}}, {"type": "Feature", "geometry": {"type": "Point", "coordinates": [-113.9572, 47.5282]}, "properties": {"NAME": "W7M/LM-046", "TITLE": "8100", "REGION": "MT - Lake-Missoula", "ASSOCIATION": "USA - Montana", "POINTS": "6", "BONUSPOINTS": "3"}}, {"type": "Feature", "geometry": {"type": "Point", "coordinates": [-113.6967, 47.6955]}, "properties": {"NAME": "W7M/LM-047", "TITLE": "Van Peak", "REGION": "MT - Lake-Missoula", "ASSOCIATION": "USA - Montana", "POINTS": "6", "BONUSPOINTS": "3"}}, {"type": "Feature", "geometry": {"type": "Point", "coordinates": [-113.939, 47.4714]}, "properties": {"NAME": "W7M/LM-048", "TITLE": "8058", "REGION": "MT - Lake-Missoula", "ASSOCIATION": "USA - Montana", "POINTS": "6", "BONUSPOINTS": "3"}}, {"type": "Feature", "geometry": {"type": "Point", "coordinates": [-113.933, 47.0408]}, "properties": {"NAME": "W7M/LM-049", "TITLE": "Mosquito Peak", "REGION": "MT - Lake-Missoula", "ASSOCIATION": "USA - Montana", "POINTS": "6", "BONUSPOINTS": "3"}}, {"type": "Feature", "geometry": {"type": "Point", "coordinates": [-113.898, 47.5191]}, "properties": {"NAME": "W7M/LM-050", "TITLE": "8042", "REGION": "MT - Lake-Missoula", "ASSOCIATION": "USA - Montana", "POINTS": "6", "BONUSPOINTS": "3"}}, {"type": "Feature", "geometry": {"type": "Point", "coordinates": [-113.9279, 47.5205]}, "properties": {"NAME": "W7M/LM-051", "TITLE": "8025", "REGION": "MT - Lake-Missoula", "ASSOCIATION": "USA - Montana", "POINTS": "6", "BONUSPOINTS": "3"}}, {"type": "Feature", "geometry": {"type": "Point", "coordinates": [-113.4989, 47.5328]}, "properties": {"NAME": "W7M/LM-052", "TITLE": "Gyp Mountain", "REGION": "MT - Lake-Missoula", "ASSOCIATION": "USA - Montana", "POINTS": "6", "BONUSPOINTS": "3"}}, {"type": "Feature", "geometry": {"type": "Point", "coordinates": [-114.3559, 47.1578]}, "properties": {"NAME": "W7M/LM-053", "TITLE": "Ch-paa-qn Peak", "REGION": "MT - Lake-Missoula", "ASSOCIATION": "USA - Montana", "POINTS": "6", "BONUSPOINTS": "3"}}, {"type": "Feature", "geometry": {"type": "Point", "coordinates": [-113.9754, 47.6052]}, "properties": {"NAME": "W7M/LM-054", "TITLE": "Goat Peak", "REGION": "MT - Lake-Missoula", "ASSOCIATION": "USA - Montana", "POINTS": "6", "BONUSPOINTS": "3"}}, {"type": "Feature", "geometry": {"type": "Point", "coordinates": [-113.4824, 47.4697]}, "properties": {"NAME": "W7M/LM-055", "TITLE": "7990", "REGION": "MT - Lake-Missoula", "ASSOCIATION": "USA - Montana", "POINTS": "6", "BONUSPOINTS": "3"}}, {"type": "Feature", "geometry": {"type": "Point", "coordinates": [-113.9201, 47.0065]}, "properties": {"NAME": "W7M/LM-056", "TITLE": "Stuart Peak", "REGION": "MT - Lake-Missoula", "ASSOCIATION": "USA - Montana", "POINTS": "6", "BONUSPOINTS": "3"}}, {"type": "Feature", "geometry": {"type": "Point", "coordinates": [-113.9606, 47.6179]}, "properties": {"NAME": "W7M/LM-057", "TITLE": "7973", "REGION": "MT - Lake-Missoula", "ASSOCIATION": "USA - Montana", "POINTS": "6", "BONUSPOINTS": "3"}}, {"type": "Feature", "geometry": {"type": "Point", "coordinates": [-113.879, 47.4011]}, "properties": {"NAME": "W7M/LM-058", "TITLE": "7894", "REGION": "MT - Lake-Missoula", "ASSOCIATION": "USA - Montana", "POINTS": "6", "BONUSPOINTS": "3"}}, {"type": "Feature", "geometry": {"type": "Point", "coordinates": [-113.9488, 47.5541]}, "properties": {"NAME": "W7M/LM-059", "TITLE": "7893", "REGION": "MT - Lake-Missoula", "ASSOCIATION": "USA - Montana", "POINTS": "6", "BONUSPOINTS": "3"}}, {"type": "Feature", "geometry": {"type": "Point", "coordinates": [-113.8955, 47.5481]}, "properties": {"NAME": "W7M/LM-060", "TITLE": "7860", "REGION": "MT - Lake-Missoula", "ASSOCIATION": "USA - Montana", "POINTS": "6", "BONUSPOINTS": "3"}}, {"type": "Feature", "geometry": {"type": "Point", "coordinates": [-113.9673, 47.6261]}, "properties": {"NAME": "W7M/LM-061", "TITLE": "7854", "REGION": "MT - Lake-Missoula", "ASSOCIATION": "USA - Montana", "POINTS": "6", "BONUSPOINTS": "3"}}, {"type": "Feature", "geometry": {"type": "Point", "coordinates": [-113.9284, 47.5845]}, "properties": {"NAME": "W7M/LM-062", "TITLE": "7848", "REGION": "MT - Lake-Missoula", "ASSOCIATION": "USA - Montana", "POINTS": "6", "BONUSPOINTS": "3"}}, {"type": "Feature", "geometry": {"type": "Point", "coordinates": [-113.8748, 47.0931]}, "properties": {"NAME": "W7M/LM-063", "TITLE": "Triangle Peak", "REGION": "MT - Lake-Missoula", "ASSOCIATION": "USA - Montana", "POINTS": "6", "BONUSPOINTS": "3"}}, {"type": "Feature", "geometry": {"type": "Point", "coordinates": [-113.9209, 47.558]}, "properties": {"NAME": "W7M/LM-064", "TITLE": "7807", "REGION": "MT - Lake-Missoula", "ASSOCIATION": "USA - Montana", "POINTS": "6", "BONUSPOINTS": "3"}}, {"type": "Feature", "geometry": {"type": "Point", "coordinates": [-113.8288, 47.1417]}, "properties": {"NAME": "W7M/LM-065", "TITLE": "7769", "REGION": "MT - Lake-Missoula", "ASSOCIATION": "USA - Montana", "POINTS": "6", "BONUSPOINTS": "3"}}, {"type": "Feature", "geometry": {"type": "Point", "coordinates": [-113.503, 47.4441]}, "properties": {"NAME": "W7M/LM-066", "TITLE": "7759", "REGION": "MT - Lake-Missoula", "ASSOCIATION": "USA - Montana", "POINTS": "6", "BONUSPOINTS": "3"}}, {"type": "Feature", "geometry": {"type": "Point", "coordinates": [-113.9657, 47.6614]}, "properties": {"NAME": "W7M/LM-067", "TITLE": "7748", "REGION": "MT - Lake-Missoula", "ASSOCIATION": "USA - Montana", "POINTS": "6", "BONUSPOINTS": "3"}}, {"type": "Feature", "geometry": {"type": "Point", "coordinates": [-113.5267, 47.4826]}, "properties": {"NAME": "W7M/LM-068", "TITLE": "7743", "REGION": "MT - Lake-Missoula", "ASSOCIATION": "USA - Montana", "POINTS": "6", "BONUSPOINTS": "3"}}, {"type": "Feature", "geometry": {"type": "Point", "coordinates": [-113.8444, 47.1552]}, "properties": {"NAME": "W7M/LM-069", "TITLE": "7702", "REGION": "MT - Lake-Missoula", "ASSOCIATION": "USA - Montana", "POINTS": "6", "BONUSPOINTS": "3"}}, {"type": "Feature", "geometry": {"type": "Point", "coordinates": [-113.7149, 47.7392]}, "properties": {"NAME": "W7M/LM-070", "TITLE": "7685", "REGION": "MT - Lake-Missoula", "ASSOCIATION": "USA - Montana", "POINTS": "6", "BONUSPOINTS": "3"}}, {"type": "Feature", "geometry": {"type": "Point", "coordinates": [-113.9083, 47.0699]}, "properties": {"NAME": "W7M/LM-071", "TITLE": "7660", "REGION": "MT - Lake-Missoula", "ASSOCIATION": "USA - Montana", "POINTS": "6", "BONUSPOINTS": "3"}}, {"type": "Feature", "geometry": {"type": "Point", "coordinates": [-113.7435, 47.2272]}, "properties": {"NAME": "W7M/LM-072", "TITLE": "7660", "REGION": "MT - Lake-Missoula", "ASSOCIATION": "USA - Montana", "POINTS": "6", "BONUSPOINTS": "3"}}, {"type": "Feature", "geometry": {"type": "Point", "coordinates": [-114.4336, 47.2097]}, "properties": {"NAME": "W7M/LM-073", "TITLE": "Blackrock Peak", "REGION": "MT - Lake-Missoula", "ASSOCIATION": "USA - Montana", "POINTS": "6", "BONUSPOINTS": "3"}}, {"type": "Feature", "geometry": {"type": "Point", "coordinates": [-113.8067, 46.9476]}, "properties": {"NAME": "W7M/LM-074", "TITLE": "Sheep Mountain", "REGION": "MT - Lake-Missoula", "ASSOCIATION": "USA - Montana", "POINTS": "6", "BONUSPOINTS": "3"}}, {"type": "Feature", "geometry": {"type": "Point", "coordinates": [-113.9376, 47.6679]}, "properties": {"NAME": "W7M/LM-075", "TITLE": "Cedar Peak", "REGION": "MT - Lake-Missoula", "ASSOCIATION": "USA - Montana", "POINTS": "6", "BONUSPOINTS": "3"}}, {"type": "Feature", "geometry": {"type": "Point", "coordinates": [-113.9747, 47.618]}, "properties": {"NAME": "W7M/LM-076", "TITLE": "7580", "REGION": "MT - Lake-Missoula", "ASSOCIATION": "USA - Montana", "POINTS": "6", "BONUSPOINTS": "3"}}, {"type": "Feature", "geometry": {"type": "Point", "coordinates": [-113.8874, 46.998]}, "properties": {"NAME": "W7M/LM-077", "TITLE": "7578", "REGION": "MT - Lake-Missoula", "ASSOCIATION": "USA - Montana", "POINTS": "6", "BONUSPOINTS": "3"}}, {"type": "Feature", "geometry": {"type": "Point", "coordinates": [-113.937, 47.6352]}, "properties": {"NAME": "W7M/LM-078", "TITLE": "7565", "REGION": "MT - Lake-Missoula", "ASSOCIATION": "USA - Montana", "POINTS": "6", "BONUSPOINTS": "3"}}, {"type": "Feature", "geometry": {"type": "Point", "coordinates": [-113.9191, 47.6052]}, "properties": {"NAME": "W7M/LM-079", "TITLE": "7565", "REGION": "MT - Lake-Missoula", "ASSOCIATION": "USA - Montana", "POINTS": "6", "BONUSPOINTS": "3"}}, {"type": "Feature", "geometry": {"type": "Point", "coordinates": [-113.8936, 47.4714]}, "properties": {"NAME": "W7M/LM-080", "TITLE": "7561", "REGION": "MT - Lake-Missoula", "ASSOCIATION": "USA - Montana", "POINTS": "6", "BONUSPOINTS": "3"}}, {"type": "Feature", "geometry": {"type": "Point", "coordinates": [-113.8977, 47.1486]}, "properties": {"NAME": "W7M/LM-081", "TITLE": "7553", "REGION": "MT - Lake-Missoula", "ASSOCIATION": "USA - Montana", "POINTS": "6", "BONUSPOINTS": "3"}}, {"type": "Feature", "geometry": {"type": "Point", "coordinates": [-113.7008, 47.2875]}, "properties": {"NAME": "W7M/LM-082", "TITLE": "Marshall Benchmark", "REGION": "MT - Lake-Missoula", "ASSOCIATION": "USA - Montana", "POINTS": "6", "BONUSPOINTS": "3"}}, {"type": "Feature", "geometry": {"type": "Point", "coordinates": [-113.9611, 47.54]}, "properties": {"NAME": "W7M/LM-083", "TITLE": "7485", "REGION": "MT - Lake-Missoula", "ASSOCIATION": "USA - Montana", "POINTS": "4", "BONUSPOINTS": "3"}}, {"type": "Feature", "geometry": {"type": "Point", "coordinates": [-113.8131, 47.0035]}, "properties": {"NAME": "W7M/LM-084", "TITLE": "Mineral Peak", "REGION": "MT - Lake-Missoula", "ASSOCIATION": "USA - Montana", "POINTS": "4", "BONUSPOINTS": "3"}}, {"type": "Feature", "geometry": {"type": "Point", "coordinates": [-114.5315, 47.2402]}, "properties": {"NAME": "W7M/LM-085", "TITLE": "7300", "REGION": "MT - Lake-Missoula", "ASSOCIATION": "USA - Montana", "POINTS": "4", "BONUSPOINTS": "3"}}, {"type": "Feature", "geometry": {"type": "Point", "coordinates": [-114.406, 46.9111]}, "properties": {"NAME": "W7M/LM-086", "TITLE": "Petty Mountain", "REGION": "MT - Lake-Missoula", "ASSOCIATION": "USA - Montana", "POINTS": "4", "BONUSPOINTS": "3"}}, {"type": "Feature", "geometry": {"type": "Point", "coordinates": [-113.501, 47.3336]}, "properties": {"NAME": "W7M/LM-087", "TITLE": "7260", "REGION": "MT - Lake-Missoula", "ASSOCIATION": "USA - Montana", "POINTS": "4", "BONUSPOINTS": "3"}}, {"type": "Feature", "geometry": {"type": "Point", "coordinates": [-114.4842, 47.22]}, "properties": {"NAME": "W7M/LM-088", "TITLE": "Josephine Peak", "REGION": "MT - Lake-Missoula", "ASSOCIATION": "USA - Montana", "POINTS": "4", "BONUSPOINTS": "3"}}, {"type": "Feature", "geometry": {"type": "Point", "coordinates": [-113.7269, 47.8351]}, "properties": {"NAME": "W7M/LM-089", "TITLE": "7238", "REGION": "MT - Lake-Missoula", "ASSOCIATION": "USA - Montana", "POINTS": "4", "BONUSPOINTS": "3"}}, {"type": "Feature", "geometry": {"type": "Point", "coordinates": [-113.9689, 47.7243]}, "properties": {"NAME": "W7M/LM-090", "TITLE": "7226", "REGION": "MT - Lake-Missoula", "ASSOCIATION": "USA - Montana", "POINTS": "4", "BONUSPOINTS": "3"}}, {"type": "Feature", "geometry": {"type": "Point", "coordinates": [-114.3949, 46.6646]}, "properties": {"NAME": "W7M/LM-091", "TITLE": "Skookum Butte", "REGION": "MT - Lake-Missoula", "ASSOCIATION": "USA - Montana", "POINTS": "4", "BONUSPOINTS": "3"}}, {"type": "Feature", "geometry": {"type": "Point", "coordinates": [-113.6994, 47.0668]}, "properties": {"NAME": "W7M/LM-092", "TITLE": "Gold Creek Peak", "REGION": "MT - Lake-Missoula", "ASSOCIATION": "USA - Montana", "POINTS": "4", "BONUSPOINTS": "3"}}, {"type": "Feature", "geometry": {"type": "Point", "coordinates": [-113.8608, 47.1719]}, "properties": {"NAME": "W7M/LM-093", "TITLE": "7168", "REGION": "MT - Lake-Missoula", "ASSOCIATION": "USA - Montana", "POINTS": "4", "BONUSPOINTS": "3"}}, {"type": "Feature", "geometry": {"type": "Point", "coordinates": [-113.6943, 47.32]}, "properties": {"NAME": "W7M/LM-094", "TITLE": "7140", "REGION": "MT - Lake-Missoula", "ASSOCIATION": "USA - Montana", "POINTS": "4", "BONUSPOINTS": "3"}}, {"type": "Feature", "geometry": {"type": "Point", "coordinates": [-113.7126, 47.7938]}, "properties": {"NAME": "W7M/LM-095", "TITLE": "7113", "REGION": "MT - Lake-Missoula", "ASSOCIATION": "USA - Montana", "POINTS": "4", "BONUSPOINTS": "3"}}, {"type": "Feature", "geometry": {"type": "Point", "coordinates": [-114.6873, 47.2744]}, "properties": {"NAME": "W7M/LM-096", "TITLE": "7112", "REGION": "MT - Lake-Missoula", "ASSOCIATION": "USA - Montana", "POINTS": "4", "BONUSPOINTS": "3"}}, {"type": "Feature", "geometry": {"type": "Point", "coordinates": [-113.7503, 47.9213]}, "properties": {"NAME": "W7M/LM-097", "TITLE": "Spring Slide Mountain", "REGION": "MT - Lake-Missoula", "ASSOCIATION": "USA - Montana", "POINTS": "4", "BONUSPOINTS": "3"}}, {"type": "Feature", "geometry": {"type": "Point", "coordinates": [-113.733, 47.9178]}, "properties": {"NAME": "W7M/LM-098", "TITLE": "7052", "REGION": "MT - Lake-Missoula", "ASSOCIATION": "USA - Montana", "POINTS": "4", "BONUSPOINTS": "3"}}, {"type": "Feature", "geometry": {"type": "Point", "coordinates": [-113.8867, 46.7576]}, "properties": {"NAME": "W7M/LM-099", "TITLE": "Miller Peak", "REGION": "MT - Lake-Missoula", "ASSOCIATION": "USA - Montana", "POINTS": "4", "BONUSPOINTS": "3"}}, {"type": "Feature", "geometry": {"type": "Point", "coordinates": [-113.8231, 46.6712]}, "properties": {"NAME": "W7M/LM-100", "TITLE": "7003", "REGION": "MT - Lake-Missoula", "ASSOCIATION": "USA - Montana", "POINTS": "4", "BONUSPOINTS": "3"}}, {"type": "Feature", "geometry": {"type": "Point", "coordinates": [-114.4244, 46.6606]}, "properties": {"NAME": "W7M/LM-101", "TITLE": "6925", "REGION": "MT - Lake-Missoula", "ASSOCIATION": "USA - Montana", "POINTS": "4", "BONUSPOINTS": "3"}}, {"type": "Feature", "geometry": {"type": "Point", "coordinates": [-114.3708, 46.6858]}, "properties": {"NAME": "W7M/LM-102", "TITLE": "6905", "REGION": "MT - Lake-Missoula", "ASSOCIATION": "USA - Montana", "POINTS": "4", "BONUSPOINTS": "3"}}, {"type": "Feature", "geometry": {"type": "Point", "coordinates": [-113.8741, 48.0327]}, "properties": {"NAME": "W7M/LM-103", "TITLE": "6820", "REGION": "MT - Lake-Missoula", "ASSOCIATION": "USA - Montana", "POINTS": "4", "BONUSPOINTS": "3"}}, {"type": "Feature", "geometry": {"type": "Point", "coordinates": [-113.7965, 46.8637]}, "properties": {"NAME": "W7M/LM-104", "TITLE": "Bonner Mountain", "REGION": "MT - Lake-Missoula", "ASSOCIATION": "USA - Montana", "POINTS": "4", "BONUSPOINTS": "3"}}, {"type": "Feature", "geometry": {"type": "Point", "coordinates": [-113.9705, 47.7535]}, "properties": {"NAME": "W7M/LM-105", "TITLE": "6802", "REGION": "MT - Lake-Missoula", "ASSOCIATION": "USA - Montana", "POINTS": "4", "BONUSPOINTS": "3"}}, {"type": "Feature", "geometry": {"type": "Point", "coordinates": [-114.2544, 47.1206]}, "properties": {"NAME": "W7M/LM-106", "TITLE": "Edith Peak", "REGION": "MT - Lake-Missoula", "ASSOCIATION": "USA - Montana", "POINTS": "4", "BONUSPOINTS": "3"}}, {"type": "Feature", "geometry": {"type": "Point", "coordinates": [-113.7883, 47.095]}, "properties": {"NAME": "W7M/LM-107", "TITLE": "6773", "REGION": "MT - Lake-Missoula", "ASSOCIATION": "USA - Montana", "POINTS": "4", "BONUSPOINTS": "3"}}, {"type": "Feature", "geometry": {"type": "Point", "coordinates": [-114.4258, 46.7052]}, "properties": {"NAME": "W7M/LM-108", "TITLE": "Point 118", "REGION": "MT - Lake-Missoula", "ASSOCIATION": "USA - Montana", "POINTS": "4", "BONUSPOINTS": "3"}}, {"type": "Feature", "geometry": {"type": "Point", "coordinates": [-113.7814, 46.9785]}, "properties": {"NAME": "W7M/LM-109", "TITLE": "6750", "REGION": "MT - Lake-Missoula", "ASSOCIATION": "USA - Montana", "POINTS": "4", "BONUSPOINTS": "3"}}, {"type": "Feature", "geometry": {"type": "Point", "coordinates": [-113.7336, 47.1171]}, "properties": {"NAME": "W7M/LM-110", "TITLE": "6683", "REGION": "MT - Lake-Missoula", "ASSOCIATION": "USA - Montana", "POINTS": "4", "BONUSPOINTS": "3"}}, {"type": "Feature", "geometry": {"type": "Point", "coordinates": [-113.6024, 47.0636]}, "properties": {"NAME": "W7M/LM-111", "TITLE": "Belmont Point", "REGION": "MT - Lake-Missoula", "ASSOCIATION": "USA - Montana", "POINTS": "4", "BONUSPOINTS": "3"}}, {"type": "Feature", "geometry": {"type": "Point", "coordinates": [-113.7466, 46.8573]}, "properties": {"NAME": "W7M/LM-112", "TITLE": "6643", "REGION": "MT - Lake-Missoula", "ASSOCIATION": "USA - Montana", "POINTS": "4", "BONUSPOINTS": "3"}}, {"type": "Feature", "geometry": {"type": "Point", "coordinates": [-114.3145, 47.1155]}, "properties": {"NAME": "W7M/LM-113", "TITLE": "6627", "REGION": "MT - Lake-Missoula", "ASSOCIATION": "USA - Montana", "POINTS": "4", "BONUSPOINTS": "3"}}, {"type": "Feature", "geometry": {"type": "Point", "coordinates": [-114.5434, 46.88]}, "properties": {"NAME": "W7M/LM-114", "TITLE": "6617", "REGION": "MT - Lake-Missoula", "ASSOCIATION": "USA - Montana", "POINTS": "4", "BONUSPOINTS": "3"}}, {"type": "Feature", "geometry": {"type": "Point", "coordinates": [-113.7633, 47.1797]}, "properties": {"NAME": "W7M/LM-115", "TITLE": "6601", "REGION": "MT - Lake-Missoula", "ASSOCIATION": "USA - Montana", "POINTS": "4", "BONUSPOINTS": "3"}}, {"type": "Feature", "geometry": {"type": "Point", "coordinates": [-114.1294, 47.0787]}, "properties": {"NAME": "W7M/LM-116", "TITLE": "Charity Peak", "REGION": "MT - Lake-Missoula", "ASSOCIATION": "USA - Montana", "POINTS": "4", "BONUSPOINTS": "3"}}, {"type": "Feature", "geometry": {"type": "Point", "coordinates": [-114.6143, 46.6392]}, "properties": {"NAME": "W7M/LM-117", "TITLE": "6540", "REGION": "MT - Lake-Missoula", "ASSOCIATION": "USA - Montana", "POINTS": "4", "BONUSPOINTS": "3"}}, {"type": "Feature", "geometry": {"type": "Point", "coordinates": [-113.7586, 47.154]}, "properties": {"NAME": "W7M/LM-118", "TITLE": "6529", "REGION": "MT - Lake-Missoula", "ASSOCIATION": "USA - Montana", "POINTS": "4", "BONUSPOINTS": "3"}}, {"type": "Feature", "geometry": {"type": "Point", "coordinates": [-113.9725, 47.7682]}, "properties": {"NAME": "W7M/LM-119", "TITLE": "6497", "REGION": "MT - Lake-Missoula", "ASSOCIATION": "USA - Montana", "POINTS": "2", "BONUSPOINTS": "3"}}, {"type": "Feature", "geometry": {"type": "Point", "coordinates": [-113.7475, 47.1408]}, "properties": {"NAME": "W7M/LM-120", "TITLE": "6468", "REGION": "MT - Lake-Missoula", "ASSOCIATION": "USA - Montana", "POINTS": "2", "BONUSPOINTS": "3"}}, {"type": "Feature", "geometry": {"type": "Point", "coordinates": [-114.1869, 46.8155]}, "properties": {"NAME": "W7M/LM-121", "TITLE": "Blue Mountain", "REGION": "MT - Lake-Missoula", "ASSOCIATION": "USA - Montana", "POINTS": "2", "BONUSPOINTS": "3"}}, {"type": "Feature", "geometry": {"type": "Point", "coordinates": [-114.5366, 46.6613]}, "properties": {"NAME": "W7M/LM-122", "TITLE": "Lee Ridge", "REGION": "MT - Lake-Missoula", "ASSOCIATION": "USA - Montana", "POINTS": "2", "BONUSPOINTS": "3"}}, {"type": "Feature", "geometry": {"type": "Point", "coordinates": [-113.7394, 46.7109]}, "properties": {"NAME": "W7M/LM-123", "TITLE": "Iris Point", "REGION": "MT - Lake-Missoula", "ASSOCIATION": "USA - Montana", "POINTS": "2", "BONUSPOINTS": "3"}}, {"type": "Feature", "geometry": {"type": "Point", "coordinates": [-113.618, 46.796]}, "properties": {"NAME": "W7M/LM-124", "TITLE": "Kamas Benchmark", "REGION": "MT - Lake-Missoula", "ASSOCIATION": "USA - Montana", "POINTS": "2", "BONUSPOINTS": "3"}}, {"type": "Feature", "geometry": {"type": "Point", "coordinates": [-114.2563, 46.8122]}, "properties": {"NAME": "W7M/LM-125", "TITLE": "6340", "REGION": "MT - Lake-Missoula", "ASSOCIATION": "USA - Montana", "POINTS": "2", "BONUSPOINTS": "3"}}, {"type": "Feature", "geometry": {"type": "Point", "coordinates": [-113.6602, 46.813]}, "properties": {"NAME": "W7M/LM-126", "TITLE": "6336", "REGION": "MT - Lake-Missoula", "ASSOCIATION": "USA - Montana", "POINTS": "2", "BONUSPOINTS": "3"}}, {"type": "Feature", "geometry": {"type": "Point", "coordinates": [-114.5641, 46.8399]}, "properties": {"NAME": "W7M/LM-127", "TITLE": "6302", "REGION": "MT - Lake-Missoula", "ASSOCIATION": "USA - Montana", "POINTS": "2", "BONUSPOINTS": "3"}}, {"type": "Feature", "geometry": {"type": "Point", "coordinates": [-113.3761, 47.1459]}, "properties": {"NAME": "W7M/LM-128", "TITLE": "6300", "REGION": "MT - Lake-Missoula", "ASSOCIATION": "USA - Montana", "POINTS": "2", "BONUSPOINTS": "3"}}, {"type": "Feature", "geometry": {"type": "Point", "coordinates": [-113.7921, 46.7321]}, "properties": {"NAME": "W7M/LM-129", "TITLE": "Elk Mountain", "REGION": "MT - Lake-Missoula", "ASSOCIATION": "USA - Montana", "POINTS": "2", "BONUSPOINTS": "3"}}, {"type": "Feature", "geometry": {"type": "Point", "coordinates": [-113.8761, 46.9004]}, "properties": {"NAME": "W7M/LM-130", "TITLE": "Woody Mountain", "REGION": "MT - Lake-Missoula", "ASSOCIATION": "USA - Montana", "POINTS": "2", "BONUSPOINTS": "3"}}, {"type": "Feature", "geometry": {"type": "Point", "coordinates": [-113.973, 46.8021]}, "properties": {"NAME": "W7M/LM-131", "TITLE": "Mount Dean Stone", "REGION": "MT - Lake-Missoula", "ASSOCIATION": "USA - Montana", "POINTS": "2", "BONUSPOINTS": "3"}}, {"type": "Feature", "geometry": {"type": "Point", "coordinates": [-113.9483, 46.7068]}, "properties": {"NAME": "W7M/LM-132", "TITLE": "6180", "REGION": "MT - Lake-Missoula", "ASSOCIATION": "USA - Montana", "POINTS": "2", "BONUSPOINTS": "3"}}, {"type": "Feature", "geometry": {"type": "Point", "coordinates": [-114.0292, 47.2144]}, "properties": {"NAME": "W7M/LM-133", "TITLE": "Pistol Creek Lookout", "REGION": "MT - Lake-Missoula", "ASSOCIATION": "USA - Montana", "POINTS": "2", "BONUSPOINTS": "3"}}, {"type": "Feature", "geometry": {"type": "Point", "coordinates": [-113.6561, 47.2257]}, "properties": {"NAME": "W7M/LM-134", "TITLE": "6122", "REGION": "MT - Lake-Missoula", "ASSOCIATION": "USA - Montana", "POINTS": "2", "BONUSPOINTS": "3"}}, {"type": "Feature", "geometry": {"type": "Point", "coordinates": [-113.5551, 47.0093]}, "properties": {"NAME": "W7M/LM-135", "TITLE": "South Game Ridge", "REGION": "MT - Lake-Missoula", "ASSOCIATION": "USA - Montana", "POINTS": "2", "BONUSPOINTS": "3"}}, {"type": "Feature", "geometry": {"type": "Point", "coordinates": [-114.4885, 46.9584]}, "properties": {"NAME": "W7M/LM-136", "TITLE": "Martin Point", "REGION": "MT - Lake-Missoula", "ASSOCIATION": "USA - Montana", "POINTS": "2", "BONUSPOINTS": "3"}}, {"type": "Feature", "geometry": {"type": "Point", "coordinates": [-113.9806, 46.7078]}, "properties": {"NAME": "W7M/LM-137", "TITLE": "Baldy Mountain", "REGION": "MT - Lake-Missoula", "ASSOCIATION": "USA - Montana", "POINTS": "2", "BONUSPOINTS": "3"}}, {"type": "Feature", "geometry": {"type": "Point", "coordinates": [-114.2401, 46.8712]}, "properties": {"NAME": "W7M/LM-138", "TITLE": "6004", "REGION": "MT - Lake-Missoula", "ASSOCIATION": "USA - Montana", "POINTS": "2", "BONUSPOINTS": "3"}}, {"type": "Feature", "geometry": {"type": "Point", "coordinates": [-114.3529, 46.9478]}, "properties": {"NAME": "W7M/LM-139", "TITLE": "Albert Point", "REGION": "MT - Lake-Missoula", "ASSOCIATION": "USA - Montana", "POINTS": "2", "BONUSPOINTS": "3"}}, {"type": "Feature", "geometry": {"type": "Point", "coordinates": [-114.4521, 47.0341]}, "properties": {"NAME": "W7M/LM-140", "TITLE": "Ellis Mountain", "REGION": "MT - Lake-Missoula", "ASSOCIATION": "USA - Montana", "POINTS": "2", "BONUSPOINTS": "3"}}, {"type": "Feature", "geometry": {"type": "Point", "coordinates": [-114.2069, 46.8697]}, "properties": {"NAME": "W7M/LM-141", "TITLE": "Black Mountain", "REGION": "MT - Lake-Missoula", "ASSOCIATION": "USA - Montana", "POINTS": "2", "BONUSPOINTS": "3"}}, {"type": "Feature", "geometry": {"type": "Point", "coordinates": [-113.6228, 46.747]}, "properties": {"NAME": "W7M/LM-142", "TITLE": "Bonita Beacon", "REGION": "MT - Lake-Missoula", "ASSOCIATION": "USA - Montana", "POINTS": "2", "BONUSPOINTS": "3"}}, {"type": "Feature", "geometry": {"type": "Point", "coordinates": [-113.8527, 47.2064]}, "properties": {"NAME": "W7M/LM-143", "TITLE": "Jocko Lookout", "REGION": "MT - Lake-Missoula", "ASSOCIATION": "USA - Montana", "POINTS": "2", "BONUSPOINTS": "3"}}, {"type": "Feature", "geometry": {"type": "Point", "coordinates": [-114.3733, 46.9698]}, "properties": {"NAME": "W7M/LM-144", "TITLE": "5810", "REGION": "MT - Lake-Missoula", "ASSOCIATION": "USA - Montana", "POINTS": "2", "BONUSPOINTS": "3"}}, {"type": "Feature", "geometry": {"type": "Point", "coordinates": [-113.929, 46.8529]}, "properties": {"NAME": "W7M/LM-145", "TITLE": "University Mountain", "REGION": "MT - Lake-Missoula", "ASSOCIATION": "USA - Montana", "POINTS": "2", "BONUSPOINTS": "3"}}, {"type": "Feature", "geometry": {"type": "Point", "coordinates": [-114.3207, 46.927]}, "properties": {"NAME": "W7M/LM-146", "TITLE": "Wild Horse Point", "REGION": "MT - Lake-Missoula", "ASSOCIATION": "USA - Montana", "POINTS": "2", "BONUSPOINTS": "3"}}, {"type": "Feature", "geometry": {"type": "Point", "coordinates": [-113.9697, 46.9632]}, "properties": {"NAME": "W7M/LM-147", "TITLE": "5746", "REGION": "MT - Lake-Missoula", "ASSOCIATION": "USA - Montana", "POINTS": "2", "BONUSPOINTS": "3"}}, {"type": "Feature", "geometry": {"type": "Point", "coordinates": [-114.502, 46.7273]}, "properties": {"NAME": "W7M/LM-148", "TITLE": "5700", "REGION": "MT - Lake-Missoula", "ASSOCIATION": "USA - Montana", "POINTS": "2", "BONUSPOINTS": "3"}}, {"type": "Feature", "geometry": {"type": "Point", "coordinates": [-113.6288, 47.1831]}, "properties": {"NAME": "W7M/LM-149", "TITLE": "Fawn Peak", "REGION": "MT - Lake-Missoula", "ASSOCIATION": "USA - Montana", "POINTS": "2", "BONUSPOINTS": "3"}}, {"type": "Feature", "geometry": {"type": "Point", "coordinates": [-113.6582, 46.9718]}, "properties": {"NAME": "W7M/LM-150", "TITLE": "Sunflower Mountain", "REGION": "MT - Lake-Missoula", "ASSOCIATION": "USA - Montana", "POINTS": "2", "BONUSPOINTS": "3"}}, {"type": "Feature", "geometry": {"type": "Point", "coordinates": [-113.5493, 46.9248]}, "properties": {"NAME": "W7M/LM-151", "TITLE": "Morrison Peak", "REGION": "MT - Lake-Missoula", "ASSOCIATION": "USA - Montana", "POINTS": "2", "BONUSPOINTS": "3"}}, {"type": "Feature", "geometry": {"type": "Point", "coordinates": [-113.3353, 47.0712]}, "properties": {"NAME": "W7M/LM-152", "TITLE": "5625", "REGION": "MT - Lake-Missoula", "ASSOCIATION": "USA - Montana", "POINTS": "2", "BONUSPOINTS": "3"}}, {"type": "Feature", "geometry": {"type": "Point", "coordinates": [-114.458, 47.6514]}, "properties": {"NAME": "W7M/LM-153", "TITLE": "5620", "REGION": "MT - Lake-Missoula", "ASSOCIATION": "USA - Montana", "POINTS": "2", "BONUSPOINTS": "3"}}, {"type": "Feature", "geometry": {"type": "Point", "coordinates": [-114.2808, 47.9369]}, "properties": {"NAME": "W7M/LM-154", "TITLE": "5540", "REGION": "MT - Lake-Missoula", "ASSOCIATION": "USA - Montana", "POINTS": "2", "BONUSPOINTS": "3"}}, {"type": "Feature", "geometry": {"type": "Point", "coordinates": [-114.5334, 46.7599]}, "properties": {"NAME": "W7M/LM-155", "TITLE": "5540", "REGION": "MT - Lake-Missoula", "ASSOCIATION": "USA - Montana", "POINTS": "2", "BONUSPOINTS": "3"}}, {"type": "Feature", "geometry": {"type": "Point", "coordinates": [-113.7873, 46.8338]}, "properties": {"NAME": "W7M/LM-156", "TITLE": "5536", "REGION": "MT - Lake-Missoula", "ASSOCIATION": "USA - Montana", "POINTS": "2", "BONUSPOINTS": "3"}}, {"type": "Feature", "geometry": {"type": "Point", "coordinates": [-114.441, 47.7831]}, "properties": {"NAME": "W7M/LM-157", "TITLE": "5528", "REGION": "MT - Lake-Missoula", "ASSOCIATION": "USA - Montana", "POINTS": "2", "BONUSPOINTS": "3"}}, {"type": "Feature", "geometry": {"type": "Point", "coordinates": [-113.9581, 47.2379]}, "properties": {"NAME": "W7M/LM-158", "TITLE": "5500", "REGION": "MT - Lake-Missoula", "ASSOCIATION": "USA - Montana", "POINTS": "2", "BONUSPOINTS": "3"}}, {"type": "Feature", "geometry": {"type": "Point", "coordinates": [-113.7368, 46.8112]}, "properties": {"NAME": "W7M/LM-159", "TITLE": "5481", "REGION": "MT - Lake-Missoula", "ASSOCIATION": "USA - Montana", "POINTS": "2", "BONUSPOINTS": "3"}}, {"type": "Feature", "geometry": {"type": "Point", "coordinates": [-113.4532, 47.0886]}, "properties": {"NAME": "W7M/LM-160", "TITLE": "5471", "REGION": "MT - Lake-Missoula", "ASSOCIATION": "USA - Montana", "POINTS": "2", "BONUSPOINTS": "3"}}, {"type": "Feature", "geometry": {"type": "Point", "coordinates": [-113.972, 46.7609]}, "properties": {"NAME": "W7M/LM-161", "TITLE": "5413", "REGION": "MT - Lake-Missoula", "ASSOCIATION": "USA - Montana", "POINTS": "2", "BONUSPOINTS": "3"}}, {"type": "Feature", "geometry": {"type": "Point", "coordinates": [-114.1692, 47.1695]}, "properties": {"NAME": "W7M/LM-162", "TITLE": "Saddle Mountain", "REGION": "MT - Lake-Missoula", "ASSOCIATION": "USA - Montana", "POINTS": "2", "BONUSPOINTS": "3"}}, {"type": "Feature", "geometry": {"type": "Point", "coordinates": [-114.0955, 47.0151]}, "properties": {"NAME": "W7M/LM-163", "TITLE": "5318", "REGION": "MT - Lake-Missoula", "ASSOCIATION": "USA - Montana", "POINTS": "2", "BONUSPOINTS": "3"}}, {"type": "Feature", "geometry": {"type": "Point", "coordinates": [-113.488, 46.9072]}, "properties": {"NAME": "W7M/LM-164", "TITLE": "5299", "REGION": "MT - Lake-Missoula", "ASSOCIATION": "USA - Montana", "POINTS": "2", "BONUSPOINTS": "3"}}, {"type": "Feature", "geometry": {"type": "Point", "coordinates": [-114.4329, 47.8523]}, "properties": {"NAME": "W7M/LM-165", "TITLE": "Elmo Benchmark", "REGION": "MT - Lake-Missoula", "ASSOCIATION": "USA - Montana", "POINTS": "2", "BONUSPOINTS": "3"}}, {"type": "Feature", "geometry": {"type": "Point", "coordinates": [-113.6821, 46.7354]}, "properties": {"NAME": "W7M/LM-166", "TITLE": "5233", "REGION": "MT - Lake-Missoula", "ASSOCIATION": "USA - Montana", "POINTS": "2", "BONUSPOINTS": "3"}}, {"type": "Feature", "geometry": {"type": "Point", "coordinates": [-113.3034, 47.0455]}, "properties": {"NAME": "W7M/LM-167", "TITLE": "5180", "REGION": "MT - Lake-Missoula", "ASSOCIATION": "USA - Montana", "POINTS": "2", "BONUSPOINTS": "3"}}, {"type": "Feature", "geometry": {"type": "Point", "coordinates": [-114.2688, 47.7737]}, "properties": {"NAME": "W7M/LM-168", "TITLE": "Big Arm Lookout", "REGION": "MT - Lake-Missoula", "ASSOCIATION": "USA - Montana", "POINTS": "2", "BONUSPOINTS": "3"}}, {"type": "Feature", "geometry": {"type": "Point", "coordinates": [-114.2916, 46.958]}, "properties": {"NAME": "W7M/LM-169", "TITLE": "5130", "REGION": "MT - Lake-Missoula", "ASSOCIATION": "USA - Montana", "POINTS": "2", "BONUSPOINTS": "3"}}, {"type": "Feature", "geometry": {"type": "Point", "coordinates": [-114.2869, 47.7483]}, "properties": {"NAME": "W7M/LM-170", "TITLE": "5006", "REGION": "MT - Lake-Missoula", "ASSOCIATION": "USA - Montana", "POINTS": "2", "BONUSPOINTS": "3"}}, {"type": "Feature", "geometry": {"type": "Point", "coordinates": [-114.3051, 46.8912]}, "properties": {"NAME": "W7M/LM-171", "TITLE": "Diamond Point", "REGION": "MT - Lake-Missoula", "ASSOCIATION": "USA - Montana", "POINTS": "1", "BONUSPOINTS": "0"}}, {"type": "Feature", "geometry": {"type": "Point", "coordinates": [-113.531, 47.1647]}, "properties": {"NAME": "W7M/LM-172", "TITLE": "Double Arrow Lookout", "REGION": "MT - Lake-Missoula", "ASSOCIATION": "USA - Montana", "POINTS": "1", "BONUSPOINTS": "0"}}, {"type": "Feature", "geometry": {"type": "Point", "coordinates": [-113.4763, 47.1333]}, "properties": {"NAME": "W7M/LM-173", "TITLE": "4940", "REGION": "MT - Lake-Missoula", "ASSOCIATION": "USA - Montana", "POINTS": "1", "BONUSPOINTS": "0"}}, {"type": "Feature", "geometry": {"type": "Point", "coordinates": [-114.2029, 47.3194]}, "properties": {"NAME": "W7M/LM-174", "TITLE": "Red Sleep Mountain", "REGION": "MT - Lake-Missoula", "ASSOCIATION": "USA - Montana", "POINTS": "1", "BONUSPOINTS": "0"}}, {"type": "Feature", "geometry": {"type": "Point", "coordinates": [-113.9564, 46.8789]}, "properties": {"NAME": "W7M/LM-175", "TITLE": "Mount Jumbo", "REGION": "MT - Lake-Missoula", "ASSOCIATION": "USA - Montana", "POINTS": "1", "BONUSPOINTS": "0"}}, {"type": "Feature", "geometry": {"type": "Point", "coordinates": [-113.3454, 46.986]}, "properties": {"NAME": "W7M/LM-176", "TITLE": "4535", "REGION": "MT - Lake-Missoula", "ASSOCIATION": "USA - Montana", "POINTS": "1", "BONUSPOINTS": "0"}}, {"type": "Feature", "geometry": {"type": "Point", "coordinates": [-114.1966, 47.2627]}, "properties": {"NAME": "W7M/LM-177", "TITLE": "4530", "REGION": "MT - Lake-Missoula", "ASSOCIATION": "USA - Montana", "POINTS": "1", "BONUSPOINTS": "0"}}, {"type": "Feature", "geometry": {"type": "Point", "coordinates": [-114.2092, 47.7667]}, "properties": {"NAME": "W7M/LM-178", "TITLE": "Arm Benchmark", "REGION": "MT - Lake-Missoula", "ASSOCIATION": "USA - Montana", "POINTS": "1", "BONUSPOINTS": "0"}}, {"type": "Feature", "geometry": {"type": "Point", "coordinates": [-114.0348, 48.0305]}, "properties": {"NAME": "W7M/LM-179", "TITLE": "4070", "REGION": "MT - Lake-Missoula", "ASSOCIATION": "USA - Montana", "POINTS": "1", "BONUSPOINTS": "0"}}, {"type": "Feature", "geometry": {"type": "Point", "coordinates": [-114.267, 47.4572]}, "properties": {"NAME": "W7M/LM-180", "TITLE": "Moiese Hills", "REGION": "MT - Lake-Missoula", "ASSOCIATION": "USA - Montana", "POINTS": "1", "BONUSPOINTS": "0"}}, {"type": "Feature", "geometry": {"type": "Point", "coordinates": [-114.2265, 47.6032]}, "properties": {"NAME": "W7M/LM-181", "TITLE": "Valley View Hills", "REGION": "MT - Lake-Missoula", "ASSOCIATION": "USA - Montana", "POINTS": "1", "BONUSPOINTS": "0"}}, {"type": "Feature", "geometry": {"type": "Point", "coordinates": [-114.2037, 47.8405]}, "properties": {"NAME": "W7M/LM-182", "TITLE": "Wild Horse Island", "REGION": "MT - Lake-Missoula", "ASSOCIATION": "USA - Montana", "POINTS": "1", "BONUSPOINTS": "0"}}, {"type": "Feature", "geometry": {"type": "Point", "coordinates": [-114.1592, 47.7757]}, "properties": {"NAME": "W7M/LM-183", "TITLE": "3559", "REGION": "MT - Lake-Missoula", "ASSOCIATION": "USA - Montana", "POINTS": "1", "BONUSPOINTS": "0"}}, {"type": "Feature", "geometry": {"type": "Point", "coordinates": [-113.6108, 47.5731]}, "properties": {"NAME": "W7M/LM-184", "TITLE": "8905", "REGION": "MT - Lake-Missoula", "ASSOCIATION": "USA - Montana", "POINTS": "6", "BONUSPOINTS": "3"}}, {"type": "Feature", "geometry": {"type": "Point", "coordinates": [-113.9288, 47.4658]}, "properties": {"NAME": "W7M/LM-185", "TITLE": "8366", "REGION": "MT - Lake-Missoula", "ASSOCIATION": "USA - Montana", "POINTS": "6", "BONUSPOINTS": "3"}}, {"type": "Feature", "geometry": {"type": "Point", "coordinates": [-113.5341, 47.5765]}, "properties": {"NAME": "W7M/LM-186", "TITLE": "8025", "REGION": "MT - Lake-Missoula", "ASSOCIATION": "USA - Montana", "POINTS": "6", "BONUSPOINTS": "3"}}, {"type": "Feature", "geometry": {"type": "Point", "coordinates": [-113.4572, 47.0041]}, "properties": {"NAME": "W7M/LM-187", "TITLE": "Blanchard No. 2 Benchmark", "REGION": "MT - Lake-Missoula", "ASSOCIATION": "USA - Montana", "POINTS": "2", "BONUSPOINTS": "3"}}, {"type": "Feature", "geometry": {"type": "Point", "coordinates": [-113.9603, 46.7484]}, "properties": {"NAME": "W7M/LM-188", "TITLE": "5460", "REGION": "MT - Lake-Missoula", "ASSOCIATION": "USA - Montana", "POINTS": "2", "BONUSPOINTS": "3"}}, {"type": "Feature", "geometry": {"type": "Point", "coordinates": [-113.6727, 46.9008]}, "properties": {"NAME": "W7M/LM-189", "TITLE": "Diamond Mountain", "REGION": "MT - Lake-Missoula", "ASSOCIATION": "USA - Montana", "POINTS": "1", "BONUSPOINTS": "0"}}]}