{"type": "FeatureCollection", "name": "W7M/LO SUMMITS", "features": [{"type": "Feature", "geometry": {"type": "Point", "coordinates": [-115.6937, 48.2025]}, "properties": {"NAME": "W7M/LO-001", "TITLE": "7961", "REGION": "MT - Lolo Region", "ASSOCIATION": "USA - Montana", "POINTS": "6", "BONUSPOINTS": "3"}}, {"type": "Feature", "geometry": {"type": "Point", "coordinates": [-114.5631, 47.2586]}, "properties": {"NAME": "W7M/LO-002", "TITLE": "Three Lakes Peak", "REGION": "MT - Lolo Region", "ASSOCIATION": "USA - Montana", "POINTS": "6", "BONUSPOINTS": "3"}}, {"type": "Feature", "geometry": {"type": "Point", "coordinates": [-114.9222, 46.9955]}, "properties": {"NAME": "W7M/LO-003", "TITLE": "Quartz Benchmark", "REGION": "MT - Lolo Region", "ASSOCIATION": "USA - Montana", "POINTS": "6", "BONUSPOINTS": "3"}}, {"type": "Feature", "geometry": {"type": "Point", "coordinates": [-115.6763, 48.0789]}, "properties": {"NAME": "W7M/LO-004", "TITLE": "Saint Paul Peak", "REGION": "MT - Lolo Region", "ASSOCIATION": "USA - Montana", "POINTS": "6", "BONUSPOINTS": "3"}}, {"type": "Feature", "geometry": {"type": "Point", "coordinates": [-114.9026, 46.9242]}, "properties": {"NAME": "W7M/LO-005", "TITLE": "Crater Mountain", "REGION": "MT - Lolo Region", "ASSOCIATION": "USA - Montana", "POINTS": "6", "BONUSPOINTS": "3"}}, {"type": "Feature", "geometry": {"type": "Point", "coordinates": [-115.0716, 47.0264]}, "properties": {"NAME": "W7M/LO-006", "TITLE": "Illinois Peak", "REGION": "MT - Lolo Region", "ASSOCIATION": "USA - Montana", "POINTS": "6", "BONUSPOINTS": "3"}}, {"type": "Feature", "geometry": {"type": "Point", "coordinates": [-115.7512, 48.1973]}, "properties": {"NAME": "W7M/LO-007", "TITLE": "Ibex Peak", "REGION": "MT - Lolo Region", "ASSOCIATION": "USA - Montana", "POINTS": "6", "BONUSPOINTS": "3"}}, {"type": "Feature", "geometry": {"type": "Point", "coordinates": [-114.8901, 46.8833]}, "properties": {"NAME": "W7M/LO-008", "TITLE": "Straight Peak", "REGION": "MT - Lolo Region", "ASSOCIATION": "USA - Montana", "POINTS": "6", "BONUSPOINTS": "3"}}, {"type": "Feature", "geometry": {"type": "Point", "coordinates": [-114.7888, 46.7141]}, "properties": {"NAME": "W7M/LO-009", "TITLE": "Shale Mountain", "REGION": "MT - Lolo Region", "ASSOCIATION": "USA - Montana", "POINTS": "6", "BONUSPOINTS": "3"}}, {"type": "Feature", "geometry": {"type": "Point", "coordinates": [-115.5991, 48.0299]}, "properties": {"NAME": "W7M/LO-010", "TITLE": "Flat Top Mountain", "REGION": "MT - Lolo Region", "ASSOCIATION": "USA - Montana", "POINTS": "6", "BONUSPOINTS": "3"}}, {"type": "Feature", "geometry": {"type": "Point", "coordinates": [-115.7333, 48.1842]}, "properties": {"NAME": "W7M/LO-011", "TITLE": "7608", "REGION": "MT - Lolo Region", "ASSOCIATION": "USA - Montana", "POINTS": "6", "BONUSPOINTS": "3"}}, {"type": "Feature", "geometry": {"type": "Point", "coordinates": [-115.6199, 48.0091]}, "properties": {"NAME": "W7M/LO-012", "TITLE": "Engle Peak", "REGION": "MT - Lolo Region", "ASSOCIATION": "USA - Montana", "POINTS": "6", "BONUSPOINTS": "3"}}, {"type": "Feature", "geometry": {"type": "Point", "coordinates": [-115.6552, 48.0676]}, "properties": {"NAME": "W7M/LO-013", "TITLE": "Rock Peak", "REGION": "MT - Lolo Region", "ASSOCIATION": "USA - Montana", "POINTS": "6", "BONUSPOINTS": "3"}}, {"type": "Feature", "geometry": {"type": "Point", "coordinates": [-114.7129, 46.7156]}, "properties": {"NAME": "W7M/LO-014", "TITLE": "Granite Peak", "REGION": "MT - Lolo Region", "ASSOCIATION": "USA - Montana", "POINTS": "6", "BONUSPOINTS": "3"}}, {"type": "Feature", "geometry": {"type": "Point", "coordinates": [-115.186, 47.1295]}, "properties": {"NAME": "W7M/LO-015", "TITLE": "Eagle Cliff", "REGION": "MT - Lolo Region", "ASSOCIATION": "USA - Montana", "POINTS": "6", "BONUSPOINTS": "3"}}, {"type": "Feature", "geometry": {"type": "Point", "coordinates": [-114.8252, 47.6216]}, "properties": {"NAME": "W7M/LO-016", "TITLE": "Baldy Mountain", "REGION": "MT - Lolo Region", "ASSOCIATION": "USA - Montana", "POINTS": "4", "BONUSPOINTS": "3"}}, {"type": "Feature", "geometry": {"type": "Point", "coordinates": [-114.846, 47.7575]}, "properties": {"NAME": "W7M/LO-017", "TITLE": "Thompson Peak", "REGION": "MT - Lolo Region", "ASSOCIATION": "USA - Montana", "POINTS": "4", "BONUSPOINTS": "3"}}, {"type": "Feature", "geometry": {"type": "Point", "coordinates": [-115.2638, 47.7399]}, "properties": {"NAME": "W7M/LO-018", "TITLE": "Mount Headley", "REGION": "MT - Lolo Region", "ASSOCIATION": "USA - Montana", "POINTS": "4", "BONUSPOINTS": "3"}}, {"type": "Feature", "geometry": {"type": "Point", "coordinates": [-115.1343, 47.1214]}, "properties": {"NAME": "W7M/LO-019", "TITLE": "Lost Peak", "REGION": "MT - Lolo Region", "ASSOCIATION": "USA - Montana", "POINTS": "4", "BONUSPOINTS": "3"}}, {"type": "Feature", "geometry": {"type": "Point", "coordinates": [-114.9498, 46.9714]}, "properties": {"NAME": "W7M/LO-020", "TITLE": "Lightning Peak", "REGION": "MT - Lolo Region", "ASSOCIATION": "USA - Montana", "POINTS": "4", "BONUSPOINTS": "3"}}, {"type": "Feature", "geometry": {"type": "Point", "coordinates": [-114.5721, 47.0887]}, "properties": {"NAME": "W7M/LO-021", "TITLE": "Stark Mountain", "REGION": "MT - Lolo Region", "ASSOCIATION": "USA - Montana", "POINTS": "4", "BONUSPOINTS": "3"}}, {"type": "Feature", "geometry": {"type": "Point", "coordinates": [-115.1702, 47.488]}, "properties": {"NAME": "W7M/LO-022", "TITLE": "Cherry Peak", "REGION": "MT - Lolo Region", "ASSOCIATION": "USA - Montana", "POINTS": "4", "BONUSPOINTS": "3"}}, {"type": "Feature", "geometry": {"type": "Point", "coordinates": [-114.9423, 46.8681]}, "properties": {"NAME": "W7M/LO-023", "TITLE": "7350", "REGION": "MT - Lolo Region", "ASSOCIATION": "USA - Montana", "POINTS": "4", "BONUSPOINTS": "3"}}, {"type": "Feature", "geometry": {"type": "Point", "coordinates": [-114.7712, 46.8097]}, "properties": {"NAME": "W7M/LO-024", "TITLE": "Schley Mountain", "REGION": "MT - Lolo Region", "ASSOCIATION": "USA - Montana", "POINTS": "4", "BONUSPOINTS": "3"}}, {"type": "Feature", "geometry": {"type": "Point", "coordinates": [-115.3829, 47.2665]}, "properties": {"NAME": "W7M/LO-025", "TITLE": "Ward Peak", "REGION": "MT - Lolo Region", "ASSOCIATION": "USA - Montana", "POINTS": "4", "BONUSPOINTS": "3"}}, {"type": "Feature", "geometry": {"type": "Point", "coordinates": [-115.383, 47.2832]}, "properties": {"NAME": "W7M/LO-026", "TITLE": "Eagle Peak", "REGION": "MT - Lolo Region", "ASSOCIATION": "USA - Montana", "POINTS": "4", "BONUSPOINTS": "3"}}, {"type": "Feature", "geometry": {"type": "Point", "coordinates": [-114.861, 46.8113]}, "properties": {"NAME": "W7M/LO-027", "TITLE": "Admiral Peak", "REGION": "MT - Lolo Region", "ASSOCIATION": "USA - Montana", "POINTS": "4", "BONUSPOINTS": "3"}}, {"type": "Feature", "geometry": {"type": "Point", "coordinates": [-114.9611, 46.93]}, "properties": {"NAME": "W7M/LO-028", "TITLE": "7256", "REGION": "MT - Lolo Region", "ASSOCIATION": "USA - Montana", "POINTS": "4", "BONUSPOINTS": "3"}}, {"type": "Feature", "geometry": {"type": "Point", "coordinates": [-115.2171, 47.7545]}, "properties": {"NAME": "W7M/LO-029", "TITLE": "Marmot Peak", "REGION": "MT - Lolo Region", "ASSOCIATION": "USA - Montana", "POINTS": "4", "BONUSPOINTS": "3"}}, {"type": "Feature", "geometry": {"type": "Point", "coordinates": [-115.2908, 47.687]}, "properties": {"NAME": "W7M/LO-030", "TITLE": "Cube Iron Mountain", "REGION": "MT - Lolo Region", "ASSOCIATION": "USA - Montana", "POINTS": "4", "BONUSPOINTS": "3"}}, {"type": "Feature", "geometry": {"type": "Point", "coordinates": [-114.8471, 46.9758]}, "properties": {"NAME": "W7M/LO-031", "TITLE": "Saint Patrick Peak", "REGION": "MT - Lolo Region", "ASSOCIATION": "USA - Montana", "POINTS": "4", "BONUSPOINTS": "3"}}, {"type": "Feature", "geometry": {"type": "Point", "coordinates": [-115.2479, 47.1559]}, "properties": {"NAME": "W7M/LO-032", "TITLE": "Little Joe Mountain", "REGION": "MT - Lolo Region", "ASSOCIATION": "USA - Montana", "POINTS": "4", "BONUSPOINTS": "3"}}, {"type": "Feature", "geometry": {"type": "Point", "coordinates": [-114.8963, 46.8029]}, "properties": {"NAME": "W7M/LO-033", "TITLE": "Mile Post 211", "REGION": "MT - Lolo Region", "ASSOCIATION": "USA - Montana", "POINTS": "4", "BONUSPOINTS": "3"}}, {"type": "Feature", "geometry": {"type": "Point", "coordinates": [-115.1761, 47.7022]}, "properties": {"NAME": "W7M/LO-034", "TITLE": "Sundance Ridge", "REGION": "MT - Lolo Region", "ASSOCIATION": "USA - Montana", "POINTS": "4", "BONUSPOINTS": "3"}}, {"type": "Feature", "geometry": {"type": "Point", "coordinates": [-114.3113, 47.2008]}, "properties": {"NAME": "W7M/LO-035", "TITLE": "Hewolf Mountain", "REGION": "MT - Lolo Region", "ASSOCIATION": "USA - Montana", "POINTS": "4", "BONUSPOINTS": "3"}}, {"type": "Feature", "geometry": {"type": "Point", "coordinates": [-115.3652, 47.7563]}, "properties": {"NAME": "W7M/LO-036", "TITLE": "Graves Peak", "REGION": "MT - Lolo Region", "ASSOCIATION": "USA - Montana", "POINTS": "4", "BONUSPOINTS": "3"}}, {"type": "Feature", "geometry": {"type": "Point", "coordinates": [-115.0153, 47.0508]}, "properties": {"NAME": "W7M/LO-037", "TITLE": "Prospect Mountain No. 1", "REGION": "MT - Lolo Region", "ASSOCIATION": "USA - Montana", "POINTS": "4", "BONUSPOINTS": "3"}}, {"type": "Feature", "geometry": {"type": "Point", "coordinates": [-114.8382, 47.8285]}, "properties": {"NAME": "W7M/LO-038", "TITLE": "Snowstorm Mountain", "REGION": "MT - Lolo Region", "ASSOCIATION": "USA - Montana", "POINTS": "4", "BONUSPOINTS": "3"}}, {"type": "Feature", "geometry": {"type": "Point", "coordinates": [-114.8918, 47.0302]}, "properties": {"NAME": "W7M/LO-039", "TITLE": "Sunrise Mountain", "REGION": "MT - Lolo Region", "ASSOCIATION": "USA - Montana", "POINTS": "4", "BONUSPOINTS": "3"}}, {"type": "Feature", "geometry": {"type": "Point", "coordinates": [-115.0758, 47.6061]}, "properties": {"NAME": "W7M/LO-040", "TITLE": "Big Hole Peak", "REGION": "MT - Lolo Region", "ASSOCIATION": "USA - Montana", "POINTS": "4", "BONUSPOINTS": "3"}}, {"type": "Feature", "geometry": {"type": "Point", "coordinates": [-115.0995, 47.149]}, "properties": {"NAME": "W7M/LO-041", "TITLE": "6958", "REGION": "MT - Lolo Region", "ASSOCIATION": "USA - Montana", "POINTS": "4", "BONUSPOINTS": "3"}}, {"type": "Feature", "geometry": {"type": "Point", "coordinates": [-115.1418, 47.2082]}, "properties": {"NAME": "W7M/LO-042", "TITLE": "6968", "REGION": "MT - Lolo Region", "ASSOCIATION": "USA - Montana", "POINTS": "4", "BONUSPOINTS": "3"}}, {"type": "Feature", "geometry": {"type": "Point", "coordinates": [-116.0019, 48.1466]}, "properties": {"NAME": "W7M/LO-043", "TITLE": "6900", "REGION": "MT - Lolo Region", "ASSOCIATION": "USA - Montana", "POINTS": "4", "BONUSPOINTS": "3"}}, {"type": "Feature", "geometry": {"type": "Point", "coordinates": [-115.5946, 47.9985]}, "properties": {"NAME": "W7M/LO-044", "TITLE": "Goat Peak", "REGION": "MT - Lolo Region", "ASSOCIATION": "USA - Montana", "POINTS": "4", "BONUSPOINTS": "3"}}, {"type": "Feature", "geometry": {"type": "Point", "coordinates": [-114.7513, 47.2151]}, "properties": {"NAME": "W7M/LO-045", "TITLE": "6885", "REGION": "MT - Lolo Region", "ASSOCIATION": "USA - Montana", "POINTS": "4", "BONUSPOINTS": "3"}}, {"type": "Feature", "geometry": {"type": "Point", "coordinates": [-114.8588, 47.3721]}, "properties": {"NAME": "W7M/LO-046", "TITLE": "Patricks Knob", "REGION": "MT - Lolo Region", "ASSOCIATION": "USA - Montana", "POINTS": "4", "BONUSPOINTS": "3"}}, {"type": "Feature", "geometry": {"type": "Point", "coordinates": [-115.0344, 47.1666]}, "properties": {"NAME": "W7M/LO-047", "TITLE": "Mount Baldy", "REGION": "MT - Lolo Region", "ASSOCIATION": "USA - Montana", "POINTS": "4", "BONUSPOINTS": "3"}}, {"type": "Feature", "geometry": {"type": "Point", "coordinates": [-114.8054, 46.8301]}, "properties": {"NAME": "W7M/LO-048", "TITLE": "6795", "REGION": "MT - Lolo Region", "ASSOCIATION": "USA - Montana", "POINTS": "4", "BONUSPOINTS": "3"}}, {"type": "Feature", "geometry": {"type": "Point", "coordinates": [-114.9672, 47.1214]}, "properties": {"NAME": "W7M/LO-049", "TITLE": "6742", "REGION": "MT - Lolo Region", "ASSOCIATION": "USA - Montana", "POINTS": "4", "BONUSPOINTS": "3"}}, {"type": "Feature", "geometry": {"type": "Point", "coordinates": [-114.621, 46.8797]}, "properties": {"NAME": "W7M/LO-050", "TITLE": "6740", "REGION": "MT - Lolo Region", "ASSOCIATION": "USA - Montana", "POINTS": "4", "BONUSPOINTS": "3"}}, {"type": "Feature", "geometry": {"type": "Point", "coordinates": [-114.9748, 47.0936]}, "properties": {"NAME": "W7M/LO-051", "TITLE": "Van Ness Point", "REGION": "MT - Lolo Region", "ASSOCIATION": "USA - Montana", "POINTS": "4", "BONUSPOINTS": "3"}}, {"type": "Feature", "geometry": {"type": "Point", "coordinates": [-115.0546, 47.1807]}, "properties": {"NAME": "W7M/LO-052", "TITLE": "Sheep Mountain", "REGION": "MT - Lolo Region", "ASSOCIATION": "USA - Montana", "POINTS": "4", "BONUSPOINTS": "3"}}, {"type": "Feature", "geometry": {"type": "Point", "coordinates": [-114.5714, 46.913]}, "properties": {"NAME": "W7M/LO-053", "TITLE": "Deer Peak", "REGION": "MT - Lolo Region", "ASSOCIATION": "USA - Montana", "POINTS": "4", "BONUSPOINTS": "3"}}, {"type": "Feature", "geometry": {"type": "Point", "coordinates": [-114.5911, 46.8855]}, "properties": {"NAME": "W7M/LO-054", "TITLE": "6700", "REGION": "MT - Lolo Region", "ASSOCIATION": "USA - Montana", "POINTS": "4", "BONUSPOINTS": "3"}}, {"type": "Feature", "geometry": {"type": "Point", "coordinates": [-115.6578, 47.6175]}, "properties": {"NAME": "W7M/LO-055", "TITLE": "Clear Peak", "REGION": "MT - Lolo Region", "ASSOCIATION": "USA - Montana", "POINTS": "4", "BONUSPOINTS": "3"}}, {"type": "Feature", "geometry": {"type": "Point", "coordinates": [-115.3285, 47.7697]}, "properties": {"NAME": "W7M/LO-056", "TITLE": "Vermilion Peak", "REGION": "MT - Lolo Region", "ASSOCIATION": "USA - Montana", "POINTS": "4", "BONUSPOINTS": "3"}}, {"type": "Feature", "geometry": {"type": "Point", "coordinates": [-115.3825, 47.8173]}, "properties": {"NAME": "W7M/LO-057", "TITLE": "Seven Point Mountain", "REGION": "MT - Lolo Region", "ASSOCIATION": "USA - Montana", "POINTS": "4", "BONUSPOINTS": "3"}}, {"type": "Feature", "geometry": {"type": "Point", "coordinates": [-115.6903, 47.6025]}, "properties": {"NAME": "W7M/LO-058", "TITLE": "6636", "REGION": "MT - Lolo Region", "ASSOCIATION": "USA - Montana", "POINTS": "4", "BONUSPOINTS": "3"}}, {"type": "Feature", "geometry": {"type": "Point", "coordinates": [-114.6447, 46.7839]}, "properties": {"NAME": "W7M/LO-059", "TITLE": "White Mountain", "REGION": "MT - Lolo Region", "ASSOCIATION": "USA - Montana", "POINTS": "4", "BONUSPOINTS": "3"}}, {"type": "Feature", "geometry": {"type": "Point", "coordinates": [-115.9431, 48.121]}, "properties": {"NAME": "W7M/LO-060", "TITLE": "Billiard Table", "REGION": "MT - Lolo Region", "ASSOCIATION": "USA - Montana", "POINTS": "4", "BONUSPOINTS": "3"}}, {"type": "Feature", "geometry": {"type": "Point", "coordinates": [-115.087, 47.4771]}, "properties": {"NAME": "W7M/LO-061", "TITLE": "Sacajawea Peak", "REGION": "MT - Lolo Region", "ASSOCIATION": "USA - Montana", "POINTS": "4", "BONUSPOINTS": "3"}}, {"type": "Feature", "geometry": {"type": "Point", "coordinates": [-114.8289, 47.8756]}, "properties": {"NAME": "W7M/LO-062", "TITLE": "Tepee Mountain", "REGION": "MT - Lolo Region", "ASSOCIATION": "USA - Montana", "POINTS": "4", "BONUSPOINTS": "3"}}, {"type": "Feature", "geometry": {"type": "Point", "coordinates": [-115.7021, 47.5343]}, "properties": {"NAME": "W7M/LO-063", "TITLE": "Glidden Ridge", "REGION": "MT - Lolo Region", "ASSOCIATION": "USA - Montana", "POINTS": "4", "BONUSPOINTS": "3"}}, {"type": "Feature", "geometry": {"type": "Point", "coordinates": [-115.7421, 47.7115]}, "properties": {"NAME": "W7M/LO-064", "TITLE": "Black Peak", "REGION": "MT - Lolo Region", "ASSOCIATION": "USA - Montana", "POINTS": "4", "BONUSPOINTS": "3"}}, {"type": "Feature", "geometry": {"type": "Point", "coordinates": [-114.8346, 47.2726]}, "properties": {"NAME": "W7M/LO-065", "TITLE": "6540", "REGION": "MT - Lolo Region", "ASSOCIATION": "USA - Montana", "POINTS": "4", "BONUSPOINTS": "3"}}, {"type": "Feature", "geometry": {"type": "Point", "coordinates": [-115.6679, 47.4888]}, "properties": {"NAME": "W7M/LO-066", "TITLE": "6471", "REGION": "MT - Lolo Region", "ASSOCIATION": "USA - Montana", "POINTS": "2", "BONUSPOINTS": "3"}}, {"type": "Feature", "geometry": {"type": "Point", "coordinates": [-115.5773, 47.5876]}, "properties": {"NAME": "W7M/LO-067", "TITLE": "Driveway Peak", "REGION": "MT - Lolo Region", "ASSOCIATION": "USA - Montana", "POINTS": "2", "BONUSPOINTS": "3"}}, {"type": "Feature", "geometry": {"type": "Point", "coordinates": [-115.6996, 47.4173]}, "properties": {"NAME": "W7M/LO-068", "TITLE": "6404", "REGION": "MT - Lolo Region", "ASSOCIATION": "USA - Montana", "POINTS": "2", "BONUSPOINTS": "3"}}, {"type": "Feature", "geometry": {"type": "Point", "coordinates": [-115.7854, 48.0424]}, "properties": {"NAME": "W7M/LO-069", "TITLE": "Government Mountain", "REGION": "MT - Lolo Region", "ASSOCIATION": "USA - Montana", "POINTS": "2", "BONUSPOINTS": "3"}}, {"type": "Feature", "geometry": {"type": "Point", "coordinates": [-115.6192, 47.4846]}, "properties": {"NAME": "W7M/LO-070", "TITLE": "6340", "REGION": "MT - Lolo Region", "ASSOCIATION": "USA - Montana", "POINTS": "2", "BONUSPOINTS": "3"}}, {"type": "Feature", "geometry": {"type": "Point", "coordinates": [-115.5376, 47.4749]}, "properties": {"NAME": "W7M/LO-071", "TITLE": "6313", "REGION": "MT - Lolo Region", "ASSOCIATION": "USA - Montana", "POINTS": "2", "BONUSPOINTS": "3"}}, {"type": "Feature", "geometry": {"type": "Point", "coordinates": [-115.2915, 47.211]}, "properties": {"NAME": "W7M/LO-072", "TITLE": "Mile Post 168", "REGION": "MT - Lolo Region", "ASSOCIATION": "USA - Montana", "POINTS": "2", "BONUSPOINTS": "3"}}, {"type": "Feature", "geometry": {"type": "Point", "coordinates": [-115.7826, 47.7344]}, "properties": {"NAME": "W7M/LO-073", "TITLE": "6296", "REGION": "MT - Lolo Region", "ASSOCIATION": "USA - Montana", "POINTS": "2", "BONUSPOINTS": "3"}}, {"type": "Feature", "geometry": {"type": "Point", "coordinates": [-114.8725, 47.0788]}, "properties": {"NAME": "W7M/LO-074", "TITLE": "6262", "REGION": "MT - Lolo Region", "ASSOCIATION": "USA - Montana", "POINTS": "2", "BONUSPOINTS": "3"}}, {"type": "Feature", "geometry": {"type": "Point", "coordinates": [-115.4523, 47.8098]}, "properties": {"NAME": "W7M/LO-075", "TITLE": "6260", "REGION": "MT - Lolo Region", "ASSOCIATION": "USA - Montana", "POINTS": "2", "BONUSPOINTS": "3"}}, {"type": "Feature", "geometry": {"type": "Point", "coordinates": [-114.7695, 47.4833]}, "properties": {"NAME": "W7M/LO-076", "TITLE": "Deemer Peak", "REGION": "MT - Lolo Region", "ASSOCIATION": "USA - Montana", "POINTS": "2", "BONUSPOINTS": "3"}}, {"type": "Feature", "geometry": {"type": "Point", "coordinates": [-115.4719, 47.4671]}, "properties": {"NAME": "W7M/LO-077", "TITLE": "6227", "REGION": "MT - Lolo Region", "ASSOCIATION": "USA - Montana", "POINTS": "2", "BONUSPOINTS": "3"}}, {"type": "Feature", "geometry": {"type": "Point", "coordinates": [-115.584, 47.6286]}, "properties": {"NAME": "W7M/LO-078", "TITLE": "6220", "REGION": "MT - Lolo Region", "ASSOCIATION": "USA - Montana", "POINTS": "2", "BONUSPOINTS": "3"}}, {"type": "Feature", "geometry": {"type": "Point", "coordinates": [-115.6945, 47.7554]}, "properties": {"NAME": "W7M/LO-079", "TITLE": "Eightmile Peak", "REGION": "MT - Lolo Region", "ASSOCIATION": "USA - Montana", "POINTS": "2", "BONUSPOINTS": "3"}}, {"type": "Feature", "geometry": {"type": "Point", "coordinates": [-114.7314, 47.3795]}, "properties": {"NAME": "W7M/LO-080", "TITLE": "6193", "REGION": "MT - Lolo Region", "ASSOCIATION": "USA - Montana", "POINTS": "2", "BONUSPOINTS": "3"}}, {"type": "Feature", "geometry": {"type": "Point", "coordinates": [-115.0886, 47.4274]}, "properties": {"NAME": "W7M/LO-081", "TITLE": "6180", "REGION": "MT - Lolo Region", "ASSOCIATION": "USA - Montana", "POINTS": "2", "BONUSPOINTS": "3"}}, {"type": "Feature", "geometry": {"type": "Point", "coordinates": [-115.7298, 47.6418]}, "properties": {"NAME": "W7M/LO-082", "TITLE": "6180", "REGION": "MT - Lolo Region", "ASSOCIATION": "USA - Montana", "POINTS": "2", "BONUSPOINTS": "3"}}, {"type": "Feature", "geometry": {"type": "Point", "coordinates": [-115.829, 48.1392]}, "properties": {"NAME": "W7M/LO-083", "TITLE": "Berray Mountain", "REGION": "MT - Lolo Region", "ASSOCIATION": "USA - Montana", "POINTS": "2", "BONUSPOINTS": "3"}}, {"type": "Feature", "geometry": {"type": "Point", "coordinates": [-114.7685, 47.6828]}, "properties": {"NAME": "W7M/LO-084", "TITLE": "Coney Peak", "REGION": "MT - Lolo Region", "ASSOCIATION": "USA - Montana", "POINTS": "2", "BONUSPOINTS": "3"}}, {"type": "Feature", "geometry": {"type": "Point", "coordinates": [-115.6591, 47.4549]}, "properties": {"NAME": "W7M/LO-085", "TITLE": "6114", "REGION": "MT - Lolo Region", "ASSOCIATION": "USA - Montana", "POINTS": "2", "BONUSPOINTS": "3"}}, {"type": "Feature", "geometry": {"type": "Point", "coordinates": [-115.3277, 47.4713]}, "properties": {"NAME": "W7M/LO-086", "TITLE": "6140", "REGION": "MT - Lolo Region", "ASSOCIATION": "USA - Montana", "POINTS": "2", "BONUSPOINTS": "3"}}, {"type": "Feature", "geometry": {"type": "Point", "coordinates": [-114.4985, 47.0542]}, "properties": {"NAME": "W7M/LO-087", "TITLE": "6096", "REGION": "MT - Lolo Region", "ASSOCIATION": "USA - Montana", "POINTS": "2", "BONUSPOINTS": "3"}}, {"type": "Feature", "geometry": {"type": "Point", "coordinates": [-115.3645, 47.4432]}, "properties": {"NAME": "W7M/LO-088", "TITLE": "Cameron Peak", "REGION": "MT - Lolo Region", "ASSOCIATION": "USA - Montana", "POINTS": "2", "BONUSPOINTS": "3"}}, {"type": "Feature", "geometry": {"type": "Point", "coordinates": [-115.9074, 47.9137]}, "properties": {"NAME": "W7M/LO-089", "TITLE": "Gem Peak", "REGION": "MT - Lolo Region", "ASSOCIATION": "USA - Montana", "POINTS": "2", "BONUSPOINTS": "3"}}, {"type": "Feature", "geometry": {"type": "Point", "coordinates": [-114.7673, 47.43]}, "properties": {"NAME": "W7M/LO-090", "TITLE": "Henry Peak", "REGION": "MT - Lolo Region", "ASSOCIATION": "USA - Montana", "POINTS": "2", "BONUSPOINTS": "3"}}, {"type": "Feature", "geometry": {"type": "Point", "coordinates": [-114.7102, 47.3897]}, "properties": {"NAME": "W7M/LO-091", "TITLE": "6055", "REGION": "MT - Lolo Region", "ASSOCIATION": "USA - Montana", "POINTS": "2", "BONUSPOINTS": "3"}}, {"type": "Feature", "geometry": {"type": "Point", "coordinates": [-115.6203, 47.3819]}, "properties": {"NAME": "W7M/LO-092", "TITLE": "Bald Mountain", "REGION": "MT - Lolo Region", "ASSOCIATION": "USA - Montana", "POINTS": "2", "BONUSPOINTS": "3"}}, {"type": "Feature", "geometry": {"type": "Point", "coordinates": [-115.6118, 47.4484]}, "properties": {"NAME": "W7M/LO-093", "TITLE": "Taft Peak", "REGION": "MT - Lolo Region", "ASSOCIATION": "USA - Montana", "POINTS": "2", "BONUSPOINTS": "3"}}, {"type": "Feature", "geometry": {"type": "Point", "coordinates": [-115.3185, 47.8908]}, "properties": {"NAME": "W7M/LO-094", "TITLE": "Moose Peak", "REGION": "MT - Lolo Region", "ASSOCIATION": "USA - Montana", "POINTS": "2", "BONUSPOINTS": "3"}}, {"type": "Feature", "geometry": {"type": "Point", "coordinates": [-115.3432, 47.3325]}, "properties": {"NAME": "W7M/LO-095", "TITLE": "Up Up Mountain", "REGION": "MT - Lolo Region", "ASSOCIATION": "USA - Montana", "POINTS": "2", "BONUSPOINTS": "3"}}, {"type": "Feature", "geometry": {"type": "Point", "coordinates": [-114.7744, 47.5569]}, "properties": {"NAME": "W7M/LO-096", "TITLE": "5982", "REGION": "MT - Lolo Region", "ASSOCIATION": "USA - Montana", "POINTS": "2", "BONUSPOINTS": "3"}}, {"type": "Feature", "geometry": {"type": "Point", "coordinates": [-115.3276, 47.8494]}, "properties": {"NAME": "W7M/LO-097", "TITLE": "5967", "REGION": "MT - Lolo Region", "ASSOCIATION": "USA - Montana", "POINTS": "2", "BONUSPOINTS": "3"}}, {"type": "Feature", "geometry": {"type": "Point", "coordinates": [-115.8352, 47.7681]}, "properties": {"NAME": "W7M/LO-098", "TITLE": "Lost Peak", "REGION": "MT - Lolo Region", "ASSOCIATION": "USA - Montana", "POINTS": "2", "BONUSPOINTS": "3"}}, {"type": "Feature", "geometry": {"type": "Point", "coordinates": [-115.1627, 47.3672]}, "properties": {"NAME": "W7M/LO-099", "TITLE": "Camel Hump", "REGION": "MT - Lolo Region", "ASSOCIATION": "USA - Montana", "POINTS": "2", "BONUSPOINTS": "3"}}, {"type": "Feature", "geometry": {"type": "Point", "coordinates": [-115.8324, 48.086]}, "properties": {"NAME": "W7M/LO-100", "TITLE": "Pilik Ridge", "REGION": "MT - Lolo Region", "ASSOCIATION": "USA - Montana", "POINTS": "2", "BONUSPOINTS": "3"}}, {"type": "Feature", "geometry": {"type": "Point", "coordinates": [-114.9798, 47.3862]}, "properties": {"NAME": "W7M/LO-101", "TITLE": "5860", "REGION": "MT - Lolo Region", "ASSOCIATION": "USA - Montana", "POINTS": "2", "BONUSPOINTS": "3"}}, {"type": "Feature", "geometry": {"type": "Point", "coordinates": [-115.6629, 47.7243]}, "properties": {"NAME": "W7M/LO-102", "TITLE": "5836", "REGION": "MT - Lolo Region", "ASSOCIATION": "USA - Montana", "POINTS": "2", "BONUSPOINTS": "3"}}, {"type": "Feature", "geometry": {"type": "Point", "coordinates": [-115.1298, 47.9831]}, "properties": {"NAME": "W7M/LO-103", "TITLE": "5830", "REGION": "MT - Lolo Region", "ASSOCIATION": "USA - Montana", "POINTS": "2", "BONUSPOINTS": "3"}}, {"type": "Feature", "geometry": {"type": "Point", "coordinates": [-115.1421, 47.2374]}, "properties": {"NAME": "W7M/LO-104", "TITLE": "5816", "REGION": "MT - Lolo Region", "ASSOCIATION": "USA - Montana", "POINTS": "2", "BONUSPOINTS": "3"}}, {"type": "Feature", "geometry": {"type": "Point", "coordinates": [-115.2491, 47.2433]}, "properties": {"NAME": "W7M/LO-105", "TITLE": "5813", "REGION": "MT - Lolo Region", "ASSOCIATION": "USA - Montana", "POINTS": "2", "BONUSPOINTS": "3"}}, {"type": "Feature", "geometry": {"type": "Point", "coordinates": [-115.0942, 47.832]}, "properties": {"NAME": "W7M/LO-106", "TITLE": "5790", "REGION": "MT - Lolo Region", "ASSOCIATION": "USA - Montana", "POINTS": "2", "BONUSPOINTS": "3"}}, {"type": "Feature", "geometry": {"type": "Point", "coordinates": [-114.7994, 46.9887]}, "properties": {"NAME": "W7M/LO-107", "TITLE": "McMullen Peak", "REGION": "MT - Lolo Region", "ASSOCIATION": "USA - Montana", "POINTS": "2", "BONUSPOINTS": "3"}}, {"type": "Feature", "geometry": {"type": "Point", "coordinates": [-115.0623, 47.8336]}, "properties": {"NAME": "W7M/LO-108", "TITLE": "Richards Peak", "REGION": "MT - Lolo Region", "ASSOCIATION": "USA - Montana", "POINTS": "2", "BONUSPOINTS": "3"}}, {"type": "Feature", "geometry": {"type": "Point", "coordinates": [-115.47, 47.5303]}, "properties": {"NAME": "W7M/LO-109", "TITLE": "Table Top Mountain", "REGION": "MT - Lolo Region", "ASSOCIATION": "USA - Montana", "POINTS": "2", "BONUSPOINTS": "3"}}, {"type": "Feature", "geometry": {"type": "Point", "coordinates": [-115.2255, 47.2252]}, "properties": {"NAME": "W7M/LO-110", "TITLE": "Sunset Peak", "REGION": "MT - Lolo Region", "ASSOCIATION": "USA - Montana", "POINTS": "2", "BONUSPOINTS": "3"}}, {"type": "Feature", "geometry": {"type": "Point", "coordinates": [-115.9338, 47.9675]}, "properties": {"NAME": "W7M/LO-111", "TITLE": "Lone Cliff", "REGION": "MT - Lolo Region", "ASSOCIATION": "USA - Montana", "POINTS": "2", "BONUSPOINTS": "3"}}, {"type": "Feature", "geometry": {"type": "Point", "coordinates": [-115.2862, 47.4858]}, "properties": {"NAME": "W7M/LO-112", "TITLE": "5717", "REGION": "MT - Lolo Region", "ASSOCIATION": "USA - Montana", "POINTS": "2", "BONUSPOINTS": "3"}}, {"type": "Feature", "geometry": {"type": "Point", "coordinates": [-114.5582, 47.035]}, "properties": {"NAME": "W7M/LO-113", "TITLE": "5700", "REGION": "MT - Lolo Region", "ASSOCIATION": "USA - Montana", "POINTS": "2", "BONUSPOINTS": "3"}}, {"type": "Feature", "geometry": {"type": "Point", "coordinates": [-114.8006, 47.1792]}, "properties": {"NAME": "W7M/LO-114", "TITLE": "5698", "REGION": "MT - Lolo Region", "ASSOCIATION": "USA - Montana", "POINTS": "2", "BONUSPOINTS": "3"}}, {"type": "Feature", "geometry": {"type": "Point", "coordinates": [-114.4045, 47.3738]}, "properties": {"NAME": "W7M/LO-115", "TITLE": "Sonyok Mountain", "REGION": "MT - Lolo Region", "ASSOCIATION": "USA - Montana", "POINTS": "2", "BONUSPOINTS": "3"}}, {"type": "Feature", "geometry": {"type": "Point", "coordinates": [-115.5559, 47.4326]}, "properties": {"NAME": "W7M/LO-116", "TITLE": "Hemlock Mountain", "REGION": "MT - Lolo Region", "ASSOCIATION": "USA - Montana", "POINTS": "2", "BONUSPOINTS": "3"}}, {"type": "Feature", "geometry": {"type": "Point", "coordinates": [-114.7097, 46.8686]}, "properties": {"NAME": "W7M/LO-117", "TITLE": "Lion Point", "REGION": "MT - Lolo Region", "ASSOCIATION": "USA - Montana", "POINTS": "2", "BONUSPOINTS": "3"}}, {"type": "Feature", "geometry": {"type": "Point", "coordinates": [-115.7748, 47.9176]}, "properties": {"NAME": "W7M/LO-118", "TITLE": "Stevens Peak", "REGION": "MT - Lolo Region", "ASSOCIATION": "USA - Montana", "POINTS": "2", "BONUSPOINTS": "3"}}, {"type": "Feature", "geometry": {"type": "Point", "coordinates": [-115.5502, 47.3989]}, "properties": {"NAME": "W7M/LO-119", "TITLE": "Saltese Mountain", "REGION": "MT - Lolo Region", "ASSOCIATION": "USA - Montana", "POINTS": "2", "BONUSPOINTS": "3"}}, {"type": "Feature", "geometry": {"type": "Point", "coordinates": [-115.815, 47.815]}, "properties": {"NAME": "W7M/LO-120", "TITLE": "5578", "REGION": "MT - Lolo Region", "ASSOCIATION": "USA - Montana", "POINTS": "2", "BONUSPOINTS": "3"}}, {"type": "Feature", "geometry": {"type": "Point", "coordinates": [-115.8264, 47.947]}, "properties": {"NAME": "W7M/LO-121", "TITLE": "Huckleberry Mountain", "REGION": "MT - Lolo Region", "ASSOCIATION": "USA - Montana", "POINTS": "2", "BONUSPOINTS": "3"}}, {"type": "Feature", "geometry": {"type": "Point", "coordinates": [-115.7067, 47.4532]}, "properties": {"NAME": "W7M/LO-122", "TITLE": "Runt Mountain", "REGION": "MT - Lolo Region", "ASSOCIATION": "USA - Montana", "POINTS": "2", "BONUSPOINTS": "3"}}, {"type": "Feature", "geometry": {"type": "Point", "coordinates": [-115.8417, 47.9946]}, "properties": {"NAME": "W7M/LO-123", "TITLE": "Loveland Peak", "REGION": "MT - Lolo Region", "ASSOCIATION": "USA - Montana", "POINTS": "2", "BONUSPOINTS": "3"}}, {"type": "Feature", "geometry": {"type": "Point", "coordinates": [-114.6996, 46.9571]}, "properties": {"NAME": "W7M/LO-124", "TITLE": "Williams Peak", "REGION": "MT - Lolo Region", "ASSOCIATION": "USA - Montana", "POINTS": "2", "BONUSPOINTS": "3"}}, {"type": "Feature", "geometry": {"type": "Point", "coordinates": [-115.4079, 47.5205]}, "properties": {"NAME": "W7M/LO-125", "TITLE": "Hill 7", "REGION": "MT - Lolo Region", "ASSOCIATION": "USA - Montana", "POINTS": "2", "BONUSPOINTS": "3"}}, {"type": "Feature", "geometry": {"type": "Point", "coordinates": [-115.6462, 47.9476]}, "properties": {"NAME": "W7M/LO-126", "TITLE": "Green Mountain", "REGION": "MT - Lolo Region", "ASSOCIATION": "USA - Montana", "POINTS": "2", "BONUSPOINTS": "3"}}, {"type": "Feature", "geometry": {"type": "Point", "coordinates": [-115.9256, 47.9917]}, "properties": {"NAME": "W7M/LO-127", "TITLE": "5448", "REGION": "MT - Lolo Region", "ASSOCIATION": "USA - Montana", "POINTS": "2", "BONUSPOINTS": "3"}}, {"type": "Feature", "geometry": {"type": "Point", "coordinates": [-114.74, 46.9666]}, "properties": {"NAME": "W7M/LO-128", "TITLE": "5434", "REGION": "MT - Lolo Region", "ASSOCIATION": "USA - Montana", "POINTS": "2", "BONUSPOINTS": "3"}}, {"type": "Feature", "geometry": {"type": "Point", "coordinates": [-115.1537, 47.9016]}, "properties": {"NAME": "W7M/LO-129", "TITLE": "Border Peak", "REGION": "MT - Lolo Region", "ASSOCIATION": "USA - Montana", "POINTS": "2", "BONUSPOINTS": "3"}}, {"type": "Feature", "geometry": {"type": "Point", "coordinates": [-114.4918, 47.4288]}, "properties": {"NAME": "W7M/LO-130", "TITLE": "5382", "REGION": "MT - Lolo Region", "ASSOCIATION": "USA - Montana", "POINTS": "2", "BONUSPOINTS": "3"}}, {"type": "Feature", "geometry": {"type": "Point", "coordinates": [-114.7071, 47.0832]}, "properties": {"NAME": "W7M/LO-131", "TITLE": "Miller Mountain", "REGION": "MT - Lolo Region", "ASSOCIATION": "USA - Montana", "POINTS": "2", "BONUSPOINTS": "3"}}, {"type": "Feature", "geometry": {"type": "Point", "coordinates": [-115.0279, 47.9712]}, "properties": {"NAME": "W7M/LO-132", "TITLE": "5370", "REGION": "MT - Lolo Region", "ASSOCIATION": "USA - Montana", "POINTS": "2", "BONUSPOINTS": "3"}}, {"type": "Feature", "geometry": {"type": "Point", "coordinates": [-115.2247, 47.3349]}, "properties": {"NAME": "W7M/LO-133", "TITLE": "Boyd Mountain", "REGION": "MT - Lolo Region", "ASSOCIATION": "USA - Montana", "POINTS": "2", "BONUSPOINTS": "3"}}, {"type": "Feature", "geometry": {"type": "Point", "coordinates": [-114.6412, 47.0363]}, "properties": {"NAME": "W7M/LO-134", "TITLE": "5329", "REGION": "MT - Lolo Region", "ASSOCIATION": "USA - Montana", "POINTS": "2", "BONUSPOINTS": "3"}}, {"type": "Feature", "geometry": {"type": "Point", "coordinates": [-114.5086, 47.494]}, "properties": {"NAME": "W7M/LO-135", "TITLE": "Corner Benchmark", "REGION": "MT - Lolo Region", "ASSOCIATION": "USA - Montana", "POINTS": "2", "BONUSPOINTS": "3"}}, {"type": "Feature", "geometry": {"type": "Point", "coordinates": [-114.9124, 47.2294]}, "properties": {"NAME": "W7M/LO-136", "TITLE": "5231", "REGION": "MT - Lolo Region", "ASSOCIATION": "USA - Montana", "POINTS": "2", "BONUSPOINTS": "3"}}, {"type": "Feature", "geometry": {"type": "Point", "coordinates": [-114.675, 47.0784]}, "properties": {"NAME": "W7M/LO-137", "TITLE": "5208", "REGION": "MT - Lolo Region", "ASSOCIATION": "USA - Montana", "POINTS": "2", "BONUSPOINTS": "3"}}, {"type": "Feature", "geometry": {"type": "Point", "coordinates": [-114.973, 47.2532]}, "properties": {"NAME": "W7M/LO-138", "TITLE": "Bald Hill", "REGION": "MT - Lolo Region", "ASSOCIATION": "USA - Montana", "POINTS": "2", "BONUSPOINTS": "3"}}, {"type": "Feature", "geometry": {"type": "Point", "coordinates": [-114.6893, 47.0291]}, "properties": {"NAME": "W7M/LO-139", "TITLE": "Martel Mountain", "REGION": "MT - Lolo Region", "ASSOCIATION": "USA - Montana", "POINTS": "2", "BONUSPOINTS": "3"}}, {"type": "Feature", "geometry": {"type": "Point", "coordinates": [-115.7739, 48.1396]}, "properties": {"NAME": "W7M/LO-140", "TITLE": "5140", "REGION": "MT - Lolo Region", "ASSOCIATION": "USA - Montana", "POINTS": "2", "BONUSPOINTS": "3"}}, {"type": "Feature", "geometry": {"type": "Point", "coordinates": [-115.4445, 47.6241]}, "properties": {"NAME": "W7M/LO-141", "TITLE": "5130", "REGION": "MT - Lolo Region", "ASSOCIATION": "USA - Montana", "POINTS": "2", "BONUSPOINTS": "3"}}, {"type": "Feature", "geometry": {"type": "Point", "coordinates": [-115.3608, 47.512]}, "properties": {"NAME": "W7M/LO-142", "TITLE": "5105", "REGION": "MT - Lolo Region", "ASSOCIATION": "USA - Montana", "POINTS": "2", "BONUSPOINTS": "3"}}, {"type": "Feature", "geometry": {"type": "Point", "coordinates": [-115.3182, 47.5408]}, "properties": {"NAME": "W7M/LO-143", "TITLE": "Clark Mountain", "REGION": "MT - Lolo Region", "ASSOCIATION": "USA - Montana", "POINTS": "2", "BONUSPOINTS": "3"}}, {"type": "Feature", "geometry": {"type": "Point", "coordinates": [-115.0849, 47.8919]}, "properties": {"NAME": "W7M/LO-144", "TITLE": "5060", "REGION": "MT - Lolo Region", "ASSOCIATION": "USA - Montana", "POINTS": "2", "BONUSPOINTS": "3"}}, {"type": "Feature", "geometry": {"type": "Point", "coordinates": [-114.7143, 46.8995]}, "properties": {"NAME": "W7M/LO-145", "TITLE": "5044", "REGION": "MT - Lolo Region", "ASSOCIATION": "USA - Montana", "POINTS": "2", "BONUSPOINTS": "3"}}, {"type": "Feature", "geometry": {"type": "Point", "coordinates": [-115.1148, 47.267]}, "properties": {"NAME": "W7M/LO-146", "TITLE": "Cold Peak", "REGION": "MT - Lolo Region", "ASSOCIATION": "USA - Montana", "POINTS": "1", "BONUSPOINTS": "0"}}, {"type": "Feature", "geometry": {"type": "Point", "coordinates": [-115.009, 47.2671]}, "properties": {"NAME": "W7M/LO-147", "TITLE": "4977", "REGION": "MT - Lolo Region", "ASSOCIATION": "USA - Montana", "POINTS": "1", "BONUSPOINTS": "0"}}, {"type": "Feature", "geometry": {"type": "Point", "coordinates": [-114.5456, 47.559]}, "properties": {"NAME": "W7M/LO-148", "TITLE": "Schmitz Mountain", "REGION": "MT - Lolo Region", "ASSOCIATION": "USA - Montana", "POINTS": "1", "BONUSPOINTS": "0"}}, {"type": "Feature", "geometry": {"type": "Point", "coordinates": [-115.1231, 47.8756]}, "properties": {"NAME": "W7M/LO-149", "TITLE": "4940", "REGION": "MT - Lolo Region", "ASSOCIATION": "USA - Montana", "POINTS": "1", "BONUSPOINTS": "0"}}, {"type": "Feature", "geometry": {"type": "Point", "coordinates": [-114.9316, 47.2501]}, "properties": {"NAME": "W7M/LO-150", "TITLE": "4900", "REGION": "MT - Lolo Region", "ASSOCIATION": "USA - Montana", "POINTS": "1", "BONUSPOINTS": "0"}}, {"type": "Feature", "geometry": {"type": "Point", "coordinates": [-115.4951, 47.4196]}, "properties": {"NAME": "W7M/LO-151", "TITLE": "Cruzane Mountain", "REGION": "MT - Lolo Region", "ASSOCIATION": "USA - Montana", "POINTS": "1", "BONUSPOINTS": "0"}}, {"type": "Feature", "geometry": {"type": "Point", "coordinates": [-114.8725, 47.2141]}, "properties": {"NAME": "W7M/LO-152", "TITLE": "4808", "REGION": "MT - Lolo Region", "ASSOCIATION": "USA - Montana", "POINTS": "1", "BONUSPOINTS": "0"}}, {"type": "Feature", "geometry": {"type": "Point", "coordinates": [-114.392, 47.5755]}, "properties": {"NAME": "W7M/LO-153", "TITLE": "Oliver Point", "REGION": "MT - Lolo Region", "ASSOCIATION": "USA - Montana", "POINTS": "1", "BONUSPOINTS": "0"}}, {"type": "Feature", "geometry": {"type": "Point", "coordinates": [-114.7506, 46.991]}, "properties": {"NAME": "W7M/LO-154", "TITLE": "Rivulet Peak", "REGION": "MT - Lolo Region", "ASSOCIATION": "USA - Montana", "POINTS": "1", "BONUSPOINTS": "0"}}, {"type": "Feature", "geometry": {"type": "Point", "coordinates": [-114.9472, 47.5971]}, "properties": {"NAME": "W7M/LO-155", "TITLE": "4740", "REGION": "MT - Lolo Region", "ASSOCIATION": "USA - Montana", "POINTS": "1", "BONUSPOINTS": "0"}}, {"type": "Feature", "geometry": {"type": "Point", "coordinates": [-115.0893, 47.7342]}, "properties": {"NAME": "W7M/LO-156", "TITLE": "Deerhorn Mountain", "REGION": "MT - Lolo Region", "ASSOCIATION": "USA - Montana", "POINTS": "1", "BONUSPOINTS": "0"}}, {"type": "Feature", "geometry": {"type": "Point", "coordinates": [-114.9077, 47.1784]}, "properties": {"NAME": "W7M/LO-157", "TITLE": "Thompson Peak", "REGION": "MT - Lolo Region", "ASSOCIATION": "USA - Montana", "POINTS": "1", "BONUSPOINTS": "0"}}, {"type": "Feature", "geometry": {"type": "Point", "coordinates": [-114.4159, 47.5208]}, "properties": {"NAME": "W7M/LO-158", "TITLE": "4620", "REGION": "MT - Lolo Region", "ASSOCIATION": "USA - Montana", "POINTS": "1", "BONUSPOINTS": "0"}}, {"type": "Feature", "geometry": {"type": "Point", "coordinates": [-114.9303, 47.5529]}, "properties": {"NAME": "W7M/LO-159", "TITLE": "4587", "REGION": "MT - Lolo Region", "ASSOCIATION": "USA - Montana", "POINTS": "1", "BONUSPOINTS": "0"}}, {"type": "Feature", "geometry": {"type": "Point", "coordinates": [-115.0425, 47.2882]}, "properties": {"NAME": "W7M/LO-160", "TITLE": "4500", "REGION": "MT - Lolo Region", "ASSOCIATION": "USA - Montana", "POINTS": "1", "BONUSPOINTS": "0"}}, {"type": "Feature", "geometry": {"type": "Point", "coordinates": [-114.6915, 47.5183]}, "properties": {"NAME": "W7M/LO-161", "TITLE": "4500", "REGION": "MT - Lolo Region", "ASSOCIATION": "USA - Montana", "POINTS": "1", "BONUSPOINTS": "0"}}, {"type": "Feature", "geometry": {"type": "Point", "coordinates": [-115.6805, 47.8373]}, "properties": {"NAME": "W7M/LO-162", "TITLE": "Beecher Peak", "REGION": "MT - Lolo Region", "ASSOCIATION": "USA - Montana", "POINTS": "1", "BONUSPOINTS": "0"}}, {"type": "Feature", "geometry": {"type": "Point", "coordinates": [-114.8249, 47.5318]}, "properties": {"NAME": "W7M/LO-163", "TITLE": "4482", "REGION": "MT - Lolo Region", "ASSOCIATION": "USA - Montana", "POINTS": "1", "BONUSPOINTS": "0"}}, {"type": "Feature", "geometry": {"type": "Point", "coordinates": [-115.3082, 47.371]}, "properties": {"NAME": "W7M/LO-164", "TITLE": "Henderson Hill", "REGION": "MT - Lolo Region", "ASSOCIATION": "USA - Montana", "POINTS": "1", "BONUSPOINTS": "0"}}, {"type": "Feature", "geometry": {"type": "Point", "coordinates": [-115.0069, 47.9017]}, "properties": {"NAME": "W7M/LO-165", "TITLE": "4460", "REGION": "MT - Lolo Region", "ASSOCIATION": "USA - Montana", "POINTS": "1", "BONUSPOINTS": "0"}}, {"type": "Feature", "geometry": {"type": "Point", "coordinates": [-115.0554, 47.6997]}, "properties": {"NAME": "W7M/LO-166", "TITLE": "4447", "REGION": "MT - Lolo Region", "ASSOCIATION": "USA - Montana", "POINTS": "1", "BONUSPOINTS": "0"}}, {"type": "Feature", "geometry": {"type": "Point", "coordinates": [-115.5248, 47.6852]}, "properties": {"NAME": "W7M/LO-167", "TITLE": "4386", "REGION": "MT - Lolo Region", "ASSOCIATION": "USA - Montana", "POINTS": "1", "BONUSPOINTS": "0"}}, {"type": "Feature", "geometry": {"type": "Point", "coordinates": [-114.7264, 47.0643]}, "properties": {"NAME": "W7M/LO-168", "TITLE": "Graham Mountain", "REGION": "MT - Lolo Region", "ASSOCIATION": "USA - Montana", "POINTS": "1", "BONUSPOINTS": "0"}}, {"type": "Feature", "geometry": {"type": "Point", "coordinates": [-114.997, 47.1309]}, "properties": {"NAME": "W7M/LO-169", "TITLE": "4299", "REGION": "MT - Lolo Region", "ASSOCIATION": "USA - Montana", "POINTS": "1", "BONUSPOINTS": "0"}}, {"type": "Feature", "geometry": {"type": "Point", "coordinates": [-114.8476, 47.5196]}, "properties": {"NAME": "W7M/LO-170", "TITLE": "Locust Hill", "REGION": "MT - Lolo Region", "ASSOCIATION": "USA - Montana", "POINTS": "1", "BONUSPOINTS": "0"}}, {"type": "Feature", "geometry": {"type": "Point", "coordinates": [-114.7145, 47.0519]}, "properties": {"NAME": "W7M/LO-171", "TITLE": "Round Mountain", "REGION": "MT - Lolo Region", "ASSOCIATION": "USA - Montana", "POINTS": "1", "BONUSPOINTS": "0"}}, {"type": "Feature", "geometry": {"type": "Point", "coordinates": [-115.0395, 47.3387]}, "properties": {"NAME": "W7M/LO-172", "TITLE": "Tamarack Hill", "REGION": "MT - Lolo Region", "ASSOCIATION": "USA - Montana", "POINTS": "1", "BONUSPOINTS": "0"}}, {"type": "Feature", "geometry": {"type": "Point", "coordinates": [-114.6315, 47.5461]}, "properties": {"NAME": "W7M/LO-173", "TITLE": "Markle Hill", "REGION": "MT - Lolo Region", "ASSOCIATION": "USA - Montana", "POINTS": "1", "BONUSPOINTS": "0"}}, {"type": "Feature", "geometry": {"type": "Point", "coordinates": [-115.4421, 47.4004]}, "properties": {"NAME": "W7M/LO-174", "TITLE": "4148", "REGION": "MT - Lolo Region", "ASSOCIATION": "USA - Montana", "POINTS": "1", "BONUSPOINTS": "0"}}, {"type": "Feature", "geometry": {"type": "Point", "coordinates": [-115.983, 48.102]}, "properties": {"NAME": "W7M/LO-175", "TITLE": "Fatman Mountain", "REGION": "MT - Lolo Region", "ASSOCIATION": "USA - Montana", "POINTS": "1", "BONUSPOINTS": "0"}}, {"type": "Feature", "geometry": {"type": "Point", "coordinates": [-114.4474, 47.5385]}, "properties": {"NAME": "W7M/LO-176", "TITLE": "4070", "REGION": "MT - Lolo Region", "ASSOCIATION": "USA - Montana", "POINTS": "1", "BONUSPOINTS": "0"}}, {"type": "Feature", "geometry": {"type": "Point", "coordinates": [-114.5726, 47.6015]}, "properties": {"NAME": "W7M/LO-177", "TITLE": "3982", "REGION": "MT - Lolo Region", "ASSOCIATION": "USA - Montana", "POINTS": "1", "BONUSPOINTS": "0"}}, {"type": "Feature", "geometry": {"type": "Point", "coordinates": [-114.6012, 47.5544]}, "properties": {"NAME": "W7M/LO-178", "TITLE": "3841", "REGION": "MT - Lolo Region", "ASSOCIATION": "USA - Montana", "POINTS": "1", "BONUSPOINTS": "0"}}, {"type": "Feature", "geometry": {"type": "Point", "coordinates": [-115.032, 47.2423]}, "properties": {"NAME": "W7M/LO-179", "TITLE": "3700", "REGION": "MT - Lolo Region", "ASSOCIATION": "USA - Montana", "POINTS": "1", "BONUSPOINTS": "0"}}, {"type": "Feature", "geometry": {"type": "Point", "coordinates": [-114.3308, 47.3418]}, "properties": {"NAME": "W7M/LO-180", "TITLE": "Communion Butte", "REGION": "MT - Lolo Region", "ASSOCIATION": "USA - Montana", "POINTS": "1", "BONUSPOINTS": "0"}}, {"type": "Feature", "geometry": {"type": "Point", "coordinates": [-114.8636, 47.7905]}, "properties": {"NAME": "W7M/LO-181", "TITLE": "7075", "REGION": "MT - Lolo Region", "ASSOCIATION": "USA - Montana", "POINTS": "4", "BONUSPOINTS": "3"}}, {"type": "Feature", "geometry": {"type": "Point", "coordinates": [-114.8753, 46.8401]}, "properties": {"NAME": "W7M/LO-182", "TITLE": "6839", "REGION": "MT - Lolo Region", "ASSOCIATION": "USA - Montana", "POINTS": "4", "BONUSPOINTS": "3"}}, {"type": "Feature", "geometry": {"type": "Point", "coordinates": [-114.8863, 47.0812]}, "properties": {"NAME": "W7M/LO-183", "TITLE": "6288", "REGION": "MT - Lolo Region", "ASSOCIATION": "USA - Montana", "POINTS": "2", "BONUSPOINTS": "3"}}, {"type": "Feature", "geometry": {"type": "Point", "coordinates": [-115.5311, 47.6342]}, "properties": {"NAME": "W7M/LO-184", "TITLE": "5393", "REGION": "MT - Lolo Region", "ASSOCIATION": "USA - Montana", "POINTS": "2", "BONUSPOINTS": "3"}}]}