{"type": "FeatureCollection", "name": "W7M/GA SUMMITS", "features": [{"type": "Feature", "geometry": {"type": "Point", "coordinates": [-113.4598, 45.9865]}, "properties": {"NAME": "W7M/GA-001", "TITLE": "Warren Peak", "REGION": "MT - Granite", "ASSOCIATION": "USA - Montana", "POINTS": "8", "BONUSPOINTS": "3"}}, {"type": "Feature", "geometry": {"type": "Point", "coordinates": [-112.9798, 46.35]}, "properties": {"NAME": "W7M/GA-002", "TITLE": "Mount Powell", "REGION": "MT - Granite", "ASSOCIATION": "USA - Montana", "POINTS": "8", "BONUSPOINTS": "3"}}, {"type": "Feature", "geometry": {"type": "Point", "coordinates": [-113.007, 46.3524]}, "properties": {"NAME": "W7M/GA-003", "TITLE": "9779", "REGION": "MT - Granite", "ASSOCIATION": "USA - Montana", "POINTS": "8", "BONUSPOINTS": "3"}}, {"type": "Feature", "geometry": {"type": "Point", "coordinates": [-113.0373, 46.3341]}, "properties": {"NAME": "W7M/GA-004", "TITLE": "9611", "REGION": "MT - Granite", "ASSOCIATION": "USA - Montana", "POINTS": "8", "BONUSPOINTS": "3"}}, {"type": "Feature", "geometry": {"type": "Point", "coordinates": [-113.0586, 46.353]}, "properties": {"NAME": "W7M/GA-005", "TITLE": "Racetrack Peak", "REGION": "MT - Granite", "ASSOCIATION": "USA - Montana", "POINTS": "8", "BONUSPOINTS": "3"}}, {"type": "Feature", "geometry": {"type": "Point", "coordinates": [-113.0123, 46.4274]}, "properties": {"NAME": "W7M/GA-006", "TITLE": "West Pikes Peak", "REGION": "MT - Granite", "ASSOCIATION": "USA - Montana", "POINTS": "8", "BONUSPOINTS": "3"}}, {"type": "Feature", "geometry": {"type": "Point", "coordinates": [-113.4384, 46.0113]}, "properties": {"NAME": "W7M/GA-007", "TITLE": "9345", "REGION": "MT - Granite", "ASSOCIATION": "USA - Montana", "POINTS": "8", "BONUSPOINTS": "3"}}, {"type": "Feature", "geometry": {"type": "Point", "coordinates": [-113.0249, 46.3846]}, "properties": {"NAME": "W7M/GA-008", "TITLE": "East Goat Mountain", "REGION": "MT - Granite", "ASSOCIATION": "USA - Montana", "POINTS": "8", "BONUSPOINTS": "3"}}, {"type": "Feature", "geometry": {"type": "Point", "coordinates": [-113.1367, 46.2867]}, "properties": {"NAME": "W7M/GA-009", "TITLE": "West Twin Peaks", "REGION": "MT - Granite", "ASSOCIATION": "USA - Montana", "POINTS": "8", "BONUSPOINTS": "3"}}, {"type": "Feature", "geometry": {"type": "Point", "coordinates": [-113.1054, 46.2902]}, "properties": {"NAME": "W7M/GA-010", "TITLE": "9032", "REGION": "MT - Granite", "ASSOCIATION": "USA - Montana", "POINTS": "8", "BONUSPOINTS": "3"}}, {"type": "Feature", "geometry": {"type": "Point", "coordinates": [-113.793, 46.0634]}, "properties": {"NAME": "W7M/GA-011", "TITLE": "Kent Peak", "REGION": "MT - Granite", "ASSOCIATION": "USA - Montana", "POINTS": "8", "BONUSPOINTS": "3"}}, {"type": "Feature", "geometry": {"type": "Point", "coordinates": [-113.771, 46.0861]}, "properties": {"NAME": "W7M/GA-012", "TITLE": "Congdon Peak", "REGION": "MT - Granite", "ASSOCIATION": "USA - Montana", "POINTS": "6", "BONUSPOINTS": "3"}}, {"type": "Feature", "geometry": {"type": "Point", "coordinates": [-113.3429, 47.338]}, "properties": {"NAME": "W7M/GA-013", "TITLE": "Goat Mountain", "REGION": "MT - Granite", "ASSOCIATION": "USA - Montana", "POINTS": "6", "BONUSPOINTS": "3"}}, {"type": "Feature", "geometry": {"type": "Point", "coordinates": [-113.134, 46.3426]}, "properties": {"NAME": "W7M/GA-014", "TITLE": "Dora Thorn Ridge", "REGION": "MT - Granite", "ASSOCIATION": "USA - Montana", "POINTS": "6", "BONUSPOINTS": "3"}}, {"type": "Feature", "geometry": {"type": "Point", "coordinates": [-113.1992, 46.2871]}, "properties": {"NAME": "W7M/GA-015", "TITLE": "Red Lion Mountain", "REGION": "MT - Granite", "ASSOCIATION": "USA - Montana", "POINTS": "6", "BONUSPOINTS": "3"}}, {"type": "Feature", "geometry": {"type": "Point", "coordinates": [-113.5608, 45.9923]}, "properties": {"NAME": "W7M/GA-016", "TITLE": "Senate Mountain", "REGION": "MT - Granite", "ASSOCIATION": "USA - Montana", "POINTS": "6", "BONUSPOINTS": "3"}}, {"type": "Feature", "geometry": {"type": "Point", "coordinates": [-113.1398, 46.2305]}, "properties": {"NAME": "W7M/GA-017", "TITLE": "Welcome Hill", "REGION": "MT - Granite", "ASSOCIATION": "USA - Montana", "POINTS": "6", "BONUSPOINTS": "3"}}, {"type": "Feature", "geometry": {"type": "Point", "coordinates": [-113.7469, 46.0484]}, "properties": {"NAME": "W7M/GA-018", "TITLE": "Bare Hill", "REGION": "MT - Granite", "ASSOCIATION": "USA - Montana", "POINTS": "6", "BONUSPOINTS": "3"}}, {"type": "Feature", "geometry": {"type": "Point", "coordinates": [-113.5534, 45.979]}, "properties": {"NAME": "W7M/GA-019", "TITLE": "8712", "REGION": "MT - Granite", "ASSOCIATION": "USA - Montana", "POINTS": "6", "BONUSPOINTS": "3"}}, {"type": "Feature", "geometry": {"type": "Point", "coordinates": [-113.4305, 47.3813]}, "properties": {"NAME": "W7M/GA-020", "TITLE": "8710", "REGION": "MT - Granite", "ASSOCIATION": "USA - Montana", "POINTS": "6", "BONUSPOINTS": "3"}}, {"type": "Feature", "geometry": {"type": "Point", "coordinates": [-113.3958, 47.3356]}, "properties": {"NAME": "W7M/GA-021", "TITLE": "Count Peak", "REGION": "MT - Granite", "ASSOCIATION": "USA - Montana", "POINTS": "6", "BONUSPOINTS": "3"}}, {"type": "Feature", "geometry": {"type": "Point", "coordinates": [-113.7811, 46.306]}, "properties": {"NAME": "W7M/GA-022", "TITLE": "Dome Shaped Mountain", "REGION": "MT - Granite", "ASSOCIATION": "USA - Montana", "POINTS": "6", "BONUSPOINTS": "3"}}, {"type": "Feature", "geometry": {"type": "Point", "coordinates": [-113.6342, 46.1877]}, "properties": {"NAME": "W7M/GA-023", "TITLE": "Mount Emerine", "REGION": "MT - Granite", "ASSOCIATION": "USA - Montana", "POINTS": "6", "BONUSPOINTS": "3"}}, {"type": "Feature", "geometry": {"type": "Point", "coordinates": [-113.0492, 46.4442]}, "properties": {"NAME": "W7M/GA-024", "TITLE": "Rose Mountain", "REGION": "MT - Granite", "ASSOCIATION": "USA - Montana", "POINTS": "6", "BONUSPOINTS": "3"}}, {"type": "Feature", "geometry": {"type": "Point", "coordinates": [-113.4357, 47.2993]}, "properties": {"NAME": "W7M/GA-025", "TITLE": "Crescent Mountain", "REGION": "MT - Granite", "ASSOCIATION": "USA - Montana", "POINTS": "6", "BONUSPOINTS": "3"}}, {"type": "Feature", "geometry": {"type": "Point", "coordinates": [-113.3683, 47.3807]}, "properties": {"NAME": "W7M/GA-026", "TITLE": "Cardinal Peak", "REGION": "MT - Granite", "ASSOCIATION": "USA - Montana", "POINTS": "6", "BONUSPOINTS": "3"}}, {"type": "Feature", "geometry": {"type": "Point", "coordinates": [-113.3494, 47.4507]}, "properties": {"NAME": "W7M/GA-027", "TITLE": "Una Mountain", "REGION": "MT - Granite", "ASSOCIATION": "USA - Montana", "POINTS": "6", "BONUSPOINTS": "3"}}, {"type": "Feature", "geometry": {"type": "Point", "coordinates": [-113.2124, 47.3459]}, "properties": {"NAME": "W7M/GA-028", "TITLE": "Gust Mountain", "REGION": "MT - Granite", "ASSOCIATION": "USA - Montana", "POINTS": "6", "BONUSPOINTS": "3"}}, {"type": "Feature", "geometry": {"type": "Point", "coordinates": [-113.3152, 47.3412]}, "properties": {"NAME": "W7M/GA-029", "TITLE": "Puma Peak", "REGION": "MT - Granite", "ASSOCIATION": "USA - Montana", "POINTS": "6", "BONUSPOINTS": "3"}}, {"type": "Feature", "geometry": {"type": "Point", "coordinates": [-113.0297, 46.4482]}, "properties": {"NAME": "W7M/GA-030", "TITLE": "8547", "REGION": "MT - Granite", "ASSOCIATION": "USA - Montana", "POINTS": "6", "BONUSPOINTS": "3"}}, {"type": "Feature", "geometry": {"type": "Point", "coordinates": [-113.1768, 47.3235]}, "properties": {"NAME": "W7M/GA-031", "TITLE": "Moser Mountain", "REGION": "MT - Granite", "ASSOCIATION": "USA - Montana", "POINTS": "6", "BONUSPOINTS": "3"}}, {"type": "Feature", "geometry": {"type": "Point", "coordinates": [-113.141, 47.3073]}, "properties": {"NAME": "W7M/GA-032", "TITLE": "Foolhen Mountain", "REGION": "MT - Granite", "ASSOCIATION": "USA - Montana", "POINTS": "6", "BONUSPOINTS": "3"}}, {"type": "Feature", "geometry": {"type": "Point", "coordinates": [-113.2523, 47.2781]}, "properties": {"NAME": "W7M/GA-033", "TITLE": "Youngs Mountain", "REGION": "MT - Granite", "ASSOCIATION": "USA - Montana", "POINTS": "6", "BONUSPOINTS": "3"}}, {"type": "Feature", "geometry": {"type": "Point", "coordinates": [-113.3597, 47.2984]}, "properties": {"NAME": "W7M/GA-034", "TITLE": "Leota Peak", "REGION": "MT - Granite", "ASSOCIATION": "USA - Montana", "POINTS": "6", "BONUSPOINTS": "3"}}, {"type": "Feature", "geometry": {"type": "Point", "coordinates": [-113.0982, 47.2234]}, "properties": {"NAME": "W7M/GA-035", "TITLE": "Omar Mountain", "REGION": "MT - Granite", "ASSOCIATION": "USA - Montana", "POINTS": "6", "BONUSPOINTS": "3"}}, {"type": "Feature", "geometry": {"type": "Point", "coordinates": [-113.7378, 46.2557]}, "properties": {"NAME": "W7M/GA-036", "TITLE": "8495", "REGION": "MT - Granite", "ASSOCIATION": "USA - Montana", "POINTS": "6", "BONUSPOINTS": "3"}}, {"type": "Feature", "geometry": {"type": "Point", "coordinates": [-113.6517, 45.9696]}, "properties": {"NAME": "W7M/GA-037", "TITLE": "8472", "REGION": "MT - Granite", "ASSOCIATION": "USA - Montana", "POINTS": "6", "BONUSPOINTS": "3"}}, {"type": "Feature", "geometry": {"type": "Point", "coordinates": [-113.6804, 46.4793]}, "properties": {"NAME": "W7M/GA-038", "TITLE": "Butte Cabin Ridge", "REGION": "MT - Granite", "ASSOCIATION": "USA - Montana", "POINTS": "6", "BONUSPOINTS": "3"}}, {"type": "Feature", "geometry": {"type": "Point", "coordinates": [-112.8799, 47.1048]}, "properties": {"NAME": "W7M/GA-039", "TITLE": "Echo Mountain", "REGION": "MT - Granite", "ASSOCIATION": "USA - Montana", "POINTS": "6", "BONUSPOINTS": "3"}}, {"type": "Feature", "geometry": {"type": "Point", "coordinates": [-113.7191, 46.4819]}, "properties": {"NAME": "W7M/GA-040", "TITLE": "Quigg Peak", "REGION": "MT - Granite", "ASSOCIATION": "USA - Montana", "POINTS": "6", "BONUSPOINTS": "3"}}, {"type": "Feature", "geometry": {"type": "Point", "coordinates": [-112.8998, 47.1579]}, "properties": {"NAME": "W7M/GA-041", "TITLE": "8414", "REGION": "MT - Granite", "ASSOCIATION": "USA - Montana", "POINTS": "6", "BONUSPOINTS": "3"}}, {"type": "Feature", "geometry": {"type": "Point", "coordinates": [-113.1503, 47.5089]}, "properties": {"NAME": "W7M/GA-042", "TITLE": "South Flathead Alps", "REGION": "MT - Granite", "ASSOCIATION": "USA - Montana", "POINTS": "6", "BONUSPOINTS": "3"}}, {"type": "Feature", "geometry": {"type": "Point", "coordinates": [-112.9686, 47.1672]}, "properties": {"NAME": "W7M/GA-043", "TITLE": "Lake Mountain", "REGION": "MT - Granite", "ASSOCIATION": "USA - Montana", "POINTS": "6", "BONUSPOINTS": "3"}}, {"type": "Feature", "geometry": {"type": "Point", "coordinates": [-113.2406, 47.4218]}, "properties": {"NAME": "W7M/GA-044", "TITLE": "Gordon Mountain", "REGION": "MT - Granite", "ASSOCIATION": "USA - Montana", "POINTS": "6", "BONUSPOINTS": "3"}}, {"type": "Feature", "geometry": {"type": "Point", "coordinates": [-113.4633, 47.497]}, "properties": {"NAME": "W7M/GA-045", "TITLE": "Lena Peak", "REGION": "MT - Granite", "ASSOCIATION": "USA - Montana", "POINTS": "6", "BONUSPOINTS": "3"}}, {"type": "Feature", "geometry": {"type": "Point", "coordinates": [-112.5012, 46.3654]}, "properties": {"NAME": "W7M/GA-046", "TITLE": "Cliff Mountain", "REGION": "MT - Granite", "ASSOCIATION": "USA - Montana", "POINTS": "6", "BONUSPOINTS": "3"}}, {"type": "Feature", "geometry": {"type": "Point", "coordinates": [-113.6057, 45.9482]}, "properties": {"NAME": "W7M/GA-047", "TITLE": "8351", "REGION": "MT - Granite", "ASSOCIATION": "USA - Montana", "POINTS": "6", "BONUSPOINTS": "3"}}, {"type": "Feature", "geometry": {"type": "Point", "coordinates": [-113.3638, 47.5333]}, "properties": {"NAME": "W7M/GA-048", "TITLE": "Scarface Peak", "REGION": "MT - Granite", "ASSOCIATION": "USA - Montana", "POINTS": "6", "BONUSPOINTS": "3"}}, {"type": "Feature", "geometry": {"type": "Point", "coordinates": [-112.8564, 47.0916]}, "properties": {"NAME": "W7M/GA-049", "TITLE": "Daly Peak", "REGION": "MT - Granite", "ASSOCIATION": "USA - Montana", "POINTS": "6", "BONUSPOINTS": "3"}}, {"type": "Feature", "geometry": {"type": "Point", "coordinates": [-113.3973, 47.2715]}, "properties": {"NAME": "W7M/GA-050", "TITLE": "Pyramid Peak", "REGION": "MT - Granite", "ASSOCIATION": "USA - Montana", "POINTS": "6", "BONUSPOINTS": "3"}}, {"type": "Feature", "geometry": {"type": "Point", "coordinates": [-113.5635, 46.4636]}, "properties": {"NAME": "W7M/GA-051", "TITLE": "Sandstone Ridge", "REGION": "MT - Granite", "ASSOCIATION": "USA - Montana", "POINTS": "6", "BONUSPOINTS": "3"}}, {"type": "Feature", "geometry": {"type": "Point", "coordinates": [-112.5451, 46.7712]}, "properties": {"NAME": "W7M/GA-052", "TITLE": "Nevada Mountain", "REGION": "MT - Granite", "ASSOCIATION": "USA - Montana", "POINTS": "6", "BONUSPOINTS": "3"}}, {"type": "Feature", "geometry": {"type": "Point", "coordinates": [-113.2951, 47.2382]}, "properties": {"NAME": "W7M/GA-053", "TITLE": "Monture Mountain", "REGION": "MT - Granite", "ASSOCIATION": "USA - Montana", "POINTS": "6", "BONUSPOINTS": "3"}}, {"type": "Feature", "geometry": {"type": "Point", "coordinates": [-113.6521, 46.0649]}, "properties": {"NAME": "W7M/GA-054", "TITLE": "Whetstone Ridge", "REGION": "MT - Granite", "ASSOCIATION": "USA - Montana", "POINTS": "6", "BONUSPOINTS": "3"}}, {"type": "Feature", "geometry": {"type": "Point", "coordinates": [-113.1649, 47.3961]}, "properties": {"NAME": "W7M/GA-055", "TITLE": "Jumbo Mountain", "REGION": "MT - Granite", "ASSOCIATION": "USA - Montana", "POINTS": "6", "BONUSPOINTS": "3"}}, {"type": "Feature", "geometry": {"type": "Point", "coordinates": [-113.327, 47.3017]}, "properties": {"NAME": "W7M/GA-056", "TITLE": "Crimson Peak", "REGION": "MT - Granite", "ASSOCIATION": "USA - Montana", "POINTS": "6", "BONUSPOINTS": "3"}}, {"type": "Feature", "geometry": {"type": "Point", "coordinates": [-113.6134, 45.9671]}, "properties": {"NAME": "W7M/GA-057", "TITLE": "8280", "REGION": "MT - Granite", "ASSOCIATION": "USA - Montana", "POINTS": "6", "BONUSPOINTS": "3"}}, {"type": "Feature", "geometry": {"type": "Point", "coordinates": [-113.4138, 47.2863]}, "properties": {"NAME": "W7M/GA-058", "TITLE": "8300", "REGION": "MT - Granite", "ASSOCIATION": "USA - Montana", "POINTS": "6", "BONUSPOINTS": "3"}}, {"type": "Feature", "geometry": {"type": "Point", "coordinates": [-113.4033, 47.289]}, "properties": {"NAME": "W7M/GA-059", "TITLE": "Marshall Mountain", "REGION": "MT - Granite", "ASSOCIATION": "USA - Montana", "POINTS": "6", "BONUSPOINTS": "3"}}, {"type": "Feature", "geometry": {"type": "Point", "coordinates": [-113.1078, 46.4439]}, "properties": {"NAME": "W7M/GA-060", "TITLE": "Eureka Ridge", "REGION": "MT - Granite", "ASSOCIATION": "USA - Montana", "POINTS": "6", "BONUSPOINTS": "3"}}, {"type": "Feature", "geometry": {"type": "Point", "coordinates": [-113.1246, 47.2172]}, "properties": {"NAME": "W7M/GA-061", "TITLE": "Fenn Mountain", "REGION": "MT - Granite", "ASSOCIATION": "USA - Montana", "POINTS": "6", "BONUSPOINTS": "3"}}, {"type": "Feature", "geometry": {"type": "Point", "coordinates": [-113.1342, 47.5758]}, "properties": {"NAME": "W7M/GA-062", "TITLE": "8220", "REGION": "MT - Granite", "ASSOCIATION": "USA - Montana", "POINTS": "6", "BONUSPOINTS": "3"}}, {"type": "Feature", "geometry": {"type": "Point", "coordinates": [-113.128, 47.4844]}, "properties": {"NAME": "W7M/GA-063", "TITLE": "Scintilla Mountain", "REGION": "MT - Granite", "ASSOCIATION": "USA - Montana", "POINTS": "6", "BONUSPOINTS": "3"}}, {"type": "Feature", "geometry": {"type": "Point", "coordinates": [-113.0907, 47.4712]}, "properties": {"NAME": "W7M/GA-064", "TITLE": "Trap Mountain", "REGION": "MT - Granite", "ASSOCIATION": "USA - Montana", "POINTS": "6", "BONUSPOINTS": "3"}}, {"type": "Feature", "geometry": {"type": "Point", "coordinates": [-113.2649, 47.32]}, "properties": {"NAME": "W7M/GA-065", "TITLE": "Railley Mountain", "REGION": "MT - Granite", "ASSOCIATION": "USA - Montana", "POINTS": "6", "BONUSPOINTS": "3"}}, {"type": "Feature", "geometry": {"type": "Point", "coordinates": [-112.8218, 47.1453]}, "properties": {"NAME": "W7M/GA-066", "TITLE": "Bugle Mountain", "REGION": "MT - Granite", "ASSOCIATION": "USA - Montana", "POINTS": "6", "BONUSPOINTS": "3"}}, {"type": "Feature", "geometry": {"type": "Point", "coordinates": [-113.7998, 46.2191]}, "properties": {"NAME": "W7M/GA-067", "TITLE": "8168", "REGION": "MT - Granite", "ASSOCIATION": "USA - Montana", "POINTS": "6", "BONUSPOINTS": "3"}}, {"type": "Feature", "geometry": {"type": "Point", "coordinates": [-113.3553, 47.2053]}, "properties": {"NAME": "W7M/GA-068", "TITLE": "Morrell Mountain", "REGION": "MT - Granite", "ASSOCIATION": "USA - Montana", "POINTS": "6", "BONUSPOINTS": "3"}}, {"type": "Feature", "geometry": {"type": "Point", "coordinates": [-113.2474, 46.2624]}, "properties": {"NAME": "W7M/GA-069", "TITLE": "Rumsey Mountain", "REGION": "MT - Granite", "ASSOCIATION": "USA - Montana", "POINTS": "6", "BONUSPOINTS": "3"}}, {"type": "Feature", "geometry": {"type": "Point", "coordinates": [-113.1628, 47.377]}, "properties": {"NAME": "W7M/GA-070", "TITLE": "Black Mountain", "REGION": "MT - Granite", "ASSOCIATION": "USA - Montana", "POINTS": "6", "BONUSPOINTS": "3"}}, {"type": "Feature", "geometry": {"type": "Point", "coordinates": [-113.1278, 47.2549]}, "properties": {"NAME": "W7M/GA-071", "TITLE": "8146", "REGION": "MT - Granite", "ASSOCIATION": "USA - Montana", "POINTS": "6", "BONUSPOINTS": "3"}}, {"type": "Feature", "geometry": {"type": "Point", "coordinates": [-113.2457, 47.3453]}, "properties": {"NAME": "W7M/GA-072", "TITLE": "8140", "REGION": "MT - Granite", "ASSOCIATION": "USA - Montana", "POINTS": "6", "BONUSPOINTS": "3"}}, {"type": "Feature", "geometry": {"type": "Point", "coordinates": [-113.8082, 46.3878]}, "properties": {"NAME": "W7M/GA-073", "TITLE": "8127", "REGION": "MT - Granite", "ASSOCIATION": "USA - Montana", "POINTS": "6", "BONUSPOINTS": "3"}}, {"type": "Feature", "geometry": {"type": "Point", "coordinates": [-113.4794, 46.0475]}, "properties": {"NAME": "W7M/GA-074", "TITLE": "8120", "REGION": "MT - Granite", "ASSOCIATION": "USA - Montana", "POINTS": "6", "BONUSPOINTS": "3"}}, {"type": "Feature", "geometry": {"type": "Point", "coordinates": [-112.9007, 47.1201]}, "properties": {"NAME": "W7M/GA-075", "TITLE": "8098", "REGION": "MT - Granite", "ASSOCIATION": "USA - Montana", "POINTS": "6", "BONUSPOINTS": "3"}}, {"type": "Feature", "geometry": {"type": "Point", "coordinates": [-113.7285, 46.3238]}, "properties": {"NAME": "W7M/GA-076", "TITLE": "8083", "REGION": "MT - Granite", "ASSOCIATION": "USA - Montana", "POINTS": "6", "BONUSPOINTS": "3"}}, {"type": "Feature", "geometry": {"type": "Point", "coordinates": [-113.4206, 47.4979]}, "properties": {"NAME": "W7M/GA-077", "TITLE": "8082", "REGION": "MT - Granite", "ASSOCIATION": "USA - Montana", "POINTS": "6", "BONUSPOINTS": "3"}}, {"type": "Feature", "geometry": {"type": "Point", "coordinates": [-113.3901, 47.5721]}, "properties": {"NAME": "W7M/GA-078", "TITLE": "Charlotte Peak", "REGION": "MT - Granite", "ASSOCIATION": "USA - Montana", "POINTS": "6", "BONUSPOINTS": "3"}}, {"type": "Feature", "geometry": {"type": "Point", "coordinates": [-113.0762, 47.1668]}, "properties": {"NAME": "W7M/GA-079", "TITLE": "Spread Mountain", "REGION": "MT - Granite", "ASSOCIATION": "USA - Montana", "POINTS": "6", "BONUSPOINTS": "3"}}, {"type": "Feature", "geometry": {"type": "Point", "coordinates": [-112.3965, 46.3952]}, "properties": {"NAME": "W7M/GA-080", "TITLE": "Bison Mountain", "REGION": "MT - Granite", "ASSOCIATION": "USA - Montana", "POINTS": "6", "BONUSPOINTS": "3"}}, {"type": "Feature", "geometry": {"type": "Point", "coordinates": [-113.3704, 47.2519]}, "properties": {"NAME": "W7M/GA-081", "TITLE": "Devine Peak", "REGION": "MT - Granite", "ASSOCIATION": "USA - Montana", "POINTS": "6", "BONUSPOINTS": "3"}}, {"type": "Feature", "geometry": {"type": "Point", "coordinates": [-113.7284, 46.2826]}, "properties": {"NAME": "W7M/GA-082", "TITLE": "8015", "REGION": "MT - Granite", "ASSOCIATION": "USA - Montana", "POINTS": "6", "BONUSPOINTS": "3"}}, {"type": "Feature", "geometry": {"type": "Point", "coordinates": [-113.2667, 47.2331]}, "properties": {"NAME": "W7M/GA-083", "TITLE": "8008", "REGION": "MT - Granite", "ASSOCIATION": "USA - Montana", "POINTS": "6", "BONUSPOINTS": "3"}}, {"type": "Feature", "geometry": {"type": "Point", "coordinates": [-113.3332, 47.2238]}, "properties": {"NAME": "W7M/GA-084", "TITLE": "8004", "REGION": "MT - Granite", "ASSOCIATION": "USA - Montana", "POINTS": "6", "BONUSPOINTS": "3"}}, {"type": "Feature", "geometry": {"type": "Point", "coordinates": [-112.8142, 47.0798]}, "properties": {"NAME": "W7M/GA-085", "TITLE": "7995", "REGION": "MT - Granite", "ASSOCIATION": "USA - Montana", "POINTS": "6", "BONUSPOINTS": "3"}}, {"type": "Feature", "geometry": {"type": "Point", "coordinates": [-113.3208, 47.2479]}, "properties": {"NAME": "W7M/GA-086", "TITLE": "7980", "REGION": "MT - Granite", "ASSOCIATION": "USA - Montana", "POINTS": "6", "BONUSPOINTS": "3"}}, {"type": "Feature", "geometry": {"type": "Point", "coordinates": [-113.3646, 47.2696]}, "properties": {"NAME": "W7M/GA-087", "TITLE": "7965", "REGION": "MT - Granite", "ASSOCIATION": "USA - Montana", "POINTS": "6", "BONUSPOINTS": "3"}}, {"type": "Feature", "geometry": {"type": "Point", "coordinates": [-113.2834, 47.4096]}, "properties": {"NAME": "W7M/GA-088", "TITLE": "Kid Mountain", "REGION": "MT - Granite", "ASSOCIATION": "USA - Montana", "POINTS": "6", "BONUSPOINTS": "3"}}, {"type": "Feature", "geometry": {"type": "Point", "coordinates": [-113.4479, 46.421]}, "properties": {"NAME": "W7M/GA-089", "TITLE": "Black Pine Ridge", "REGION": "MT - Granite", "ASSOCIATION": "USA - Montana", "POINTS": "6", "BONUSPOINTS": "3"}}, {"type": "Feature", "geometry": {"type": "Point", "coordinates": [-113.2035, 46.366]}, "properties": {"NAME": "W7M/GA-090", "TITLE": "7914", "REGION": "MT - Granite", "ASSOCIATION": "USA - Montana", "POINTS": "6", "BONUSPOINTS": "3"}}, {"type": "Feature", "geometry": {"type": "Point", "coordinates": [-113.2727, 47.2242]}, "properties": {"NAME": "W7M/GA-091", "TITLE": "7900", "REGION": "MT - Granite", "ASSOCIATION": "USA - Montana", "POINTS": "6", "BONUSPOINTS": "3"}}, {"type": "Feature", "geometry": {"type": "Point", "coordinates": [-113.8181, 46.1912]}, "properties": {"NAME": "W7M/GA-092", "TITLE": "7831", "REGION": "MT - Granite", "ASSOCIATION": "USA - Montana", "POINTS": "6", "BONUSPOINTS": "3"}}, {"type": "Feature", "geometry": {"type": "Point", "coordinates": [-113.5561, 46.5892]}, "properties": {"NAME": "W7M/GA-093", "TITLE": "Sliderock Mountain", "REGION": "MT - Granite", "ASSOCIATION": "USA - Montana", "POINTS": "6", "BONUSPOINTS": "3"}}, {"type": "Feature", "geometry": {"type": "Point", "coordinates": [-112.8666, 47.1629]}, "properties": {"NAME": "W7M/GA-094", "TITLE": "7810", "REGION": "MT - Granite", "ASSOCIATION": "USA - Montana", "POINTS": "6", "BONUSPOINTS": "3"}}, {"type": "Feature", "geometry": {"type": "Point", "coordinates": [-113.0407, 47.0948]}, "properties": {"NAME": "W7M/GA-095", "TITLE": "Ovando Mountain", "REGION": "MT - Granite", "ASSOCIATION": "USA - Montana", "POINTS": "6", "BONUSPOINTS": "3"}}, {"type": "Feature", "geometry": {"type": "Point", "coordinates": [-113.0804, 47.2874]}, "properties": {"NAME": "W7M/GA-096", "TITLE": "Apex Mountain", "REGION": "MT - Granite", "ASSOCIATION": "USA - Montana", "POINTS": "6", "BONUSPOINTS": "3"}}, {"type": "Feature", "geometry": {"type": "Point", "coordinates": [-113.7178, 46.1596]}, "properties": {"NAME": "W7M/GA-097", "TITLE": "7727", "REGION": "MT - Granite", "ASSOCIATION": "USA - Montana", "POINTS": "6", "BONUSPOINTS": "3"}}, {"type": "Feature", "geometry": {"type": "Point", "coordinates": [-113.7569, 46.6264]}, "properties": {"NAME": "W7M/GA-098", "TITLE": "Welcome Benchmark", "REGION": "MT - Granite", "ASSOCIATION": "USA - Montana", "POINTS": "6", "BONUSPOINTS": "3"}}, {"type": "Feature", "geometry": {"type": "Point", "coordinates": [-113.3424, 47.501]}, "properties": {"NAME": "W7M/GA-099", "TITLE": "Bartlett Mountain", "REGION": "MT - Granite", "ASSOCIATION": "USA - Montana", "POINTS": "6", "BONUSPOINTS": "3"}}, {"type": "Feature", "geometry": {"type": "Point", "coordinates": [-113.5157, 46.5714]}, "properties": {"NAME": "W7M/GA-100", "TITLE": "7641", "REGION": "MT - Granite", "ASSOCIATION": "USA - Montana", "POINTS": "6", "BONUSPOINTS": "3"}}, {"type": "Feature", "geometry": {"type": "Point", "coordinates": [-113.3102, 47.3984]}, "properties": {"NAME": "W7M/GA-101", "TITLE": "7605", "REGION": "MT - Granite", "ASSOCIATION": "USA - Montana", "POINTS": "6", "BONUSPOINTS": "3"}}, {"type": "Feature", "geometry": {"type": "Point", "coordinates": [-113.0885, 47.2989]}, "properties": {"NAME": "W7M/GA-102", "TITLE": "Little Apex Mountain", "REGION": "MT - Granite", "ASSOCIATION": "USA - Montana", "POINTS": "6", "BONUSPOINTS": "3"}}, {"type": "Feature", "geometry": {"type": "Point", "coordinates": [-113.0462, 47.1272]}, "properties": {"NAME": "W7M/GA-103", "TITLE": "McCabe Mountain", "REGION": "MT - Granite", "ASSOCIATION": "USA - Montana", "POINTS": "6", "BONUSPOINTS": "3"}}, {"type": "Feature", "geometry": {"type": "Point", "coordinates": [-112.8714, 46.7106]}, "properties": {"NAME": "W7M/GA-104", "TITLE": "Old Baldy Mountain", "REGION": "MT - Granite", "ASSOCIATION": "USA - Montana", "POINTS": "6", "BONUSPOINTS": "3"}}, {"type": "Feature", "geometry": {"type": "Point", "coordinates": [-113.2089, 47.245]}, "properties": {"NAME": "W7M/GA-105", "TITLE": "Center Ridge", "REGION": "MT - Granite", "ASSOCIATION": "USA - Montana", "POINTS": "4", "BONUSPOINTS": "3"}}, {"type": "Feature", "geometry": {"type": "Point", "coordinates": [-112.8373, 46.9988]}, "properties": {"NAME": "W7M/GA-106", "TITLE": "Black Mountain", "REGION": "MT - Granite", "ASSOCIATION": "USA - Montana", "POINTS": "4", "BONUSPOINTS": "3"}}, {"type": "Feature", "geometry": {"type": "Point", "coordinates": [-112.8186, 46.865]}, "properties": {"NAME": "W7M/GA-107", "TITLE": "Ogden Mountain", "REGION": "MT - Granite", "ASSOCIATION": "USA - Montana", "POINTS": "4", "BONUSPOINTS": "3"}}, {"type": "Feature", "geometry": {"type": "Point", "coordinates": [-113.0877, 47.3614]}, "properties": {"NAME": "W7M/GA-108", "TITLE": "Alloy Mountain", "REGION": "MT - Granite", "ASSOCIATION": "USA - Montana", "POINTS": "4", "BONUSPOINTS": "3"}}, {"type": "Feature", "geometry": {"type": "Point", "coordinates": [-112.3847, 46.4574]}, "properties": {"NAME": "W7M/GA-109", "TITLE": "Treasure Mountain", "REGION": "MT - Granite", "ASSOCIATION": "USA - Montana", "POINTS": "4", "BONUSPOINTS": "3"}}, {"type": "Feature", "geometry": {"type": "Point", "coordinates": [-112.6606, 46.8325]}, "properties": {"NAME": "W7M/GA-110", "TITLE": "7370", "REGION": "MT - Granite", "ASSOCIATION": "USA - Montana", "POINTS": "4", "BONUSPOINTS": "3"}}, {"type": "Feature", "geometry": {"type": "Point", "coordinates": [-112.8526, 47.031]}, "properties": {"NAME": "W7M/GA-111", "TITLE": "7342", "REGION": "MT - Granite", "ASSOCIATION": "USA - Montana", "POINTS": "4", "BONUSPOINTS": "3"}}, {"type": "Feature", "geometry": {"type": "Point", "coordinates": [-113.8044, 46.5658]}, "properties": {"NAME": "W7M/GA-112", "TITLE": "Cinnabar Point", "REGION": "MT - Granite", "ASSOCIATION": "USA - Montana", "POINTS": "4", "BONUSPOINTS": "3"}}, {"type": "Feature", "geometry": {"type": "Point", "coordinates": [-112.9015, 46.7892]}, "properties": {"NAME": "W7M/GA-113", "TITLE": "Hoodoo Mountain", "REGION": "MT - Granite", "ASSOCIATION": "USA - Montana", "POINTS": "4", "BONUSPOINTS": "3"}}, {"type": "Feature", "geometry": {"type": "Point", "coordinates": [-113.8614, 46.4894]}, "properties": {"NAME": "W7M/GA-114", "TITLE": "7154", "REGION": "MT - Granite", "ASSOCIATION": "USA - Montana", "POINTS": "4", "BONUSPOINTS": "3"}}, {"type": "Feature", "geometry": {"type": "Point", "coordinates": [-113.3174, 46.4563]}, "properties": {"NAME": "W7M/GA-115", "TITLE": "Henderson Mountain", "REGION": "MT - Granite", "ASSOCIATION": "USA - Montana", "POINTS": "4", "BONUSPOINTS": "3"}}, {"type": "Feature", "geometry": {"type": "Point", "coordinates": [-113.461, 46.2297]}, "properties": {"NAME": "W7M/GA-116", "TITLE": "7104", "REGION": "MT - Granite", "ASSOCIATION": "USA - Montana", "POINTS": "4", "BONUSPOINTS": "3"}}, {"type": "Feature", "geometry": {"type": "Point", "coordinates": [-113.5671, 46.2697]}, "properties": {"NAME": "W7M/GA-117", "TITLE": "Middle West Fork Buttes", "REGION": "MT - Granite", "ASSOCIATION": "USA - Montana", "POINTS": "4", "BONUSPOINTS": "3"}}, {"type": "Feature", "geometry": {"type": "Point", "coordinates": [-113.2599, 46.8513]}, "properties": {"NAME": "W7M/GA-118", "TITLE": "Elevation Mountain", "REGION": "MT - Granite", "ASSOCIATION": "USA - Montana", "POINTS": "4", "BONUSPOINTS": "3"}}, {"type": "Feature", "geometry": {"type": "Point", "coordinates": [-113.1847, 47.2027]}, "properties": {"NAME": "W7M/GA-119", "TITLE": "7028", "REGION": "MT - Granite", "ASSOCIATION": "USA - Montana", "POINTS": "4", "BONUSPOINTS": "3"}}, {"type": "Feature", "geometry": {"type": "Point", "coordinates": [-113.0125, 46.6782]}, "properties": {"NAME": "W7M/GA-120", "TITLE": "Saddle Mountain", "REGION": "MT - Granite", "ASSOCIATION": "USA - Montana", "POINTS": "4", "BONUSPOINTS": "3"}}, {"type": "Feature", "geometry": {"type": "Point", "coordinates": [-112.3866, 46.6241]}, "properties": {"NAME": "W7M/GA-121", "TITLE": "Dot Benchmark", "REGION": "MT - Granite", "ASSOCIATION": "USA - Montana", "POINTS": "4", "BONUSPOINTS": "3"}}, {"type": "Feature", "geometry": {"type": "Point", "coordinates": [-112.4306, 46.6877]}, "properties": {"NAME": "W7M/GA-122", "TITLE": "Esmeralda Hill", "REGION": "MT - Granite", "ASSOCIATION": "USA - Montana", "POINTS": "4", "BONUSPOINTS": "3"}}, {"type": "Feature", "geometry": {"type": "Point", "coordinates": [-113.4197, 46.7382]}, "properties": {"NAME": "W7M/GA-123", "TITLE": "Mount Baldy", "REGION": "MT - Granite", "ASSOCIATION": "USA - Montana", "POINTS": "4", "BONUSPOINTS": "3"}}, {"type": "Feature", "geometry": {"type": "Point", "coordinates": [-112.7814, 46.6243]}, "properties": {"NAME": "W7M/GA-124", "TITLE": "6895", "REGION": "MT - Granite", "ASSOCIATION": "USA - Montana", "POINTS": "4", "BONUSPOINTS": "3"}}, {"type": "Feature", "geometry": {"type": "Point", "coordinates": [-113.2009, 46.9375]}, "properties": {"NAME": "W7M/GA-125", "TITLE": "Granite Mountain", "REGION": "MT - Granite", "ASSOCIATION": "USA - Montana", "POINTS": "4", "BONUSPOINTS": "3"}}, {"type": "Feature", "geometry": {"type": "Point", "coordinates": [-113.4669, 46.6426]}, "properties": {"NAME": "W7M/GA-126", "TITLE": "Tyler Point", "REGION": "MT - Granite", "ASSOCIATION": "USA - Montana", "POINTS": "4", "BONUSPOINTS": "3"}}, {"type": "Feature", "geometry": {"type": "Point", "coordinates": [-113.3227, 46.8186]}, "properties": {"NAME": "W7M/GA-127", "TITLE": "Anderson Hill", "REGION": "MT - Granite", "ASSOCIATION": "USA - Montana", "POINTS": "4", "BONUSPOINTS": "3"}}, {"type": "Feature", "geometry": {"type": "Point", "coordinates": [-112.6404, 46.2673]}, "properties": {"NAME": "W7M/GA-128", "TITLE": "O'Donnell Mountain", "REGION": "MT - Granite", "ASSOCIATION": "USA - Montana", "POINTS": "4", "BONUSPOINTS": "3"}}, {"type": "Feature", "geometry": {"type": "Point", "coordinates": [-113.4164, 46.3364]}, "properties": {"NAME": "W7M/GA-129", "TITLE": "6820", "REGION": "MT - Granite", "ASSOCIATION": "USA - Montana", "POINTS": "4", "BONUSPOINTS": "3"}}, {"type": "Feature", "geometry": {"type": "Point", "coordinates": [-113.399, 46.8076]}, "properties": {"NAME": "W7M/GA-130", "TITLE": "Union Peak", "REGION": "MT - Granite", "ASSOCIATION": "USA - Montana", "POINTS": "4", "BONUSPOINTS": "3"}}, {"type": "Feature", "geometry": {"type": "Point", "coordinates": [-112.7308, 46.647]}, "properties": {"NAME": "W7M/GA-131", "TITLE": "Gravely Mountain", "REGION": "MT - Granite", "ASSOCIATION": "USA - Montana", "POINTS": "4", "BONUSPOINTS": "3"}}, {"type": "Feature", "geometry": {"type": "Point", "coordinates": [-112.9833, 46.7705]}, "properties": {"NAME": "W7M/GA-132", "TITLE": "6733", "REGION": "MT - Granite", "ASSOCIATION": "USA - Montana", "POINTS": "4", "BONUSPOINTS": "3"}}, {"type": "Feature", "geometry": {"type": "Point", "coordinates": [-113.1358, 47.4512]}, "properties": {"NAME": "W7M/GA-133", "TITLE": "Emerson Peak", "REGION": "MT - Granite", "ASSOCIATION": "USA - Montana", "POINTS": "4", "BONUSPOINTS": "3"}}, {"type": "Feature", "geometry": {"type": "Point", "coordinates": [-113.2509, 46.7706]}, "properties": {"NAME": "W7M/GA-134", "TITLE": "6700", "REGION": "MT - Granite", "ASSOCIATION": "USA - Montana", "POINTS": "4", "BONUSPOINTS": "3"}}, {"type": "Feature", "geometry": {"type": "Point", "coordinates": [-113.2291, 47.1719]}, "properties": {"NAME": "W7M/GA-135", "TITLE": "Dunham Point", "REGION": "MT - Granite", "ASSOCIATION": "USA - Montana", "POINTS": "4", "BONUSPOINTS": "3"}}, {"type": "Feature", "geometry": {"type": "Point", "coordinates": [-113.2739, 46.7844]}, "properties": {"NAME": "W7M/GA-136", "TITLE": "6660", "REGION": "MT - Granite", "ASSOCIATION": "USA - Montana", "POINTS": "4", "BONUSPOINTS": "3"}}, {"type": "Feature", "geometry": {"type": "Point", "coordinates": [-112.9141, 46.6884]}, "properties": {"NAME": "W7M/GA-137", "TITLE": "Bailey Mountain", "REGION": "MT - Granite", "ASSOCIATION": "USA - Montana", "POINTS": "4", "BONUSPOINTS": "3"}}, {"type": "Feature", "geometry": {"type": "Point", "coordinates": [-113.1816, 46.7347]}, "properties": {"NAME": "W7M/GA-138", "TITLE": "King Mountain", "REGION": "MT - Granite", "ASSOCIATION": "USA - Montana", "POINTS": "4", "BONUSPOINTS": "3"}}, {"type": "Feature", "geometry": {"type": "Point", "coordinates": [-113.3253, 46.4861]}, "properties": {"NAME": "W7M/GA-139", "TITLE": "Sunrise Mountain", "REGION": "MT - Granite", "ASSOCIATION": "USA - Montana", "POINTS": "4", "BONUSPOINTS": "3"}}, {"type": "Feature", "geometry": {"type": "Point", "coordinates": [-113.4755, 46.7412]}, "properties": {"NAME": "W7M/GA-140", "TITLE": "6620", "REGION": "MT - Granite", "ASSOCIATION": "USA - Montana", "POINTS": "4", "BONUSPOINTS": "3"}}, {"type": "Feature", "geometry": {"type": "Point", "coordinates": [-113.5853, 46.641]}, "properties": {"NAME": "W7M/GA-141", "TITLE": "Golden Mountain", "REGION": "MT - Granite", "ASSOCIATION": "USA - Montana", "POINTS": "4", "BONUSPOINTS": "3"}}, {"type": "Feature", "geometry": {"type": "Point", "coordinates": [-113.0114, 46.7343]}, "properties": {"NAME": "W7M/GA-142", "TITLE": "Chimney Mountain", "REGION": "MT - Granite", "ASSOCIATION": "USA - Montana", "POINTS": "4", "BONUSPOINTS": "3"}}, {"type": "Feature", "geometry": {"type": "Point", "coordinates": [-112.7587, 46.6022]}, "properties": {"NAME": "W7M/GA-143", "TITLE": "6495", "REGION": "MT - Granite", "ASSOCIATION": "USA - Montana", "POINTS": "2", "BONUSPOINTS": "3"}}, {"type": "Feature", "geometry": {"type": "Point", "coordinates": [-113.1794, 47.4558]}, "properties": {"NAME": "W7M/GA-144", "TITLE": "Flatiron Mountain", "REGION": "MT - Granite", "ASSOCIATION": "USA - Montana", "POINTS": "2", "BONUSPOINTS": "3"}}, {"type": "Feature", "geometry": {"type": "Point", "coordinates": [-113.603, 46.6767]}, "properties": {"NAME": "W7M/GA-145", "TITLE": "Burnt Mountain", "REGION": "MT - Granite", "ASSOCIATION": "USA - Montana", "POINTS": "2", "BONUSPOINTS": "3"}}, {"type": "Feature", "geometry": {"type": "Point", "coordinates": [-113.6377, 46.6813]}, "properties": {"NAME": "W7M/GA-146", "TITLE": "Babcock Mountain", "REGION": "MT - Granite", "ASSOCIATION": "USA - Montana", "POINTS": "2", "BONUSPOINTS": "3"}}, {"type": "Feature", "geometry": {"type": "Point", "coordinates": [-113.3965, 46.6151]}, "properties": {"NAME": "W7M/GA-147", "TITLE": "Harvey Point", "REGION": "MT - Granite", "ASSOCIATION": "USA - Montana", "POINTS": "2", "BONUSPOINTS": "3"}}, {"type": "Feature", "geometry": {"type": "Point", "coordinates": [-113.0676, 46.6897]}, "properties": {"NAME": "W7M/GA-148", "TITLE": "Limestone Ridge", "REGION": "MT - Granite", "ASSOCIATION": "USA - Montana", "POINTS": "2", "BONUSPOINTS": "3"}}, {"type": "Feature", "geometry": {"type": "Point", "coordinates": [-113.1516, 46.4965]}, "properties": {"NAME": "W7M/GA-149", "TITLE": "Douglas Mountain", "REGION": "MT - Granite", "ASSOCIATION": "USA - Montana", "POINTS": "2", "BONUSPOINTS": "3"}}, {"type": "Feature", "geometry": {"type": "Point", "coordinates": [-112.9438, 46.9679]}, "properties": {"NAME": "W7M/GA-150", "TITLE": "Marcum Mountain", "REGION": "MT - Granite", "ASSOCIATION": "USA - Montana", "POINTS": "2", "BONUSPOINTS": "3"}}, {"type": "Feature", "geometry": {"type": "Point", "coordinates": [-112.9502, 47.0921]}, "properties": {"NAME": "W7M/GA-151", "TITLE": "6146", "REGION": "MT - Granite", "ASSOCIATION": "USA - Montana", "POINTS": "2", "BONUSPOINTS": "3"}}, {"type": "Feature", "geometry": {"type": "Point", "coordinates": [-112.6348, 46.5457]}, "properties": {"NAME": "W7M/GA-152", "TITLE": "6100", "REGION": "MT - Granite", "ASSOCIATION": "USA - Montana", "POINTS": "2", "BONUSPOINTS": "3"}}, {"type": "Feature", "geometry": {"type": "Point", "coordinates": [-112.9119, 46.9231]}, "properties": {"NAME": "W7M/GA-153", "TITLE": "Trapper Mountain", "REGION": "MT - Granite", "ASSOCIATION": "USA - Montana", "POINTS": "2", "BONUSPOINTS": "3"}}, {"type": "Feature", "geometry": {"type": "Point", "coordinates": [-113.479, 46.6815]}, "properties": {"NAME": "W7M/GA-154", "TITLE": "5881", "REGION": "MT - Granite", "ASSOCIATION": "USA - Montana", "POINTS": "2", "BONUSPOINTS": "3"}}, {"type": "Feature", "geometry": {"type": "Point", "coordinates": [-113.272, 46.9946]}, "properties": {"NAME": "W7M/GA-155", "TITLE": "Blacktail Mountain", "REGION": "MT - Granite", "ASSOCIATION": "USA - Montana", "POINTS": "2", "BONUSPOINTS": "3"}}, {"type": "Feature", "geometry": {"type": "Point", "coordinates": [-112.9317, 47.0856]}, "properties": {"NAME": "W7M/GA-156", "TITLE": "5812", "REGION": "MT - Granite", "ASSOCIATION": "USA - Montana", "POINTS": "2", "BONUSPOINTS": "3"}}, {"type": "Feature", "geometry": {"type": "Point", "coordinates": [-113.3252, 46.5674]}, "properties": {"NAME": "W7M/GA-157", "TITLE": "Nirling Hill", "REGION": "MT - Granite", "ASSOCIATION": "USA - Montana", "POINTS": "2", "BONUSPOINTS": "3"}}, {"type": "Feature", "geometry": {"type": "Point", "coordinates": [-112.8649, 46.9556]}, "properties": {"NAME": "W7M/GA-158", "TITLE": "Kershaw Mountain", "REGION": "MT - Granite", "ASSOCIATION": "USA - Montana", "POINTS": "2", "BONUSPOINTS": "3"}}, {"type": "Feature", "geometry": {"type": "Point", "coordinates": [-113.2022, 47.4722]}, "properties": {"NAME": "W7M/GA-159", "TITLE": "Cayuse Mountain", "REGION": "MT - Granite", "ASSOCIATION": "USA - Montana", "POINTS": "2", "BONUSPOINTS": "3"}}, {"type": "Feature", "geometry": {"type": "Point", "coordinates": [-113.2688, 46.652]}, "properties": {"NAME": "W7M/GA-160", "TITLE": "CAA Benchmark", "REGION": "MT - Granite", "ASSOCIATION": "USA - Montana", "POINTS": "2", "BONUSPOINTS": "3"}}, {"type": "Feature", "geometry": {"type": "Point", "coordinates": [-113.198, 47.0346]}, "properties": {"NAME": "W7M/GA-161", "TITLE": "Monture Hill", "REGION": "MT - Granite", "ASSOCIATION": "USA - Montana", "POINTS": "1", "BONUSPOINTS": "0"}}, {"type": "Feature", "geometry": {"type": "Point", "coordinates": [-113.741, 46.047]}, "properties": {"NAME": "W7M/GA-162", "TITLE": "8780", "REGION": "MT - Granite", "ASSOCIATION": "USA - Montana", "POINTS": "6", "BONUSPOINTS": "3"}}, {"type": "Feature", "geometry": {"type": "Point", "coordinates": [-112.9138, 47.1413]}, "properties": {"NAME": "W7M/GA-163", "TITLE": "Mineral Hill", "REGION": "MT - Granite", "ASSOCIATION": "USA - Montana", "POINTS": "6", "BONUSPOINTS": "3"}}, {"type": "Feature", "geometry": {"type": "Point", "coordinates": [-113.1209, 47.2603]}, "properties": {"NAME": "W7M/GA-164", "TITLE": "8205", "REGION": "MT - Granite", "ASSOCIATION": "USA - Montana", "POINTS": "6", "BONUSPOINTS": "3"}}, {"type": "Feature", "geometry": {"type": "Point", "coordinates": [-113.4622, 47.526]}, "properties": {"NAME": "W7M/GA-165", "TITLE": "7956", "REGION": "MT - Granite", "ASSOCIATION": "USA - Montana", "POINTS": "6", "BONUSPOINTS": "3"}}, {"type": "Feature", "geometry": {"type": "Point", "coordinates": [-113.0518, 47.1302]}, "properties": {"NAME": "W7M/GA-166", "TITLE": "McCabe Mountain", "REGION": "MT - Granite", "ASSOCIATION": "USA - Montana", "POINTS": "6", "BONUSPOINTS": "3"}}, {"type": "Feature", "geometry": {"type": "Point", "coordinates": [-112.7776, 46.7106]}, "properties": {"NAME": "W7M/GA-167", "TITLE": "7008", "REGION": "MT - Granite", "ASSOCIATION": "USA - Montana", "POINTS": "4", "BONUSPOINTS": "3"}}, {"type": "Feature", "geometry": {"type": "Point", "coordinates": [-113.3714, 46.4649]}, "properties": {"NAME": "W7M/GA-168", "TITLE": "6914", "REGION": "MT - Granite", "ASSOCIATION": "USA - Montana", "POINTS": "4", "BONUSPOINTS": "3"}}, {"type": "Feature", "geometry": {"type": "Point", "coordinates": [-112.7172, 46.614]}, "properties": {"NAME": "W7M/GA-169", "TITLE": "Luke Mountain", "REGION": "MT - Granite", "ASSOCIATION": "USA - Montana", "POINTS": "4", "BONUSPOINTS": "3"}}]}