{"type": "FeatureCollection", "name": "W7M/RC SUMMITS", "features": [{"type": "Feature", "geometry": {"type": "Point", "coordinates": [-114.2976, 45.8897]}, "properties": {"NAME": "W7M/RC-001", "TITLE": "Trapper Peak", "REGION": "MT - Ravalli County", "ASSOCIATION": "USA - Montana", "POINTS": "8", "BONUSPOINTS": "3"}}, {"type": "Feature", "geometry": {"type": "Point", "coordinates": [-114.397, 46.0074]}, "properties": {"NAME": "W7M/RC-002", "TITLE": "El Capitan", "REGION": "MT - Ravalli County", "ASSOCIATION": "USA - Montana", "POINTS": "8", "BONUSPOINTS": "3"}}, {"type": "Feature", "geometry": {"type": "Point", "coordinates": [-114.3367, 45.9565]}, "properties": {"NAME": "W7M/RC-003", "TITLE": "9883", "REGION": "MT - Ravalli County", "ASSOCIATION": "USA - Montana", "POINTS": "8", "BONUSPOINTS": "3"}}, {"type": "Feature", "geometry": {"type": "Point", "coordinates": [-114.3431, 45.8472]}, "properties": {"NAME": "W7M/RC-004", "TITLE": "Boulder Peak", "REGION": "MT - Ravalli County", "ASSOCIATION": "USA - Montana", "POINTS": "8", "BONUSPOINTS": "3"}}, {"type": "Feature", "geometry": {"type": "Point", "coordinates": [-114.3517, 46.0021]}, "properties": {"NAME": "W7M/RC-005", "TITLE": "West Como Peaks", "REGION": "MT - Ravalli County", "ASSOCIATION": "USA - Montana", "POINTS": "8", "BONUSPOINTS": "3"}}, {"type": "Feature", "geometry": {"type": "Point", "coordinates": [-114.2548, 46.6014]}, "properties": {"NAME": "W7M/RC-006", "TITLE": "Saint Joseph Peak", "REGION": "MT - Ravalli County", "ASSOCIATION": "USA - Montana", "POINTS": "8", "BONUSPOINTS": "3"}}, {"type": "Feature", "geometry": {"type": "Point", "coordinates": [-114.3079, 45.9417]}, "properties": {"NAME": "W7M/RC-007", "TITLE": "Sugarloaf Peak", "REGION": "MT - Ravalli County", "ASSOCIATION": "USA - Montana", "POINTS": "8", "BONUSPOINTS": "3"}}, {"type": "Feature", "geometry": {"type": "Point", "coordinates": [-114.3521, 45.9349]}, "properties": {"NAME": "W7M/RC-008", "TITLE": "9486", "REGION": "MT - Ravalli County", "ASSOCIATION": "USA - Montana", "POINTS": "8", "BONUSPOINTS": "3"}}, {"type": "Feature", "geometry": {"type": "Point", "coordinates": [-114.4088, 45.8503]}, "properties": {"NAME": "W7M/RC-009", "TITLE": "9460", "REGION": "MT - Ravalli County", "ASSOCIATION": "USA - Montana", "POINTS": "8", "BONUSPOINTS": "3"}}, {"type": "Feature", "geometry": {"type": "Point", "coordinates": [-114.39, 45.8438]}, "properties": {"NAME": "W7M/RC-010", "TITLE": "9459", "REGION": "MT - Ravalli County", "ASSOCIATION": "USA - Montana", "POINTS": "8", "BONUSPOINTS": "3"}}, {"type": "Feature", "geometry": {"type": "Point", "coordinates": [-114.342, 45.8976]}, "properties": {"NAME": "W7M/RC-011", "TITLE": "9363", "REGION": "MT - Ravalli County", "ASSOCIATION": "USA - Montana", "POINTS": "8", "BONUSPOINTS": "3"}}, {"type": "Feature", "geometry": {"type": "Point", "coordinates": [-114.461, 45.8247]}, "properties": {"NAME": "W7M/RC-012", "TITLE": "Mount Jerusalem", "REGION": "MT - Ravalli County", "ASSOCIATION": "USA - Montana", "POINTS": "8", "BONUSPOINTS": "3"}}, {"type": "Feature", "geometry": {"type": "Point", "coordinates": [-114.2444, 46.5116]}, "properties": {"NAME": "W7M/RC-013", "TITLE": "Saint Mary Peak", "REGION": "MT - Ravalli County", "ASSOCIATION": "USA - Montana", "POINTS": "8", "BONUSPOINTS": "3"}}, {"type": "Feature", "geometry": {"type": "Point", "coordinates": [-114.2982, 46.5141]}, "properties": {"NAME": "W7M/RC-014", "TITLE": "South Heavenly Twins", "REGION": "MT - Ravalli County", "ASSOCIATION": "USA - Montana", "POINTS": "8", "BONUSPOINTS": "3"}}, {"type": "Feature", "geometry": {"type": "Point", "coordinates": [-114.386, 45.9101]}, "properties": {"NAME": "W7M/RC-015", "TITLE": "9260", "REGION": "MT - Ravalli County", "ASSOCIATION": "USA - Montana", "POINTS": "8", "BONUSPOINTS": "3"}}, {"type": "Feature", "geometry": {"type": "Point", "coordinates": [-114.4131, 46.0729]}, "properties": {"NAME": "W7M/RC-016", "TITLE": "Whites Mountain", "REGION": "MT - Ravalli County", "ASSOCIATION": "USA - Montana", "POINTS": "8", "BONUSPOINTS": "3"}}, {"type": "Feature", "geometry": {"type": "Point", "coordinates": [-114.2216, 46.648]}, "properties": {"NAME": "W7M/RC-017", "TITLE": "Sweeney Peak", "REGION": "MT - Ravalli County", "ASSOCIATION": "USA - Montana", "POINTS": "8", "BONUSPOINTS": "3"}}, {"type": "Feature", "geometry": {"type": "Point", "coordinates": [-114.354, 46.245]}, "properties": {"NAME": "W7M/RC-018", "TITLE": "Canyon Peak", "REGION": "MT - Ravalli County", "ASSOCIATION": "USA - Montana", "POINTS": "8", "BONUSPOINTS": "3"}}, {"type": "Feature", "geometry": {"type": "Point", "coordinates": [-114.2856, 46.169]}, "properties": {"NAME": "W7M/RC-019", "TITLE": "Ward Mountain", "REGION": "MT - Ravalli County", "ASSOCIATION": "USA - Montana", "POINTS": "8", "BONUSPOINTS": "3"}}, {"type": "Feature", "geometry": {"type": "Point", "coordinates": [-114.3973, 46.0691]}, "properties": {"NAME": "W7M/RC-020", "TITLE": "9095", "REGION": "MT - Ravalli County", "ASSOCIATION": "USA - Montana", "POINTS": "8", "BONUSPOINTS": "3"}}, {"type": "Feature", "geometry": {"type": "Point", "coordinates": [-114.3669, 46.0772]}, "properties": {"NAME": "W7M/RC-021", "TITLE": "Koch Mountain", "REGION": "MT - Ravalli County", "ASSOCIATION": "USA - Montana", "POINTS": "8", "BONUSPOINTS": "3"}}, {"type": "Feature", "geometry": {"type": "Point", "coordinates": [-114.3513, 46.1677]}, "properties": {"NAME": "W7M/RC-022", "TITLE": "9018", "REGION": "MT - Ravalli County", "ASSOCIATION": "USA - Montana", "POINTS": "8", "BONUSPOINTS": "3"}}, {"type": "Feature", "geometry": {"type": "Point", "coordinates": [-114.3952, 45.9013]}, "properties": {"NAME": "W7M/RC-023", "TITLE": "9012", "REGION": "MT - Ravalli County", "ASSOCIATION": "USA - Montana", "POINTS": "8", "BONUSPOINTS": "3"}}, {"type": "Feature", "geometry": {"type": "Point", "coordinates": [-114.28, 46.6011]}, "properties": {"NAME": "W7M/RC-024", "TITLE": "9003", "REGION": "MT - Ravalli County", "ASSOCIATION": "USA - Montana", "POINTS": "8", "BONUSPOINTS": "3"}}, {"type": "Feature", "geometry": {"type": "Point", "coordinates": [-114.3716, 46.3307]}, "properties": {"NAME": "W7M/RC-025", "TITLE": "Castle Crag", "REGION": "MT - Ravalli County", "ASSOCIATION": "USA - Montana", "POINTS": "6", "BONUSPOINTS": "3"}}, {"type": "Feature", "geometry": {"type": "Point", "coordinates": [-114.4485, 45.8591]}, "properties": {"NAME": "W7M/RC-026", "TITLE": "8922", "REGION": "MT - Ravalli County", "ASSOCIATION": "USA - Montana", "POINTS": "6", "BONUSPOINTS": "3"}}, {"type": "Feature", "geometry": {"type": "Point", "coordinates": [-114.3207, 46.4333]}, "properties": {"NAME": "W7M/RC-027", "TITLE": "Gash Point", "REGION": "MT - Ravalli County", "ASSOCIATION": "USA - Montana", "POINTS": "6", "BONUSPOINTS": "3"}}, {"type": "Feature", "geometry": {"type": "Point", "coordinates": [-114.2589, 46.6282]}, "properties": {"NAME": "W7M/RC-028", "TITLE": "Pyramid Buttes", "REGION": "MT - Ravalli County", "ASSOCIATION": "USA - Montana", "POINTS": "6", "BONUSPOINTS": "3"}}, {"type": "Feature", "geometry": {"type": "Point", "coordinates": [-114.318, 46.5776]}, "properties": {"NAME": "W7M/RC-029", "TITLE": "Bass Peak", "REGION": "MT - Ravalli County", "ASSOCIATION": "USA - Montana", "POINTS": "6", "BONUSPOINTS": "3"}}, {"type": "Feature", "geometry": {"type": "Point", "coordinates": [-114.3473, 46.4469]}, "properties": {"NAME": "W7M/RC-030", "TITLE": "8839", "REGION": "MT - Ravalli County", "ASSOCIATION": "USA - Montana", "POINTS": "6", "BONUSPOINTS": "3"}}, {"type": "Feature", "geometry": {"type": "Point", "coordinates": [-114.1909, 45.7318]}, "properties": {"NAME": "W7M/RC-031", "TITLE": "Piquett Mountain", "REGION": "MT - Ravalli County", "ASSOCIATION": "USA - Montana", "POINTS": "6", "BONUSPOINTS": "3"}}, {"type": "Feature", "geometry": {"type": "Point", "coordinates": [-114.2849, 45.9428]}, "properties": {"NAME": "W7M/RC-032", "TITLE": "8820", "REGION": "MT - Ravalli County", "ASSOCIATION": "USA - Montana", "POINTS": "6", "BONUSPOINTS": "3"}}, {"type": "Feature", "geometry": {"type": "Point", "coordinates": [-114.3683, 46.4364]}, "properties": {"NAME": "W7M/RC-033", "TITLE": "Sky Pilot", "REGION": "MT - Ravalli County", "ASSOCIATION": "USA - Montana", "POINTS": "6", "BONUSPOINTS": "3"}}, {"type": "Feature", "geometry": {"type": "Point", "coordinates": [-114.3997, 46.5022]}, "properties": {"NAME": "W7M/RC-034", "TITLE": "Ranger Peak", "REGION": "MT - Ravalli County", "ASSOCIATION": "USA - Montana", "POINTS": "6", "BONUSPOINTS": "3"}}, {"type": "Feature", "geometry": {"type": "Point", "coordinates": [-114.3134, 46.2939]}, "properties": {"NAME": "W7M/RC-035", "TITLE": "Printz Ridge", "REGION": "MT - Ravalli County", "ASSOCIATION": "USA - Montana", "POINTS": "6", "BONUSPOINTS": "3"}}, {"type": "Feature", "geometry": {"type": "Point", "coordinates": [-114.4038, 45.9671]}, "properties": {"NAME": "W7M/RC-036", "TITLE": "8785", "REGION": "MT - Ravalli County", "ASSOCIATION": "USA - Montana", "POINTS": "6", "BONUSPOINTS": "3"}}, {"type": "Feature", "geometry": {"type": "Point", "coordinates": [-114.5115, 45.8297]}, "properties": {"NAME": "W7M/RC-037", "TITLE": "Watchtower Peak", "REGION": "MT - Ravalli County", "ASSOCIATION": "USA - Montana", "POINTS": "6", "BONUSPOINTS": "3"}}, {"type": "Feature", "geometry": {"type": "Point", "coordinates": [-114.4121, 45.8256]}, "properties": {"NAME": "W7M/RC-038", "TITLE": "8740", "REGION": "MT - Ravalli County", "ASSOCIATION": "USA - Montana", "POINTS": "6", "BONUSPOINTS": "3"}}, {"type": "Feature", "geometry": {"type": "Point", "coordinates": [-114.3003, 45.4752]}, "properties": {"NAME": "W7M/RC-039", "TITLE": "Johnson Benchmark", "REGION": "MT - Ravalli County", "ASSOCIATION": "USA - Montana", "POINTS": "6", "BONUSPOINTS": "3"}}, {"type": "Feature", "geometry": {"type": "Point", "coordinates": [-114.3708, 46.0235]}, "properties": {"NAME": "W7M/RC-040", "TITLE": "8712", "REGION": "MT - Ravalli County", "ASSOCIATION": "USA - Montana", "POINTS": "6", "BONUSPOINTS": "3"}}, {"type": "Feature", "geometry": {"type": "Point", "coordinates": [-114.3485, 46.5102]}, "properties": {"NAME": "W7M/RC-041", "TITLE": "8702", "REGION": "MT - Ravalli County", "ASSOCIATION": "USA - Montana", "POINTS": "6", "BONUSPOINTS": "3"}}, {"type": "Feature", "geometry": {"type": "Point", "coordinates": [-114.3008, 46.2333]}, "properties": {"NAME": "W7M/RC-042", "TITLE": "Downing Mountain", "REGION": "MT - Ravalli County", "ASSOCIATION": "USA - Montana", "POINTS": "6", "BONUSPOINTS": "3"}}, {"type": "Feature", "geometry": {"type": "Point", "coordinates": [-114.328, 46.2548]}, "properties": {"NAME": "W7M/RC-043", "TITLE": "Romney Ridge", "REGION": "MT - Ravalli County", "ASSOCIATION": "USA - Montana", "POINTS": "6", "BONUSPOINTS": "3"}}, {"type": "Feature", "geometry": {"type": "Point", "coordinates": [-114.5656, 45.5595]}, "properties": {"NAME": "W7M/RC-044", "TITLE": "Blue Joint", "REGION": "MT - Ravalli County", "ASSOCIATION": "USA - Montana", "POINTS": "6", "BONUSPOINTS": "3"}}, {"type": "Feature", "geometry": {"type": "Point", "coordinates": [-114.3585, 45.4726]}, "properties": {"NAME": "W7M/RC-045", "TITLE": "Blue Nose", "REGION": "MT - Ravalli County", "ASSOCIATION": "USA - Montana", "POINTS": "6", "BONUSPOINTS": "3"}}, {"type": "Feature", "geometry": {"type": "Point", "coordinates": [-114.3408, 46.3375]}, "properties": {"NAME": "W7M/RC-046", "TITLE": "8652", "REGION": "MT - Ravalli County", "ASSOCIATION": "USA - Montana", "POINTS": "6", "BONUSPOINTS": "3"}}, {"type": "Feature", "geometry": {"type": "Point", "coordinates": [-114.2948, 46.2915]}, "properties": {"NAME": "W7M/RC-047", "TITLE": "8650", "REGION": "MT - Ravalli County", "ASSOCIATION": "USA - Montana", "POINTS": "6", "BONUSPOINTS": "3"}}, {"type": "Feature", "geometry": {"type": "Point", "coordinates": [-114.4649, 46.2731]}, "properties": {"NAME": "W7M/RC-048", "TITLE": "Blodgett Mountain", "REGION": "MT - Ravalli County", "ASSOCIATION": "USA - Montana", "POINTS": "6", "BONUSPOINTS": "3"}}, {"type": "Feature", "geometry": {"type": "Point", "coordinates": [-114.513, 45.8045]}, "properties": {"NAME": "W7M/RC-049", "TITLE": "8641", "REGION": "MT - Ravalli County", "ASSOCIATION": "USA - Montana", "POINTS": "6", "BONUSPOINTS": "3"}}, {"type": "Feature", "geometry": {"type": "Point", "coordinates": [-114.445, 45.626]}, "properties": {"NAME": "W7M/RC-050", "TITLE": "Razorback Mountain", "REGION": "MT - Ravalli County", "ASSOCIATION": "USA - Montana", "POINTS": "6", "BONUSPOINTS": "3"}}, {"type": "Feature", "geometry": {"type": "Point", "coordinates": [-114.4119, 45.978]}, "properties": {"NAME": "W7M/RC-051", "TITLE": "8636", "REGION": "MT - Ravalli County", "ASSOCIATION": "USA - Montana", "POINTS": "6", "BONUSPOINTS": "3"}}, {"type": "Feature", "geometry": {"type": "Point", "coordinates": [-114.4, 46.403]}, "properties": {"NAME": "W7M/RC-052", "TITLE": "8628", "REGION": "MT - Ravalli County", "ASSOCIATION": "USA - Montana", "POINTS": "6", "BONUSPOINTS": "3"}}, {"type": "Feature", "geometry": {"type": "Point", "coordinates": [-114.3006, 46.4604]}, "properties": {"NAME": "W7M/RC-053", "TITLE": "8620", "REGION": "MT - Ravalli County", "ASSOCIATION": "USA - Montana", "POINTS": "6", "BONUSPOINTS": "3"}}, {"type": "Feature", "geometry": {"type": "Point", "coordinates": [-114.3219, 46.4611]}, "properties": {"NAME": "W7M/RC-054", "TITLE": "8618", "REGION": "MT - Ravalli County", "ASSOCIATION": "USA - Montana", "POINTS": "6", "BONUSPOINTS": "3"}}, {"type": "Feature", "geometry": {"type": "Point", "coordinates": [-114.1596, 45.7451]}, "properties": {"NAME": "W7M/RC-055", "TITLE": "Wiles Peak", "REGION": "MT - Ravalli County", "ASSOCIATION": "USA - Montana", "POINTS": "6", "BONUSPOINTS": "3"}}, {"type": "Feature", "geometry": {"type": "Point", "coordinates": [-114.3969, 45.9902]}, "properties": {"NAME": "W7M/RC-056", "TITLE": "8605", "REGION": "MT - Ravalli County", "ASSOCIATION": "USA - Montana", "POINTS": "6", "BONUSPOINTS": "3"}}, {"type": "Feature", "geometry": {"type": "Point", "coordinates": [-114.4804, 46.0304]}, "properties": {"NAME": "W7M/RC-057", "TITLE": "8601", "REGION": "MT - Ravalli County", "ASSOCIATION": "USA - Montana", "POINTS": "6", "BONUSPOINTS": "3"}}, {"type": "Feature", "geometry": {"type": "Point", "coordinates": [-114.3633, 46.2934]}, "properties": {"NAME": "W7M/RC-058", "TITLE": "8587", "REGION": "MT - Ravalli County", "ASSOCIATION": "USA - Montana", "POINTS": "6", "BONUSPOINTS": "3"}}, {"type": "Feature", "geometry": {"type": "Point", "coordinates": [-114.3241, 45.466]}, "properties": {"NAME": "W7M/RC-059", "TITLE": "8586", "REGION": "MT - Ravalli County", "ASSOCIATION": "USA - Montana", "POINTS": "6", "BONUSPOINTS": "3"}}, {"type": "Feature", "geometry": {"type": "Point", "coordinates": [-114.2483, 45.5458]}, "properties": {"NAME": "W7M/RC-060", "TITLE": "8580", "REGION": "MT - Ravalli County", "ASSOCIATION": "USA - Montana", "POINTS": "6", "BONUSPOINTS": "3"}}, {"type": "Feature", "geometry": {"type": "Point", "coordinates": [-114.3842, 46.2915]}, "properties": {"NAME": "W7M/RC-061", "TITLE": "West Printz Ridge", "REGION": "MT - Ravalli County", "ASSOCIATION": "USA - Montana", "POINTS": "6", "BONUSPOINTS": "3"}}, {"type": "Feature", "geometry": {"type": "Point", "coordinates": [-114.4272, 46.2837]}, "properties": {"NAME": "W7M/RC-062", "TITLE": "8540", "REGION": "MT - Ravalli County", "ASSOCIATION": "USA - Montana", "POINTS": "6", "BONUSPOINTS": "3"}}, {"type": "Feature", "geometry": {"type": "Point", "coordinates": [-114.2837, 46.5807]}, "properties": {"NAME": "W7M/RC-063", "TITLE": "8533", "REGION": "MT - Ravalli County", "ASSOCIATION": "USA - Montana", "POINTS": "6", "BONUSPOINTS": "3"}}, {"type": "Feature", "geometry": {"type": "Point", "coordinates": [-114.4007, 46.1667]}, "properties": {"NAME": "W7M/RC-064", "TITLE": "8528", "REGION": "MT - Ravalli County", "ASSOCIATION": "USA - Montana", "POINTS": "6", "BONUSPOINTS": "3"}}, {"type": "Feature", "geometry": {"type": "Point", "coordinates": [-114.2539, 46.5701]}, "properties": {"NAME": "W7M/RC-065", "TITLE": "8524", "REGION": "MT - Ravalli County", "ASSOCIATION": "USA - Montana", "POINTS": "6", "BONUSPOINTS": "3"}}, {"type": "Feature", "geometry": {"type": "Point", "coordinates": [-114.4766, 45.9924]}, "properties": {"NAME": "W7M/RC-066", "TITLE": "8523", "REGION": "MT - Ravalli County", "ASSOCIATION": "USA - Montana", "POINTS": "6", "BONUSPOINTS": "3"}}, {"type": "Feature", "geometry": {"type": "Point", "coordinates": [-114.3929, 46.3736]}, "properties": {"NAME": "W7M/RC-067", "TITLE": "8521", "REGION": "MT - Ravalli County", "ASSOCIATION": "USA - Montana", "POINTS": "6", "BONUSPOINTS": "3"}}, {"type": "Feature", "geometry": {"type": "Point", "coordinates": [-114.3585, 46.3725]}, "properties": {"NAME": "W7M/RC-068", "TITLE": "8469", "REGION": "MT - Ravalli County", "ASSOCIATION": "USA - Montana", "POINTS": "6", "BONUSPOINTS": "3"}}, {"type": "Feature", "geometry": {"type": "Point", "coordinates": [-114.2788, 46.2902]}, "properties": {"NAME": "W7M/RC-069", "TITLE": "Mill Point", "REGION": "MT - Ravalli County", "ASSOCIATION": "USA - Montana", "POINTS": "6", "BONUSPOINTS": "3"}}, {"type": "Feature", "geometry": {"type": "Point", "coordinates": [-113.8722, 46.2989]}, "properties": {"NAME": "W7M/RC-070", "TITLE": "Palisade Mountain", "REGION": "MT - Ravalli County", "ASSOCIATION": "USA - Montana", "POINTS": "6", "BONUSPOINTS": "3"}}, {"type": "Feature", "geometry": {"type": "Point", "coordinates": [-113.984, 45.7179]}, "properties": {"NAME": "W7M/RC-071", "TITLE": "Saddle Mountain", "REGION": "MT - Ravalli County", "ASSOCIATION": "USA - Montana", "POINTS": "6", "BONUSPOINTS": "3"}}, {"type": "Feature", "geometry": {"type": "Point", "coordinates": [-113.8771, 46.264]}, "properties": {"NAME": "W7M/RC-072", "TITLE": "Skalkaho Mountain", "REGION": "MT - Ravalli County", "ASSOCIATION": "USA - Montana", "POINTS": "6", "BONUSPOINTS": "3"}}, {"type": "Feature", "geometry": {"type": "Point", "coordinates": [-114.3297, 46.3723]}, "properties": {"NAME": "W7M/RC-073", "TITLE": "8442", "REGION": "MT - Ravalli County", "ASSOCIATION": "USA - Montana", "POINTS": "6", "BONUSPOINTS": "3"}}, {"type": "Feature", "geometry": {"type": "Point", "coordinates": [-114.4741, 46.1612]}, "properties": {"NAME": "W7M/RC-074", "TITLE": "8435", "REGION": "MT - Ravalli County", "ASSOCIATION": "USA - Montana", "POINTS": "6", "BONUSPOINTS": "3"}}, {"type": "Feature", "geometry": {"type": "Point", "coordinates": [-114.4682, 46.249]}, "properties": {"NAME": "W7M/RC-075", "TITLE": "8415", "REGION": "MT - Ravalli County", "ASSOCIATION": "USA - Montana", "POINTS": "6", "BONUSPOINTS": "3"}}, {"type": "Feature", "geometry": {"type": "Point", "coordinates": [-114.2111, 46.5686]}, "properties": {"NAME": "W7M/RC-076", "TITLE": "8411", "REGION": "MT - Ravalli County", "ASSOCIATION": "USA - Montana", "POINTS": "6", "BONUSPOINTS": "3"}}, {"type": "Feature", "geometry": {"type": "Point", "coordinates": [-114.1102, 45.8071]}, "properties": {"NAME": "W7M/RC-077", "TITLE": "Medicine Point", "REGION": "MT - Ravalli County", "ASSOCIATION": "USA - Montana", "POINTS": "6", "BONUSPOINTS": "3"}}, {"type": "Feature", "geometry": {"type": "Point", "coordinates": [-114.4863, 45.9988]}, "properties": {"NAME": "W7M/RC-078", "TITLE": "8409", "REGION": "MT - Ravalli County", "ASSOCIATION": "USA - Montana", "POINTS": "6", "BONUSPOINTS": "3"}}, {"type": "Feature", "geometry": {"type": "Point", "coordinates": [-114.3065, 46.3381]}, "properties": {"NAME": "W7M/RC-079", "TITLE": "8395", "REGION": "MT - Ravalli County", "ASSOCIATION": "USA - Montana", "POINTS": "6", "BONUSPOINTS": "3"}}, {"type": "Feature", "geometry": {"type": "Point", "coordinates": [-114.3191, 45.9203]}, "properties": {"NAME": "W7M/RC-080", "TITLE": "8392", "REGION": "MT - Ravalli County", "ASSOCIATION": "USA - Montana", "POINTS": "6", "BONUSPOINTS": "3"}}, {"type": "Feature", "geometry": {"type": "Point", "coordinates": [-114.3842, 46.447]}, "properties": {"NAME": "W7M/RC-081", "TITLE": "8390", "REGION": "MT - Ravalli County", "ASSOCIATION": "USA - Montana", "POINTS": "6", "BONUSPOINTS": "3"}}, {"type": "Feature", "geometry": {"type": "Point", "coordinates": [-114.4421, 46.1651]}, "properties": {"NAME": "W7M/RC-082", "TITLE": "8370", "REGION": "MT - Ravalli County", "ASSOCIATION": "USA - Montana", "POINTS": "6", "BONUSPOINTS": "3"}}, {"type": "Feature", "geometry": {"type": "Point", "coordinates": [-114.4234, 45.5774]}, "properties": {"NAME": "W7M/RC-083", "TITLE": "Deer Creek Point", "REGION": "MT - Ravalli County", "ASSOCIATION": "USA - Montana", "POINTS": "6", "BONUSPOINTS": "3"}}, {"type": "Feature", "geometry": {"type": "Point", "coordinates": [-114.2011, 45.7495]}, "properties": {"NAME": "W7M/RC-084", "TITLE": "Rombo Mountain", "REGION": "MT - Ravalli County", "ASSOCIATION": "USA - Montana", "POINTS": "6", "BONUSPOINTS": "3"}}, {"type": "Feature", "geometry": {"type": "Point", "coordinates": [-114.4456, 46.1837]}, "properties": {"NAME": "W7M/RC-085", "TITLE": "8317", "REGION": "MT - Ravalli County", "ASSOCIATION": "USA - Montana", "POINTS": "6", "BONUSPOINTS": "3"}}, {"type": "Feature", "geometry": {"type": "Point", "coordinates": [-114.4333, 46.3054]}, "properties": {"NAME": "W7M/RC-086", "TITLE": "8314", "REGION": "MT - Ravalli County", "ASSOCIATION": "USA - Montana", "POINTS": "6", "BONUSPOINTS": "3"}}, {"type": "Feature", "geometry": {"type": "Point", "coordinates": [-114.3847, 46.4113]}, "properties": {"NAME": "W7M/RC-087", "TITLE": "8291", "REGION": "MT - Ravalli County", "ASSOCIATION": "USA - Montana", "POINTS": "6", "BONUSPOINTS": "3"}}, {"type": "Feature", "geometry": {"type": "Point", "coordinates": [-114.1353, 45.5578]}, "properties": {"NAME": "W7M/RC-088", "TITLE": "8290", "REGION": "MT - Ravalli County", "ASSOCIATION": "USA - Montana", "POINTS": "6", "BONUSPOINTS": "3"}}, {"type": "Feature", "geometry": {"type": "Point", "coordinates": [-114.4419, 46.1164]}, "properties": {"NAME": "W7M/RC-089", "TITLE": "8273", "REGION": "MT - Ravalli County", "ASSOCIATION": "USA - Montana", "POINTS": "6", "BONUSPOINTS": "3"}}, {"type": "Feature", "geometry": {"type": "Point", "coordinates": [-114.3208, 46.6469]}, "properties": {"NAME": "W7M/RC-090", "TITLE": "8261", "REGION": "MT - Ravalli County", "ASSOCIATION": "USA - Montana", "POINTS": "6", "BONUSPOINTS": "3"}}, {"type": "Feature", "geometry": {"type": "Point", "coordinates": [-114.4505, 46.006]}, "properties": {"NAME": "W7M/RC-091", "TITLE": "8255", "REGION": "MT - Ravalli County", "ASSOCIATION": "USA - Montana", "POINTS": "6", "BONUSPOINTS": "3"}}, {"type": "Feature", "geometry": {"type": "Point", "coordinates": [-114.344, 46.5899]}, "properties": {"NAME": "W7M/RC-092", "TITLE": "8213", "REGION": "MT - Ravalli County", "ASSOCIATION": "USA - Montana", "POINTS": "6", "BONUSPOINTS": "3"}}, {"type": "Feature", "geometry": {"type": "Point", "coordinates": [-114.397, 46.2149]}, "properties": {"NAME": "W7M/RC-093", "TITLE": "8212", "REGION": "MT - Ravalli County", "ASSOCIATION": "USA - Montana", "POINTS": "6", "BONUSPOINTS": "3"}}, {"type": "Feature", "geometry": {"type": "Point", "coordinates": [-113.8882, 46.2464]}, "properties": {"NAME": "W7M/RC-094", "TITLE": "8186", "REGION": "MT - Ravalli County", "ASSOCIATION": "USA - Montana", "POINTS": "6", "BONUSPOINTS": "3"}}, {"type": "Feature", "geometry": {"type": "Point", "coordinates": [-114.3321, 46.0316]}, "properties": {"NAME": "W7M/RC-095", "TITLE": "8155", "REGION": "MT - Ravalli County", "ASSOCIATION": "USA - Montana", "POINTS": "6", "BONUSPOINTS": "3"}}, {"type": "Feature", "geometry": {"type": "Point", "coordinates": [-114.02, 45.7235]}, "properties": {"NAME": "W7M/RC-096", "TITLE": "8139", "REGION": "MT - Ravalli County", "ASSOCIATION": "USA - Montana", "POINTS": "6", "BONUSPOINTS": "3"}}, {"type": "Feature", "geometry": {"type": "Point", "coordinates": [-114.1228, 45.7757]}, "properties": {"NAME": "W7M/RC-097", "TITLE": "8130", "REGION": "MT - Ravalli County", "ASSOCIATION": "USA - Montana", "POINTS": "6", "BONUSPOINTS": "3"}}, {"type": "Feature", "geometry": {"type": "Point", "coordinates": [-114.0189, 45.7758]}, "properties": {"NAME": "W7M/RC-098", "TITLE": "8022", "REGION": "MT - Ravalli County", "ASSOCIATION": "USA - Montana", "POINTS": "6", "BONUSPOINTS": "3"}}, {"type": "Feature", "geometry": {"type": "Point", "coordinates": [-114.2239, 45.6792]}, "properties": {"NAME": "W7M/RC-099", "TITLE": "Jew Mountain", "REGION": "MT - Ravalli County", "ASSOCIATION": "USA - Montana", "POINTS": "6", "BONUSPOINTS": "3"}}, {"type": "Feature", "geometry": {"type": "Point", "coordinates": [-114.3685, 46.2135]}, "properties": {"NAME": "W7M/RC-100", "TITLE": "8018", "REGION": "MT - Ravalli County", "ASSOCIATION": "USA - Montana", "POINTS": "6", "BONUSPOINTS": "3"}}, {"type": "Feature", "geometry": {"type": "Point", "coordinates": [-114.0667, 45.7002]}, "properties": {"NAME": "W7M/RC-101", "TITLE": "Falls Point", "REGION": "MT - Ravalli County", "ASSOCIATION": "USA - Montana", "POINTS": "6", "BONUSPOINTS": "3"}}, {"type": "Feature", "geometry": {"type": "Point", "coordinates": [-114.5069, 45.6593]}, "properties": {"NAME": "W7M/RC-102", "TITLE": "Steep Hill", "REGION": "MT - Ravalli County", "ASSOCIATION": "USA - Montana", "POINTS": "6", "BONUSPOINTS": "3"}}, {"type": "Feature", "geometry": {"type": "Point", "coordinates": [-114.4255, 46.0898]}, "properties": {"NAME": "W7M/RC-103", "TITLE": "7947", "REGION": "MT - Ravalli County", "ASSOCIATION": "USA - Montana", "POINTS": "6", "BONUSPOINTS": "3"}}, {"type": "Feature", "geometry": {"type": "Point", "coordinates": [-114.3857, 45.5328]}, "properties": {"NAME": "W7M/RC-104", "TITLE": "7942", "REGION": "MT - Ravalli County", "ASSOCIATION": "USA - Montana", "POINTS": "6", "BONUSPOINTS": "3"}}, {"type": "Feature", "geometry": {"type": "Point", "coordinates": [-114.1256, 45.6361]}, "properties": {"NAME": "W7M/RC-105", "TITLE": "East Quartzite Mountain", "REGION": "MT - Ravalli County", "ASSOCIATION": "USA - Montana", "POINTS": "6", "BONUSPOINTS": "3"}}, {"type": "Feature", "geometry": {"type": "Point", "coordinates": [-114.4195, 45.5093]}, "properties": {"NAME": "W7M/RC-106", "TITLE": "7940", "REGION": "MT - Ravalli County", "ASSOCIATION": "USA - Montana", "POINTS": "6", "BONUSPOINTS": "3"}}, {"type": "Feature", "geometry": {"type": "Point", "coordinates": [-114.5091, 45.5612]}, "properties": {"NAME": "W7M/RC-107", "TITLE": "7860", "REGION": "MT - Ravalli County", "ASSOCIATION": "USA - Montana", "POINTS": "6", "BONUSPOINTS": "3"}}, {"type": "Feature", "geometry": {"type": "Point", "coordinates": [-114.5272, 46.1459]}, "properties": {"NAME": "W7M/RC-108", "TITLE": "7831", "REGION": "MT - Ravalli County", "ASSOCIATION": "USA - Montana", "POINTS": "6", "BONUSPOINTS": "3"}}, {"type": "Feature", "geometry": {"type": "Point", "coordinates": [-114.2787, 46.3214]}, "properties": {"NAME": "W7M/RC-109", "TITLE": "7830", "REGION": "MT - Ravalli County", "ASSOCIATION": "USA - Montana", "POINTS": "6", "BONUSPOINTS": "3"}}, {"type": "Feature", "geometry": {"type": "Point", "coordinates": [-114.4124, 45.7192]}, "properties": {"NAME": "W7M/RC-110", "TITLE": "Bare Cone", "REGION": "MT - Ravalli County", "ASSOCIATION": "USA - Montana", "POINTS": "6", "BONUSPOINTS": "3"}}, {"type": "Feature", "geometry": {"type": "Point", "coordinates": [-114.2577, 45.6347]}, "properties": {"NAME": "W7M/RC-111", "TITLE": "Lookout Mountain", "REGION": "MT - Ravalli County", "ASSOCIATION": "USA - Montana", "POINTS": "6", "BONUSPOINTS": "3"}}, {"type": "Feature", "geometry": {"type": "Point", "coordinates": [-114.4668, 45.7175]}, "properties": {"NAME": "W7M/RC-112", "TITLE": "Castle Rock", "REGION": "MT - Ravalli County", "ASSOCIATION": "USA - Montana", "POINTS": "6", "BONUSPOINTS": "3"}}, {"type": "Feature", "geometry": {"type": "Point", "coordinates": [-114.1859, 45.5462]}, "properties": {"NAME": "W7M/RC-113", "TITLE": "7697", "REGION": "MT - Ravalli County", "ASSOCIATION": "USA - Montana", "POINTS": "6", "BONUSPOINTS": "3"}}, {"type": "Feature", "geometry": {"type": "Point", "coordinates": [-113.696, 45.9846]}, "properties": {"NAME": "W7M/RC-114", "TITLE": "7584", "REGION": "MT - Ravalli County", "ASSOCIATION": "USA - Montana", "POINTS": "6", "BONUSPOINTS": "3"}}, {"type": "Feature", "geometry": {"type": "Point", "coordinates": [-114.1214, 45.8619]}, "properties": {"NAME": "W7M/RC-115", "TITLE": "Shook Mountain", "REGION": "MT - Ravalli County", "ASSOCIATION": "USA - Montana", "POINTS": "6", "BONUSPOINTS": "3"}}, {"type": "Feature", "geometry": {"type": "Point", "coordinates": [-114.3948, 45.5696]}, "properties": {"NAME": "W7M/RC-116", "TITLE": "7523", "REGION": "MT - Ravalli County", "ASSOCIATION": "USA - Montana", "POINTS": "6", "BONUSPOINTS": "3"}}, {"type": "Feature", "geometry": {"type": "Point", "coordinates": [-114.084, 45.7404]}, "properties": {"NAME": "W7M/RC-117", "TITLE": "7507", "REGION": "MT - Ravalli County", "ASSOCIATION": "USA - Montana", "POINTS": "6", "BONUSPOINTS": "3"}}, {"type": "Feature", "geometry": {"type": "Point", "coordinates": [-113.6646, 45.8775]}, "properties": {"NAME": "W7M/RC-118", "TITLE": "7496", "REGION": "MT - Ravalli County", "ASSOCIATION": "USA - Montana", "POINTS": "4", "BONUSPOINTS": "3"}}, {"type": "Feature", "geometry": {"type": "Point", "coordinates": [-114.3213, 46.1084]}, "properties": {"NAME": "W7M/RC-119", "TITLE": "Brandy Peak", "REGION": "MT - Ravalli County", "ASSOCIATION": "USA - Montana", "POINTS": "4", "BONUSPOINTS": "3"}}, {"type": "Feature", "geometry": {"type": "Point", "coordinates": [-114.3375, 45.5343]}, "properties": {"NAME": "W7M/RC-120", "TITLE": "Beaver Point", "REGION": "MT - Ravalli County", "ASSOCIATION": "USA - Montana", "POINTS": "4", "BONUSPOINTS": "3"}}, {"type": "Feature", "geometry": {"type": "Point", "coordinates": [-114.3722, 45.5916]}, "properties": {"NAME": "W7M/RC-121", "TITLE": "7340", "REGION": "MT - Ravalli County", "ASSOCIATION": "USA - Montana", "POINTS": "4", "BONUSPOINTS": "3"}}, {"type": "Feature", "geometry": {"type": "Point", "coordinates": [-114.3564, 45.6272]}, "properties": {"NAME": "W7M/RC-122", "TITLE": "West Mountain", "REGION": "MT - Ravalli County", "ASSOCIATION": "USA - Montana", "POINTS": "4", "BONUSPOINTS": "3"}}, {"type": "Feature", "geometry": {"type": "Point", "coordinates": [-114.0553, 46.0259]}, "properties": {"NAME": "W7M/RC-123", "TITLE": "Deer Mountain", "REGION": "MT - Ravalli County", "ASSOCIATION": "USA - Montana", "POINTS": "4", "BONUSPOINTS": "3"}}, {"type": "Feature", "geometry": {"type": "Point", "coordinates": [-113.8603, 45.8287]}, "properties": {"NAME": "W7M/RC-124", "TITLE": "Hilltop", "REGION": "MT - Ravalli County", "ASSOCIATION": "USA - Montana", "POINTS": "4", "BONUSPOINTS": "3"}}, {"type": "Feature", "geometry": {"type": "Point", "coordinates": [-113.8491, 45.8442]}, "properties": {"NAME": "W7M/RC-125", "TITLE": "7220", "REGION": "MT - Ravalli County", "ASSOCIATION": "USA - Montana", "POINTS": "4", "BONUSPOINTS": "3"}}, {"type": "Feature", "geometry": {"type": "Point", "coordinates": [-114.3382, 45.6151]}, "properties": {"NAME": "W7M/RC-126", "TITLE": "Than Wilkerson Ridge", "REGION": "MT - Ravalli County", "ASSOCIATION": "USA - Montana", "POINTS": "4", "BONUSPOINTS": "3"}}, {"type": "Feature", "geometry": {"type": "Point", "coordinates": [-114.258, 45.7315]}, "properties": {"NAME": "W7M/RC-127", "TITLE": "7094", "REGION": "MT - Ravalli County", "ASSOCIATION": "USA - Montana", "POINTS": "4", "BONUSPOINTS": "3"}}, {"type": "Feature", "geometry": {"type": "Point", "coordinates": [-114.4661, 45.772]}, "properties": {"NAME": "W7M/RC-128", "TITLE": "7083", "REGION": "MT - Ravalli County", "ASSOCIATION": "USA - Montana", "POINTS": "4", "BONUSPOINTS": "3"}}, {"type": "Feature", "geometry": {"type": "Point", "coordinates": [-114.3355, 45.577]}, "properties": {"NAME": "W7M/RC-129", "TITLE": "7022", "REGION": "MT - Ravalli County", "ASSOCIATION": "USA - Montana", "POINTS": "4", "BONUSPOINTS": "3"}}, {"type": "Feature", "geometry": {"type": "Point", "coordinates": [-114.4956, 45.6363]}, "properties": {"NAME": "W7M/RC-130", "TITLE": "6852", "REGION": "MT - Ravalli County", "ASSOCIATION": "USA - Montana", "POINTS": "4", "BONUSPOINTS": "3"}}, {"type": "Feature", "geometry": {"type": "Point", "coordinates": [-114.4136, 45.7762]}, "properties": {"NAME": "W7M/RC-131", "TITLE": "6812", "REGION": "MT - Ravalli County", "ASSOCIATION": "USA - Montana", "POINTS": "4", "BONUSPOINTS": "3"}}, {"type": "Feature", "geometry": {"type": "Point", "coordinates": [-114.0133, 45.8992]}, "properties": {"NAME": "W7M/RC-132", "TITLE": "Elk Point", "REGION": "MT - Ravalli County", "ASSOCIATION": "USA - Montana", "POINTS": "4", "BONUSPOINTS": "3"}}, {"type": "Feature", "geometry": {"type": "Point", "coordinates": [-114.3487, 45.7531]}, "properties": {"NAME": "W7M/RC-133", "TITLE": "6652", "REGION": "MT - Ravalli County", "ASSOCIATION": "USA - Montana", "POINTS": "4", "BONUSPOINTS": "3"}}, {"type": "Feature", "geometry": {"type": "Point", "coordinates": [-114.4251, 45.6999]}, "properties": {"NAME": "W7M/RC-134", "TITLE": "6557", "REGION": "MT - Ravalli County", "ASSOCIATION": "USA - Montana", "POINTS": "4", "BONUSPOINTS": "3"}}, {"type": "Feature", "geometry": {"type": "Point", "coordinates": [-114.3062, 45.7159]}, "properties": {"NAME": "W7M/RC-135", "TITLE": "6382", "REGION": "MT - Ravalli County", "ASSOCIATION": "USA - Montana", "POINTS": "2", "BONUSPOINTS": "3"}}, {"type": "Feature", "geometry": {"type": "Point", "coordinates": [-114.3159, 45.6408]}, "properties": {"NAME": "W7M/RC-136", "TITLE": "6353", "REGION": "MT - Ravalli County", "ASSOCIATION": "USA - Montana", "POINTS": "2", "BONUSPOINTS": "3"}}, {"type": "Feature", "geometry": {"type": "Point", "coordinates": [-114.3087, 45.7664]}, "properties": {"NAME": "W7M/RC-137", "TITLE": "6340", "REGION": "MT - Ravalli County", "ASSOCIATION": "USA - Montana", "POINTS": "2", "BONUSPOINTS": "3"}}, {"type": "Feature", "geometry": {"type": "Point", "coordinates": [-113.9996, 45.8601]}, "properties": {"NAME": "W7M/RC-138", "TITLE": "Sula Peak", "REGION": "MT - Ravalli County", "ASSOCIATION": "USA - Montana", "POINTS": "2", "BONUSPOINTS": "3"}}, {"type": "Feature", "geometry": {"type": "Point", "coordinates": [-114.2911, 45.7329]}, "properties": {"NAME": "W7M/RC-139", "TITLE": "6059", "REGION": "MT - Ravalli County", "ASSOCIATION": "USA - Montana", "POINTS": "2", "BONUSPOINTS": "3"}}, {"type": "Feature", "geometry": {"type": "Point", "coordinates": [-114.4423, 46.0698]}, "properties": {"NAME": "W7M/RC-140", "TITLE": "8748", "REGION": "MT - Ravalli County", "ASSOCIATION": "USA - Montana", "POINTS": "6", "BONUSPOINTS": "3"}}, {"type": "Feature", "geometry": {"type": "Point", "coordinates": [-114.4207, 46.2139]}, "properties": {"NAME": "W7M/RC-141", "TITLE": "8505", "REGION": "MT - Ravalli County", "ASSOCIATION": "USA - Montana", "POINTS": "6", "BONUSPOINTS": "3"}}, {"type": "Feature", "geometry": {"type": "Point", "coordinates": [-114.4222, 46.3238]}, "properties": {"NAME": "W7M/RC-142", "TITLE": "8260", "REGION": "MT - Ravalli County", "ASSOCIATION": "USA - Montana", "POINTS": "6", "BONUSPOINTS": "3"}}, {"type": "Feature", "geometry": {"type": "Point", "coordinates": [-113.9356, 46.0956]}, "properties": {"NAME": "W7M/RC-143", "TITLE": "Bald Top Mountain", "REGION": "MT - Ravalli County", "ASSOCIATION": "USA - Montana", "POINTS": "4", "BONUSPOINTS": "3"}}, {"type": "Feature", "geometry": {"type": "Point", "coordinates": [-113.947, 46.3958]}, "properties": {"NAME": "W7M/RC-144", "TITLE": "6436", "REGION": "MT - Ravalli County", "ASSOCIATION": "USA - Montana", "POINTS": "2", "BONUSPOINTS": "3"}}]}