{"type": "FeatureCollection", "name": "W0C/SP SUMMITS", "features": [{"type": "Feature", "geometry": {"type": "Point", "coordinates": [-106.4729, 39.0294]}, "properties": {"NAME": "W0C/SP-001", "TITLE": "La Plata Peak", "REGION": "CO-South Park", "ASSOCIATION": "USA - Colorado", "POINTS": "10", "BONUSPOINTS": "3"}}, {"type": "Feature", "geometry": {"type": "Point", "coordinates": [-106.3387, 38.9647]}, "properties": {"NAME": "W0C/SP-002", "TITLE": "Mount Oxford", "REGION": "CO-South Park", "ASSOCIATION": "USA - Colorado", "POINTS": "10", "BONUSPOINTS": "3"}}, {"type": "Feature", "geometry": {"type": "Point", "coordinates": [-106.3784, 38.9476]}, "properties": {"NAME": "W0C/SP-003", "TITLE": "Missouri Mountain", "REGION": "CO-South Park", "ASSOCIATION": "USA - Colorado", "POINTS": "10", "BONUSPOINTS": "3"}}, {"type": "Feature", "geometry": {"type": "Point", "coordinates": [-106.5976, 39.0423]}, "properties": {"NAME": "W0C/SP-004", "TITLE": "Grizzly Peak", "REGION": "CO-South Park", "ASSOCIATION": "USA - Colorado", "POINTS": "10", "BONUSPOINTS": "3"}}, {"type": "Feature", "geometry": {"type": "Point", "coordinates": [-106.4371, 38.9149]}, "properties": {"NAME": "W0C/SP-005", "TITLE": "Ice Mountain", "REGION": "CO-South Park", "ASSOCIATION": "USA - Colorado", "POINTS": "10", "BONUSPOINTS": "3"}}, {"type": "Feature", "geometry": {"type": "Point", "coordinates": [-106.3812, 38.929]}, "properties": {"NAME": "W0C/SP-006", "TITLE": "Emerald Peak", "REGION": "CO-South Park", "ASSOCIATION": "USA - Colorado", "POINTS": "10", "BONUSPOINTS": "3"}}, {"type": "Feature", "geometry": {"type": "Point", "coordinates": [-106.2833, 38.6553]}, "properties": {"NAME": "W0C/SP-007", "TITLE": "Cronin Peak", "REGION": "CO-South Park", "ASSOCIATION": "USA - Colorado", "POINTS": "10", "BONUSPOINTS": "3"}}, {"type": "Feature", "geometry": {"type": "Point", "coordinates": [-106.1467, 39.3186]}, "properties": {"NAME": "W0C/SP-008", "TITLE": "Mount Buckskin", "REGION": "CO-South Park", "ASSOCIATION": "USA - Colorado", "POINTS": "10", "BONUSPOINTS": "3"}}, {"type": "Feature", "geometry": {"type": "Point", "coordinates": [-106.4401, 39.0368]}, "properties": {"NAME": "W0C/SP-009", "TITLE": "Rinker Peak", "REGION": "CO-South Park", "ASSOCIATION": "USA - Colorado", "POINTS": "10", "BONUSPOINTS": "3"}}, {"type": "Feature", "geometry": {"type": "Point", "coordinates": [-106.3676, 38.9071]}, "properties": {"NAME": "W0C/SP-010", "TITLE": "Magdalene Mountain", "REGION": "CO-South Park", "ASSOCIATION": "USA - Colorado", "POINTS": "10", "BONUSPOINTS": "3"}}, {"type": "Feature", "geometry": {"type": "Point", "coordinates": [-106.4981, 39.0092]}, "properties": {"NAME": "W0C/SP-011", "TITLE": "Sayres Benchmark", "REGION": "CO-South Park", "ASSOCIATION": "USA - Colorado", "POINTS": "10", "BONUSPOINTS": "3"}}, {"type": "Feature", "geometry": {"type": "Point", "coordinates": [-106.3113, 38.6457]}, "properties": {"NAME": "W0C/SP-012", "TITLE": "Grizzly Mountain", "REGION": "CO-South Park", "ASSOCIATION": "USA - Colorado", "POINTS": "10", "BONUSPOINTS": "3"}}, {"type": "Feature", "geometry": {"type": "Point", "coordinates": [-106.4481, 38.9144]}, "properties": {"NAME": "W0C/SP-013", "TITLE": "West Apostle", "REGION": "CO-South Park", "ASSOCIATION": "USA - Colorado", "POINTS": "10", "BONUSPOINTS": "3"}}, {"type": "Feature", "geometry": {"type": "Point", "coordinates": [-106.2407, 38.4477]}, "properties": {"NAME": "W0C/SP-014", "TITLE": "13472", "REGION": "CO-South Park", "ASSOCIATION": "USA - Colorado", "POINTS": "8", "BONUSPOINTS": "3"}}, {"type": "Feature", "geometry": {"type": "Point", "coordinates": [-106.402, 38.9106]}, "properties": {"NAME": "W0C/SP-015", "TITLE": "Pear Peak", "REGION": "CO-South Park", "ASSOCIATION": "USA - Colorado", "POINTS": "8", "BONUSPOINTS": "3"}}, {"type": "Feature", "geometry": {"type": "Point", "coordinates": [-106.358, 38.5927]}, "properties": {"NAME": "W0C/SP-016", "TITLE": "Monumental Peak", "REGION": "CO-South Park", "ASSOCIATION": "USA - Colorado", "POINTS": "8", "BONUSPOINTS": "3"}}, {"type": "Feature", "geometry": {"type": "Point", "coordinates": [-106.0153, 39.3858]}, "properties": {"NAME": "W0C/SP-017", "TITLE": "Hoosier Ridge", "REGION": "CO-South Park", "ASSOCIATION": "USA - Colorado", "POINTS": "8", "BONUSPOINTS": "3"}}, {"type": "Feature", "geometry": {"type": "Point", "coordinates": [-106.1245, 38.992]}, "properties": {"NAME": "W0C/SP-018", "TITLE": "West Buffalo Peak", "REGION": "CO-South Park", "ASSOCIATION": "USA - Colorado", "POINTS": "8", "BONUSPOINTS": "3"}}, {"type": "Feature", "geometry": {"type": "Point", "coordinates": [-106.5541, 38.9987]}, "properties": {"NAME": "W0C/SP-019", "TITLE": "Lake Fork Peak", "REGION": "CO-South Park", "ASSOCIATION": "USA - Colorado", "POINTS": "8", "BONUSPOINTS": "3"}}, {"type": "Feature", "geometry": {"type": "Point", "coordinates": [-106.3054, 38.7378]}, "properties": {"NAME": "W0C/SP-020", "TITLE": "13317", "REGION": "CO-South Park", "ASSOCIATION": "USA - Colorado", "POINTS": "8", "BONUSPOINTS": "3"}}, {"type": "Feature", "geometry": {"type": "Point", "coordinates": [-105.8234, 39.5537]}, "properties": {"NAME": "W0C/SP-021", "TITLE": "Geneva Peak", "REGION": "CO-South Park", "ASSOCIATION": "USA - Colorado", "POINTS": "8", "BONUSPOINTS": "3"}}, {"type": "Feature", "geometry": {"type": "Point", "coordinates": [-106.4971, 38.9542]}, "properties": {"NAME": "W0C/SP-022", "TITLE": "Sheep Rock Mountain", "REGION": "CO-South Park", "ASSOCIATION": "USA - Colorado", "POINTS": "8", "BONUSPOINTS": "3"}}, {"type": "Feature", "geometry": {"type": "Point", "coordinates": [-106.394, 38.7733]}, "properties": {"NAME": "W0C/SP-023", "TITLE": "Jones Mountain", "REGION": "CO-South Park", "ASSOCIATION": "USA - Colorado", "POINTS": "8", "BONUSPOINTS": "3"}}, {"type": "Feature", "geometry": {"type": "Point", "coordinates": [-106.3481, 38.7824]}, "properties": {"NAME": "W0C/SP-024", "TITLE": "Gladstone Ridge", "REGION": "CO-South Park", "ASSOCIATION": "USA - Colorado", "POINTS": "8", "BONUSPOINTS": "3"}}, {"type": "Feature", "geometry": {"type": "Point", "coordinates": [-106.1582, 39.2844]}, "properties": {"NAME": "W0C/SP-025", "TITLE": "London Mountain", "REGION": "CO-South Park", "ASSOCIATION": "USA - Colorado", "POINTS": "8", "BONUSPOINTS": "3"}}, {"type": "Feature", "geometry": {"type": "Point", "coordinates": [-106.3415, 38.6272]}, "properties": {"NAME": "W0C/SP-026", "TITLE": "Pomeroy Mountain", "REGION": "CO-South Park", "ASSOCIATION": "USA - Colorado", "POINTS": "8", "BONUSPOINTS": "3"}}, {"type": "Feature", "geometry": {"type": "Point", "coordinates": [-106.3376, 38.6047]}, "properties": {"NAME": "W0C/SP-027", "TITLE": "13147", "REGION": "CO-South Park", "ASSOCIATION": "USA - Colorado", "POINTS": "8", "BONUSPOINTS": "3"}}, {"type": "Feature", "geometry": {"type": "Point", "coordinates": [-106.4517, 38.6981]}, "properties": {"NAME": "W0C/SP-028", "TITLE": "Fitzpatrick Peak", "REGION": "CO-South Park", "ASSOCIATION": "USA - Colorado", "POINTS": "8", "BONUSPOINTS": "3"}}, {"type": "Feature", "geometry": {"type": "Point", "coordinates": [-106.5758, 39.0128]}, "properties": {"NAME": "W0C/SP-029", "TITLE": "Middle Mountain", "REGION": "CO-South Park", "ASSOCIATION": "USA - Colorado", "POINTS": "8", "BONUSPOINTS": "3"}}, {"type": "Feature", "geometry": {"type": "Point", "coordinates": [-105.9488, 39.4062]}, "properties": {"NAME": "W0C/SP-030", "TITLE": "Boreas Mountain", "REGION": "CO-South Park", "ASSOCIATION": "USA - Colorado", "POINTS": "8", "BONUSPOINTS": "3"}}, {"type": "Feature", "geometry": {"type": "Point", "coordinates": [-106.3321, 38.7394]}, "properties": {"NAME": "W0C/SP-031", "TITLE": "13078", "REGION": "CO-South Park", "ASSOCIATION": "USA - Colorado", "POINTS": "8", "BONUSPOINTS": "3"}}, {"type": "Feature", "geometry": {"type": "Point", "coordinates": [-105.8664, 39.4944]}, "properties": {"NAME": "W0C/SP-032", "TITLE": "Whale Peak", "REGION": "CO-South Park", "ASSOCIATION": "USA - Colorado", "POINTS": "8", "BONUSPOINTS": "3"}}, {"type": "Feature", "geometry": {"type": "Point", "coordinates": [-106.3964, 38.7133]}, "properties": {"NAME": "W0C/SP-033", "TITLE": "13050", "REGION": "CO-South Park", "ASSOCIATION": "USA - Colorado", "POINTS": "8", "BONUSPOINTS": "3"}}, {"type": "Feature", "geometry": {"type": "Point", "coordinates": [-106.142, 39.2647]}, "properties": {"NAME": "W0C/SP-034", "TITLE": "Pennsylvania Mountain", "REGION": "CO-South Park", "ASSOCIATION": "USA - Colorado", "POINTS": "8", "BONUSPOINTS": "3"}}, {"type": "Feature", "geometry": {"type": "Point", "coordinates": [-106.3707, 38.8384]}, "properties": {"NAME": "W0C/SP-035", "TITLE": "12956", "REGION": "CO-South Park", "ASSOCIATION": "USA - Colorado", "POINTS": "8", "BONUSPOINTS": "3"}}, {"type": "Feature", "geometry": {"type": "Point", "coordinates": [-106.4293, 38.6513]}, "properties": {"NAME": "W0C/SP-036", "TITLE": "12954", "REGION": "CO-South Park", "ASSOCIATION": "USA - Colorado", "POINTS": "8", "BONUSPOINTS": "3"}}, {"type": "Feature", "geometry": {"type": "Point", "coordinates": [-106.5662, 38.9938]}, "properties": {"NAME": "W0C/SP-037", "TITLE": "12934", "REGION": "CO-South Park", "ASSOCIATION": "USA - Colorado", "POINTS": "8", "BONUSPOINTS": "3"}}, {"type": "Feature", "geometry": {"type": "Point", "coordinates": [-106.4377, 38.6767]}, "properties": {"NAME": "W0C/SP-038", "TITLE": "12885", "REGION": "CO-South Park", "ASSOCIATION": "USA - Colorado", "POINTS": "8", "BONUSPOINTS": "3"}}, {"type": "Feature", "geometry": {"type": "Point", "coordinates": [-106.3967, 38.6826]}, "properties": {"NAME": "W0C/SP-039", "TITLE": "12876", "REGION": "CO-South Park", "ASSOCIATION": "USA - Colorado", "POINTS": "8", "BONUSPOINTS": "3"}}, {"type": "Feature", "geometry": {"type": "Point", "coordinates": [-106.3449, 38.6659]}, "properties": {"NAME": "W0C/SP-040", "TITLE": "Chrysolite Mountain", "REGION": "CO-South Park", "ASSOCIATION": "USA - Colorado", "POINTS": "8", "BONUSPOINTS": "3"}}, {"type": "Feature", "geometry": {"type": "Point", "coordinates": [-106.112, 39.1936]}, "properties": {"NAME": "W0C/SP-041", "TITLE": "Sheep Mountain", "REGION": "CO-South Park", "ASSOCIATION": "USA - Colorado", "POINTS": "8", "BONUSPOINTS": "3"}}, {"type": "Feature", "geometry": {"type": "Point", "coordinates": [-106.4226, 38.8087]}, "properties": {"NAME": "W0C/SP-042", "TITLE": "Wander Ridge", "REGION": "CO-South Park", "ASSOCIATION": "USA - Colorado", "POINTS": "8", "BONUSPOINTS": "3"}}, {"type": "Feature", "geometry": {"type": "Point", "coordinates": [-106.3854, 38.6254]}, "properties": {"NAME": "W0C/SP-043", "TITLE": "Mount Chapman", "REGION": "CO-South Park", "ASSOCIATION": "USA - Colorado", "POINTS": "8", "BONUSPOINTS": "3"}}, {"type": "Feature", "geometry": {"type": "Point", "coordinates": [-106.394, 38.6625]}, "properties": {"NAME": "W0C/SP-044", "TITLE": "12748", "REGION": "CO-South Park", "ASSOCIATION": "USA - Colorado", "POINTS": "8", "BONUSPOINTS": "3"}}, {"type": "Feature", "geometry": {"type": "Point", "coordinates": [-106.2581, 38.4806]}, "properties": {"NAME": "W0C/SP-045", "TITLE": "Pahlone Peak", "REGION": "CO-South Park", "ASSOCIATION": "USA - Colorado", "POINTS": "8", "BONUSPOINTS": "3"}}, {"type": "Feature", "geometry": {"type": "Point", "coordinates": [-105.9267, 39.3848]}, "properties": {"NAME": "W0C/SP-046", "TITLE": "Volz Benchmark", "REGION": "CO-South Park", "ASSOCIATION": "USA - Colorado", "POINTS": "8", "BONUSPOINTS": "3"}}, {"type": "Feature", "geometry": {"type": "Point", "coordinates": [-106.2693, 38.8441]}, "properties": {"NAME": "W0C/SP-047", "TITLE": "12505", "REGION": "CO-South Park", "ASSOCIATION": "USA - Colorado", "POINTS": "8", "BONUSPOINTS": "3"}}, {"type": "Feature", "geometry": {"type": "Point", "coordinates": [-106.4011, 38.6398]}, "properties": {"NAME": "W0C/SP-048", "TITLE": "Mount Poor", "REGION": "CO-South Park", "ASSOCIATION": "USA - Colorado", "POINTS": "6", "BONUSPOINTS": "3"}}, {"type": "Feature", "geometry": {"type": "Point", "coordinates": [-105.6822, 39.415]}, "properties": {"NAME": "W0C/SP-049", "TITLE": "South Twin Cone Peak", "REGION": "CO-South Park", "ASSOCIATION": "USA - Colorado", "POINTS": "6", "BONUSPOINTS": "3"}}, {"type": "Feature", "geometry": {"type": "Point", "coordinates": [-105.6937, 39.5508]}, "properties": {"NAME": "W0C/SP-050", "TITLE": "Geneva Mountain", "REGION": "CO-South Park", "ASSOCIATION": "USA - Colorado", "POINTS": "6", "BONUSPOINTS": "3"}}, {"type": "Feature", "geometry": {"type": "Point", "coordinates": [-105.9833, 39.4033]}, "properties": {"NAME": "W0C/SP-051", "TITLE": "Madonna Dome", "REGION": "CO-South Park", "ASSOCIATION": "USA - Colorado", "POINTS": "6", "BONUSPOINTS": "3"}}, {"type": "Feature", "geometry": {"type": "Point", "coordinates": [-105.59, 39.3608]}, "properties": {"NAME": "W0C/SP-052", "TITLE": "Peak Y", "REGION": "CO-South Park", "ASSOCIATION": "USA - Colorado", "POINTS": "6", "BONUSPOINTS": "3"}}, {"type": "Feature", "geometry": {"type": "Point", "coordinates": [-106.3033, 38.4772]}, "properties": {"NAME": "W0C/SP-053", "TITLE": "Mount Peck", "REGION": "CO-South Park", "ASSOCIATION": "USA - Colorado", "POINTS": "6", "BONUSPOINTS": "3"}}, {"type": "Feature", "geometry": {"type": "Point", "coordinates": [-105.9481, 39.3286]}, "properties": {"NAME": "W0C/SP-054", "TITLE": "Little Baldy Mountain", "REGION": "CO-South Park", "ASSOCIATION": "USA - Colorado", "POINTS": "6", "BONUSPOINTS": "3"}}, {"type": "Feature", "geometry": {"type": "Point", "coordinates": [-106.1437, 39.0398]}, "properties": {"NAME": "W0C/SP-055", "TITLE": "12132", "REGION": "CO-South Park", "ASSOCIATION": "USA - Colorado", "POINTS": "6", "BONUSPOINTS": "3"}}, {"type": "Feature", "geometry": {"type": "Point", "coordinates": [-105.4397, 39.3025]}, "properties": {"NAME": "W0C/SP-056", "TITLE": "Windy Peak", "REGION": "CO-South Park", "ASSOCIATION": "USA - Colorado", "POINTS": "6", "BONUSPOINTS": "3"}}, {"type": "Feature", "geometry": {"type": "Point", "coordinates": [-106.2717, 38.7917]}, "properties": {"NAME": "W0C/SP-057", "TITLE": "Sheep Mountain South", "REGION": "CO-South Park", "ASSOCIATION": "USA - Colorado", "POINTS": "6", "BONUSPOINTS": "3"}}, {"type": "Feature", "geometry": {"type": "Point", "coordinates": [-106.3187, 38.4957]}, "properties": {"NAME": "W0C/SP-058", "TITLE": "South Monarch Ridge", "REGION": "CO-South Park", "ASSOCIATION": "USA - Colorado", "POINTS": "6", "BONUSPOINTS": "3"}}, {"type": "Feature", "geometry": {"type": "Point", "coordinates": [-106.2834, 38.8008]}, "properties": {"NAME": "W0C/SP-059", "TITLE": "North Sheep Mountain", "REGION": "CO-South Park", "ASSOCIATION": "USA - Colorado", "POINTS": "6", "BONUSPOINTS": "3"}}, {"type": "Feature", "geometry": {"type": "Point", "coordinates": [-105.4358, 39.1891]}, "properties": {"NAME": "W0C/SP-060", "TITLE": "Tarryall Peak", "REGION": "CO-South Park", "ASSOCIATION": "USA - Colorado", "POINTS": "6", "BONUSPOINTS": "3"}}, {"type": "Feature", "geometry": {"type": "Point", "coordinates": [-105.5431, 39.3694]}, "properties": {"NAME": "W0C/SP-061", "TITLE": "Payne Benchmark", "REGION": "CO-South Park", "ASSOCIATION": "USA - Colorado", "POINTS": "6", "BONUSPOINTS": "3"}}, {"type": "Feature", "geometry": {"type": "Point", "coordinates": [-105.5817, 39.285]}, "properties": {"NAME": "W0C/SP-062", "TITLE": "Topaz Mountain", "REGION": "CO-South Park", "ASSOCIATION": "USA - Colorado", "POINTS": "6", "BONUSPOINTS": "3"}}, {"type": "Feature", "geometry": {"type": "Point", "coordinates": [-106.1114, 38.9403]}, "properties": {"NAME": "W0C/SP-063", "TITLE": "Marmot Peak", "REGION": "CO-South Park", "ASSOCIATION": "USA - Colorado", "POINTS": "6", "BONUSPOINTS": "3"}}, {"type": "Feature", "geometry": {"type": "Point", "coordinates": [-106.0175, 38.4522]}, "properties": {"NAME": "W0C/SP-064", "TITLE": "Methodist Mountain", "REGION": "CO-South Park", "ASSOCIATION": "USA - Colorado", "POINTS": "6", "BONUSPOINTS": "3"}}, {"type": "Feature", "geometry": {"type": "Point", "coordinates": [-105.5815, 39.1572]}, "properties": {"NAME": "W0C/SP-065", "TITLE": "Puma Peak", "REGION": "CO-South Park", "ASSOCIATION": "USA - Colorado", "POINTS": "6", "BONUSPOINTS": "3"}}, {"type": "Feature", "geometry": {"type": "Point", "coordinates": [-105.5552, 38.8325]}, "properties": {"NAME": "W0C/SP-066", "TITLE": "Thirtynine Mile Mountain", "REGION": "CO-South Park", "ASSOCIATION": "USA - Colorado", "POINTS": "6", "BONUSPOINTS": "3"}}, {"type": "Feature", "geometry": {"type": "Point", "coordinates": [-105.4441, 39.2086]}, "properties": {"NAME": "W0C/SP-067", "TITLE": "11460", "REGION": "CO-South Park", "ASSOCIATION": "USA - Colorado", "POINTS": "6", "BONUSPOINTS": "3"}}, {"type": "Feature", "geometry": {"type": "Point", "coordinates": [-105.5115, 39.265]}, "properties": {"NAME": "W0C/SP-068", "TITLE": "11423", "REGION": "CO-South Park", "ASSOCIATION": "USA - Colorado", "POINTS": "6", "BONUSPOINTS": "3"}}, {"type": "Feature", "geometry": {"type": "Point", "coordinates": [-105.4258, 39.1764]}, "properties": {"NAME": "W0C/SP-069", "TITLE": "Lake Park Peak", "REGION": "CO-South Park", "ASSOCIATION": "USA - Colorado", "POINTS": "6", "BONUSPOINTS": "3"}}, {"type": "Feature", "geometry": {"type": "Point", "coordinates": [-105.7474, 39.4888]}, "properties": {"NAME": "W0C/SP-070", "TITLE": "11356", "REGION": "CO-South Park", "ASSOCIATION": "USA - Colorado", "POINTS": "6", "BONUSPOINTS": "3"}}, {"type": "Feature", "geometry": {"type": "Point", "coordinates": [-105.5942, 39.1153]}, "properties": {"NAME": "W0C/SP-071", "TITLE": "Schoolmarm Mountain", "REGION": "CO-South Park", "ASSOCIATION": "USA - Colorado", "POINTS": "6", "BONUSPOINTS": "3"}}, {"type": "Feature", "geometry": {"type": "Point", "coordinates": [-105.5126, 39.049]}, "properties": {"NAME": "W0C/SP-072", "TITLE": "Badger Mountain", "REGION": "CO-South Park", "ASSOCIATION": "USA - Colorado", "POINTS": "6", "BONUSPOINTS": "3"}}, {"type": "Feature", "geometry": {"type": "Point", "coordinates": [-105.4344, 39.2637]}, "properties": {"NAME": "W0C/SP-073", "TITLE": "11230", "REGION": "CO-South Park", "ASSOCIATION": "USA - Colorado", "POINTS": "6", "BONUSPOINTS": "3"}}, {"type": "Feature", "geometry": {"type": "Point", "coordinates": [-105.5832, 39.19]}, "properties": {"NAME": "W0C/SP-074", "TITLE": "Burntop", "REGION": "CO-South Park", "ASSOCIATION": "USA - Colorado", "POINTS": "6", "BONUSPOINTS": "3"}}, {"type": "Feature", "geometry": {"type": "Point", "coordinates": [-105.5366, 39.3049]}, "properties": {"NAME": "W0C/SP-075", "TITLE": "11060", "REGION": "CO-South Park", "ASSOCIATION": "USA - Colorado", "POINTS": "6", "BONUSPOINTS": "3"}}, {"type": "Feature", "geometry": {"type": "Point", "coordinates": [-106.1925, 38.6899]}, "properties": {"NAME": "W0C/SP-076", "TITLE": "11038", "REGION": "CO-South Park", "ASSOCIATION": "USA - Colorado", "POINTS": "6", "BONUSPOINTS": "3"}}, {"type": "Feature", "geometry": {"type": "Point", "coordinates": [-105.9156, 38.63]}, "properties": {"NAME": "W0C/SP-077", "TITLE": "Cameron Mountain", "REGION": "CO-South Park", "ASSOCIATION": "USA - Colorado", "POINTS": "6", "BONUSPOINTS": "3"}}, {"type": "Feature", "geometry": {"type": "Point", "coordinates": [-105.5484, 39.126]}, "properties": {"NAME": "W0C/SP-078", "TITLE": "10874", "REGION": "CO-South Park", "ASSOCIATION": "USA - Colorado", "POINTS": "6", "BONUSPOINTS": "3"}}, {"type": "Feature", "geometry": {"type": "Point", "coordinates": [-105.501, 38.9923]}, "properties": {"NAME": "W0C/SP-079", "TITLE": "Stoll Mountain", "REGION": "CO-South Park", "ASSOCIATION": "USA - Colorado", "POINTS": "6", "BONUSPOINTS": "3"}}, {"type": "Feature", "geometry": {"type": "Point", "coordinates": [-105.4665, 38.8318]}, "properties": {"NAME": "W0C/SP-080", "TITLE": "Saddle Mountain", "REGION": "CO-South Park", "ASSOCIATION": "USA - Colorado", "POINTS": "6", "BONUSPOINTS": "3"}}, {"type": "Feature", "geometry": {"type": "Point", "coordinates": [-105.9428, 38.8505]}, "properties": {"NAME": "W0C/SP-081", "TITLE": "Kaufman Ridge", "REGION": "CO-South Park", "ASSOCIATION": "USA - Colorado", "POINTS": "6", "BONUSPOINTS": "3"}}, {"type": "Feature", "geometry": {"type": "Point", "coordinates": [-105.3981, 39.532]}, "properties": {"NAME": "W0C/SP-082", "TITLE": "Black Mountain", "REGION": "CO-South Park", "ASSOCIATION": "USA - Colorado", "POINTS": "6", "BONUSPOINTS": "3"}}, {"type": "Feature", "geometry": {"type": "Point", "coordinates": [-105.8932, 38.5587]}, "properties": {"NAME": "W0C/SP-083", "TITLE": "Big Baldy Mountain", "REGION": "CO-South Park", "ASSOCIATION": "USA - Colorado", "POINTS": "6", "BONUSPOINTS": "3"}}, {"type": "Feature", "geometry": {"type": "Point", "coordinates": [-105.97, 38.6945]}, "properties": {"NAME": "W0C/SP-084", "TITLE": "Aspen Ridge", "REGION": "CO-South Park", "ASSOCIATION": "USA - Colorado", "POINTS": "6", "BONUSPOINTS": "3"}}, {"type": "Feature", "geometry": {"type": "Point", "coordinates": [-105.9653, 38.8706]}, "properties": {"NAME": "W0C/SP-085", "TITLE": "North Kaufman Ridge", "REGION": "CO-South Park", "ASSOCIATION": "USA - Colorado", "POINTS": "6", "BONUSPOINTS": "3"}}, {"type": "Feature", "geometry": {"type": "Point", "coordinates": [-105.4779, 39.3577]}, "properties": {"NAME": "W0C/SP-086", "TITLE": "Lost Platte Peak", "REGION": "CO-South Park", "ASSOCIATION": "USA - Colorado", "POINTS": "6", "BONUSPOINTS": "3"}}, {"type": "Feature", "geometry": {"type": "Point", "coordinates": [-106.0172, 39.1058]}, "properties": {"NAME": "W0C/SP-087", "TITLE": "Black Mountain", "REGION": "CO-South Park", "ASSOCIATION": "USA - Colorado", "POINTS": "6", "BONUSPOINTS": "3"}}, {"type": "Feature", "geometry": {"type": "Point", "coordinates": [-105.9002, 39.2214]}, "properties": {"NAME": "W0C/SP-088", "TITLE": "South Reinecker Ridge", "REGION": "CO-South Park", "ASSOCIATION": "USA - Colorado", "POINTS": "6", "BONUSPOINTS": "3"}}, {"type": "Feature", "geometry": {"type": "Point", "coordinates": [-106.1007, 38.9176]}, "properties": {"NAME": "W0C/SP-089", "TITLE": "10525", "REGION": "CO-South Park", "ASSOCIATION": "USA - Colorado", "POINTS": "6", "BONUSPOINTS": "3"}}, {"type": "Feature", "geometry": {"type": "Point", "coordinates": [-105.5125, 39.4594]}, "properties": {"NAME": "W0C/SP-090", "TITLE": "Crooked Top Mountain", "REGION": "CO-South Park", "ASSOCIATION": "USA - Colorado", "POINTS": "4", "BONUSPOINTS": "3"}}, {"type": "Feature", "geometry": {"type": "Point", "coordinates": [-105.5284, 39.1452]}, "properties": {"NAME": "W0C/SP-091", "TITLE": "10462", "REGION": "CO-South Park", "ASSOCIATION": "USA - Colorado", "POINTS": "4", "BONUSPOINTS": "3"}}, {"type": "Feature", "geometry": {"type": "Point", "coordinates": [-105.5293, 39.021]}, "properties": {"NAME": "W0C/SP-092", "TITLE": "The Pulverizer", "REGION": "CO-South Park", "ASSOCIATION": "USA - Colorado", "POINTS": "4", "BONUSPOINTS": "3"}}, {"type": "Feature", "geometry": {"type": "Point", "coordinates": [-105.7347, 39.2389]}, "properties": {"NAME": "W0C/SP-093", "TITLE": "Indian Benchmark", "REGION": "CO-South Park", "ASSOCIATION": "USA - Colorado", "POINTS": "4", "BONUSPOINTS": "3"}}, {"type": "Feature", "geometry": {"type": "Point", "coordinates": [-106.0324, 38.8779]}, "properties": {"NAME": "W0C/SP-094", "TITLE": "10350", "REGION": "CO-South Park", "ASSOCIATION": "USA - Colorado", "POINTS": "4", "BONUSPOINTS": "3"}}, {"type": "Feature", "geometry": {"type": "Point", "coordinates": [-105.5466, 38.7025]}, "properties": {"NAME": "W0C/SP-095", "TITLE": "Thirtyone Mile Mountain", "REGION": "CO-South Park", "ASSOCIATION": "USA - Colorado", "POINTS": "4", "BONUSPOINTS": "3"}}, {"type": "Feature", "geometry": {"type": "Point", "coordinates": [-105.5559, 38.868]}, "properties": {"NAME": "W0C/SP-096", "TITLE": "10214", "REGION": "CO-South Park", "ASSOCIATION": "USA - Colorado", "POINTS": "4", "BONUSPOINTS": "3"}}, {"type": "Feature", "geometry": {"type": "Point", "coordinates": [-105.4718, 38.7408]}, "properties": {"NAME": "W0C/SP-097", "TITLE": "Cover Mountain", "REGION": "CO-South Park", "ASSOCIATION": "USA - Colorado", "POINTS": "4", "BONUSPOINTS": "3"}}, {"type": "Feature", "geometry": {"type": "Point", "coordinates": [-105.5312, 39.4591]}, "properties": {"NAME": "W0C/SP-098", "TITLE": "10140", "REGION": "CO-South Park", "ASSOCIATION": "USA - Colorado", "POINTS": "4", "BONUSPOINTS": "3"}}, {"type": "Feature", "geometry": {"type": "Point", "coordinates": [-105.9952, 38.7788]}, "properties": {"NAME": "W0C/SP-099", "TITLE": "10123", "REGION": "CO-South Park", "ASSOCIATION": "USA - Colorado", "POINTS": "4", "BONUSPOINTS": "3"}}, {"type": "Feature", "geometry": {"type": "Point", "coordinates": [-105.8637, 39.2334]}, "properties": {"NAME": "W0C/SP-100", "TITLE": "Mexican Ridge", "REGION": "CO-South Park", "ASSOCIATION": "USA - Colorado", "POINTS": "4", "BONUSPOINTS": "3"}}, {"type": "Feature", "geometry": {"type": "Point", "coordinates": [-105.6513, 38.8319]}, "properties": {"NAME": "W0C/SP-101", "TITLE": "10090", "REGION": "CO-South Park", "ASSOCIATION": "USA - Colorado", "POINTS": "4", "BONUSPOINTS": "3"}}, {"type": "Feature", "geometry": {"type": "Point", "coordinates": [-105.6964, 39.263]}, "properties": {"NAME": "W0C/SP-102", "TITLE": "Observatory Rock", "REGION": "CO-South Park", "ASSOCIATION": "USA - Colorado", "POINTS": "4", "BONUSPOINTS": "3"}}, {"type": "Feature", "geometry": {"type": "Point", "coordinates": [-105.552, 39.0186]}, "properties": {"NAME": "W0C/SP-103", "TITLE": "10069", "REGION": "CO-South Park", "ASSOCIATION": "USA - Colorado", "POINTS": "4", "BONUSPOINTS": "3"}}, {"type": "Feature", "geometry": {"type": "Point", "coordinates": [-105.4294, 38.8049]}, "properties": {"NAME": "W0C/SP-104", "TITLE": "Castle Mountain", "REGION": "CO-South Park", "ASSOCIATION": "USA - Colorado", "POINTS": "4", "BONUSPOINTS": "3"}}, {"type": "Feature", "geometry": {"type": "Point", "coordinates": [-105.4618, 39.5229]}, "properties": {"NAME": "W0C/SP-105", "TITLE": "10055", "REGION": "CO-South Park", "ASSOCIATION": "USA - Colorado", "POINTS": "4", "BONUSPOINTS": "3"}}, {"type": "Feature", "geometry": {"type": "Point", "coordinates": [-105.6105, 38.7174]}, "properties": {"NAME": "W0C/SP-106", "TITLE": "Hammond Peak", "REGION": "CO-South Park", "ASSOCIATION": "USA - Colorado", "POINTS": "4", "BONUSPOINTS": "3"}}, {"type": "Feature", "geometry": {"type": "Point", "coordinates": [-105.637, 38.8613]}, "properties": {"NAME": "W0C/SP-107", "TITLE": "Threemile Mountain", "REGION": "CO-South Park", "ASSOCIATION": "USA - Colorado", "POINTS": "4", "BONUSPOINTS": "3"}}, {"type": "Feature", "geometry": {"type": "Point", "coordinates": [-105.4315, 38.761]}, "properties": {"NAME": "W0C/SP-108", "TITLE": "Witcher Mountain", "REGION": "CO-South Park", "ASSOCIATION": "USA - Colorado", "POINTS": "4", "BONUSPOINTS": "3"}}, {"type": "Feature", "geometry": {"type": "Point", "coordinates": [-105.9943, 38.9658]}, "properties": {"NAME": "W0C/SP-109", "TITLE": "McQuaid Butte", "REGION": "CO-South Park", "ASSOCIATION": "USA - Colorado", "POINTS": "4", "BONUSPOINTS": "3"}}, {"type": "Feature", "geometry": {"type": "Point", "coordinates": [-105.7484, 39.0779]}, "properties": {"NAME": "W0C/SP-110", "TITLE": "Maria Benchmark", "REGION": "CO-South Park", "ASSOCIATION": "USA - Colorado", "POINTS": "4", "BONUSPOINTS": "3"}}, {"type": "Feature", "geometry": {"type": "Point", "coordinates": [-105.4561, 38.935]}, "properties": {"NAME": "W0C/SP-111", "TITLE": "9889", "REGION": "CO-South Park", "ASSOCIATION": "USA - Colorado", "POINTS": "4", "BONUSPOINTS": "3"}}, {"type": "Feature", "geometry": {"type": "Point", "coordinates": [-105.9805, 38.8282]}, "properties": {"NAME": "W0C/SP-112", "TITLE": "Castle Rock", "REGION": "CO-South Park", "ASSOCIATION": "USA - Colorado", "POINTS": "4", "BONUSPOINTS": "3"}}, {"type": "Feature", "geometry": {"type": "Point", "coordinates": [-105.6642, 39.2234]}, "properties": {"NAME": "W0C/SP-113", "TITLE": "Eagle Rock", "REGION": "CO-South Park", "ASSOCIATION": "USA - Colorado", "POINTS": "4", "BONUSPOINTS": "3"}}, {"type": "Feature", "geometry": {"type": "Point", "coordinates": [-106.0991, 38.4856]}, "properties": {"NAME": "W0C/SP-114", "TITLE": "Cleveland Mountain", "REGION": "CO-South Park", "ASSOCIATION": "USA - Colorado", "POINTS": "4", "BONUSPOINTS": "3"}}, {"type": "Feature", "geometry": {"type": "Point", "coordinates": [-106.0332, 38.7811]}, "properties": {"NAME": "W0C/SP-115", "TITLE": "Bald Mountain", "REGION": "CO-South Park", "ASSOCIATION": "USA - Colorado", "POINTS": "4", "BONUSPOINTS": "3"}}, {"type": "Feature", "geometry": {"type": "Point", "coordinates": [-105.4035, 38.7856]}, "properties": {"NAME": "W0C/SP-116", "TITLE": "McIntyre Mountain", "REGION": "CO-South Park", "ASSOCIATION": "USA - Colorado", "POINTS": "4", "BONUSPOINTS": "3"}}, {"type": "Feature", "geometry": {"type": "Point", "coordinates": [-106.0965, 38.8415]}, "properties": {"NAME": "W0C/SP-117", "TITLE": "Midland Hill", "REGION": "CO-South Park", "ASSOCIATION": "USA - Colorado", "POINTS": "4", "BONUSPOINTS": "3"}}, {"type": "Feature", "geometry": {"type": "Point", "coordinates": [-105.613, 38.9868]}, "properties": {"NAME": "W0C/SP-118", "TITLE": "Spinney Mountain", "REGION": "CO-South Park", "ASSOCIATION": "USA - Colorado", "POINTS": "4", "BONUSPOINTS": "3"}}, {"type": "Feature", "geometry": {"type": "Point", "coordinates": [-105.5643, 38.7493]}, "properties": {"NAME": "W0C/SP-119", "TITLE": "9472", "REGION": "CO-South Park", "ASSOCIATION": "USA - Colorado", "POINTS": "4", "BONUSPOINTS": "3"}}, {"type": "Feature", "geometry": {"type": "Point", "coordinates": [-105.3698, 38.8271]}, "properties": {"NAME": "W0C/SP-120", "TITLE": "9420", "REGION": "CO-South Park", "ASSOCIATION": "USA - Colorado", "POINTS": "4", "BONUSPOINTS": "3"}}, {"type": "Feature", "geometry": {"type": "Point", "coordinates": [-105.6415, 39.033]}, "properties": {"NAME": "W0C/SP-121", "TITLE": "Sulphur Mountain", "REGION": "CO-South Park", "ASSOCIATION": "USA - Colorado", "POINTS": "4", "BONUSPOINTS": "3"}}, {"type": "Feature", "geometry": {"type": "Point", "coordinates": [-105.4248, 39.4632]}, "properties": {"NAME": "W0C/SP-122", "TITLE": "9260", "REGION": "CO-South Park", "ASSOCIATION": "USA - Colorado", "POINTS": "4", "BONUSPOINTS": "3"}}, {"type": "Feature", "geometry": {"type": "Point", "coordinates": [-105.3533, 38.9299]}, "properties": {"NAME": "W0C/SP-123", "TITLE": "Blue Mountain", "REGION": "CO-South Park", "ASSOCIATION": "USA - Colorado", "POINTS": "4", "BONUSPOINTS": "3"}}, {"type": "Feature", "geometry": {"type": "Point", "coordinates": [-105.3634, 39.0414]}, "properties": {"NAME": "W0C/SP-124", "TITLE": "9083", "REGION": "CO-South Park", "ASSOCIATION": "USA - Colorado", "POINTS": "4", "BONUSPOINTS": "3"}}, {"type": "Feature", "geometry": {"type": "Point", "coordinates": [-105.3591, 39.078]}, "properties": {"NAME": "W0C/SP-125", "TITLE": "9036", "REGION": "CO-South Park", "ASSOCIATION": "USA - Colorado", "POINTS": "4", "BONUSPOINTS": "3"}}, {"type": "Feature", "geometry": {"type": "Point", "coordinates": [-105.4137, 39.3835]}, "properties": {"NAME": "W0C/SP-126", "TITLE": "8722", "REGION": "CO-South Park", "ASSOCIATION": "USA - Colorado", "POINTS": "2", "BONUSPOINTS": "0"}}, {"type": "Feature", "geometry": {"type": "Point", "coordinates": [-106.4167, 38.7336]}, "properties": {"NAME": "W0C/SP-127", "TITLE": "Emma Burr Mountain", "REGION": "CO-South Park", "ASSOCIATION": "USA - Colorado", "POINTS": "10", "BONUSPOINTS": "3"}}, {"type": "Feature", "geometry": {"type": "Point", "coordinates": [-105.5702, 39.1652]}, "properties": {"NAME": "W0C/SP-128", "TITLE": "Little Puma", "REGION": "CO-South Park", "ASSOCIATION": "USA - Colorado", "POINTS": "6", "BONUSPOINTS": "3"}}, {"type": "Feature", "geometry": {"type": "Point", "coordinates": [-105.4943, 39.1712]}, "properties": {"NAME": "W0C/SP-129", "TITLE": "Bradley Peak", "REGION": "CO-South Park", "ASSOCIATION": "USA - Colorado", "POINTS": "4", "BONUSPOINTS": "3"}}, {"type": "Feature", "geometry": {"type": "Point", "coordinates": [-106.0635, 38.6466]}, "properties": {"NAME": "W0C/SP-130", "TITLE": "H-44 Benchmark", "REGION": "CO-South Park", "ASSOCIATION": "USA - Colorado", "POINTS": "2", "BONUSPOINTS": "0"}}]}