{"type": "FeatureCollection", "name": "W0C/MZ SUMMITS", "features": [{"type": "Feature", "geometry": {"type": "Point", "coordinates": [-106.6923, 40.8297]}, "properties": {"NAME": "W0C/MZ-001", "TITLE": "Big Agnes Mountain", "REGION": "CO-Mt Zirkel WA", "ASSOCIATION": "USA - Colorado", "POINTS": "6", "BONUSPOINTS": "3"}}, {"type": "Feature", "geometry": {"type": "Point", "coordinates": [-106.7151, 40.6521]}, "properties": {"NAME": "W0C/MZ-002", "TITLE": "Mount Hobbs", "REGION": "CO-Mt Zirkel WA", "ASSOCIATION": "USA - Colorado", "POINTS": "6", "BONUSPOINTS": "3"}}, {"type": "Feature", "geometry": {"type": "Point", "coordinates": [-106.7389, 40.8679]}, "properties": {"NAME": "W0C/MZ-003", "TITLE": "South Buck Mountain", "REGION": "CO-Mt Zirkel WA", "ASSOCIATION": "USA - Colorado", "POINTS": "6", "BONUSPOINTS": "3"}}, {"type": "Feature", "geometry": {"type": "Point", "coordinates": [-107.0319, 40.0249]}, "properties": {"NAME": "W0C/MZ-004", "TITLE": "11085", "REGION": "CO-Mt Zirkel WA", "ASSOCIATION": "USA - Colorado", "POINTS": "6", "BONUSPOINTS": "3"}}, {"type": "Feature", "geometry": {"type": "Point", "coordinates": [-106.7302, 40.5817]}, "properties": {"NAME": "W0C/MZ-005", "TITLE": "10970", "REGION": "CO-Mt Zirkel WA", "ASSOCIATION": "USA - Colorado", "POINTS": "6", "BONUSPOINTS": "3"}}, {"type": "Feature", "geometry": {"type": "Point", "coordinates": [-107.0575, 40.7635]}, "properties": {"NAME": "W0C/MZ-006", "TITLE": "McFaddin Peak", "REGION": "CO-Mt Zirkel WA", "ASSOCIATION": "USA - Colorado", "POINTS": "6", "BONUSPOINTS": "3"}}, {"type": "Feature", "geometry": {"type": "Point", "coordinates": [-106.8486, 40.8243]}, "properties": {"NAME": "W0C/MZ-007", "TITLE": "Farwell Mountain", "REGION": "CO-Mt Zirkel WA", "ASSOCIATION": "USA - Colorado", "POINTS": "6", "BONUSPOINTS": "3"}}, {"type": "Feature", "geometry": {"type": "Point", "coordinates": [-106.6778, 40.1857]}, "properties": {"NAME": "W0C/MZ-008", "TITLE": "10778", "REGION": "CO-Mt Zirkel WA", "ASSOCIATION": "USA - Colorado", "POINTS": "6", "BONUSPOINTS": "3"}}, {"type": "Feature", "geometry": {"type": "Point", "coordinates": [-106.657, 40.2234]}, "properties": {"NAME": "W0C/MZ-009", "TITLE": "Gore Mountain", "REGION": "CO-Mt Zirkel WA", "ASSOCIATION": "USA - Colorado", "POINTS": "6", "BONUSPOINTS": "3"}}, {"type": "Feature", "geometry": {"type": "Point", "coordinates": [-107.3784, 40.8139]}, "properties": {"NAME": "W0C/MZ-010", "TITLE": "Mount Oliphant", "REGION": "CO-Mt Zirkel WA", "ASSOCIATION": "USA - Colorado", "POINTS": "6", "BONUSPOINTS": "3"}}, {"type": "Feature", "geometry": {"type": "Point", "coordinates": [-107.2493, 40.7773]}, "properties": {"NAME": "W0C/MZ-011", "TITLE": "West Bears Ears Peaks", "REGION": "CO-Mt Zirkel WA", "ASSOCIATION": "USA - Colorado", "POINTS": "6", "BONUSPOINTS": "3"}}, {"type": "Feature", "geometry": {"type": "Point", "coordinates": [-107.0778, 40.7674]}, "properties": {"NAME": "W0C/MZ-012", "TITLE": "Meaden Peak", "REGION": "CO-Mt Zirkel WA", "ASSOCIATION": "USA - Colorado", "POINTS": "6", "BONUSPOINTS": "3"}}, {"type": "Feature", "geometry": {"type": "Point", "coordinates": [-106.6993, 40.3545]}, "properties": {"NAME": "W0C/MZ-013", "TITLE": "Walton Peak", "REGION": "CO-Mt Zirkel WA", "ASSOCIATION": "USA - Colorado", "POINTS": "6", "BONUSPOINTS": "3"}}, {"type": "Feature", "geometry": {"type": "Point", "coordinates": [-106.7925, 40.1314]}, "properties": {"NAME": "W0C/MZ-014", "TITLE": "Green Ridge", "REGION": "CO-Mt Zirkel WA", "ASSOCIATION": "USA - Colorado", "POINTS": "6", "BONUSPOINTS": "3"}}, {"type": "Feature", "geometry": {"type": "Point", "coordinates": [-106.8209, 40.8719]}, "properties": {"NAME": "W0C/MZ-015", "TITLE": "Dome Peak", "REGION": "CO-Mt Zirkel WA", "ASSOCIATION": "USA - Colorado", "POINTS": "6", "BONUSPOINTS": "3"}}, {"type": "Feature", "geometry": {"type": "Point", "coordinates": [-106.6535, 39.987]}, "properties": {"NAME": "W0C/MZ-016", "TITLE": "Black Mountain", "REGION": "CO-Mt Zirkel WA", "ASSOCIATION": "USA - Colorado", "POINTS": "4", "BONUSPOINTS": "3"}}, {"type": "Feature", "geometry": {"type": "Point", "coordinates": [-107.075, 40.803]}, "properties": {"NAME": "W0C/MZ-017", "TITLE": "Diamond Peak", "REGION": "CO-Mt Zirkel WA", "ASSOCIATION": "USA - Colorado", "POINTS": "4", "BONUSPOINTS": "3"}}, {"type": "Feature", "geometry": {"type": "Point", "coordinates": [-106.6915, 40.2859]}, "properties": {"NAME": "W0C/MZ-018", "TITLE": "10387", "REGION": "CO-Mt Zirkel WA", "ASSOCIATION": "USA - Colorado", "POINTS": "4", "BONUSPOINTS": "3"}}, {"type": "Feature", "geometry": {"type": "Point", "coordinates": [-107.3023, 40.7735]}, "properties": {"NAME": "W0C/MZ-019", "TITLE": "Cougar Mountain", "REGION": "CO-Mt Zirkel WA", "ASSOCIATION": "USA - Colorado", "POINTS": "4", "BONUSPOINTS": "3"}}, {"type": "Feature", "geometry": {"type": "Point", "coordinates": [-107.0382, 40.8728]}, "properties": {"NAME": "W0C/MZ-020", "TITLE": "Nipple Peak", "REGION": "CO-Mt Zirkel WA", "ASSOCIATION": "USA - Colorado", "POINTS": "4", "BONUSPOINTS": "3"}}, {"type": "Feature", "geometry": {"type": "Point", "coordinates": [-106.7118, 40.3265]}, "properties": {"NAME": "W0C/MZ-021", "TITLE": "10296", "REGION": "CO-Mt Zirkel WA", "ASSOCIATION": "USA - Colorado", "POINTS": "4", "BONUSPOINTS": "3"}}, {"type": "Feature", "geometry": {"type": "Point", "coordinates": [-107.1921, 40.8797]}, "properties": {"NAME": "W0C/MZ-022", "TITLE": "Columbus Mountain", "REGION": "CO-Mt Zirkel WA", "ASSOCIATION": "USA - Colorado", "POINTS": "4", "BONUSPOINTS": "3"}}, {"type": "Feature", "geometry": {"type": "Point", "coordinates": [-107.051, 40.8377]}, "properties": {"NAME": "W0C/MZ-023", "TITLE": "10252", "REGION": "CO-Mt Zirkel WA", "ASSOCIATION": "USA - Colorado", "POINTS": "4", "BONUSPOINTS": "3"}}, {"type": "Feature", "geometry": {"type": "Point", "coordinates": [-106.8509, 39.9901]}, "properties": {"NAME": "W0C/MZ-024", "TITLE": "King Mountain", "REGION": "CO-Mt Zirkel WA", "ASSOCIATION": "USA - Colorado", "POINTS": "4", "BONUSPOINTS": "3"}}, {"type": "Feature", "geometry": {"type": "Point", "coordinates": [-107.186, 40.7819]}, "properties": {"NAME": "W0C/MZ-025", "TITLE": "Sugar Loaf Mountain", "REGION": "CO-Mt Zirkel WA", "ASSOCIATION": "USA - Colorado", "POINTS": "4", "BONUSPOINTS": "3"}}, {"type": "Feature", "geometry": {"type": "Point", "coordinates": [-107.1528, 40.7997]}, "properties": {"NAME": "W0C/MZ-026", "TITLE": "Saddle Mountain", "REGION": "CO-Mt Zirkel WA", "ASSOCIATION": "USA - Colorado", "POINTS": "4", "BONUSPOINTS": "3"}}, {"type": "Feature", "geometry": {"type": "Point", "coordinates": [-107.0274, 40.8253]}, "properties": {"NAME": "W0C/MZ-027", "TITLE": "9995", "REGION": "CO-Mt Zirkel WA", "ASSOCIATION": "USA - Colorado", "POINTS": "4", "BONUSPOINTS": "3"}}, {"type": "Feature", "geometry": {"type": "Point", "coordinates": [-107.0725, 40.9154]}, "properties": {"NAME": "W0C/MZ-028", "TITLE": "Shield Mountain", "REGION": "CO-Mt Zirkel WA", "ASSOCIATION": "USA - Colorado", "POINTS": "4", "BONUSPOINTS": "3"}}, {"type": "Feature", "geometry": {"type": "Point", "coordinates": [-107.2491, 40.8768]}, "properties": {"NAME": "W0C/MZ-029", "TITLE": "Brush Mountain", "REGION": "CO-Mt Zirkel WA", "ASSOCIATION": "USA - Colorado", "POINTS": "4", "BONUSPOINTS": "3"}}, {"type": "Feature", "geometry": {"type": "Point", "coordinates": [-107.1018, 40.6507]}, "properties": {"NAME": "W0C/MZ-030", "TITLE": "Pilot Knob", "REGION": "CO-Mt Zirkel WA", "ASSOCIATION": "USA - Colorado", "POINTS": "4", "BONUSPOINTS": "3"}}, {"type": "Feature", "geometry": {"type": "Point", "coordinates": [-106.9886, 40.8575]}, "properties": {"NAME": "W0C/MZ-031", "TITLE": "Iron Mountain", "REGION": "CO-Mt Zirkel WA", "ASSOCIATION": "USA - Colorado", "POINTS": "4", "BONUSPOINTS": "3"}}, {"type": "Feature", "geometry": {"type": "Point", "coordinates": [-106.7198, 40.0272]}, "properties": {"NAME": "W0C/MZ-032", "TITLE": "9705", "REGION": "CO-Mt Zirkel WA", "ASSOCIATION": "USA - Colorado", "POINTS": "4", "BONUSPOINTS": "3"}}, {"type": "Feature", "geometry": {"type": "Point", "coordinates": [-107.0477, 40.9026]}, "properties": {"NAME": "W0C/MZ-033", "TITLE": "9678", "REGION": "CO-Mt Zirkel WA", "ASSOCIATION": "USA - Colorado", "POINTS": "4", "BONUSPOINTS": "3"}}, {"type": "Feature", "geometry": {"type": "Point", "coordinates": [-108.8782, 40.9504]}, "properties": {"NAME": "W0C/MZ-034", "TITLE": "Diamond Peak", "REGION": "CO-Mt Zirkel WA", "ASSOCIATION": "USA - Colorado", "POINTS": "4", "BONUSPOINTS": "3"}}, {"type": "Feature", "geometry": {"type": "Point", "coordinates": [-107.0952, 40.6898]}, "properties": {"NAME": "W0C/MZ-035", "TITLE": "Anthracite Ridge", "REGION": "CO-Mt Zirkel WA", "ASSOCIATION": "USA - Colorado", "POINTS": "4", "BONUSPOINTS": "3"}}, {"type": "Feature", "geometry": {"type": "Point", "coordinates": [-106.9626, 40.8323]}, "properties": {"NAME": "W0C/MZ-036", "TITLE": "9588", "REGION": "CO-Mt Zirkel WA", "ASSOCIATION": "USA - Colorado", "POINTS": "4", "BONUSPOINTS": "3"}}, {"type": "Feature", "geometry": {"type": "Point", "coordinates": [-108.9458, 40.9772]}, "properties": {"NAME": "W0C/MZ-037", "TITLE": "Middle Mountain", "REGION": "CO-Mt Zirkel WA", "ASSOCIATION": "USA - Colorado", "POINTS": "4", "BONUSPOINTS": "3"}}, {"type": "Feature", "geometry": {"type": "Point", "coordinates": [-107.0023, 40.8816]}, "properties": {"NAME": "W0C/MZ-038", "TITLE": "City Mountain", "REGION": "CO-Mt Zirkel WA", "ASSOCIATION": "USA - Colorado", "POINTS": "4", "BONUSPOINTS": "3"}}, {"type": "Feature", "geometry": {"type": "Point", "coordinates": [-106.7925, 40.814]}, "properties": {"NAME": "W0C/MZ-039", "TITLE": "9529", "REGION": "CO-Mt Zirkel WA", "ASSOCIATION": "USA - Colorado", "POINTS": "4", "BONUSPOINTS": "3"}}, {"type": "Feature", "geometry": {"type": "Point", "coordinates": [-107.4565, 40.918]}, "properties": {"NAME": "W0C/MZ-040", "TITLE": "Bakers Peak", "REGION": "CO-Mt Zirkel WA", "ASSOCIATION": "USA - Colorado", "POINTS": "4", "BONUSPOINTS": "3"}}, {"type": "Feature", "geometry": {"type": "Point", "coordinates": [-106.8409, 40.6362]}, "properties": {"NAME": "W0C/MZ-041", "TITLE": "9354", "REGION": "CO-Mt Zirkel WA", "ASSOCIATION": "USA - Colorado", "POINTS": "4", "BONUSPOINTS": "3"}}, {"type": "Feature", "geometry": {"type": "Point", "coordinates": [-107.1608, 40.6965]}, "properties": {"NAME": "W0C/MZ-042", "TITLE": "Quaker Mountain", "REGION": "CO-Mt Zirkel WA", "ASSOCIATION": "USA - Colorado", "POINTS": "4", "BONUSPOINTS": "3"}}, {"type": "Feature", "geometry": {"type": "Point", "coordinates": [-107.1145, 40.9479]}, "properties": {"NAME": "W0C/MZ-043", "TITLE": "Piney Mountain", "REGION": "CO-Mt Zirkel WA", "ASSOCIATION": "USA - Colorado", "POINTS": "4", "BONUSPOINTS": "3"}}, {"type": "Feature", "geometry": {"type": "Point", "coordinates": [-106.9054, 40.8112]}, "properties": {"NAME": "W0C/MZ-044", "TITLE": "Grouse Mountain", "REGION": "CO-Mt Zirkel WA", "ASSOCIATION": "USA - Colorado", "POINTS": "4", "BONUSPOINTS": "3"}}, {"type": "Feature", "geometry": {"type": "Point", "coordinates": [-107.3217, 40.9244]}, "properties": {"NAME": "W0C/MZ-045", "TITLE": "Long Mountain", "REGION": "CO-Mt Zirkel WA", "ASSOCIATION": "USA - Colorado", "POINTS": "4", "BONUSPOINTS": "3"}}, {"type": "Feature", "geometry": {"type": "Point", "coordinates": [-107.155, 40.8915]}, "properties": {"NAME": "W0C/MZ-046", "TITLE": "Circle Ridge", "REGION": "CO-Mt Zirkel WA", "ASSOCIATION": "USA - Colorado", "POINTS": "4", "BONUSPOINTS": "3"}}, {"type": "Feature", "geometry": {"type": "Point", "coordinates": [-106.9855, 40.841]}, "properties": {"NAME": "W0C/MZ-047", "TITLE": "9218", "REGION": "CO-Mt Zirkel WA", "ASSOCIATION": "USA - Colorado", "POINTS": "4", "BONUSPOINTS": "3"}}, {"type": "Feature", "geometry": {"type": "Point", "coordinates": [-107.0161, 40.7163]}, "properties": {"NAME": "W0C/MZ-048", "TITLE": "Picket Mountain", "REGION": "CO-Mt Zirkel WA", "ASSOCIATION": "USA - Colorado", "POINTS": "4", "BONUSPOINTS": "3"}}, {"type": "Feature", "geometry": {"type": "Point", "coordinates": [-107.111, 40.5891]}, "properties": {"NAME": "W0C/MZ-049", "TITLE": "Wolf Mountain", "REGION": "CO-Mt Zirkel WA", "ASSOCIATION": "USA - Colorado", "POINTS": "4", "BONUSPOINTS": "3"}}, {"type": "Feature", "geometry": {"type": "Point", "coordinates": [-106.9965, 40.7392]}, "properties": {"NAME": "W0C/MZ-050", "TITLE": "McAlpin Mountain", "REGION": "CO-Mt Zirkel WA", "ASSOCIATION": "USA - Colorado", "POINTS": "4", "BONUSPOINTS": "3"}}, {"type": "Feature", "geometry": {"type": "Point", "coordinates": [-106.8378, 40.6215]}, "properties": {"NAME": "W0C/MZ-051", "TITLE": "9180", "REGION": "CO-Mt Zirkel WA", "ASSOCIATION": "USA - Colorado", "POINTS": "4", "BONUSPOINTS": "3"}}, {"type": "Feature", "geometry": {"type": "Point", "coordinates": [-107.0509, 40.2414]}, "properties": {"NAME": "W0C/MZ-052", "TITLE": "9140", "REGION": "CO-Mt Zirkel WA", "ASSOCIATION": "USA - Colorado", "POINTS": "4", "BONUSPOINTS": "3"}}, {"type": "Feature", "geometry": {"type": "Point", "coordinates": [-106.7835, 40.7456]}, "properties": {"NAME": "W0C/MZ-053", "TITLE": "9100", "REGION": "CO-Mt Zirkel WA", "ASSOCIATION": "USA - Colorado", "POINTS": "4", "BONUSPOINTS": "3"}}, {"type": "Feature", "geometry": {"type": "Point", "coordinates": [-107.0893, 40.9736]}, "properties": {"NAME": "W0C/MZ-054", "TITLE": "Three Forks Mountain", "REGION": "CO-Mt Zirkel WA", "ASSOCIATION": "USA - Colorado", "POINTS": "4", "BONUSPOINTS": "3"}}, {"type": "Feature", "geometry": {"type": "Point", "coordinates": [-106.7945, 40.7836]}, "properties": {"NAME": "W0C/MZ-055", "TITLE": "9070", "REGION": "CO-Mt Zirkel WA", "ASSOCIATION": "USA - Colorado", "POINTS": "4", "BONUSPOINTS": "3"}}, {"type": "Feature", "geometry": {"type": "Point", "coordinates": [-109.0261, 40.9873]}, "properties": {"NAME": "W0C/MZ-056", "TITLE": "Kleins Hill", "REGION": "CO-Mt Zirkel WA", "ASSOCIATION": "USA - Colorado", "POINTS": "4", "BONUSPOINTS": "3"}}, {"type": "Feature", "geometry": {"type": "Point", "coordinates": [-106.8153, 40.2575]}, "properties": {"NAME": "W0C/MZ-057", "TITLE": "Woodchuck Hill", "REGION": "CO-Mt Zirkel WA", "ASSOCIATION": "USA - Colorado", "POINTS": "2", "BONUSPOINTS": "0"}}, {"type": "Feature", "geometry": {"type": "Point", "coordinates": [-106.9147, 40.2999]}, "properties": {"NAME": "W0C/MZ-058", "TITLE": "Thorpe Mountain", "REGION": "CO-Mt Zirkel WA", "ASSOCIATION": "USA - Colorado", "POINTS": "2", "BONUSPOINTS": "0"}}, {"type": "Feature", "geometry": {"type": "Point", "coordinates": [-106.9995, 40.2348]}, "properties": {"NAME": "W0C/MZ-059", "TITLE": "8940", "REGION": "CO-Mt Zirkel WA", "ASSOCIATION": "USA - Colorado", "POINTS": "2", "BONUSPOINTS": "0"}}, {"type": "Feature", "geometry": {"type": "Point", "coordinates": [-106.8667, 40.694]}, "properties": {"NAME": "W0C/MZ-060", "TITLE": "8934", "REGION": "CO-Mt Zirkel WA", "ASSOCIATION": "USA - Colorado", "POINTS": "2", "BONUSPOINTS": "0"}}, {"type": "Feature", "geometry": {"type": "Point", "coordinates": [-109.0392, 40.6456]}, "properties": {"NAME": "W0C/MZ-061", "TITLE": "Wild Mountain", "REGION": "CO-Mt Zirkel WA", "ASSOCIATION": "USA - Colorado", "POINTS": "2", "BONUSPOINTS": "0"}}, {"type": "Feature", "geometry": {"type": "Point", "coordinates": [-107.009, 40.6871]}, "properties": {"NAME": "W0C/MZ-062", "TITLE": "Buck Mountain", "REGION": "CO-Mt Zirkel WA", "ASSOCIATION": "USA - Colorado", "POINTS": "2", "BONUSPOINTS": "0"}}, {"type": "Feature", "geometry": {"type": "Point", "coordinates": [-106.9007, 40.7794]}, "properties": {"NAME": "W0C/MZ-063", "TITLE": "Lester Mountain", "REGION": "CO-Mt Zirkel WA", "ASSOCIATION": "USA - Colorado", "POINTS": "2", "BONUSPOINTS": "0"}}, {"type": "Feature", "geometry": {"type": "Point", "coordinates": [-107.2047, 40.8996]}, "properties": {"NAME": "W0C/MZ-064", "TITLE": "East Gibraltar Peak", "REGION": "CO-Mt Zirkel WA", "ASSOCIATION": "USA - Colorado", "POINTS": "2", "BONUSPOINTS": "0"}}, {"type": "Feature", "geometry": {"type": "Point", "coordinates": [-106.9669, 40.5693]}, "properties": {"NAME": "W0C/MZ-065", "TITLE": "Elk Mountain", "REGION": "CO-Mt Zirkel WA", "ASSOCIATION": "USA - Colorado", "POINTS": "2", "BONUSPOINTS": "0"}}, {"type": "Feature", "geometry": {"type": "Point", "coordinates": [-108.7659, 40.4258]}, "properties": {"NAME": "W0C/MZ-066", "TITLE": "Tanks Peak", "REGION": "CO-Mt Zirkel WA", "ASSOCIATION": "USA - Colorado", "POINTS": "2", "BONUSPOINTS": "0"}}, {"type": "Feature", "geometry": {"type": "Point", "coordinates": [-106.9463, 40.7545]}, "properties": {"NAME": "W0C/MZ-067", "TITLE": "8710", "REGION": "CO-Mt Zirkel WA", "ASSOCIATION": "USA - Colorado", "POINTS": "2", "BONUSPOINTS": "0"}}, {"type": "Feature", "geometry": {"type": "Point", "coordinates": [-106.841, 40.2989]}, "properties": {"NAME": "W0C/MZ-068", "TITLE": "Blacktail Mountain", "REGION": "CO-Mt Zirkel WA", "ASSOCIATION": "USA - Colorado", "POINTS": "2", "BONUSPOINTS": "0"}}, {"type": "Feature", "geometry": {"type": "Point", "coordinates": [-109.0453, 40.7552]}, "properties": {"NAME": "W0C/MZ-069", "TITLE": "8673", "REGION": "CO-Mt Zirkel WA", "ASSOCIATION": "USA - Colorado", "POINTS": "2", "BONUSPOINTS": "0"}}, {"type": "Feature", "geometry": {"type": "Point", "coordinates": [-108.7569, 40.8322]}, "properties": {"NAME": "W0C/MZ-070", "TITLE": "South Limestone Ridge", "REGION": "CO-Mt Zirkel WA", "ASSOCIATION": "USA - Colorado", "POINTS": "2", "BONUSPOINTS": "0"}}, {"type": "Feature", "geometry": {"type": "Point", "coordinates": [-109.0195, 40.5952]}, "properties": {"NAME": "W0C/MZ-071", "TITLE": "Hackens Benchmark", "REGION": "CO-Mt Zirkel WA", "ASSOCIATION": "USA - Colorado", "POINTS": "2", "BONUSPOINTS": "0"}}, {"type": "Feature", "geometry": {"type": "Point", "coordinates": [-107.0598, 40.5612]}, "properties": {"NAME": "W0C/MZ-072", "TITLE": "Slippery Sides Mountain", "REGION": "CO-Mt Zirkel WA", "ASSOCIATION": "USA - Colorado", "POINTS": "2", "BONUSPOINTS": "0"}}, {"type": "Feature", "geometry": {"type": "Point", "coordinates": [-108.9422, 40.7096]}, "properties": {"NAME": "W0C/MZ-073", "TITLE": "Diamond Mountain", "REGION": "CO-Mt Zirkel WA", "ASSOCIATION": "USA - Colorado", "POINTS": "2", "BONUSPOINTS": "0"}}, {"type": "Feature", "geometry": {"type": "Point", "coordinates": [-108.9187, 40.6076]}, "properties": {"NAME": "W0C/MZ-074", "TITLE": "Limestone Ridge", "REGION": "CO-Mt Zirkel WA", "ASSOCIATION": "USA - Colorado", "POINTS": "2", "BONUSPOINTS": "0"}}, {"type": "Feature", "geometry": {"type": "Point", "coordinates": [-108.9251, 40.4408]}, "properties": {"NAME": "W0C/MZ-075", "TITLE": "Buena Vista Peak", "REGION": "CO-Mt Zirkel WA", "ASSOCIATION": "USA - Colorado", "POINTS": "2", "BONUSPOINTS": "0"}}, {"type": "Feature", "geometry": {"type": "Point", "coordinates": [-107.2301, 40.9776]}, "properties": {"NAME": "W0C/MZ-076", "TITLE": "Squaw Mountain", "REGION": "CO-Mt Zirkel WA", "ASSOCIATION": "USA - Colorado", "POINTS": "2", "BONUSPOINTS": "0"}}, {"type": "Feature", "geometry": {"type": "Point", "coordinates": [-108.9533, 40.7322]}, "properties": {"NAME": "W0C/MZ-077", "TITLE": "Diamond Benchmark", "REGION": "CO-Mt Zirkel WA", "ASSOCIATION": "USA - Colorado", "POINTS": "2", "BONUSPOINTS": "0"}}, {"type": "Feature", "geometry": {"type": "Point", "coordinates": [-107.3549, 40.9461]}, "properties": {"NAME": "W0C/MZ-078", "TITLE": "Bible Back Mountain", "REGION": "CO-Mt Zirkel WA", "ASSOCIATION": "USA - Colorado", "POINTS": "2", "BONUSPOINTS": "0"}}, {"type": "Feature", "geometry": {"type": "Point", "coordinates": [-107.2077, 40.969]}, "properties": {"NAME": "W0C/MZ-079", "TITLE": "Twin Buttes", "REGION": "CO-Mt Zirkel WA", "ASSOCIATION": "USA - Colorado", "POINTS": "2", "BONUSPOINTS": "0"}}, {"type": "Feature", "geometry": {"type": "Point", "coordinates": [-108.8635, 40.3171]}, "properties": {"NAME": "W0C/MZ-080", "TITLE": "Moose Head Mountain", "REGION": "CO-Mt Zirkel WA", "ASSOCIATION": "USA - Colorado", "POINTS": "2", "BONUSPOINTS": "0"}}, {"type": "Feature", "geometry": {"type": "Point", "coordinates": [-107.2483, 40.9266]}, "properties": {"NAME": "W0C/MZ-081", "TITLE": "West Gibraltar Peak", "REGION": "CO-Mt Zirkel WA", "ASSOCIATION": "USA - Colorado", "POINTS": "2", "BONUSPOINTS": "0"}}, {"type": "Feature", "geometry": {"type": "Point", "coordinates": [-106.8397, 40.5464]}, "properties": {"NAME": "W0C/MZ-082", "TITLE": "Copper Ridge", "REGION": "CO-Mt Zirkel WA", "ASSOCIATION": "USA - Colorado", "POINTS": "2", "BONUSPOINTS": "0"}}, {"type": "Feature", "geometry": {"type": "Point", "coordinates": [-107.3405, 40.9463]}, "properties": {"NAME": "W0C/MZ-083", "TITLE": "Camel Back Mountain", "REGION": "CO-Mt Zirkel WA", "ASSOCIATION": "USA - Colorado", "POINTS": "2", "BONUSPOINTS": "0"}}, {"type": "Feature", "geometry": {"type": "Point", "coordinates": [-107.4741, 40.2984]}, "properties": {"NAME": "W0C/MZ-084", "TITLE": "8420", "REGION": "CO-Mt Zirkel WA", "ASSOCIATION": "USA - Colorado", "POINTS": "2", "BONUSPOINTS": "0"}}, {"type": "Feature", "geometry": {"type": "Point", "coordinates": [-107.1783, 40.9588]}, "properties": {"NAME": "W0C/MZ-085", "TITLE": "Beaver Mountain", "REGION": "CO-Mt Zirkel WA", "ASSOCIATION": "USA - Colorado", "POINTS": "2", "BONUSPOINTS": "0"}}, {"type": "Feature", "geometry": {"type": "Point", "coordinates": [-107.3689, 40.3539]}, "properties": {"NAME": "W0C/MZ-086", "TITLE": "Williams Benchmark", "REGION": "CO-Mt Zirkel WA", "ASSOCIATION": "USA - Colorado", "POINTS": "2", "BONUSPOINTS": "0"}}, {"type": "Feature", "geometry": {"type": "Point", "coordinates": [-107.1549, 40.3494]}, "properties": {"NAME": "W0C/MZ-087", "TITLE": "8322", "REGION": "CO-Mt Zirkel WA", "ASSOCIATION": "USA - Colorado", "POINTS": "2", "BONUSPOINTS": "0"}}, {"type": "Feature", "geometry": {"type": "Point", "coordinates": [-109.0393, 40.7788]}, "properties": {"NAME": "W0C/MZ-088", "TITLE": "8272", "REGION": "CO-Mt Zirkel WA", "ASSOCIATION": "USA - Colorado", "POINTS": "2", "BONUSPOINTS": "0"}}, {"type": "Feature", "geometry": {"type": "Point", "coordinates": [-108.0963, 40.2239]}, "properties": {"NAME": "W0C/MZ-089", "TITLE": "Gray Hills", "REGION": "CO-Mt Zirkel WA", "ASSOCIATION": "USA - Colorado", "POINTS": "2", "BONUSPOINTS": "0"}}, {"type": "Feature", "geometry": {"type": "Point", "coordinates": [-106.8724, 40.4639]}, "properties": {"NAME": "W0C/MZ-090", "TITLE": "Quarry Mountain", "REGION": "CO-Mt Zirkel WA", "ASSOCIATION": "USA - Colorado", "POINTS": "2", "BONUSPOINTS": "0"}}, {"type": "Feature", "geometry": {"type": "Point", "coordinates": [-107.7085, 40.231]}, "properties": {"NAME": "W0C/MZ-091", "TITLE": "Thornburgh Mountain", "REGION": "CO-Mt Zirkel WA", "ASSOCIATION": "USA - Colorado", "POINTS": "2", "BONUSPOINTS": "0"}}, {"type": "Feature", "geometry": {"type": "Point", "coordinates": [-107.0877, 40.5521]}, "properties": {"NAME": "W0C/MZ-092", "TITLE": "Sand Mountain", "REGION": "CO-Mt Zirkel WA", "ASSOCIATION": "USA - Colorado", "POINTS": "2", "BONUSPOINTS": "0"}}, {"type": "Feature", "geometry": {"type": "Point", "coordinates": [-108.7297, 40.3341]}, "properties": {"NAME": "W0C/MZ-093", "TITLE": "8196", "REGION": "CO-Mt Zirkel WA", "ASSOCIATION": "USA - Colorado", "POINTS": "2", "BONUSPOINTS": "0"}}, {"type": "Feature", "geometry": {"type": "Point", "coordinates": [-108.9562, 40.6833]}, "properties": {"NAME": "W0C/MZ-094", "TITLE": "Offield Mountain", "REGION": "CO-Mt Zirkel WA", "ASSOCIATION": "USA - Colorado", "POINTS": "2", "BONUSPOINTS": "0"}}, {"type": "Feature", "geometry": {"type": "Point", "coordinates": [-108.9946, 40.7485]}, "properties": {"NAME": "W0C/MZ-095", "TITLE": "8138", "REGION": "CO-Mt Zirkel WA", "ASSOCIATION": "USA - Colorado", "POINTS": "2", "BONUSPOINTS": "0"}}, {"type": "Feature", "geometry": {"type": "Point", "coordinates": [-108.4837, 40.8641]}, "properties": {"NAME": "W0C/MZ-096", "TITLE": "Lookout Mountain", "REGION": "CO-Mt Zirkel WA", "ASSOCIATION": "USA - Colorado", "POINTS": "2", "BONUSPOINTS": "0"}}, {"type": "Feature", "geometry": {"type": "Point", "coordinates": [-107.0927, 40.4294]}, "properties": {"NAME": "W0C/MZ-097", "TITLE": "Chavez Benchmark", "REGION": "CO-Mt Zirkel WA", "ASSOCIATION": "USA - Colorado", "POINTS": "2", "BONUSPOINTS": "0"}}, {"type": "Feature", "geometry": {"type": "Point", "coordinates": [-106.9242, 40.6887]}, "properties": {"NAME": "W0C/MZ-098", "TITLE": "Round Mountain", "REGION": "CO-Mt Zirkel WA", "ASSOCIATION": "USA - Colorado", "POINTS": "2", "BONUSPOINTS": "0"}}, {"type": "Feature", "geometry": {"type": "Point", "coordinates": [-108.7505, 40.5645]}, "properties": {"NAME": "W0C/MZ-099", "TITLE": "Perusek Benchmark", "REGION": "CO-Mt Zirkel WA", "ASSOCIATION": "USA - Colorado", "POINTS": "2", "BONUSPOINTS": "0"}}, {"type": "Feature", "geometry": {"type": "Point", "coordinates": [-109.0358, 40.7918]}, "properties": {"NAME": "W0C/MZ-100", "TITLE": "8047", "REGION": "CO-Mt Zirkel WA", "ASSOCIATION": "USA - Colorado", "POINTS": "2", "BONUSPOINTS": "0"}}, {"type": "Feature", "geometry": {"type": "Point", "coordinates": [-108.1281, 40.2977]}, "properties": {"NAME": "W0C/MZ-101", "TITLE": "Escarpment Peak", "REGION": "CO-Mt Zirkel WA", "ASSOCIATION": "USA - Colorado", "POINTS": "2", "BONUSPOINTS": "0"}}, {"type": "Feature", "geometry": {"type": "Point", "coordinates": [-108.5558, 40.5271]}, "properties": {"NAME": "W0C/MZ-102", "TITLE": "Allred Peak", "REGION": "CO-Mt Zirkel WA", "ASSOCIATION": "USA - Colorado", "POINTS": "1", "BONUSPOINTS": "0"}}, {"type": "Feature", "geometry": {"type": "Point", "coordinates": [-108.0295, 40.4494]}, "properties": {"NAME": "W0C/MZ-103", "TITLE": "Juniper Mountain", "REGION": "CO-Mt Zirkel WA", "ASSOCIATION": "USA - Colorado", "POINTS": "1", "BONUSPOINTS": "0"}}, {"type": "Feature", "geometry": {"type": "Point", "coordinates": [-108.6554, 40.5341]}, "properties": {"NAME": "W0C/MZ-104", "TITLE": "Tepee Benchmark", "REGION": "CO-Mt Zirkel WA", "ASSOCIATION": "USA - Colorado", "POINTS": "1", "BONUSPOINTS": "0"}}, {"type": "Feature", "geometry": {"type": "Point", "coordinates": [-108.3816, 40.5221]}, "properties": {"NAME": "W0C/MZ-105", "TITLE": "Cross Mountain", "REGION": "CO-Mt Zirkel WA", "ASSOCIATION": "USA - Colorado", "POINTS": "1", "BONUSPOINTS": "0"}}, {"type": "Feature", "geometry": {"type": "Point", "coordinates": [-108.622, 40.7499]}, "properties": {"NAME": "W0C/MZ-106", "TITLE": "North Bears Ears", "REGION": "CO-Mt Zirkel WA", "ASSOCIATION": "USA - Colorado", "POINTS": "1", "BONUSPOINTS": "0"}}, {"type": "Feature", "geometry": {"type": "Point", "coordinates": [-108.2808, 40.374]}, "properties": {"NAME": "W0C/MZ-107", "TITLE": "Wapiti Peak", "REGION": "CO-Mt Zirkel WA", "ASSOCIATION": "USA - Colorado", "POINTS": "1", "BONUSPOINTS": "0"}}, {"type": "Feature", "geometry": {"type": "Point", "coordinates": [-106.9105, 40.5737]}, "properties": {"NAME": "W0C/MZ-108", "TITLE": "7700", "REGION": "CO-Mt Zirkel WA", "ASSOCIATION": "USA - Colorado", "POINTS": "1", "BONUSPOINTS": "0"}}, {"type": "Feature", "geometry": {"type": "Point", "coordinates": [-108.5203, 40.5211]}, "properties": {"NAME": "W0C/MZ-109", "TITLE": "7684", "REGION": "CO-Mt Zirkel WA", "ASSOCIATION": "USA - Colorado", "POINTS": "1", "BONUSPOINTS": "0"}}, {"type": "Feature", "geometry": {"type": "Point", "coordinates": [-108.9767, 40.6089]}, "properties": {"NAME": "W0C/MZ-110", "TITLE": "7670", "REGION": "CO-Mt Zirkel WA", "ASSOCIATION": "USA - Colorado", "POINTS": "1", "BONUSPOINTS": "0"}}, {"type": "Feature", "geometry": {"type": "Point", "coordinates": [-108.912, 40.6901]}, "properties": {"NAME": "W0C/MZ-111", "TITLE": "7660", "REGION": "CO-Mt Zirkel WA", "ASSOCIATION": "USA - Colorado", "POINTS": "1", "BONUSPOINTS": "0"}}, {"type": "Feature", "geometry": {"type": "Point", "coordinates": [-108.8649, 40.6677]}, "properties": {"NAME": "W0C/MZ-112", "TITLE": "7589", "REGION": "CO-Mt Zirkel WA", "ASSOCIATION": "USA - Colorado", "POINTS": "1", "BONUSPOINTS": "0"}}, {"type": "Feature", "geometry": {"type": "Point", "coordinates": [-108.9417, 40.6544]}, "properties": {"NAME": "W0C/MZ-113", "TITLE": "Black Ridge", "REGION": "CO-Mt Zirkel WA", "ASSOCIATION": "USA - Colorado", "POINTS": "1", "BONUSPOINTS": "0"}}, {"type": "Feature", "geometry": {"type": "Point", "coordinates": [-107.2447, 40.5561]}, "properties": {"NAME": "W0C/MZ-114", "TITLE": "7580", "REGION": "CO-Mt Zirkel WA", "ASSOCIATION": "USA - Colorado", "POINTS": "1", "BONUSPOINTS": "0"}}, {"type": "Feature", "geometry": {"type": "Point", "coordinates": [-107.6709, 40.3716]}, "properties": {"NAME": "W0C/MZ-115", "TITLE": "Iles Mountain", "REGION": "CO-Mt Zirkel WA", "ASSOCIATION": "USA - Colorado", "POINTS": "1", "BONUSPOINTS": "0"}}, {"type": "Feature", "geometry": {"type": "Point", "coordinates": [-107.6083, 40.5763]}, "properties": {"NAME": "W0C/MZ-116", "TITLE": "Cedar Mountain", "REGION": "CO-Mt Zirkel WA", "ASSOCIATION": "USA - Colorado", "POINTS": "1", "BONUSPOINTS": "0"}}, {"type": "Feature", "geometry": {"type": "Point", "coordinates": [-108.55, 40.8454]}, "properties": {"NAME": "W0C/MZ-117", "TITLE": "West Vermillion Bluffs", "REGION": "CO-Mt Zirkel WA", "ASSOCIATION": "USA - Colorado", "POINTS": "1", "BONUSPOINTS": "0"}}, {"type": "Feature", "geometry": {"type": "Point", "coordinates": [-107.071, 40.3547]}, "properties": {"NAME": "W0C/MZ-118", "TITLE": "7510", "REGION": "CO-Mt Zirkel WA", "ASSOCIATION": "USA - Colorado", "POINTS": "1", "BONUSPOINTS": "0"}}, {"type": "Feature", "geometry": {"type": "Point", "coordinates": [-108.8929, 40.6839]}, "properties": {"NAME": "W0C/MZ-119", "TITLE": "7509", "REGION": "CO-Mt Zirkel WA", "ASSOCIATION": "USA - Colorado", "POINTS": "1", "BONUSPOINTS": "0"}}, {"type": "Feature", "geometry": {"type": "Point", "coordinates": [-108.7245, 40.8212]}, "properties": {"NAME": "W0C/MZ-121", "TITLE": "7425", "REGION": "CO-Mt Zirkel WA", "ASSOCIATION": "USA - Colorado", "POINTS": "1", "BONUSPOINTS": "0"}}, {"type": "Feature", "geometry": {"type": "Point", "coordinates": [-106.8962, 40.5332]}, "properties": {"NAME": "W0C/MZ-122", "TITLE": "Deer Mountain", "REGION": "CO-Mt Zirkel WA", "ASSOCIATION": "USA - Colorado", "POINTS": "1", "BONUSPOINTS": "0"}}, {"type": "Feature", "geometry": {"type": "Point", "coordinates": [-108.9619, 40.754]}, "properties": {"NAME": "W0C/MZ-123", "TITLE": "7420", "REGION": "CO-Mt Zirkel WA", "ASSOCIATION": "USA - Colorado", "POINTS": "1", "BONUSPOINTS": "0"}}, {"type": "Feature", "geometry": {"type": "Point", "coordinates": [-108.7235, 40.795]}, "properties": {"NAME": "W0C/MZ-124", "TITLE": "7312", "REGION": "CO-Mt Zirkel WA", "ASSOCIATION": "USA - Colorado", "POINTS": "1", "BONUSPOINTS": "0"}}, {"type": "Feature", "geometry": {"type": "Point", "coordinates": [-108.3718, 40.3635]}, "properties": {"NAME": "W0C/MZ-125", "TITLE": "Elk Springs Ridge", "REGION": "CO-Mt Zirkel WA", "ASSOCIATION": "USA - Colorado", "POINTS": "1", "BONUSPOINTS": "0"}}, {"type": "Feature", "geometry": {"type": "Point", "coordinates": [-107.6428, 40.3094]}, "properties": {"NAME": "W0C/MZ-126", "TITLE": "7259", "REGION": "CO-Mt Zirkel WA", "ASSOCIATION": "USA - Colorado", "POINTS": "1", "BONUSPOINTS": "0"}}, {"type": "Feature", "geometry": {"type": "Point", "coordinates": [-107.6621, 40.2984]}, "properties": {"NAME": "W0C/MZ-127", "TITLE": "Monument Butte", "REGION": "CO-Mt Zirkel WA", "ASSOCIATION": "USA - Colorado", "POINTS": "1", "BONUSPOINTS": "0"}}, {"type": "Feature", "geometry": {"type": "Point", "coordinates": [-108.2156, 40.6141]}, "properties": {"NAME": "W0C/MZ-128", "TITLE": "Godiva Rim", "REGION": "CO-Mt Zirkel WA", "ASSOCIATION": "USA - Colorado", "POINTS": "1", "BONUSPOINTS": "0"}}, {"type": "Feature", "geometry": {"type": "Point", "coordinates": [-108.1197, 40.6835]}, "properties": {"NAME": "W0C/MZ-129", "TITLE": "Bald Mountain", "REGION": "CO-Mt Zirkel WA", "ASSOCIATION": "USA - Colorado", "POINTS": "1", "BONUSPOINTS": "0"}}, {"type": "Feature", "geometry": {"type": "Point", "coordinates": [-108.3929, 40.296]}, "properties": {"NAME": "W0C/MZ-130", "TITLE": "North Pinyon Ridge", "REGION": "CO-Mt Zirkel WA", "ASSOCIATION": "USA - Colorado", "POINTS": "1", "BONUSPOINTS": "0"}}, {"type": "Feature", "geometry": {"type": "Point", "coordinates": [-107.7685, 40.3691]}, "properties": {"NAME": "W0C/MZ-131", "TITLE": "Duffy Mountain", "REGION": "CO-Mt Zirkel WA", "ASSOCIATION": "USA - Colorado", "POINTS": "1", "BONUSPOINTS": "0"}}, {"type": "Feature", "geometry": {"type": "Point", "coordinates": [-108.9153, 40.5296]}, "properties": {"NAME": "W0C/MZ-132", "TITLE": "7071", "REGION": "CO-Mt Zirkel WA", "ASSOCIATION": "USA - Colorado", "POINTS": "1", "BONUSPOINTS": "0"}}, {"type": "Feature", "geometry": {"type": "Point", "coordinates": [-108.7569, 40.2824]}, "properties": {"NAME": "W0C/MZ-133", "TITLE": "6975", "REGION": "CO-Mt Zirkel WA", "ASSOCIATION": "USA - Colorado", "POINTS": "1", "BONUSPOINTS": "0"}}, {"type": "Feature", "geometry": {"type": "Point", "coordinates": [-107.6743, 40.433]}, "properties": {"NAME": "W0C/MZ-134", "TITLE": "6968", "REGION": "CO-Mt Zirkel WA", "ASSOCIATION": "USA - Colorado", "POINTS": "1", "BONUSPOINTS": "0"}}, {"type": "Feature", "geometry": {"type": "Point", "coordinates": [-108.3444, 40.4571]}, "properties": {"NAME": "W0C/MZ-135", "TITLE": "South Cross Mountain", "REGION": "CO-Mt Zirkel WA", "ASSOCIATION": "USA - Colorado", "POINTS": "1", "BONUSPOINTS": "0"}}, {"type": "Feature", "geometry": {"type": "Point", "coordinates": [-108.9299, 40.5277]}, "properties": {"NAME": "W0C/MZ-136", "TITLE": "Warm Springs Cliff", "REGION": "CO-Mt Zirkel WA", "ASSOCIATION": "USA - Colorado", "POINTS": "1", "BONUSPOINTS": "0"}}, {"type": "Feature", "geometry": {"type": "Point", "coordinates": [-107.8236, 40.446]}, "properties": {"NAME": "W0C/MZ-137", "TITLE": "6820", "REGION": "CO-Mt Zirkel WA", "ASSOCIATION": "USA - Colorado", "POINTS": "1", "BONUSPOINTS": "0"}}, {"type": "Feature", "geometry": {"type": "Point", "coordinates": [-108.4702, 40.5754]}, "properties": {"NAME": "W0C/MZ-138", "TITLE": "Lone Mountain", "REGION": "CO-Mt Zirkel WA", "ASSOCIATION": "USA - Colorado", "POINTS": "1", "BONUSPOINTS": "0"}}, {"type": "Feature", "geometry": {"type": "Point", "coordinates": [-108.92, 40.7576]}, "properties": {"NAME": "W0C/MZ-139", "TITLE": "6682", "REGION": "CO-Mt Zirkel WA", "ASSOCIATION": "USA - Colorado", "POINTS": "1", "BONUSPOINTS": "0"}}, {"type": "Feature", "geometry": {"type": "Point", "coordinates": [-108.8755, 40.4898]}, "properties": {"NAME": "W0C/MZ-140", "TITLE": "6340", "REGION": "CO-Mt Zirkel WA", "ASSOCIATION": "USA - Colorado", "POINTS": "1", "BONUSPOINTS": "0"}}, {"type": "Feature", "geometry": {"type": "Point", "coordinates": [-108.9739, 40.5265]}, "properties": {"NAME": "W0C/MZ-141", "TITLE": "Jenny Lind Rock", "REGION": "CO-Mt Zirkel WA", "ASSOCIATION": "USA - Colorado", "POINTS": "1", "BONUSPOINTS": "0"}}, {"type": "Feature", "geometry": {"type": "Point", "coordinates": [-108.8243, 40.4289]}, "properties": {"NAME": "W0C/MZ-142", "TITLE": "8540", "REGION": "CO-Mt Zirkel WA", "ASSOCIATION": "USA - Colorado", "POINTS": "2", "BONUSPOINTS": "0"}}, {"type": "Feature", "geometry": {"type": "Point", "coordinates": [-108.4852, 40.5349]}, "properties": {"NAME": "W0C/MZ-143", "TITLE": "7529", "REGION": "CO-Mt Zirkel WA", "ASSOCIATION": "USA - Colorado", "POINTS": "1", "BONUSPOINTS": "0"}}, {"type": "Feature", "geometry": {"type": "Point", "coordinates": [-108.9125, 40.5214]}, "properties": {"NAME": "W0C/MZ-144", "TITLE": "6799", "REGION": "CO-Mt Zirkel WA", "ASSOCIATION": "USA - Colorado", "POINTS": "1", "BONUSPOINTS": "0"}}, {"type": "Feature", "geometry": {"type": "Point", "coordinates": [-108.1668, 40.3711]}, "properties": {"NAME": "W0C/MZ-145", "TITLE": "Wolf Mountain", "REGION": "CO-Mt Zirkel WA", "ASSOCIATION": "USA - Colorado", "POINTS": "1", "BONUSPOINTS": "0"}}]}