{"type": "FeatureCollection", "name": "W0C/SC SUMMITS", "features": [{"type": "Feature", "geometry": {"type": "Point", "coordinates": [-105.5551, 37.9761]}, "properties": {"NAME": "W0C/SC-001", "TITLE": "Humboldt Peak", "REGION": "CO-Sangre De Christo", "ASSOCIATION": "USA - Colorado", "POINTS": "10", "BONUSPOINTS": "3"}}, {"type": "Feature", "geometry": {"type": "Point", "coordinates": [-106.9313, 37.9869]}, "properties": {"NAME": "W0C/SC-002", "TITLE": "San Luis Peak", "REGION": "CO-Sangre De Christo", "ASSOCIATION": "USA - Colorado", "POINTS": "10", "BONUSPOINTS": "3"}}, {"type": "Feature", "geometry": {"type": "Point", "coordinates": [-105.6048, 38.0075]}, "properties": {"NAME": "W0C/SC-003", "TITLE": "Mount Adams", "REGION": "CO-Sangre De Christo", "ASSOCIATION": "USA - Colorado", "POINTS": "10", "BONUSPOINTS": "3"}}, {"type": "Feature", "geometry": {"type": "Point", "coordinates": [-105.6614, 38.1028]}, "properties": {"NAME": "W0C/SC-004", "TITLE": "Rito Alto Peak", "REGION": "CO-Sangre De Christo", "ASSOCIATION": "USA - Colorado", "POINTS": "10", "BONUSPOINTS": "3"}}, {"type": "Feature", "geometry": {"type": "Point", "coordinates": [-105.5404, 37.9244]}, "properties": {"NAME": "W0C/SC-005", "TITLE": "Tijeras Peak", "REGION": "CO-Sangre De Christo", "ASSOCIATION": "USA - Colorado", "POINTS": "10", "BONUSPOINTS": "3"}}, {"type": "Feature", "geometry": {"type": "Point", "coordinates": [-105.7565, 38.219]}, "properties": {"NAME": "W0C/SC-006", "TITLE": "Cottonwood Peak", "REGION": "CO-Sangre De Christo", "ASSOCIATION": "USA - Colorado", "POINTS": "10", "BONUSPOINTS": "3"}}, {"type": "Feature", "geometry": {"type": "Point", "coordinates": [-105.6411, 38.0789]}, "properties": {"NAME": "W0C/SC-007", "TITLE": "Eureka Mountain", "REGION": "CO-Sangre De Christo", "ASSOCIATION": "USA - Colorado", "POINTS": "10", "BONUSPOINTS": "3"}}, {"type": "Feature", "geometry": {"type": "Point", "coordinates": [-105.6296, 38.055]}, "properties": {"NAME": "W0C/SC-008", "TITLE": "Venable Peak", "REGION": "CO-Sangre De Christo", "ASSOCIATION": "USA - Colorado", "POINTS": "8", "BONUSPOINTS": "3"}}, {"type": "Feature", "geometry": {"type": "Point", "coordinates": [-106.218, 38.3249]}, "properties": {"NAME": "W0C/SC-009", "TITLE": "Antora Peak", "REGION": "CO-Sangre De Christo", "ASSOCIATION": "USA - Colorado", "POINTS": "8", "BONUSPOINTS": "3"}}, {"type": "Feature", "geometry": {"type": "Point", "coordinates": [-105.8892, 38.3413]}, "properties": {"NAME": "W0C/SC-010", "TITLE": "Bushnell Peak", "REGION": "CO-Sangre De Christo", "ASSOCIATION": "USA - Colorado", "POINTS": "8", "BONUSPOINTS": "3"}}, {"type": "Feature", "geometry": {"type": "Point", "coordinates": [-105.0133, 37.8814]}, "properties": {"NAME": "W0C/SC-011", "TITLE": "Greenhorn Mountain", "REGION": "CO-Sangre De Christo", "ASSOCIATION": "USA - Colorado", "POINTS": "6", "BONUSPOINTS": "3"}}, {"type": "Feature", "geometry": {"type": "Point", "coordinates": [-105.4552, 37.7912]}, "properties": {"NAME": "W0C/SC-012", "TITLE": "Mount Zwischen", "REGION": "CO-Sangre De Christo", "ASSOCIATION": "USA - Colorado", "POINTS": "6", "BONUSPOINTS": "3"}}, {"type": "Feature", "geometry": {"type": "Point", "coordinates": [-105.4989, 37.6142]}, "properties": {"NAME": "W0C/SC-013", "TITLE": "California Peak", "REGION": "CO-Sangre De Christo", "ASSOCIATION": "USA - Colorado", "POINTS": "10", "BONUSPOINTS": "3"}}, {"type": "Feature", "geometry": {"type": "Point", "coordinates": [-105.5603, 37.9955]}, "properties": {"NAME": "W0C/SC-014", "TITLE": "Colony Baldy", "REGION": "CO-Sangre De Christo", "ASSOCIATION": "USA - Colorado", "POINTS": "10", "BONUSPOINTS": "3"}}, {"type": "Feature", "geometry": {"type": "Point", "coordinates": [-104.9935, 37.3756]}, "properties": {"NAME": "W0C/SC-015", "TITLE": "West Spanish Peak", "REGION": "CO-Sangre De Christo", "ASSOCIATION": "USA - Colorado", "POINTS": "10", "BONUSPOINTS": "3"}}, {"type": "Feature", "geometry": {"type": "Point", "coordinates": [-105.7083, 38.1818]}, "properties": {"NAME": "W0C/SC-016", "TITLE": "Electric Peak", "REGION": "CO-Sangre De Christo", "ASSOCIATION": "USA - Colorado", "POINTS": "10", "BONUSPOINTS": "3"}}, {"type": "Feature", "geometry": {"type": "Point", "coordinates": [-105.5667, 37.9569]}, "properties": {"NAME": "W0C/SC-017", "TITLE": "Broken Hand Peak", "REGION": "CO-Sangre De Christo", "ASSOCIATION": "USA - Colorado", "POINTS": "10", "BONUSPOINTS": "3"}}, {"type": "Feature", "geometry": {"type": "Point", "coordinates": [-105.6014, 38.0245]}, "properties": {"NAME": "W0C/SC-018", "TITLE": "Fluted Peak", "REGION": "CO-Sangre De Christo", "ASSOCIATION": "USA - Colorado", "POINTS": "10", "BONUSPOINTS": "3"}}, {"type": "Feature", "geometry": {"type": "Point", "coordinates": [-105.6663, 38.1637]}, "properties": {"NAME": "W0C/SC-019", "TITLE": "Gibbs Peak", "REGION": "CO-Sangre De Christo", "ASSOCIATION": "USA - Colorado", "POINTS": "10", "BONUSPOINTS": "3"}}, {"type": "Feature", "geometry": {"type": "Point", "coordinates": [-105.6576, 38.1174]}, "properties": {"NAME": "W0C/SC-020", "TITLE": "Peak of the Clouds", "REGION": "CO-Sangre De Christo", "ASSOCIATION": "USA - Colorado", "POINTS": "10", "BONUSPOINTS": "3"}}, {"type": "Feature", "geometry": {"type": "Point", "coordinates": [-105.5862, 38.0386]}, "properties": {"NAME": "W0C/SC-021", "TITLE": "Horn Peak", "REGION": "CO-Sangre De Christo", "ASSOCIATION": "USA - Colorado", "POINTS": "8", "BONUSPOINTS": "3"}}, {"type": "Feature", "geometry": {"type": "Point", "coordinates": [-105.727, 38.1997]}, "properties": {"NAME": "W0C/SC-022", "TITLE": "Lakes Peak", "REGION": "CO-Sangre De Christo", "ASSOCIATION": "USA - Colorado", "POINTS": "8", "BONUSPOINTS": "3"}}, {"type": "Feature", "geometry": {"type": "Point", "coordinates": [-105.687, 38.1669]}, "properties": {"NAME": "W0C/SC-023", "TITLE": "De Anza Peak", "REGION": "CO-Sangre De Christo", "ASSOCIATION": "USA - Colorado", "POINTS": "8", "BONUSPOINTS": "3"}}, {"type": "Feature", "geometry": {"type": "Point", "coordinates": [-105.5332, 37.955]}, "properties": {"NAME": "W0C/SC-024", "TITLE": "Marble Mountain", "REGION": "CO-Sangre De Christo", "ASSOCIATION": "USA - Colorado", "POINTS": "8", "BONUSPOINTS": "3"}}, {"type": "Feature", "geometry": {"type": "Point", "coordinates": [-105.7224, 38.2294]}, "properties": {"NAME": "W0C/SC-025", "TITLE": "Eagle Peak", "REGION": "CO-Sangre De Christo", "ASSOCIATION": "USA - Colorado", "POINTS": "8", "BONUSPOINTS": "3"}}, {"type": "Feature", "geometry": {"type": "Point", "coordinates": [-105.9457, 38.3831]}, "properties": {"NAME": "W0C/SC-026", "TITLE": "Hunts Peak", "REGION": "CO-Sangre De Christo", "ASSOCIATION": "USA - Colorado", "POINTS": "8", "BONUSPOINTS": "3"}}, {"type": "Feature", "geometry": {"type": "Point", "coordinates": [-105.9019, 38.3525]}, "properties": {"NAME": "W0C/SC-027", "TITLE": "North Twin Sisters", "REGION": "CO-Sangre De Christo", "ASSOCIATION": "USA - Colorado", "POINTS": "8", "BONUSPOINTS": "3"}}, {"type": "Feature", "geometry": {"type": "Point", "coordinates": [-105.9205, 38.3678]}, "properties": {"NAME": "W0C/SC-028", "TITLE": "Red Mountain", "REGION": "CO-Sangre De Christo", "ASSOCIATION": "USA - Colorado", "POINTS": "8", "BONUSPOINTS": "3"}}, {"type": "Feature", "geometry": {"type": "Point", "coordinates": [-104.9201, 37.3936]}, "properties": {"NAME": "W0C/SC-029", "TITLE": "East Spanish Peak", "REGION": "CO-Sangre De Christo", "ASSOCIATION": "USA - Colorado", "POINTS": "8", "BONUSPOINTS": "3"}}, {"type": "Feature", "geometry": {"type": "Point", "coordinates": [-105.797, 38.2664]}, "properties": {"NAME": "W0C/SC-030", "TITLE": "Nipple Mountain", "REGION": "CO-Sangre De Christo", "ASSOCIATION": "USA - Colorado", "POINTS": "6", "BONUSPOINTS": "3"}}, {"type": "Feature", "geometry": {"type": "Point", "coordinates": [-105.1162, 38.0201]}, "properties": {"NAME": "W0C/SC-031", "TITLE": "Saint Charles Peak", "REGION": "CO-Sangre De Christo", "ASSOCIATION": "USA - Colorado", "POINTS": "6", "BONUSPOINTS": "3"}}, {"type": "Feature", "geometry": {"type": "Point", "coordinates": [-105.6955, 38.6022]}, "properties": {"NAME": "W0C/SC-032", "TITLE": "Waugh Mountain", "REGION": "CO-Sangre De Christo", "ASSOCIATION": "USA - Colorado", "POINTS": "6", "BONUSPOINTS": "3"}}, {"type": "Feature", "geometry": {"type": "Point", "coordinates": [-105.0845, 37.9557]}, "properties": {"NAME": "W0C/SC-033", "TITLE": "11580", "REGION": "CO-Sangre De Christo", "ASSOCIATION": "USA - Colorado", "POINTS": "6", "BONUSPOINTS": "3"}}, {"type": "Feature", "geometry": {"type": "Point", "coordinates": [-105.1852, 38.0413]}, "properties": {"NAME": "W0C/SC-034", "TITLE": "Deer Peak", "REGION": "CO-Sangre De Christo", "ASSOCIATION": "USA - Colorado", "POINTS": "6", "BONUSPOINTS": "3"}}, {"type": "Feature", "geometry": {"type": "Point", "coordinates": [-105.1472, 37.5829]}, "properties": {"NAME": "W0C/SC-035", "TITLE": "Mount Mestas", "REGION": "CO-Sangre De Christo", "ASSOCIATION": "USA - Colorado", "POINTS": "6", "BONUSPOINTS": "3"}}, {"type": "Feature", "geometry": {"type": "Point", "coordinates": [-105.6317, 38.6021]}, "properties": {"NAME": "W0C/SC-036", "TITLE": "Dead Benchmark", "REGION": "CO-Sangre De Christo", "ASSOCIATION": "USA - Colorado", "POINTS": "6", "BONUSPOINTS": "3"}}, {"type": "Feature", "geometry": {"type": "Point", "coordinates": [-105.7409, 38.5817]}, "properties": {"NAME": "W0C/SC-037", "TITLE": "Stoney Face Mountain", "REGION": "CO-Sangre De Christo", "ASSOCIATION": "USA - Colorado", "POINTS": "6", "BONUSPOINTS": "3"}}, {"type": "Feature", "geometry": {"type": "Point", "coordinates": [-105.3889, 37.662]}, "properties": {"NAME": "W0C/SC-038", "TITLE": "Green Mountain", "REGION": "CO-Sangre De Christo", "ASSOCIATION": "USA - Colorado", "POINTS": "6", "BONUSPOINTS": "3"}}, {"type": "Feature", "geometry": {"type": "Point", "coordinates": [-105.1287, 37.4122]}, "properties": {"NAME": "W0C/SC-039", "TITLE": "Raspberry Mountain", "REGION": "CO-Sangre De Christo", "ASSOCIATION": "USA - Colorado", "POINTS": "6", "BONUSPOINTS": "3"}}, {"type": "Feature", "geometry": {"type": "Point", "coordinates": [-105.6433, 38.5733]}, "properties": {"NAME": "W0C/SC-040", "TITLE": "Loco Mountain", "REGION": "CO-Sangre De Christo", "ASSOCIATION": "USA - Colorado", "POINTS": "6", "BONUSPOINTS": "3"}}, {"type": "Feature", "geometry": {"type": "Point", "coordinates": [-105.1599, 37.6023]}, "properties": {"NAME": "W0C/SC-041", "TITLE": "Rough Mountain", "REGION": "CO-Sangre De Christo", "ASSOCIATION": "USA - Colorado", "POINTS": "6", "BONUSPOINTS": "3"}}, {"type": "Feature", "geometry": {"type": "Point", "coordinates": [-105.2129, 38.0965]}, "properties": {"NAME": "W0C/SC-042", "TITLE": "Wixson Mountain", "REGION": "CO-Sangre De Christo", "ASSOCIATION": "USA - Colorado", "POINTS": "6", "BONUSPOINTS": "3"}}, {"type": "Feature", "geometry": {"type": "Point", "coordinates": [-105.7856, 38.5437]}, "properties": {"NAME": "W0C/SC-043", "TITLE": "Jack Hall Mountain", "REGION": "CO-Sangre De Christo", "ASSOCIATION": "USA - Colorado", "POINTS": "6", "BONUSPOINTS": "3"}}, {"type": "Feature", "geometry": {"type": "Point", "coordinates": [-105.0369, 37.8698]}, "properties": {"NAME": "W0C/SC-044", "TITLE": "10890", "REGION": "CO-Sangre De Christo", "ASSOCIATION": "USA - Colorado", "POINTS": "6", "BONUSPOINTS": "3"}}, {"type": "Feature", "geometry": {"type": "Point", "coordinates": [-105.167, 38.0787]}, "properties": {"NAME": "W0C/SC-045", "TITLE": "Gobblers Knob", "REGION": "CO-Sangre De Christo", "ASSOCIATION": "USA - Colorado", "POINTS": "6", "BONUSPOINTS": "3"}}, {"type": "Feature", "geometry": {"type": "Point", "coordinates": [-105.192, 37.6824]}, "properties": {"NAME": "W0C/SC-046", "TITLE": "Sheep Mountain", "REGION": "CO-Sangre De Christo", "ASSOCIATION": "USA - Colorado", "POINTS": "6", "BONUSPOINTS": "3"}}, {"type": "Feature", "geometry": {"type": "Point", "coordinates": [-105.2639, 38.1192]}, "properties": {"NAME": "W0C/SC-047", "TITLE": "Arkansas Mountain", "REGION": "CO-Sangre De Christo", "ASSOCIATION": "USA - Colorado", "POINTS": "6", "BONUSPOINTS": "3"}}, {"type": "Feature", "geometry": {"type": "Point", "coordinates": [-105.1032, 37.6154]}, "properties": {"NAME": "W0C/SC-048", "TITLE": "Silver Mountain", "REGION": "CO-Sangre De Christo", "ASSOCIATION": "USA - Colorado", "POINTS": "6", "BONUSPOINTS": "3"}}, {"type": "Feature", "geometry": {"type": "Point", "coordinates": [-105.1962, 38.1917]}, "properties": {"NAME": "W0C/SC-049", "TITLE": "Hardscrabble Mountain", "REGION": "CO-Sangre De Christo", "ASSOCIATION": "USA - Colorado", "POINTS": "4", "BONUSPOINTS": "3"}}, {"type": "Feature", "geometry": {"type": "Point", "coordinates": [-105.1564, 38.1397]}, "properties": {"NAME": "W0C/SC-050", "TITLE": "Rudolph Mountain", "REGION": "CO-Sangre De Christo", "ASSOCIATION": "USA - Colorado", "POINTS": "4", "BONUSPOINTS": "3"}}, {"type": "Feature", "geometry": {"type": "Point", "coordinates": [-105.1079, 37.1084]}, "properties": {"NAME": "W0C/SC-051", "TITLE": "10271", "REGION": "CO-Sangre De Christo", "ASSOCIATION": "USA - Colorado", "POINTS": "4", "BONUSPOINTS": "3"}}, {"type": "Feature", "geometry": {"type": "Point", "coordinates": [-105.1099, 38.1115]}, "properties": {"NAME": "W0C/SC-052", "TITLE": "Round Top Mountain", "REGION": "CO-Sangre De Christo", "ASSOCIATION": "USA - Colorado", "POINTS": "4", "BONUSPOINTS": "3"}}, {"type": "Feature", "geometry": {"type": "Point", "coordinates": [-105.1311, 38.1132]}, "properties": {"NAME": "W0C/SC-053", "TITLE": "10175", "REGION": "CO-Sangre De Christo", "ASSOCIATION": "USA - Colorado", "POINTS": "4", "BONUSPOINTS": "3"}}, {"type": "Feature", "geometry": {"type": "Point", "coordinates": [-105.171, 37.5119]}, "properties": {"NAME": "W0C/SC-054", "TITLE": "10116", "REGION": "CO-Sangre De Christo", "ASSOCIATION": "USA - Colorado", "POINTS": "4", "BONUSPOINTS": "3"}}, {"type": "Feature", "geometry": {"type": "Point", "coordinates": [-105.2219, 38.2236]}, "properties": {"NAME": "W0C/SC-055", "TITLE": "10105", "REGION": "CO-Sangre De Christo", "ASSOCIATION": "USA - Colorado", "POINTS": "4", "BONUSPOINTS": "3"}}, {"type": "Feature", "geometry": {"type": "Point", "coordinates": [-105.7575, 38.4603]}, "properties": {"NAME": "W0C/SC-056", "TITLE": "Burned Timber Mountain", "REGION": "CO-Sangre De Christo", "ASSOCIATION": "USA - Colorado", "POINTS": "4", "BONUSPOINTS": "3"}}, {"type": "Feature", "geometry": {"type": "Point", "coordinates": [-105.1255, 38.64]}, "properties": {"NAME": "W0C/SC-057", "TITLE": "Nipple Mountain", "REGION": "CO-Sangre De Christo", "ASSOCIATION": "USA - Colorado", "POINTS": "4", "BONUSPOINTS": "3"}}, {"type": "Feature", "geometry": {"type": "Point", "coordinates": [-105.5867, 38.6653]}, "properties": {"NAME": "W0C/SC-058", "TITLE": "West Antelope Mountain", "REGION": "CO-Sangre De Christo", "ASSOCIATION": "USA - Colorado", "POINTS": "4", "BONUSPOINTS": "3"}}, {"type": "Feature", "geometry": {"type": "Point", "coordinates": [-105.8362, 38.6273]}, "properties": {"NAME": "W0C/SC-059", "TITLE": "10010", "REGION": "CO-Sangre De Christo", "ASSOCIATION": "USA - Colorado", "POINTS": "4", "BONUSPOINTS": "3"}}, {"type": "Feature", "geometry": {"type": "Point", "coordinates": [-105.6604, 38.5349]}, "properties": {"NAME": "W0C/SC-060", "TITLE": "Green Mountain", "REGION": "CO-Sangre De Christo", "ASSOCIATION": "USA - Colorado", "POINTS": "4", "BONUSPOINTS": "3"}}, {"type": "Feature", "geometry": {"type": "Point", "coordinates": [-105.7385, 38.4981]}, "properties": {"NAME": "W0C/SC-061", "TITLE": "Park Mountain", "REGION": "CO-Sangre De Christo", "ASSOCIATION": "USA - Colorado", "POINTS": "4", "BONUSPOINTS": "3"}}, {"type": "Feature", "geometry": {"type": "Point", "coordinates": [-105.0965, 37.1348]}, "properties": {"NAME": "W0C/SC-062", "TITLE": "9973", "REGION": "CO-Sangre De Christo", "ASSOCIATION": "USA - Colorado", "POINTS": "4", "BONUSPOINTS": "3"}}, {"type": "Feature", "geometry": {"type": "Point", "coordinates": [-105.1013, 38.0901]}, "properties": {"NAME": "W0C/SC-063", "TITLE": "9934", "REGION": "CO-Sangre De Christo", "ASSOCIATION": "USA - Colorado", "POINTS": "4", "BONUSPOINTS": "3"}}, {"type": "Feature", "geometry": {"type": "Point", "coordinates": [-105.0723, 37.0309]}, "properties": {"NAME": "W0C/SC-064", "TITLE": "Tercio Benchmark", "REGION": "CO-Sangre De Christo", "ASSOCIATION": "USA - Colorado", "POINTS": "4", "BONUSPOINTS": "3"}}, {"type": "Feature", "geometry": {"type": "Point", "coordinates": [-105.0716, 38.0253]}, "properties": {"NAME": "W0C/SC-065", "TITLE": "9852", "REGION": "CO-Sangre De Christo", "ASSOCIATION": "USA - Colorado", "POINTS": "4", "BONUSPOINTS": "3"}}, {"type": "Feature", "geometry": {"type": "Point", "coordinates": [-105.1954, 37.6589]}, "properties": {"NAME": "W0C/SC-066", "TITLE": "9835", "REGION": "CO-Sangre De Christo", "ASSOCIATION": "USA - Colorado", "POINTS": "4", "BONUSPOINTS": "3"}}, {"type": "Feature", "geometry": {"type": "Point", "coordinates": [-105.2767, 38.1725]}, "properties": {"NAME": "W0C/SC-067", "TITLE": "9694", "REGION": "CO-Sangre De Christo", "ASSOCIATION": "USA - Colorado", "POINTS": "4", "BONUSPOINTS": "3"}}, {"type": "Feature", "geometry": {"type": "Point", "coordinates": [-105.3046, 38.3214]}, "properties": {"NAME": "W0C/SC-068", "TITLE": "Curley Peak", "REGION": "CO-Sangre De Christo", "ASSOCIATION": "USA - Colorado", "POINTS": "4", "BONUSPOINTS": "3"}}, {"type": "Feature", "geometry": {"type": "Point", "coordinates": [-104.4626, 37.0982]}, "properties": {"NAME": "W0C/SC-069", "TITLE": "Fishers Peak", "REGION": "CO-Sangre De Christo", "ASSOCIATION": "USA - Colorado", "POINTS": "4", "BONUSPOINTS": "3"}}, {"type": "Feature", "geometry": {"type": "Point", "coordinates": [-105.2112, 37.7204]}, "properties": {"NAME": "W0C/SC-070", "TITLE": "Little Sheep Mountain", "REGION": "CO-Sangre De Christo", "ASSOCIATION": "USA - Colorado", "POINTS": "4", "BONUSPOINTS": "3"}}, {"type": "Feature", "geometry": {"type": "Point", "coordinates": [-105.3279, 38.19]}, "properties": {"NAME": "W0C/SC-071", "TITLE": "Bear Peak", "REGION": "CO-Sangre De Christo", "ASSOCIATION": "USA - Colorado", "POINTS": "4", "BONUSPOINTS": "3"}}, {"type": "Feature", "geometry": {"type": "Point", "coordinates": [-105.1552, 37.5567]}, "properties": {"NAME": "W0C/SC-072", "TITLE": "9358", "REGION": "CO-Sangre De Christo", "ASSOCIATION": "USA - Colorado", "POINTS": "4", "BONUSPOINTS": "3"}}, {"type": "Feature", "geometry": {"type": "Point", "coordinates": [-105.3145, 38.3625]}, "properties": {"NAME": "W0C/SC-073", "TITLE": "Tanner Peak", "REGION": "CO-Sangre De Christo", "ASSOCIATION": "USA - Colorado", "POINTS": "4", "BONUSPOINTS": "3"}}, {"type": "Feature", "geometry": {"type": "Point", "coordinates": [-105.7243, 38.4251]}, "properties": {"NAME": "W0C/SC-074", "TITLE": "Arkansas Mountain", "REGION": "CO-Sangre De Christo", "ASSOCIATION": "USA - Colorado", "POINTS": "4", "BONUSPOINTS": "3"}}, {"type": "Feature", "geometry": {"type": "Point", "coordinates": [-105.6296, 38.4699]}, "properties": {"NAME": "W0C/SC-075", "TITLE": "Table Mountain", "REGION": "CO-Sangre De Christo", "ASSOCIATION": "USA - Colorado", "POINTS": "4", "BONUSPOINTS": "3"}}, {"type": "Feature", "geometry": {"type": "Point", "coordinates": [-105.1571, 38.5871]}, "properties": {"NAME": "W0C/SC-076", "TITLE": "Cooper Mountain", "REGION": "CO-Sangre De Christo", "ASSOCIATION": "USA - Colorado", "POINTS": "4", "BONUSPOINTS": "3"}}, {"type": "Feature", "geometry": {"type": "Point", "coordinates": [-105.6632, 38.4895]}, "properties": {"NAME": "W0C/SC-077", "TITLE": "9145", "REGION": "CO-Sangre De Christo", "ASSOCIATION": "USA - Colorado", "POINTS": "4", "BONUSPOINTS": "3"}}, {"type": "Feature", "geometry": {"type": "Point", "coordinates": [-105.0193, 37.1028]}, "properties": {"NAME": "W0C/SC-078", "TITLE": "Ute Hills", "REGION": "CO-Sangre De Christo", "ASSOCIATION": "USA - Colorado", "POINTS": "4", "BONUSPOINTS": "3"}}, {"type": "Feature", "geometry": {"type": "Point", "coordinates": [-105.7209, 38.4092]}, "properties": {"NAME": "W0C/SC-079", "TITLE": "Falls Gulch Mountain", "REGION": "CO-Sangre De Christo", "ASSOCIATION": "USA - Colorado", "POINTS": "4", "BONUSPOINTS": "3"}}, {"type": "Feature", "geometry": {"type": "Point", "coordinates": [-105.3051, 38.2389]}, "properties": {"NAME": "W0C/SC-080", "TITLE": "McKinley Mountain", "REGION": "CO-Sangre De Christo", "ASSOCIATION": "USA - Colorado", "POINTS": "4", "BONUSPOINTS": "3"}}, {"type": "Feature", "geometry": {"type": "Point", "coordinates": [-105.3207, 38.6467]}, "properties": {"NAME": "W0C/SC-081", "TITLE": "Big Baldy", "REGION": "CO-Sangre De Christo", "ASSOCIATION": "USA - Colorado", "POINTS": "4", "BONUSPOINTS": "3"}}, {"type": "Feature", "geometry": {"type": "Point", "coordinates": [-105.5171, 38.5453]}, "properties": {"NAME": "W0C/SC-082", "TITLE": "8974", "REGION": "CO-Sangre De Christo", "ASSOCIATION": "USA - Colorado", "POINTS": "2", "BONUSPOINTS": "3"}}, {"type": "Feature", "geometry": {"type": "Point", "coordinates": [-105.3185, 38.2204]}, "properties": {"NAME": "W0C/SC-083", "TITLE": "8970", "REGION": "CO-Sangre De Christo", "ASSOCIATION": "USA - Colorado", "POINTS": "2", "BONUSPOINTS": "0"}}, {"type": "Feature", "geometry": {"type": "Point", "coordinates": [-105.0193, 37.7775]}, "properties": {"NAME": "W0C/SC-084", "TITLE": "Badito Cone", "REGION": "CO-Sangre De Christo", "ASSOCIATION": "USA - Colorado", "POINTS": "2", "BONUSPOINTS": "0"}}, {"type": "Feature", "geometry": {"type": "Point", "coordinates": [-105.6612, 38.4568]}, "properties": {"NAME": "W0C/SC-085", "TITLE": "Bear Mountain", "REGION": "CO-Sangre De Christo", "ASSOCIATION": "USA - Colorado", "POINTS": "2", "BONUSPOINTS": "0"}}, {"type": "Feature", "geometry": {"type": "Point", "coordinates": [-105.5011, 38.6335]}, "properties": {"NAME": "W0C/SC-086", "TITLE": "Delilah Peak", "REGION": "CO-Sangre De Christo", "ASSOCIATION": "USA - Colorado", "POINTS": "2", "BONUSPOINTS": "0"}}, {"type": "Feature", "geometry": {"type": "Point", "coordinates": [-105.8235, 38.4778]}, "properties": {"NAME": "W0C/SC-087", "TITLE": "8759", "REGION": "CO-Sangre De Christo", "ASSOCIATION": "USA - Colorado", "POINTS": "2", "BONUSPOINTS": "0"}}, {"type": "Feature", "geometry": {"type": "Point", "coordinates": [-105.4248, 38.1456]}, "properties": {"NAME": "W0C/SC-088", "TITLE": "Round Mountain", "REGION": "CO-Sangre De Christo", "ASSOCIATION": "USA - Colorado", "POINTS": "2", "BONUSPOINTS": "0"}}, {"type": "Feature", "geometry": {"type": "Point", "coordinates": [-105.5514, 38.2848]}, "properties": {"NAME": "W0C/SC-089", "TITLE": "Gem Mountain", "REGION": "CO-Sangre De Christo", "ASSOCIATION": "USA - Colorado", "POINTS": "2", "BONUSPOINTS": "0"}}, {"type": "Feature", "geometry": {"type": "Point", "coordinates": [-105.4377, 38.1812]}, "properties": {"NAME": "W0C/SC-090", "TITLE": "Bull Domingo Hills", "REGION": "CO-Sangre De Christo", "ASSOCIATION": "USA - Colorado", "POINTS": "2", "BONUSPOINTS": "0"}}, {"type": "Feature", "geometry": {"type": "Point", "coordinates": [-105.0088, 37.1956]}, "properties": {"NAME": "W0C/SC-091", "TITLE": "Pete Hills", "REGION": "CO-Sangre De Christo", "ASSOCIATION": "USA - Colorado", "POINTS": "2", "BONUSPOINTS": "0"}}, {"type": "Feature", "geometry": {"type": "Point", "coordinates": [-105.5272, 38.2403]}, "properties": {"NAME": "W0C/SC-092", "TITLE": "Buck Mountain", "REGION": "CO-Sangre De Christo", "ASSOCIATION": "USA - Colorado", "POINTS": "2", "BONUSPOINTS": "0"}}, {"type": "Feature", "geometry": {"type": "Point", "coordinates": [-105.4752, 38.3951]}, "properties": {"NAME": "W0C/SC-093", "TITLE": "8543", "REGION": "CO-Sangre De Christo", "ASSOCIATION": "USA - Colorado", "POINTS": "2", "BONUSPOINTS": "0"}}, {"type": "Feature", "geometry": {"type": "Point", "coordinates": [-105.5347, 38.2651]}, "properties": {"NAME": "W0C/SC-094", "TITLE": "Democratic Mountain", "REGION": "CO-Sangre De Christo", "ASSOCIATION": "USA - Colorado", "POINTS": "2", "BONUSPOINTS": "0"}}, {"type": "Feature", "geometry": {"type": "Point", "coordinates": [-105.559, 38.2661]}, "properties": {"NAME": "W0C/SC-095", "TITLE": "8540", "REGION": "CO-Sangre De Christo", "ASSOCIATION": "USA - Colorado", "POINTS": "2", "BONUSPOINTS": "0"}}, {"type": "Feature", "geometry": {"type": "Point", "coordinates": [-105.5547, 38.3506]}, "properties": {"NAME": "W0C/SC-096", "TITLE": "Lookout Mountain", "REGION": "CO-Sangre De Christo", "ASSOCIATION": "USA - Colorado", "POINTS": "2", "BONUSPOINTS": "0"}}, {"type": "Feature", "geometry": {"type": "Point", "coordinates": [-105.4985, 38.3274]}, "properties": {"NAME": "W0C/SC-097", "TITLE": "Deer Mountain", "REGION": "CO-Sangre De Christo", "ASSOCIATION": "USA - Colorado", "POINTS": "2", "BONUSPOINTS": "0"}}, {"type": "Feature", "geometry": {"type": "Point", "coordinates": [-105.3988, 38.3819]}, "properties": {"NAME": "W0C/SC-098", "TITLE": "8462", "REGION": "CO-Sangre De Christo", "ASSOCIATION": "USA - Colorado", "POINTS": "2", "BONUSPOINTS": "0"}}, {"type": "Feature", "geometry": {"type": "Point", "coordinates": [-105.4482, 38.2366]}, "properties": {"NAME": "W0C/SC-099", "TITLE": "Mitchell Mountain", "REGION": "CO-Sangre De Christo", "ASSOCIATION": "USA - Colorado", "POINTS": "2", "BONUSPOINTS": "0"}}, {"type": "Feature", "geometry": {"type": "Point", "coordinates": [-104.8216, 37.2699]}, "properties": {"NAME": "W0C/SC-100", "TITLE": "Laviz Benchmark", "REGION": "CO-Sangre De Christo", "ASSOCIATION": "USA - Colorado", "POINTS": "2", "BONUSPOINTS": "0"}}, {"type": "Feature", "geometry": {"type": "Point", "coordinates": [-105.4548, 38.5981]}, "properties": {"NAME": "W0C/SC-101", "TITLE": "8385", "REGION": "CO-Sangre De Christo", "ASSOCIATION": "USA - Colorado", "POINTS": "2", "BONUSPOINTS": "0"}}, {"type": "Feature", "geometry": {"type": "Point", "coordinates": [-105.8801, 38.4947]}, "properties": {"NAME": "W0C/SC-102", "TITLE": "8380", "REGION": "CO-Sangre De Christo", "ASSOCIATION": "USA - Colorado", "POINTS": "2", "BONUSPOINTS": "0"}}, {"type": "Feature", "geometry": {"type": "Point", "coordinates": [-105.4547, 38.4243]}, "properties": {"NAME": "W0C/SC-103", "TITLE": "8260", "REGION": "CO-Sangre De Christo", "ASSOCIATION": "USA - Colorado", "POINTS": "2", "BONUSPOINTS": "0"}}, {"type": "Feature", "geometry": {"type": "Point", "coordinates": [-105.3852, 38.2648]}, "properties": {"NAME": "W0C/SC-104", "TITLE": "8234", "REGION": "CO-Sangre De Christo", "ASSOCIATION": "USA - Colorado", "POINTS": "2", "BONUSPOINTS": "0"}}, {"type": "Feature", "geometry": {"type": "Point", "coordinates": [-105.0547, 38.1658]}, "properties": {"NAME": "W0C/SC-105", "TITLE": "8108", "REGION": "CO-Sangre De Christo", "ASSOCIATION": "USA - Colorado", "POINTS": "2", "BONUSPOINTS": "0"}}, {"type": "Feature", "geometry": {"type": "Point", "coordinates": [-105.3454, 38.3382]}, "properties": {"NAME": "W0C/SC-106", "TITLE": "Scrapping Ridge", "REGION": "CO-Sangre De Christo", "ASSOCIATION": "USA - Colorado", "POINTS": "2", "BONUSPOINTS": "0"}}, {"type": "Feature", "geometry": {"type": "Point", "coordinates": [-105.0426, 37.4732]}, "properties": {"NAME": "W0C/SC-107", "TITLE": "Goemmer Butte", "REGION": "CO-Sangre De Christo", "ASSOCIATION": "USA - Colorado", "POINTS": "2", "BONUSPOINTS": "0"}}, {"type": "Feature", "geometry": {"type": "Point", "coordinates": [-104.7485, 37.4075]}, "properties": {"NAME": "W0C/SC-108", "TITLE": "7930", "REGION": "CO-Sangre De Christo", "ASSOCIATION": "USA - Colorado", "POINTS": "1", "BONUSPOINTS": "0"}}, {"type": "Feature", "geometry": {"type": "Point", "coordinates": [-105.308, 38.5152]}, "properties": {"NAME": "W0C/SC-109", "TITLE": "South Twin Mountain", "REGION": "CO-Sangre De Christo", "ASSOCIATION": "USA - Colorado", "POINTS": "1", "BONUSPOINTS": "0"}}, {"type": "Feature", "geometry": {"type": "Point", "coordinates": [-105.414, 38.5677]}, "properties": {"NAME": "W0C/SC-110", "TITLE": "Gribble Mountain", "REGION": "CO-Sangre De Christo", "ASSOCIATION": "USA - Colorado", "POINTS": "1", "BONUSPOINTS": "0"}}, {"type": "Feature", "geometry": {"type": "Point", "coordinates": [-105.3487, 38.5386]}, "properties": {"NAME": "W0C/SC-111", "TITLE": "Eightmile Mountain", "REGION": "CO-Sangre De Christo", "ASSOCIATION": "USA - Colorado", "POINTS": "1", "BONUSPOINTS": "0"}}, {"type": "Feature", "geometry": {"type": "Point", "coordinates": [-105.6809, 38.3532]}, "properties": {"NAME": "W0C/SC-112", "TITLE": "Cotopaxi Peak", "REGION": "CO-Sangre De Christo", "ASSOCIATION": "USA - Colorado", "POINTS": "1", "BONUSPOINTS": "0"}}, {"type": "Feature", "geometry": {"type": "Point", "coordinates": [-105.4352, 38.4234]}, "properties": {"NAME": "W0C/SC-113", "TITLE": "7860", "REGION": "CO-Sangre De Christo", "ASSOCIATION": "USA - Colorado", "POINTS": "1", "BONUSPOINTS": "0"}}, {"type": "Feature", "geometry": {"type": "Point", "coordinates": [-105.3982, 38.4185]}, "properties": {"NAME": "W0C/SC-114", "TITLE": "7845", "REGION": "CO-Sangre De Christo", "ASSOCIATION": "USA - Colorado", "POINTS": "1", "BONUSPOINTS": "0"}}, {"type": "Feature", "geometry": {"type": "Point", "coordinates": [-105.6055, 38.4256]}, "properties": {"NAME": "W0C/SC-115", "TITLE": "7757", "REGION": "CO-Sangre De Christo", "ASSOCIATION": "USA - Colorado", "POINTS": "1", "BONUSPOINTS": "0"}}, {"type": "Feature", "geometry": {"type": "Point", "coordinates": [-105.3524, 38.3931]}, "properties": {"NAME": "W0C/SC-116", "TITLE": "Horseshoe Mountain", "REGION": "CO-Sangre De Christo", "ASSOCIATION": "USA - Colorado", "POINTS": "1", "BONUSPOINTS": "0"}}, {"type": "Feature", "geometry": {"type": "Point", "coordinates": [-105.4428, 38.5578]}, "properties": {"NAME": "W0C/SC-117", "TITLE": "Little Crampton Mountain", "REGION": "CO-Sangre De Christo", "ASSOCIATION": "USA - Colorado", "POINTS": "1", "BONUSPOINTS": "0"}}, {"type": "Feature", "geometry": {"type": "Point", "coordinates": [-104.98, 38.5672]}, "properties": {"NAME": "W0C/SC-118", "TITLE": "Table Mountain", "REGION": "CO-Sangre De Christo", "ASSOCIATION": "USA - Colorado", "POINTS": "1", "BONUSPOINTS": "0"}}, {"type": "Feature", "geometry": {"type": "Point", "coordinates": [-105.3795, 38.5124]}, "properties": {"NAME": "W0C/SC-119", "TITLE": "Cactus Mountain", "REGION": "CO-Sangre De Christo", "ASSOCIATION": "USA - Colorado", "POINTS": "1", "BONUSPOINTS": "0"}}, {"type": "Feature", "geometry": {"type": "Point", "coordinates": [-105.0866, 38.2003]}, "properties": {"NAME": "W0C/SC-120", "TITLE": "7380", "REGION": "CO-Sangre De Christo", "ASSOCIATION": "USA - Colorado", "POINTS": "1", "BONUSPOINTS": "0"}}, {"type": "Feature", "geometry": {"type": "Point", "coordinates": [-105.2829, 38.4487]}, "properties": {"NAME": "W0C/SC-121", "TITLE": "Fremont Peak", "REGION": "CO-Sangre De Christo", "ASSOCIATION": "USA - Colorado", "POINTS": "1", "BONUSPOINTS": "0"}}, {"type": "Feature", "geometry": {"type": "Point", "coordinates": [-105.2874, 38.4263]}, "properties": {"NAME": "W0C/SC-122", "TITLE": "YMCA Mountain", "REGION": "CO-Sangre De Christo", "ASSOCIATION": "USA - Colorado", "POINTS": "1", "BONUSPOINTS": "0"}}, {"type": "Feature", "geometry": {"type": "Point", "coordinates": [-103.7272, 37.1228]}, "properties": {"NAME": "W0C/SC-123", "TITLE": "Mesa de Maya", "REGION": "CO-Sangre De Christo", "ASSOCIATION": "USA - Colorado", "POINTS": "1", "BONUSPOINTS": "0"}}, {"type": "Feature", "geometry": {"type": "Point", "coordinates": [-105.6149, 38.0428]}, "properties": {"NAME": "W0C/SC-124", "TITLE": "Comanche Peak", "REGION": "CO-Sangre De Christo", "ASSOCIATION": "USA - Colorado", "POINTS": "8", "BONUSPOINTS": "3"}}, {"type": "Feature", "geometry": {"type": "Point", "coordinates": [-105.6045, 38.4647]}, "properties": {"NAME": "W0C/SC-125", "TITLE": "Bull Ridge", "REGION": "CO-Sangre De Christo", "ASSOCIATION": "USA - Colorado", "POINTS": "4", "BONUSPOINTS": "3"}}, {"type": "Feature", "geometry": {"type": "Point", "coordinates": [-105.379, 38.2044]}, "properties": {"NAME": "W0C/SC-126", "TITLE": "8704", "REGION": "CO-Sangre De Christo", "ASSOCIATION": "USA - Colorado", "POINTS": "2", "BONUSPOINTS": "0"}}, {"type": "Feature", "geometry": {"type": "Point", "coordinates": [-105.5178, 38.199]}, "properties": {"NAME": "W0C/SC-127", "TITLE": "Beckwith Mountain", "REGION": "CO-Sangre De Christo", "ASSOCIATION": "USA - Colorado", "POINTS": "2", "BONUSPOINTS": "0"}}, {"type": "Feature", "geometry": {"type": "Point", "coordinates": [-105.5883, 38.4489]}, "properties": {"NAME": "W0C/SC-128", "TITLE": "8277", "REGION": "CO-Sangre De Christo", "ASSOCIATION": "USA - Colorado", "POINTS": "2", "BONUSPOINTS": "0"}}, {"type": "Feature", "geometry": {"type": "Point", "coordinates": [-105.0445, 38.1923]}, "properties": {"NAME": "W0C/SC-129", "TITLE": "7150", "REGION": "CO-Sangre De Christo", "ASSOCIATION": "USA - Colorado", "POINTS": "1", "BONUSPOINTS": "0"}}, {"type": "Feature", "geometry": {"type": "Point", "coordinates": [-104.51, 37.4269]}, "properties": {"NAME": "W0C/SC-130", "TITLE": "The Hogback", "REGION": "CO-Sangre De Christo", "ASSOCIATION": "USA - Colorado", "POINTS": "1", "BONUSPOINTS": "0"}}]}