{"type": "FeatureCollection", "name": "W0C/RG SUMMITS", "features": [{"type": "Feature", "geometry": {"type": "Point", "coordinates": [-107.4621, 38.0716]}, "properties": {"NAME": "W0C/RG-001", "TITLE": "Uncompahgre Peak", "REGION": "CO-Rio Grande", "ASSOCIATION": "USA - Colorado", "POINTS": "10", "BONUSPOINTS": "3"}}, {"type": "Feature", "geometry": {"type": "Point", "coordinates": [-107.4217, 37.9409]}, "properties": {"NAME": "W0C/RG-002", "TITLE": "Redcloud Peak", "REGION": "CO-Rio Grande", "ASSOCIATION": "USA - Colorado", "POINTS": "10", "BONUSPOINTS": "3"}}, {"type": "Feature", "geometry": {"type": "Point", "coordinates": [-107.5109, 38.0607]}, "properties": {"NAME": "W0C/RG-003", "TITLE": "Wetterhorn Peak", "REGION": "CO-Rio Grande", "ASSOCIATION": "USA - Colorado", "POINTS": "10", "BONUSPOINTS": "3"}}, {"type": "Feature", "geometry": {"type": "Point", "coordinates": [-107.4254, 37.9227]}, "properties": {"NAME": "W0C/RG-004", "TITLE": "Sunshine Peak", "REGION": "CO-Rio Grande", "ASSOCIATION": "USA - Colorado", "POINTS": "10", "BONUSPOINTS": "3"}}, {"type": "Feature", "geometry": {"type": "Point", "coordinates": [-106.8663, 37.9363]}, "properties": {"NAME": "W0C/RG-005", "TITLE": "Phoenix Peak", "REGION": "CO-Rio Grande", "ASSOCIATION": "USA - Colorado", "POINTS": "10", "BONUSPOINTS": "3"}}, {"type": "Feature", "geometry": {"type": "Point", "coordinates": [-107.5264, 37.8965]}, "properties": {"NAME": "W0C/RG-006", "TITLE": "Jones Mountain", "REGION": "CO-Rio Grande", "ASSOCIATION": "USA - Colorado", "POINTS": "10", "BONUSPOINTS": "3"}}, {"type": "Feature", "geometry": {"type": "Point", "coordinates": [-107.3982, 37.9472]}, "properties": {"NAME": "W0C/RG-007", "TITLE": "13832", "REGION": "CO-Rio Grande", "ASSOCIATION": "USA - Colorado", "POINTS": "10", "BONUSPOINTS": "3"}}, {"type": "Feature", "geometry": {"type": "Point", "coordinates": [-107.3924, 37.6796]}, "properties": {"NAME": "W0C/RG-008", "TITLE": "Rio Grande Pyramid", "REGION": "CO-Rio Grande", "ASSOCIATION": "USA - Colorado", "POINTS": "10", "BONUSPOINTS": "3"}}, {"type": "Feature", "geometry": {"type": "Point", "coordinates": [-107.3783, 37.9546]}, "properties": {"NAME": "W0C/RG-009", "TITLE": "13811", "REGION": "CO-Rio Grande", "ASSOCIATION": "USA - Colorado", "POINTS": "10", "BONUSPOINTS": "3"}}, {"type": "Feature", "geometry": {"type": "Point", "coordinates": [-107.5336, 37.8892]}, "properties": {"NAME": "W0C/RG-010", "TITLE": "Niagara Peak", "REGION": "CO-Rio Grande", "ASSOCIATION": "USA - Colorado", "POINTS": "10", "BONUSPOINTS": "3"}}, {"type": "Feature", "geometry": {"type": "Point", "coordinates": [-107.4306, 37.7958]}, "properties": {"NAME": "W0C/RG-011", "TITLE": "Pole Creek Mountain", "REGION": "CO-Rio Grande", "ASSOCIATION": "USA - Colorado", "POINTS": "10", "BONUSPOINTS": "3"}}, {"type": "Feature", "geometry": {"type": "Point", "coordinates": [-107.4496, 38.1067]}, "properties": {"NAME": "W0C/RG-012", "TITLE": "Silver Mountain", "REGION": "CO-Rio Grande", "ASSOCIATION": "USA - Colorado", "POINTS": "10", "BONUSPOINTS": "3"}}, {"type": "Feature", "geometry": {"type": "Point", "coordinates": [-107.4576, 38.1204]}, "properties": {"NAME": "W0C/RG-013", "TITLE": "13681", "REGION": "CO-Rio Grande", "ASSOCIATION": "USA - Colorado", "POINTS": "10", "BONUSPOINTS": "3"}}, {"type": "Feature", "geometry": {"type": "Point", "coordinates": [-107.458, 37.8809]}, "properties": {"NAME": "W0C/RG-014", "TITLE": "Quarter Peak", "REGION": "CO-Rio Grande", "ASSOCIATION": "USA - Colorado", "POINTS": "10", "BONUSPOINTS": "3"}}, {"type": "Feature", "geometry": {"type": "Point", "coordinates": [-107.4464, 37.8141]}, "properties": {"NAME": "W0C/RG-015", "TITLE": "Northwest Pole", "REGION": "CO-Rio Grande", "ASSOCIATION": "USA - Colorado", "POINTS": "10", "BONUSPOINTS": "3"}}, {"type": "Feature", "geometry": {"type": "Point", "coordinates": [-107.402, 37.8574]}, "properties": {"NAME": "W0C/RG-016", "TITLE": "Carson Peak", "REGION": "CO-Rio Grande", "ASSOCIATION": "USA - Colorado", "POINTS": "10", "BONUSPOINTS": "3"}}, {"type": "Feature", "geometry": {"type": "Point", "coordinates": [-107.5335, 38.0801]}, "properties": {"NAME": "W0C/RG-017", "TITLE": "Coxcomb Peak", "REGION": "CO-Rio Grande", "ASSOCIATION": "USA - Colorado", "POINTS": "10", "BONUSPOINTS": "3"}}, {"type": "Feature", "geometry": {"type": "Point", "coordinates": [-107.5331, 38.0872]}, "properties": {"NAME": "W0C/RG-018", "TITLE": "Redcliff", "REGION": "CO-Rio Grande", "ASSOCIATION": "USA - Colorado", "POINTS": "10", "BONUSPOINTS": "3"}}, {"type": "Feature", "geometry": {"type": "Point", "coordinates": [-107.496, 38.0651]}, "properties": {"NAME": "W0C/RG-019", "TITLE": "Matterhorn Peak", "REGION": "CO-Rio Grande", "ASSOCIATION": "USA - Colorado", "POINTS": "10", "BONUSPOINTS": "3"}}, {"type": "Feature", "geometry": {"type": "Point", "coordinates": [-107.3955, 37.8367]}, "properties": {"NAME": "W0C/RG-020", "TITLE": "13581", "REGION": "CO-Rio Grande", "ASSOCIATION": "USA - Colorado", "POINTS": "10", "BONUSPOINTS": "3"}}, {"type": "Feature", "geometry": {"type": "Point", "coordinates": [-107.4604, 37.9746]}, "properties": {"NAME": "W0C/RG-021", "TITLE": "Gudy Peak", "REGION": "CO-Rio Grande", "ASSOCIATION": "USA - Colorado", "POINTS": "10", "BONUSPOINTS": "3"}}, {"type": "Feature", "geometry": {"type": "Point", "coordinates": [-107.4933, 37.9307]}, "properties": {"NAME": "W0C/RG-022", "TITLE": "Whitecross Mountain", "REGION": "CO-Rio Grande", "ASSOCIATION": "USA - Colorado", "POINTS": "10", "BONUSPOINTS": "3"}}, {"type": "Feature", "geometry": {"type": "Point", "coordinates": [-107.4957, 37.9617]}, "properties": {"NAME": "W0C/RG-023", "TITLE": "13540", "REGION": "CO-Rio Grande", "ASSOCIATION": "USA - Colorado", "POINTS": "10", "BONUSPOINTS": "3"}}, {"type": "Feature", "geometry": {"type": "Point", "coordinates": [-107.5324, 37.9179]}, "properties": {"NAME": "W0C/RG-024", "TITLE": "13535", "REGION": "CO-Rio Grande", "ASSOCIATION": "USA - Colorado", "POINTS": "10", "BONUSPOINTS": "3"}}, {"type": "Feature", "geometry": {"type": "Point", "coordinates": [-107.0706, 37.9663]}, "properties": {"NAME": "W0C/RG-025", "TITLE": "13510", "REGION": "CO-Rio Grande", "ASSOCIATION": "USA - Colorado", "POINTS": "10", "BONUSPOINTS": "3"}}, {"type": "Feature", "geometry": {"type": "Point", "coordinates": [-107.4576, 37.7111]}, "properties": {"NAME": "W0C/RG-026", "TITLE": "Ute Ridge", "REGION": "CO-Rio Grande", "ASSOCIATION": "USA - Colorado", "POINTS": "8", "BONUSPOINTS": "3"}}, {"type": "Feature", "geometry": {"type": "Point", "coordinates": [-107.103, 37.9555]}, "properties": {"NAME": "W0C/RG-027", "TITLE": "Baldy Cinco", "REGION": "CO-Rio Grande", "ASSOCIATION": "USA - Colorado", "POINTS": "8", "BONUSPOINTS": "3"}}, {"type": "Feature", "geometry": {"type": "Point", "coordinates": [-107.4806, 37.7019]}, "properties": {"NAME": "W0C/RG-028", "TITLE": "13342", "REGION": "CO-Rio Grande", "ASSOCIATION": "USA - Colorado", "POINTS": "8", "BONUSPOINTS": "3"}}, {"type": "Feature", "geometry": {"type": "Point", "coordinates": [-107.4961, 38.0986]}, "properties": {"NAME": "W0C/RG-029", "TITLE": "13340", "REGION": "CO-Rio Grande", "ASSOCIATION": "USA - Colorado", "POINTS": "8", "BONUSPOINTS": "3"}}, {"type": "Feature", "geometry": {"type": "Point", "coordinates": [-107.3469, 37.8603]}, "properties": {"NAME": "W0C/RG-030", "TITLE": "Coney Benchmark", "REGION": "CO-Rio Grande", "ASSOCIATION": "USA - Colorado", "POINTS": "8", "BONUSPOINTS": "3"}}, {"type": "Feature", "geometry": {"type": "Point", "coordinates": [-107.5087, 37.9958]}, "properties": {"NAME": "W0C/RG-031", "TITLE": "Sunshine Mountain", "REGION": "CO-Rio Grande", "ASSOCIATION": "USA - Colorado", "POINTS": "8", "BONUSPOINTS": "3"}}, {"type": "Feature", "geometry": {"type": "Point", "coordinates": [-106.9424, 37.9535]}, "properties": {"NAME": "W0C/RG-032", "TITLE": "13300", "REGION": "CO-Rio Grande", "ASSOCIATION": "USA - Colorado", "POINTS": "8", "BONUSPOINTS": "3"}}, {"type": "Feature", "geometry": {"type": "Point", "coordinates": [-107.3748, 37.6877]}, "properties": {"NAME": "W0C/RG-033", "TITLE": "Fools Pyramid", "REGION": "CO-Rio Grande", "ASSOCIATION": "USA - Colorado", "POINTS": "8", "BONUSPOINTS": "3"}}, {"type": "Feature", "geometry": {"type": "Point", "coordinates": [-107.5881, 37.9827]}, "properties": {"NAME": "W0C/RG-034", "TITLE": "Darley Mountain", "REGION": "CO-Rio Grande", "ASSOCIATION": "USA - Colorado", "POINTS": "8", "BONUSPOINTS": "3"}}, {"type": "Feature", "geometry": {"type": "Point", "coordinates": [-107.4718, 38.043]}, "properties": {"NAME": "W0C/RG-035", "TITLE": "Broken Hill", "REGION": "CO-Rio Grande", "ASSOCIATION": "USA - Colorado", "POINTS": "8", "BONUSPOINTS": "3"}}, {"type": "Feature", "geometry": {"type": "Point", "coordinates": [-107.4599, 37.6105]}, "properties": {"NAME": "W0C/RG-036", "TITLE": "Weminuche Peak", "REGION": "CO-Rio Grande", "ASSOCIATION": "USA - Colorado", "POINTS": "8", "BONUSPOINTS": "3"}}, {"type": "Feature", "geometry": {"type": "Point", "coordinates": [-107.525, 38.0389]}, "properties": {"NAME": "W0C/RG-037", "TITLE": "13201", "REGION": "CO-Rio Grande", "ASSOCIATION": "USA - Colorado", "POINTS": "8", "BONUSPOINTS": "3"}}, {"type": "Feature", "geometry": {"type": "Point", "coordinates": [-107.3957, 37.9965]}, "properties": {"NAME": "W0C/RG-038", "TITLE": "13180", "REGION": "CO-Rio Grande", "ASSOCIATION": "USA - Colorado", "POINTS": "8", "BONUSPOINTS": "3"}}, {"type": "Feature", "geometry": {"type": "Point", "coordinates": [-106.5709, 37.2887]}, "properties": {"NAME": "W0C/RG-039", "TITLE": "Conejos Peak", "REGION": "CO-Rio Grande", "ASSOCIATION": "USA - Colorado", "POINTS": "8", "BONUSPOINTS": "3"}}, {"type": "Feature", "geometry": {"type": "Point", "coordinates": [-106.9817, 37.5741]}, "properties": {"NAME": "W0C/RG-040", "TITLE": "South River Peak", "REGION": "CO-Rio Grande", "ASSOCIATION": "USA - Colorado", "POINTS": "8", "BONUSPOINTS": "3"}}, {"type": "Feature", "geometry": {"type": "Point", "coordinates": [-106.9872, 37.9693]}, "properties": {"NAME": "W0C/RG-041", "TITLE": "13111", "REGION": "CO-Rio Grande", "ASSOCIATION": "USA - Colorado", "POINTS": "8", "BONUSPOINTS": "3"}}, {"type": "Feature", "geometry": {"type": "Point", "coordinates": [-107.4209, 38.0711]}, "properties": {"NAME": "W0C/RG-042", "TITLE": "13106", "REGION": "CO-Rio Grande", "ASSOCIATION": "USA - Colorado", "POINTS": "8", "BONUSPOINTS": "3"}}, {"type": "Feature", "geometry": {"type": "Point", "coordinates": [-107.3878, 38.0726]}, "properties": {"NAME": "W0C/RG-043", "TITLE": "13091", "REGION": "CO-Rio Grande", "ASSOCIATION": "USA - Colorado", "POINTS": "8", "BONUSPOINTS": "3"}}, {"type": "Feature", "geometry": {"type": "Point", "coordinates": [-107.0083, 37.9468]}, "properties": {"NAME": "W0C/RG-044", "TITLE": "13034", "REGION": "CO-Rio Grande", "ASSOCIATION": "USA - Colorado", "POINTS": "8", "BONUSPOINTS": "3"}}, {"type": "Feature", "geometry": {"type": "Point", "coordinates": [-107.4148, 38.1244]}, "properties": {"NAME": "W0C/RG-045", "TITLE": "13016", "REGION": "CO-Rio Grande", "ASSOCIATION": "USA - Colorado", "POINTS": "8", "BONUSPOINTS": "3"}}, {"type": "Feature", "geometry": {"type": "Point", "coordinates": [-107.209, 37.6364]}, "properties": {"NAME": "W0C/RG-046", "TITLE": "Chief Mountain", "REGION": "CO-Rio Grande", "ASSOCIATION": "USA - Colorado", "POINTS": "8", "BONUSPOINTS": "3"}}, {"type": "Feature", "geometry": {"type": "Point", "coordinates": [-107.2446, 37.6061]}, "properties": {"NAME": "W0C/RG-047", "TITLE": "13010", "REGION": "CO-Rio Grande", "ASSOCIATION": "USA - Colorado", "POINTS": "8", "BONUSPOINTS": "3"}}, {"type": "Feature", "geometry": {"type": "Point", "coordinates": [-107.3996, 37.6003]}, "properties": {"NAME": "W0C/RG-048", "TITLE": "Mesa Lato", "REGION": "CO-Rio Grande", "ASSOCIATION": "USA - Colorado", "POINTS": "8", "BONUSPOINTS": "3"}}, {"type": "Feature", "geometry": {"type": "Point", "coordinates": [-107.0311, 37.9525]}, "properties": {"NAME": "W0C/RG-049", "TITLE": "12952", "REGION": "CO-Rio Grande", "ASSOCIATION": "USA - Colorado", "POINTS": "8", "BONUSPOINTS": "3"}}, {"type": "Feature", "geometry": {"type": "Point", "coordinates": [-107.5022, 38.1338]}, "properties": {"NAME": "W0C/RG-050", "TITLE": "12917", "REGION": "CO-Rio Grande", "ASSOCIATION": "USA - Colorado", "POINTS": "8", "BONUSPOINTS": "3"}}, {"type": "Feature", "geometry": {"type": "Point", "coordinates": [-107.4239, 37.6502]}, "properties": {"NAME": "W0C/RG-051", "TITLE": "Ute Benchmark", "REGION": "CO-Rio Grande", "ASSOCIATION": "USA - Colorado", "POINTS": "8", "BONUSPOINTS": "3"}}, {"type": "Feature", "geometry": {"type": "Point", "coordinates": [-107.4406, 37.6103]}, "properties": {"NAME": "W0C/RG-052", "TITLE": "12882", "REGION": "CO-Rio Grande", "ASSOCIATION": "USA - Colorado", "POINTS": "8", "BONUSPOINTS": "3"}}, {"type": "Feature", "geometry": {"type": "Point", "coordinates": [-107.0509, 37.8981]}, "properties": {"NAME": "W0C/RG-053", "TITLE": "Table Mountain", "REGION": "CO-Rio Grande", "ASSOCIATION": "USA - Colorado", "POINTS": "8", "BONUSPOINTS": "3"}}, {"type": "Feature", "geometry": {"type": "Point", "coordinates": [-106.9375, 37.6569]}, "properties": {"NAME": "W0C/RG-054", "TITLE": "Fisher Mountain", "REGION": "CO-Rio Grande", "ASSOCIATION": "USA - Colorado", "POINTS": "8", "BONUSPOINTS": "3"}}, {"type": "Feature", "geometry": {"type": "Point", "coordinates": [-107.026, 37.5008]}, "properties": {"NAME": "W0C/RG-055", "TITLE": "12848", "REGION": "CO-Rio Grande", "ASSOCIATION": "USA - Colorado", "POINTS": "8", "BONUSPOINTS": "3"}}, {"type": "Feature", "geometry": {"type": "Point", "coordinates": [-106.4023, 37.4967]}, "properties": {"NAME": "W0C/RG-056", "TITLE": "Pintada Mountain", "REGION": "CO-Rio Grande", "ASSOCIATION": "USA - Colorado", "POINTS": "8", "BONUSPOINTS": "3"}}, {"type": "Feature", "geometry": {"type": "Point", "coordinates": [-106.8706, 37.5435]}, "properties": {"NAME": "W0C/RG-057", "TITLE": "Mount Hope", "REGION": "CO-Rio Grande", "ASSOCIATION": "USA - Colorado", "POINTS": "8", "BONUSPOINTS": "3"}}, {"type": "Feature", "geometry": {"type": "Point", "coordinates": [-107.3334, 37.9786]}, "properties": {"NAME": "W0C/RG-058", "TITLE": "Red Mountain", "REGION": "CO-Rio Grande", "ASSOCIATION": "USA - Colorado", "POINTS": "8", "BONUSPOINTS": "3"}}, {"type": "Feature", "geometry": {"type": "Point", "coordinates": [-107.2445, 38.0333]}, "properties": {"NAME": "W0C/RG-059", "TITLE": "Mesa Seco", "REGION": "CO-Rio Grande", "ASSOCIATION": "USA - Colorado", "POINTS": "8", "BONUSPOINTS": "3"}}, {"type": "Feature", "geometry": {"type": "Point", "coordinates": [-107.1071, 37.9791]}, "properties": {"NAME": "W0C/RG-060", "TITLE": "12783", "REGION": "CO-Rio Grande", "ASSOCIATION": "USA - Colorado", "POINTS": "8", "BONUSPOINTS": "3"}}, {"type": "Feature", "geometry": {"type": "Point", "coordinates": [-107.2806, 37.5976]}, "properties": {"NAME": "W0C/RG-061", "TITLE": "12780", "REGION": "CO-Rio Grande", "ASSOCIATION": "USA - Colorado", "POINTS": "8", "BONUSPOINTS": "3"}}, {"type": "Feature", "geometry": {"type": "Point", "coordinates": [-106.9274, 37.6174]}, "properties": {"NAME": "W0C/RG-062", "TITLE": "Beautiful Mountain", "REGION": "CO-Rio Grande", "ASSOCIATION": "USA - Colorado", "POINTS": "8", "BONUSPOINTS": "3"}}, {"type": "Feature", "geometry": {"type": "Point", "coordinates": [-106.6045, 37.4507]}, "properties": {"NAME": "W0C/RG-063", "TITLE": "North Mountain", "REGION": "CO-Rio Grande", "ASSOCIATION": "USA - Colorado", "POINTS": "8", "BONUSPOINTS": "3"}}, {"type": "Feature", "geometry": {"type": "Point", "coordinates": [-107.539, 38.1297]}, "properties": {"NAME": "W0C/RG-064", "TITLE": "Dunsinane Mountain", "REGION": "CO-Rio Grande", "ASSOCIATION": "USA - Colorado", "POINTS": "8", "BONUSPOINTS": "3"}}, {"type": "Feature", "geometry": {"type": "Point", "coordinates": [-107.1635, 37.6361]}, "properties": {"NAME": "W0C/RG-065", "TITLE": "12740", "REGION": "CO-Rio Grande", "ASSOCIATION": "USA - Colorado", "POINTS": "8", "BONUSPOINTS": "3"}}, {"type": "Feature", "geometry": {"type": "Point", "coordinates": [-107.4785, 37.7352]}, "properties": {"NAME": "W0C/RG-066", "TITLE": "Indian Ridge", "REGION": "CO-Rio Grande", "ASSOCIATION": "USA - Colorado", "POINTS": "8", "BONUSPOINTS": "3"}}, {"type": "Feature", "geometry": {"type": "Point", "coordinates": [-107.055, 37.7933]}, "properties": {"NAME": "W0C/RG-067", "TITLE": "Bristol Head", "REGION": "CO-Rio Grande", "ASSOCIATION": "USA - Colorado", "POINTS": "8", "BONUSPOINTS": "3"}}, {"type": "Feature", "geometry": {"type": "Point", "coordinates": [-106.6544, 37.3419]}, "properties": {"NAME": "W0C/RG-068", "TITLE": "12690", "REGION": "CO-Rio Grande", "ASSOCIATION": "USA - Colorado", "POINTS": "8", "BONUSPOINTS": "3"}}, {"type": "Feature", "geometry": {"type": "Point", "coordinates": [-106.6541, 37.3076]}, "properties": {"NAME": "W0C/RG-069", "TITLE": "Velvet Benchmark", "REGION": "CO-Rio Grande", "ASSOCIATION": "USA - Colorado", "POINTS": "8", "BONUSPOINTS": "3"}}, {"type": "Feature", "geometry": {"type": "Point", "coordinates": [-107.0126, 37.5394]}, "properties": {"NAME": "W0C/RG-070", "TITLE": "12645", "REGION": "CO-Rio Grande", "ASSOCIATION": "USA - Colorado", "POINTS": "8", "BONUSPOINTS": "3"}}, {"type": "Feature", "geometry": {"type": "Point", "coordinates": [-107.2073, 38.1264]}, "properties": {"NAME": "W0C/RG-071", "TITLE": "Calf Creek Plateau", "REGION": "CO-Rio Grande", "ASSOCIATION": "USA - Colorado", "POINTS": "8", "BONUSPOINTS": "3"}}, {"type": "Feature", "geometry": {"type": "Point", "coordinates": [-107.0667, 37.4439]}, "properties": {"NAME": "W0C/RG-072", "TITLE": "Pagosa Peak", "REGION": "CO-Rio Grande", "ASSOCIATION": "USA - Colorado", "POINTS": "8", "BONUSPOINTS": "3"}}, {"type": "Feature", "geometry": {"type": "Point", "coordinates": [-107.0569, 37.4737]}, "properties": {"NAME": "W0C/RG-073", "TITLE": "12603", "REGION": "CO-Rio Grande", "ASSOCIATION": "USA - Colorado", "POINTS": "8", "BONUSPOINTS": "3"}}, {"type": "Feature", "geometry": {"type": "Point", "coordinates": [-107.092, 37.5253]}, "properties": {"NAME": "W0C/RG-074", "TITLE": "Sugarloaf Mountain", "REGION": "CO-Rio Grande", "ASSOCIATION": "USA - Colorado", "POINTS": "8", "BONUSPOINTS": "3"}}, {"type": "Feature", "geometry": {"type": "Point", "coordinates": [-107.0351, 37.4754]}, "properties": {"NAME": "W0C/RG-075", "TITLE": "12580", "REGION": "CO-Rio Grande", "ASSOCIATION": "USA - Colorado", "POINTS": "8", "BONUSPOINTS": "3"}}, {"type": "Feature", "geometry": {"type": "Point", "coordinates": [-106.5964, 37.4088]}, "properties": {"NAME": "W0C/RG-076", "TITLE": "Cropsy Mountain", "REGION": "CO-Rio Grande", "ASSOCIATION": "USA - Colorado", "POINTS": "8", "BONUSPOINTS": "3"}}, {"type": "Feature", "geometry": {"type": "Point", "coordinates": [-106.5231, 37.277]}, "properties": {"NAME": "W0C/RG-077", "TITLE": "12555", "REGION": "CO-Rio Grande", "ASSOCIATION": "USA - Colorado", "POINTS": "8", "BONUSPOINTS": "3"}}, {"type": "Feature", "geometry": {"type": "Point", "coordinates": [-106.6746, 37.4038]}, "properties": {"NAME": "W0C/RG-078", "TITLE": "12550", "REGION": "CO-Rio Grande", "ASSOCIATION": "USA - Colorado", "POINTS": "8", "BONUSPOINTS": "3"}}, {"type": "Feature", "geometry": {"type": "Point", "coordinates": [-107.3762, 37.4972]}, "properties": {"NAME": "W0C/RG-079", "TITLE": "Graham Peak", "REGION": "CO-Rio Grande", "ASSOCIATION": "USA - Colorado", "POINTS": "8", "BONUSPOINTS": "3"}}, {"type": "Feature", "geometry": {"type": "Point", "coordinates": [-107.0467, 37.5997]}, "properties": {"NAME": "W0C/RG-080", "TITLE": "12500", "REGION": "CO-Rio Grande", "ASSOCIATION": "USA - Colorado", "POINTS": "8", "BONUSPOINTS": "3"}}, {"type": "Feature", "geometry": {"type": "Point", "coordinates": [-107.1103, 37.5078]}, "properties": {"NAME": "W0C/RG-081", "TITLE": "Toner Mountain", "REGION": "CO-Rio Grande", "ASSOCIATION": "USA - Colorado", "POINTS": "6", "BONUSPOINTS": "3"}}, {"type": "Feature", "geometry": {"type": "Point", "coordinates": [-107.0237, 37.4623]}, "properties": {"NAME": "W0C/RG-082", "TITLE": "12473", "REGION": "CO-Rio Grande", "ASSOCIATION": "USA - Colorado", "POINTS": "6", "BONUSPOINTS": "3"}}, {"type": "Feature", "geometry": {"type": "Point", "coordinates": [-106.5928, 37.3895]}, "properties": {"NAME": "W0C/RG-083", "TITLE": "Lookout Mountain", "REGION": "CO-Rio Grande", "ASSOCIATION": "USA - Colorado", "POINTS": "6", "BONUSPOINTS": "3"}}, {"type": "Feature", "geometry": {"type": "Point", "coordinates": [-106.895, 37.5044]}, "properties": {"NAME": "W0C/RG-084", "TITLE": "Borns Benchmark", "REGION": "CO-Rio Grande", "ASSOCIATION": "USA - Colorado", "POINTS": "6", "BONUSPOINTS": "3"}}, {"type": "Feature", "geometry": {"type": "Point", "coordinates": [-106.5634, 37.5897]}, "properties": {"NAME": "W0C/RG-085", "TITLE": "Del Norte Peak", "REGION": "CO-Rio Grande", "ASSOCIATION": "USA - Colorado", "POINTS": "6", "BONUSPOINTS": "3"}}, {"type": "Feature", "geometry": {"type": "Point", "coordinates": [-106.902, 37.48]}, "properties": {"NAME": "W0C/RG-086", "TITLE": "Sheep Mountain", "REGION": "CO-Rio Grande", "ASSOCIATION": "USA - Colorado", "POINTS": "6", "BONUSPOINTS": "3"}}, {"type": "Feature", "geometry": {"type": "Point", "coordinates": [-107.3031, 37.6653]}, "properties": {"NAME": "W0C/RG-087", "TITLE": "12334", "REGION": "CO-Rio Grande", "ASSOCIATION": "USA - Colorado", "POINTS": "6", "BONUSPOINTS": "3"}}, {"type": "Feature", "geometry": {"type": "Point", "coordinates": [-107.0539, 37.5542]}, "properties": {"NAME": "W0C/RG-088", "TITLE": "12330", "REGION": "CO-Rio Grande", "ASSOCIATION": "USA - Colorado", "POINTS": "6", "BONUSPOINTS": "3"}}, {"type": "Feature", "geometry": {"type": "Point", "coordinates": [-107.0188, 37.5752]}, "properties": {"NAME": "W0C/RG-089", "TITLE": "Piedra Peak", "REGION": "CO-Rio Grande", "ASSOCIATION": "USA - Colorado", "POINTS": "6", "BONUSPOINTS": "3"}}, {"type": "Feature", "geometry": {"type": "Point", "coordinates": [-107.3676, 37.542]}, "properties": {"NAME": "W0C/RG-090", "TITLE": "Flag Mountain", "REGION": "CO-Rio Grande", "ASSOCIATION": "USA - Colorado", "POINTS": "6", "BONUSPOINTS": "3"}}, {"type": "Feature", "geometry": {"type": "Point", "coordinates": [-107.2678, 37.9378]}, "properties": {"NAME": "W0C/RG-091", "TITLE": "71 Mountain", "REGION": "CO-Rio Grande", "ASSOCIATION": "USA - Colorado", "POINTS": "6", "BONUSPOINTS": "3"}}, {"type": "Feature", "geometry": {"type": "Point", "coordinates": [-107.322, 37.7828]}, "properties": {"NAME": "W0C/RG-092", "TITLE": "Finger Mesa", "REGION": "CO-Rio Grande", "ASSOCIATION": "USA - Colorado", "POINTS": "6", "BONUSPOINTS": "3"}}, {"type": "Feature", "geometry": {"type": "Point", "coordinates": [-106.492, 37.3811]}, "properties": {"NAME": "W0C/RG-093", "TITLE": "Cornwall Mountain", "REGION": "CO-Rio Grande", "ASSOCIATION": "USA - Colorado", "POINTS": "6", "BONUSPOINTS": "3"}}, {"type": "Feature", "geometry": {"type": "Point", "coordinates": [-106.6234, 37.3871]}, "properties": {"NAME": "W0C/RG-094", "TITLE": "Sheepshead", "REGION": "CO-Rio Grande", "ASSOCIATION": "USA - Colorado", "POINTS": "6", "BONUSPOINTS": "3"}}, {"type": "Feature", "geometry": {"type": "Point", "coordinates": [-107.539, 38.1453]}, "properties": {"NAME": "W0C/RG-095", "TITLE": "Turret Ridge", "REGION": "CO-Rio Grande", "ASSOCIATION": "USA - Colorado", "POINTS": "6", "BONUSPOINTS": "3"}}, {"type": "Feature", "geometry": {"type": "Point", "coordinates": [-106.5751, 37.5041]}, "properties": {"NAME": "W0C/RG-096", "TITLE": "Hogback Mesa", "REGION": "CO-Rio Grande", "ASSOCIATION": "USA - Colorado", "POINTS": "6", "BONUSPOINTS": "3"}}, {"type": "Feature", "geometry": {"type": "Point", "coordinates": [-107.3348, 37.5514]}, "properties": {"NAME": "W0C/RG-097", "TITLE": "Bald Mountain", "REGION": "CO-Rio Grande", "ASSOCIATION": "USA - Colorado", "POINTS": "6", "BONUSPOINTS": "3"}}, {"type": "Feature", "geometry": {"type": "Point", "coordinates": [-107.0613, 37.5469]}, "properties": {"NAME": "W0C/RG-098", "TITLE": "12247", "REGION": "CO-Rio Grande", "ASSOCIATION": "USA - Colorado", "POINTS": "6", "BONUSPOINTS": "3"}}, {"type": "Feature", "geometry": {"type": "Point", "coordinates": [-107.2412, 37.9656]}, "properties": {"NAME": "W0C/RG-099", "TITLE": "Slumgullion Benchmark", "REGION": "CO-Rio Grande", "ASSOCIATION": "USA - Colorado", "POINTS": "6", "BONUSPOINTS": "3"}}, {"type": "Feature", "geometry": {"type": "Point", "coordinates": [-106.5213, 37.0897]}, "properties": {"NAME": "W0C/RG-100", "TITLE": "Flat Benchmark", "REGION": "CO-Rio Grande", "ASSOCIATION": "USA - Colorado", "POINTS": "6", "BONUSPOINTS": "3"}}, {"type": "Feature", "geometry": {"type": "Point", "coordinates": [-107.5739, 38.135]}, "properties": {"NAME": "W0C/RG-101", "TITLE": "Courthouse Mountain", "REGION": "CO-Rio Grande", "ASSOCIATION": "USA - Colorado", "POINTS": "6", "BONUSPOINTS": "3"}}, {"type": "Feature", "geometry": {"type": "Point", "coordinates": [-107.4114, 37.4689]}, "properties": {"NAME": "W0C/RG-102", "TITLE": "Granite Peak", "REGION": "CO-Rio Grande", "ASSOCIATION": "USA - Colorado", "POINTS": "6", "BONUSPOINTS": "3"}}, {"type": "Feature", "geometry": {"type": "Point", "coordinates": [-107.0093, 37.4336]}, "properties": {"NAME": "W0C/RG-103", "TITLE": "Eagle Peak No 2 Benchmark", "REGION": "CO-Rio Grande", "ASSOCIATION": "USA - Colorado", "POINTS": "6", "BONUSPOINTS": "3"}}, {"type": "Feature", "geometry": {"type": "Point", "coordinates": [-107.0059, 38.0239]}, "properties": {"NAME": "W0C/RG-104", "TITLE": "Mineral Mountain", "REGION": "CO-Rio Grande", "ASSOCIATION": "USA - Colorado", "POINTS": "6", "BONUSPOINTS": "3"}}, {"type": "Feature", "geometry": {"type": "Point", "coordinates": [-106.958, 37.4405]}, "properties": {"NAME": "W0C/RG-105", "TITLE": "Saddle Mountain", "REGION": "CO-Rio Grande", "ASSOCIATION": "USA - Colorado", "POINTS": "6", "BONUSPOINTS": "3"}}, {"type": "Feature", "geometry": {"type": "Point", "coordinates": [-106.44, 37.3442]}, "properties": {"NAME": "W0C/RG-106", "TITLE": "Red Mountain", "REGION": "CO-Rio Grande", "ASSOCIATION": "USA - Colorado", "POINTS": "6", "BONUSPOINTS": "3"}}, {"type": "Feature", "geometry": {"type": "Point", "coordinates": [-106.9013, 37.7497]}, "properties": {"NAME": "W0C/RG-107", "TITLE": "Snowshoe Mountain", "REGION": "CO-Rio Grande", "ASSOCIATION": "USA - Colorado", "POINTS": "6", "BONUSPOINTS": "3"}}, {"type": "Feature", "geometry": {"type": "Point", "coordinates": [-107.1669, 37.5379]}, "properties": {"NAME": "W0C/RG-108", "TITLE": "11985", "REGION": "CO-Rio Grande", "ASSOCIATION": "USA - Colorado", "POINTS": "6", "BONUSPOINTS": "3"}}, {"type": "Feature", "geometry": {"type": "Point", "coordinates": [-106.8852, 37.6996]}, "properties": {"NAME": "W0C/RG-109", "TITLE": "Cooper Mountain", "REGION": "CO-Rio Grande", "ASSOCIATION": "USA - Colorado", "POINTS": "6", "BONUSPOINTS": "3"}}, {"type": "Feature", "geometry": {"type": "Point", "coordinates": [-106.792, 37.6631]}, "properties": {"NAME": "W0C/RG-110", "TITLE": "Trout Mountain", "REGION": "CO-Rio Grande", "ASSOCIATION": "USA - Colorado", "POINTS": "6", "BONUSPOINTS": "3"}}, {"type": "Feature", "geometry": {"type": "Point", "coordinates": [-106.8239, 37.4559]}, "properties": {"NAME": "W0C/RG-111", "TITLE": "Treasure Mountain", "REGION": "CO-Rio Grande", "ASSOCIATION": "USA - Colorado", "POINTS": "6", "BONUSPOINTS": "3"}}, {"type": "Feature", "geometry": {"type": "Point", "coordinates": [-107.2257, 37.8367]}, "properties": {"NAME": "W0C/RG-112", "TITLE": "Black Mountain", "REGION": "CO-Rio Grande", "ASSOCIATION": "USA - Colorado", "POINTS": "6", "BONUSPOINTS": "3"}}, {"type": "Feature", "geometry": {"type": "Point", "coordinates": [-106.717, 37.4418]}, "properties": {"NAME": "W0C/RG-113", "TITLE": "11820", "REGION": "CO-Rio Grande", "ASSOCIATION": "USA - Colorado", "POINTS": "6", "BONUSPOINTS": "3"}}, {"type": "Feature", "geometry": {"type": "Point", "coordinates": [-106.6155, 37.3697]}, "properties": {"NAME": "W0C/RG-114", "TITLE": "11620", "REGION": "CO-Rio Grande", "ASSOCIATION": "USA - Colorado", "POINTS": "6", "BONUSPOINTS": "3"}}, {"type": "Feature", "geometry": {"type": "Point", "coordinates": [-106.5795, 37.3567]}, "properties": {"NAME": "W0C/RG-115", "TITLE": "Klondike Mountain", "REGION": "CO-Rio Grande", "ASSOCIATION": "USA - Colorado", "POINTS": "6", "BONUSPOINTS": "3"}}, {"type": "Feature", "geometry": {"type": "Point", "coordinates": [-106.7437, 37.506]}, "properties": {"NAME": "W0C/RG-116", "TITLE": "Fox Mountain", "REGION": "CO-Rio Grande", "ASSOCIATION": "USA - Colorado", "POINTS": "6", "BONUSPOINTS": "3"}}, {"type": "Feature", "geometry": {"type": "Point", "coordinates": [-106.6253, 37.6011]}, "properties": {"NAME": "W0C/RG-117", "TITLE": "Beaver Mountain", "REGION": "CO-Rio Grande", "ASSOCIATION": "USA - Colorado", "POINTS": "6", "BONUSPOINTS": "3"}}, {"type": "Feature", "geometry": {"type": "Point", "coordinates": [-106.5131, 37.3364]}, "properties": {"NAME": "W0C/RG-118", "TITLE": "Mammoth Mountain", "REGION": "CO-Rio Grande", "ASSOCIATION": "USA - Colorado", "POINTS": "6", "BONUSPOINTS": "3"}}, {"type": "Feature", "geometry": {"type": "Point", "coordinates": [-106.7335, 37.4586]}, "properties": {"NAME": "W0C/RG-119", "TITLE": "11300", "REGION": "CO-Rio Grande", "ASSOCIATION": "USA - Colorado", "POINTS": "6", "BONUSPOINTS": "3"}}, {"type": "Feature", "geometry": {"type": "Point", "coordinates": [-106.6182, 37.5196]}, "properties": {"NAME": "W0C/RG-120", "TITLE": "11206", "REGION": "CO-Rio Grande", "ASSOCIATION": "USA - Colorado", "POINTS": "6", "BONUSPOINTS": "3"}}, {"type": "Feature", "geometry": {"type": "Point", "coordinates": [-106.419, 37.1748]}, "properties": {"NAME": "W0C/RG-121", "TITLE": "Black Mountain", "REGION": "CO-Rio Grande", "ASSOCIATION": "USA - Colorado", "POINTS": "6", "BONUSPOINTS": "3"}}, {"type": "Feature", "geometry": {"type": "Point", "coordinates": [-106.2822, 37.444]}, "properties": {"NAME": "W0C/RG-122", "TITLE": "Green Ridge", "REGION": "CO-Rio Grande", "ASSOCIATION": "USA - Colorado", "POINTS": "6", "BONUSPOINTS": "3"}}, {"type": "Feature", "geometry": {"type": "Point", "coordinates": [-106.5145, 37.6087]}, "properties": {"NAME": "W0C/RG-123", "TITLE": "11153", "REGION": "CO-Rio Grande", "ASSOCIATION": "USA - Colorado", "POINTS": "6", "BONUSPOINTS": "3"}}, {"type": "Feature", "geometry": {"type": "Point", "coordinates": [-107.4155, 37.4327]}, "properties": {"NAME": "W0C/RG-124", "TITLE": "Slide Mountain", "REGION": "CO-Rio Grande", "ASSOCIATION": "USA - Colorado", "POINTS": "6", "BONUSPOINTS": "3"}}, {"type": "Feature", "geometry": {"type": "Point", "coordinates": [-106.7778, 37.7103]}, "properties": {"NAME": "W0C/RG-125", "TITLE": "Elk Mountain", "REGION": "CO-Rio Grande", "ASSOCIATION": "USA - Colorado", "POINTS": "6", "BONUSPOINTS": "3"}}, {"type": "Feature", "geometry": {"type": "Point", "coordinates": [-106.3767, 37.0603]}, "properties": {"NAME": "W0C/RG-126", "TITLE": "Pinorealosa Mountain", "REGION": "CO-Rio Grande", "ASSOCIATION": "USA - Colorado", "POINTS": "6", "BONUSPOINTS": "3"}}, {"type": "Feature", "geometry": {"type": "Point", "coordinates": [-106.6773, 37.5328]}, "properties": {"NAME": "W0C/RG-127", "TITLE": "Ribbon Mesa", "REGION": "CO-Rio Grande", "ASSOCIATION": "USA - Colorado", "POINTS": "6", "BONUSPOINTS": "3"}}, {"type": "Feature", "geometry": {"type": "Point", "coordinates": [-106.4391, 37.0301]}, "properties": {"NAME": "W0C/RG-128", "TITLE": "Neff Mountain", "REGION": "CO-Rio Grande", "ASSOCIATION": "USA - Colorado", "POINTS": "6", "BONUSPOINTS": "3"}}, {"type": "Feature", "geometry": {"type": "Point", "coordinates": [-107.2142, 37.75]}, "properties": {"NAME": "W0C/RG-129", "TITLE": "Park Benchmark", "REGION": "CO-Rio Grande", "ASSOCIATION": "USA - Colorado", "POINTS": "6", "BONUSPOINTS": "3"}}, {"type": "Feature", "geometry": {"type": "Point", "coordinates": [-106.6995, 37.5731]}, "properties": {"NAME": "W0C/RG-130", "TITLE": "Cattle Mountain", "REGION": "CO-Rio Grande", "ASSOCIATION": "USA - Colorado", "POINTS": "6", "BONUSPOINTS": "3"}}, {"type": "Feature", "geometry": {"type": "Point", "coordinates": [-106.6777, 37.5759]}, "properties": {"NAME": "W0C/RG-131", "TITLE": "10807", "REGION": "CO-Rio Grande", "ASSOCIATION": "USA - Colorado", "POINTS": "6", "BONUSPOINTS": "3"}}, {"type": "Feature", "geometry": {"type": "Point", "coordinates": [-107.211, 37.7772]}, "properties": {"NAME": "W0C/RG-132", "TITLE": "10780", "REGION": "CO-Rio Grande", "ASSOCIATION": "USA - Colorado", "POINTS": "6", "BONUSPOINTS": "3"}}, {"type": "Feature", "geometry": {"type": "Point", "coordinates": [-107.1958, 37.7665]}, "properties": {"NAME": "W0C/RG-133", "TITLE": "Shotgun Mountain", "REGION": "CO-Rio Grande", "ASSOCIATION": "USA - Colorado", "POINTS": "6", "BONUSPOINTS": "3"}}, {"type": "Feature", "geometry": {"type": "Point", "coordinates": [-106.6711, 37.5608]}, "properties": {"NAME": "W0C/RG-134", "TITLE": "Demijohn Peak", "REGION": "CO-Rio Grande", "ASSOCIATION": "USA - Colorado", "POINTS": "6", "BONUSPOINTS": "3"}}, {"type": "Feature", "geometry": {"type": "Point", "coordinates": [-106.3459, 37.3434]}, "properties": {"NAME": "W0C/RG-135", "TITLE": "10671", "REGION": "CO-Rio Grande", "ASSOCIATION": "USA - Colorado", "POINTS": "6", "BONUSPOINTS": "3"}}, {"type": "Feature", "geometry": {"type": "Point", "coordinates": [-107.1737, 37.757]}, "properties": {"NAME": "W0C/RG-136", "TITLE": "10664", "REGION": "CO-Rio Grande", "ASSOCIATION": "USA - Colorado", "POINTS": "6", "BONUSPOINTS": "3"}}, {"type": "Feature", "geometry": {"type": "Point", "coordinates": [-106.7467, 37.6247]}, "properties": {"NAME": "W0C/RG-137", "TITLE": "Goodrich Peak", "REGION": "CO-Rio Grande", "ASSOCIATION": "USA - Colorado", "POINTS": "6", "BONUSPOINTS": "3"}}, {"type": "Feature", "geometry": {"type": "Point", "coordinates": [-107.4769, 37.446]}, "properties": {"NAME": "W0C/RG-138", "TITLE": "10580", "REGION": "CO-Rio Grande", "ASSOCIATION": "USA - Colorado", "POINTS": "6", "BONUSPOINTS": "3"}}, {"type": "Feature", "geometry": {"type": "Point", "coordinates": [-106.8596, 37.4206]}, "properties": {"NAME": "W0C/RG-139", "TITLE": "10454", "REGION": "CO-Rio Grande", "ASSOCIATION": "USA - Colorado", "POINTS": "4", "BONUSPOINTS": "3"}}, {"type": "Feature", "geometry": {"type": "Point", "coordinates": [-106.3637, 37.3966]}, "properties": {"NAME": "W0C/RG-140", "TITLE": "10434", "REGION": "CO-Rio Grande", "ASSOCIATION": "USA - Colorado", "POINTS": "4", "BONUSPOINTS": "3"}}, {"type": "Feature", "geometry": {"type": "Point", "coordinates": [-106.3499, 37.3881]}, "properties": {"NAME": "W0C/RG-141", "TITLE": "10299", "REGION": "CO-Rio Grande", "ASSOCIATION": "USA - Colorado", "POINTS": "4", "BONUSPOINTS": "3"}}, {"type": "Feature", "geometry": {"type": "Point", "coordinates": [-107.089, 37.7863]}, "properties": {"NAME": "W0C/RG-142", "TITLE": "Long Ridge", "REGION": "CO-Rio Grande", "ASSOCIATION": "USA - Colorado", "POINTS": "4", "BONUSPOINTS": "3"}}, {"type": "Feature", "geometry": {"type": "Point", "coordinates": [-106.4549, 37.5594]}, "properties": {"NAME": "W0C/RG-143", "TITLE": "10220", "REGION": "CO-Rio Grande", "ASSOCIATION": "USA - Colorado", "POINTS": "4", "BONUSPOINTS": "3"}}, {"type": "Feature", "geometry": {"type": "Point", "coordinates": [-107.133, 37.4872]}, "properties": {"NAME": "W0C/RG-144", "TITLE": "Rock Mountain", "REGION": "CO-Rio Grande", "ASSOCIATION": "USA - Colorado", "POINTS": "4", "BONUSPOINTS": "3"}}, {"type": "Feature", "geometry": {"type": "Point", "coordinates": [-107.0503, 37.7486]}, "properties": {"NAME": "W0C/RG-145", "TITLE": "Antelope Mountain", "REGION": "CO-Rio Grande", "ASSOCIATION": "USA - Colorado", "POINTS": "4", "BONUSPOINTS": "3"}}, {"type": "Feature", "geometry": {"type": "Point", "coordinates": [-106.6883, 37.6749]}, "properties": {"NAME": "W0C/RG-146", "TITLE": "Sentinel Peak", "REGION": "CO-Rio Grande", "ASSOCIATION": "USA - Colorado", "POINTS": "4", "BONUSPOINTS": "3"}}, {"type": "Feature", "geometry": {"type": "Point", "coordinates": [-106.6642, 37.7045]}, "properties": {"NAME": "W0C/RG-147", "TITLE": "9908", "REGION": "CO-Rio Grande", "ASSOCIATION": "USA - Colorado", "POINTS": "4", "BONUSPOINTS": "3"}}, {"type": "Feature", "geometry": {"type": "Point", "coordinates": [-107.1945, 37.5031]}, "properties": {"NAME": "W0C/RG-148", "TITLE": "9890", "REGION": "CO-Rio Grande", "ASSOCIATION": "USA - Colorado", "POINTS": "4", "BONUSPOINTS": "3"}}, {"type": "Feature", "geometry": {"type": "Point", "coordinates": [-106.1723, 37.0777]}, "properties": {"NAME": "W0C/RG-149", "TITLE": "Los Mogotes", "REGION": "CO-Rio Grande", "ASSOCIATION": "USA - Colorado", "POINTS": "4", "BONUSPOINTS": "3"}}, {"type": "Feature", "geometry": {"type": "Point", "coordinates": [-106.8347, 37.8182]}, "properties": {"NAME": "W0C/RG-150", "TITLE": "9733", "REGION": "CO-Rio Grande", "ASSOCIATION": "USA - Colorado", "POINTS": "4", "BONUSPOINTS": "3"}}, {"type": "Feature", "geometry": {"type": "Point", "coordinates": [-106.6319, 37.7074]}, "properties": {"NAME": "W0C/RG-151", "TITLE": "9666", "REGION": "CO-Rio Grande", "ASSOCIATION": "USA - Colorado", "POINTS": "4", "BONUSPOINTS": "3"}}, {"type": "Feature", "geometry": {"type": "Point", "coordinates": [-106.3464, 37.605]}, "properties": {"NAME": "W0C/RG-152", "TITLE": "Dog Mountain", "REGION": "CO-Rio Grande", "ASSOCIATION": "USA - Colorado", "POINTS": "4", "BONUSPOINTS": "3"}}, {"type": "Feature", "geometry": {"type": "Point", "coordinates": [-106.2447, 37.3512]}, "properties": {"NAME": "W0C/RG-153", "TITLE": "Chiquito Peak", "REGION": "CO-Rio Grande", "ASSOCIATION": "USA - Colorado", "POINTS": "4", "BONUSPOINTS": "3"}}, {"type": "Feature", "geometry": {"type": "Point", "coordinates": [-105.8238, 37.1396]}, "properties": {"NAME": "W0C/RG-154", "TITLE": "PiÃ±on Hills", "REGION": "CO-Rio Grande", "ASSOCIATION": "USA - Colorado", "POINTS": "4", "BONUSPOINTS": "3"}}, {"type": "Feature", "geometry": {"type": "Point", "coordinates": [-106.4084, 37.6182]}, "properties": {"NAME": "W0C/RG-155", "TITLE": "9223", "REGION": "CO-Rio Grande", "ASSOCIATION": "USA - Colorado", "POINTS": "4", "BONUSPOINTS": "3"}}, {"type": "Feature", "geometry": {"type": "Point", "coordinates": [-105.8081, 37.2123]}, "properties": {"NAME": "W0C/RG-156", "TITLE": "Flat Top", "REGION": "CO-Rio Grande", "ASSOCIATION": "USA - Colorado", "POINTS": "4", "BONUSPOINTS": "3"}}, {"type": "Feature", "geometry": {"type": "Point", "coordinates": [-107.2184, 37.4818]}, "properties": {"NAME": "W0C/RG-157", "TITLE": "Trail Ridge", "REGION": "CO-Rio Grande", "ASSOCIATION": "USA - Colorado", "POINTS": "2", "BONUSPOINTS": "0"}}, {"type": "Feature", "geometry": {"type": "Point", "coordinates": [-106.3525, 37.6356]}, "properties": {"NAME": "W0C/RG-158", "TITLE": "8893", "REGION": "CO-Rio Grande", "ASSOCIATION": "USA - Colorado", "POINTS": "2", "BONUSPOINTS": "0"}}, {"type": "Feature", "geometry": {"type": "Point", "coordinates": [-106.364, 37.7368]}, "properties": {"NAME": "W0C/RG-159", "TITLE": "8865", "REGION": "CO-Rio Grande", "ASSOCIATION": "USA - Colorado", "POINTS": "2", "BONUSPOINTS": "0"}}, {"type": "Feature", "geometry": {"type": "Point", "coordinates": [-106.3485, 37.7398]}, "properties": {"NAME": "W0C/RG-160", "TITLE": "East Butte", "REGION": "CO-Rio Grande", "ASSOCIATION": "USA - Colorado", "POINTS": "2", "BONUSPOINTS": "0"}}, {"type": "Feature", "geometry": {"type": "Point", "coordinates": [-105.8084, 37.0709]}, "properties": {"NAME": "W0C/RG-161", "TITLE": "South PiÃ±on Hills", "REGION": "CO-Rio Grande", "ASSOCIATION": "USA - Colorado", "POINTS": "2", "BONUSPOINTS": "0"}}, {"type": "Feature", "geometry": {"type": "Point", "coordinates": [-105.7993, 37.2486]}, "properties": {"NAME": "W0C/RG-162", "TITLE": "8348", "REGION": "CO-Rio Grande", "ASSOCIATION": "USA - Colorado", "POINTS": "2", "BONUSPOINTS": "0"}}, {"type": "Feature", "geometry": {"type": "Point", "coordinates": [-105.7841, 37.2633]}, "properties": {"NAME": "W0C/RG-163", "TITLE": "8308", "REGION": "CO-Rio Grande", "ASSOCIATION": "USA - Colorado", "POINTS": "2", "BONUSPOINTS": "0"}}, {"type": "Feature", "geometry": {"type": "Point", "coordinates": [-105.7929, 36.9974]}, "properties": {"NAME": "W0C/RG-164", "TITLE": "Twin Benchmark", "REGION": "CO-Rio Grande", "ASSOCIATION": "USA - Colorado", "POINTS": "2", "BONUSPOINTS": "0"}}, {"type": "Feature", "geometry": {"type": "Point", "coordinates": [-105.7959, 37.2843]}, "properties": {"NAME": "W0C/RG-165", "TITLE": "Sierro del Ojito", "REGION": "CO-Rio Grande", "ASSOCIATION": "USA - Colorado", "POINTS": "2", "BONUSPOINTS": "0"}}, {"type": "Feature", "geometry": {"type": "Point", "coordinates": [-107.0792, 37.9537]}, "properties": {"NAME": "W0C/RG-166", "TITLE": "13162", "REGION": "CO-Rio Grande", "ASSOCIATION": "USA - Colorado", "POINTS": "8", "BONUSPOINTS": "3"}}, {"type": "Feature", "geometry": {"type": "Point", "coordinates": [-107.3838, 37.7508]}, "properties": {"NAME": "W0C/RG-167", "TITLE": "12114", "REGION": "CO-Rio Grande", "ASSOCIATION": "USA - Colorado", "POINTS": "6", "BONUSPOINTS": "3"}}, {"type": "Feature", "geometry": {"type": "Point", "coordinates": [-107.0193, 37.8693]}, "properties": {"NAME": "W0C/RG-168", "TITLE": "11961", "REGION": "CO-Rio Grande", "ASSOCIATION": "USA - Colorado", "POINTS": "6", "BONUSPOINTS": "3"}}, {"type": "Feature", "geometry": {"type": "Point", "coordinates": [-106.8162, 37.4991]}, "properties": {"NAME": "W0C/RG-169", "TITLE": "11820", "REGION": "CO-Rio Grande", "ASSOCIATION": "USA - Colorado", "POINTS": "6", "BONUSPOINTS": "3"}}, {"type": "Feature", "geometry": {"type": "Point", "coordinates": [-107.1678, 37.7748]}, "properties": {"NAME": "W0C/RG-170", "TITLE": "10620", "REGION": "CO-Rio Grande", "ASSOCIATION": "USA - Colorado", "POINTS": "6", "BONUSPOINTS": "3"}}, {"type": "Feature", "geometry": {"type": "Point", "coordinates": [-106.7009, 37.5922]}, "properties": {"NAME": "W0C/RG-171", "TITLE": "Grouse Mountain", "REGION": "CO-Rio Grande", "ASSOCIATION": "USA - Colorado", "POINTS": "4", "BONUSPOINTS": "3"}}, {"type": "Feature", "geometry": {"type": "Point", "coordinates": [-105.821, 37.1598]}, "properties": {"NAME": "W0C/RG-172", "TITLE": "8673", "REGION": "CO-Rio Grande", "ASSOCIATION": "USA - Colorado", "POINTS": "2", "BONUSPOINTS": "0"}}, {"type": "Feature", "geometry": {"type": "Point", "coordinates": [-106.3898, 37.7176]}, "properties": {"NAME": "W0C/RG-173", "TITLE": "8588", "REGION": "CO-Rio Grande", "ASSOCIATION": "USA - Colorado", "POINTS": "2", "BONUSPOINTS": "0"}}, {"type": "Feature", "geometry": {"type": "Point", "coordinates": [-105.913, 37.0268]}, "properties": {"NAME": "W0C/RG-174", "TITLE": "Saritas Benchmark", "REGION": "CO-Rio Grande", "ASSOCIATION": "USA - Colorado", "POINTS": "2", "BONUSPOINTS": "0"}}]}