{"type": "FeatureCollection", "name": "W0C/UR SUMMITS", "features": [{"type": "Feature", "geometry": {"type": "Point", "coordinates": [-107.7923, 38.0036]}, "properties": {"NAME": "W0C/UR-001", "TITLE": "Mount Sneffels", "REGION": "CO-Uncompahgre", "ASSOCIATION": "USA - Colorado", "POINTS": "10", "BONUSPOINTS": "3"}}, {"type": "Feature", "geometry": {"type": "Point", "coordinates": [-107.7618, 38.0006]}, "properties": {"NAME": "W0C/UR-002", "TITLE": "Teakettle Mountain", "REGION": "CO-Uncompahgre", "ASSOCIATION": "USA - Colorado", "POINTS": "10", "BONUSPOINTS": "3"}}, {"type": "Feature", "geometry": {"type": "Point", "coordinates": [-107.8234, 37.9882]}, "properties": {"NAME": "W0C/UR-003", "TITLE": "Dallas Peak", "REGION": "CO-Uncompahgre", "ASSOCIATION": "USA - Colorado", "POINTS": "10", "BONUSPOINTS": "3"}}, {"type": "Feature", "geometry": {"type": "Point", "coordinates": [-107.7493, 37.9897]}, "properties": {"NAME": "W0C/UR-004", "TITLE": "Potosi Peak", "REGION": "CO-Uncompahgre", "ASSOCIATION": "USA - Colorado", "POINTS": "10", "BONUSPOINTS": "3"}}, {"type": "Feature", "geometry": {"type": "Point", "coordinates": [-107.7715, 38.0038]}, "properties": {"NAME": "W0C/UR-005", "TITLE": "Cirque Mountain", "REGION": "CO-Uncompahgre", "ASSOCIATION": "USA - Colorado", "POINTS": "10", "BONUSPOINTS": "3"}}, {"type": "Feature", "geometry": {"type": "Point", "coordinates": [-107.7377, 37.9175]}, "properties": {"NAME": "W0C/UR-006", "TITLE": "13510", "REGION": "CO-Uncompahgre", "ASSOCIATION": "USA - Colorado", "POINTS": "10", "BONUSPOINTS": "3"}}, {"type": "Feature", "geometry": {"type": "Point", "coordinates": [-107.862, 38.0094]}, "properties": {"NAME": "W0C/UR-007", "TITLE": "Mears Peak", "REGION": "CO-Uncompahgre", "ASSOCIATION": "USA - Colorado", "POINTS": "8", "BONUSPOINTS": "3"}}, {"type": "Feature", "geometry": {"type": "Point", "coordinates": [-107.738, 38.0202]}, "properties": {"NAME": "W0C/UR-008", "TITLE": "Whitehouse Mountain", "REGION": "CO-Uncompahgre", "ASSOCIATION": "USA - Colorado", "POINTS": "8", "BONUSPOINTS": "3"}}, {"type": "Feature", "geometry": {"type": "Point", "coordinates": [-107.6377, 37.9209]}, "properties": {"NAME": "W0C/UR-009", "TITLE": "Brown Mountain", "REGION": "CO-Uncompahgre", "ASSOCIATION": "USA - Colorado", "POINTS": "8", "BONUSPOINTS": "3"}}, {"type": "Feature", "geometry": {"type": "Point", "coordinates": [-107.5775, 38.0133]}, "properties": {"NAME": "W0C/UR-010", "TITLE": "Wildhorse Peak", "REGION": "CO-Uncompahgre", "ASSOCIATION": "USA - Colorado", "POINTS": "8", "BONUSPOINTS": "3"}}, {"type": "Feature", "geometry": {"type": "Point", "coordinates": [-107.8911, 38.0147]}, "properties": {"NAME": "W0C/UR-011", "TITLE": "S 8", "REGION": "CO-Uncompahgre", "ASSOCIATION": "USA - Colorado", "POINTS": "8", "BONUSPOINTS": "3"}}, {"type": "Feature", "geometry": {"type": "Point", "coordinates": [-107.7025, 37.9545]}, "properties": {"NAME": "W0C/UR-012", "TITLE": "South Hayden Mountain", "REGION": "CO-Uncompahgre", "ASSOCIATION": "USA - Colorado", "POINTS": "8", "BONUSPOINTS": "3"}}, {"type": "Feature", "geometry": {"type": "Point", "coordinates": [-107.6892, 37.9679]}, "properties": {"NAME": "W0C/UR-013", "TITLE": "North Hayden Mountain", "REGION": "CO-Uncompahgre", "ASSOCIATION": "USA - Colorado", "POINTS": "8", "BONUSPOINTS": "3"}}, {"type": "Feature", "geometry": {"type": "Point", "coordinates": [-107.5974, 37.9931]}, "properties": {"NAME": "W0C/UR-014", "TITLE": "13132", "REGION": "CO-Uncompahgre", "ASSOCIATION": "USA - Colorado", "POINTS": "8", "BONUSPOINTS": "3"}}, {"type": "Feature", "geometry": {"type": "Point", "coordinates": [-107.6211, 38.0201]}, "properties": {"NAME": "W0C/UR-015", "TITLE": "Cow Benchmark", "REGION": "CO-Uncompahgre", "ASSOCIATION": "USA - Colorado", "POINTS": "8", "BONUSPOINTS": "3"}}, {"type": "Feature", "geometry": {"type": "Point", "coordinates": [-107.6892, 37.9017]}, "properties": {"NAME": "W0C/UR-016", "TITLE": "Red Mountain No. 3", "REGION": "CO-Uncompahgre", "ASSOCIATION": "USA - Colorado", "POINTS": "8", "BONUSPOINTS": "3"}}, {"type": "Feature", "geometry": {"type": "Point", "coordinates": [-107.6623, 37.9103]}, "properties": {"NAME": "W0C/UR-017", "TITLE": "Red Mountain No. 1", "REGION": "CO-Uncompahgre", "ASSOCIATION": "USA - Colorado", "POINTS": "8", "BONUSPOINTS": "3"}}, {"type": "Feature", "geometry": {"type": "Point", "coordinates": [-107.61, 38.0543]}, "properties": {"NAME": "W0C/UR-018", "TITLE": "Dexter Mountain", "REGION": "CO-Uncompahgre", "ASSOCIATION": "USA - Colorado", "POINTS": "6", "BONUSPOINTS": "3"}}, {"type": "Feature", "geometry": {"type": "Point", "coordinates": [-107.6627, 39.0395]}, "properties": {"NAME": "W0C/UR-019", "TITLE": "Crater Peak", "REGION": "CO-Uncompahgre", "ASSOCIATION": "USA - Colorado", "POINTS": "6", "BONUSPOINTS": "3"}}, {"type": "Feature", "geometry": {"type": "Point", "coordinates": [-107.6592, 39.1125]}, "properties": {"NAME": "W0C/UR-020", "TITLE": "Chalk Mountain", "REGION": "CO-Uncompahgre", "ASSOCIATION": "USA - Colorado", "POINTS": "6", "BONUSPOINTS": "3"}}, {"type": "Feature", "geometry": {"type": "Point", "coordinates": [-107.7713, 39.0437]}, "properties": {"NAME": "W0C/UR-021", "TITLE": "11010", "REGION": "CO-Uncompahgre", "ASSOCIATION": "USA - Colorado", "POINTS": "6", "BONUSPOINTS": "3"}}, {"type": "Feature", "geometry": {"type": "Point", "coordinates": [-107.5219, 39.1972]}, "properties": {"NAME": "W0C/UR-022", "TITLE": "Spruce Mountain", "REGION": "CO-Uncompahgre", "ASSOCIATION": "USA - Colorado", "POINTS": "6", "BONUSPOINTS": "3"}}, {"type": "Feature", "geometry": {"type": "Point", "coordinates": [-107.5517, 38.7708]}, "properties": {"NAME": "W0C/UR-023", "TITLE": "Landsend Peak", "REGION": "CO-Uncompahgre", "ASSOCIATION": "USA - Colorado", "POINTS": "6", "BONUSPOINTS": "3"}}, {"type": "Feature", "geometry": {"type": "Point", "coordinates": [-107.9316, 38.1935]}, "properties": {"NAME": "W0C/UR-024", "TITLE": "Horsefly Peak", "REGION": "CO-Uncompahgre", "ASSOCIATION": "USA - Colorado", "POINTS": "4", "BONUSPOINTS": "3"}}, {"type": "Feature", "geometry": {"type": "Point", "coordinates": [-107.5608, 39.0786]}, "properties": {"NAME": "W0C/UR-025", "TITLE": "Electric Mountain", "REGION": "CO-Uncompahgre", "ASSOCIATION": "USA - Colorado", "POINTS": "4", "BONUSPOINTS": "3"}}, {"type": "Feature", "geometry": {"type": "Point", "coordinates": [-108.2149, 38.3167]}, "properties": {"NAME": "W0C/UR-026", "TITLE": "10012", "REGION": "CO-Uncompahgre", "ASSOCIATION": "USA - Colorado", "POINTS": "4", "BONUSPOINTS": "3"}}, {"type": "Feature", "geometry": {"type": "Point", "coordinates": [-107.5156, 38.7052]}, "properties": {"NAME": "W0C/UR-027", "TITLE": "South Saddle Peak", "REGION": "CO-Uncompahgre", "ASSOCIATION": "USA - Colorado", "POINTS": "4", "BONUSPOINTS": "3"}}, {"type": "Feature", "geometry": {"type": "Point", "coordinates": [-108.1037, 38.2736]}, "properties": {"NAME": "W0C/UR-028", "TITLE": "9980", "REGION": "CO-Uncompahgre", "ASSOCIATION": "USA - Colorado", "POINTS": "4", "BONUSPOINTS": "3"}}, {"type": "Feature", "geometry": {"type": "Point", "coordinates": [-108.0348, 38.2224]}, "properties": {"NAME": "W0C/UR-029", "TITLE": "9904", "REGION": "CO-Uncompahgre", "ASSOCIATION": "USA - Colorado", "POINTS": "4", "BONUSPOINTS": "3"}}, {"type": "Feature", "geometry": {"type": "Point", "coordinates": [-108.5686, 38.4783]}, "properties": {"NAME": "W0C/UR-030", "TITLE": "9868", "REGION": "CO-Uncompahgre", "ASSOCIATION": "USA - Colorado", "POINTS": "4", "BONUSPOINTS": "3"}}, {"type": "Feature", "geometry": {"type": "Point", "coordinates": [-107.8331, 38.0788]}, "properties": {"NAME": "W0C/UR-031", "TITLE": "South Baldy", "REGION": "CO-Uncompahgre", "ASSOCIATION": "USA - Colorado", "POINTS": "4", "BONUSPOINTS": "3"}}, {"type": "Feature", "geometry": {"type": "Point", "coordinates": [-107.9002, 38.1178]}, "properties": {"NAME": "W0C/UR-032", "TITLE": "West Baldy", "REGION": "CO-Uncompahgre", "ASSOCIATION": "USA - Colorado", "POINTS": "4", "BONUSPOINTS": "3"}}, {"type": "Feature", "geometry": {"type": "Point", "coordinates": [-107.6189, 38.4726]}, "properties": {"NAME": "W0C/UR-033", "TITLE": "Poverty Mesa", "REGION": "CO-Uncompahgre", "ASSOCIATION": "USA - Colorado", "POINTS": "4", "BONUSPOINTS": "3"}}, {"type": "Feature", "geometry": {"type": "Point", "coordinates": [-107.5015, 38.4267]}, "properties": {"NAME": "W0C/UR-034", "TITLE": "9266", "REGION": "CO-Uncompahgre", "ASSOCIATION": "USA - Colorado", "POINTS": "4", "BONUSPOINTS": "3"}}, {"type": "Feature", "geometry": {"type": "Point", "coordinates": [-107.6446, 38.5552]}, "properties": {"NAME": "W0C/UR-035", "TITLE": "Poison Spring Hill", "REGION": "CO-Uncompahgre", "ASSOCIATION": "USA - Colorado", "POINTS": "4", "BONUSPOINTS": "3"}}, {"type": "Feature", "geometry": {"type": "Point", "coordinates": [-107.6601, 38.4909]}, "properties": {"NAME": "W0C/UR-036", "TITLE": "Coffee Pot Hill", "REGION": "CO-Uncompahgre", "ASSOCIATION": "USA - Colorado", "POINTS": "4", "BONUSPOINTS": "3"}}, {"type": "Feature", "geometry": {"type": "Point", "coordinates": [-107.5873, 38.5147]}, "properties": {"NAME": "W0C/UR-037", "TITLE": "Pine Ridge", "REGION": "CO-Uncompahgre", "ASSOCIATION": "USA - Colorado", "POINTS": "2", "BONUSPOINTS": "0"}}, {"type": "Feature", "geometry": {"type": "Point", "coordinates": [-107.6006, 38.9318]}, "properties": {"NAME": "W0C/UR-038", "TITLE": "8787", "REGION": "CO-Uncompahgre", "ASSOCIATION": "USA - Colorado", "POINTS": "2", "BONUSPOINTS": "0"}}, {"type": "Feature", "geometry": {"type": "Point", "coordinates": [-107.5367, 38.4461]}, "properties": {"NAME": "W0C/UR-039", "TITLE": "Cimarron Benchmark", "REGION": "CO-Uncompahgre", "ASSOCIATION": "USA - Colorado", "POINTS": "2", "BONUSPOINTS": "0"}}, {"type": "Feature", "geometry": {"type": "Point", "coordinates": [-107.7355, 38.5949]}, "properties": {"NAME": "W0C/UR-040", "TITLE": "Green Mountain", "REGION": "CO-Uncompahgre", "ASSOCIATION": "USA - Colorado", "POINTS": "2", "BONUSPOINTS": "0"}}, {"type": "Feature", "geometry": {"type": "Point", "coordinates": [-107.728, 38.3075]}, "properties": {"NAME": "W0C/UR-041", "TITLE": "8203", "REGION": "CO-Uncompahgre", "ASSOCIATION": "USA - Colorado", "POINTS": "2", "BONUSPOINTS": "0"}}, {"type": "Feature", "geometry": {"type": "Point", "coordinates": [-107.7896, 38.2585]}, "properties": {"NAME": "W0C/UR-042", "TITLE": "McKenzie Butte", "REGION": "CO-Uncompahgre", "ASSOCIATION": "USA - Colorado", "POINTS": "2", "BONUSPOINTS": "0"}}, {"type": "Feature", "geometry": {"type": "Point", "coordinates": [-107.7221, 38.2826]}, "properties": {"NAME": "W0C/UR-043", "TITLE": "7955", "REGION": "CO-Uncompahgre", "ASSOCIATION": "USA - Colorado", "POINTS": "1", "BONUSPOINTS": "0"}}, {"type": "Feature", "geometry": {"type": "Point", "coordinates": [-107.5498, 38.7245]}, "properties": {"NAME": "W0C/UR-044", "TITLE": "Needle Rock", "REGION": "CO-Uncompahgre", "ASSOCIATION": "USA - Colorado", "POINTS": "1", "BONUSPOINTS": "0"}}, {"type": "Feature", "geometry": {"type": "Point", "coordinates": [-107.7272, 38.1847]}, "properties": {"NAME": "W0C/UR-045", "TITLE": "7841", "REGION": "CO-Uncompahgre", "ASSOCIATION": "USA - Colorado", "POINTS": "1", "BONUSPOINTS": "0"}}, {"type": "Feature", "geometry": {"type": "Point", "coordinates": [-107.7996, 38.5879]}, "properties": {"NAME": "W0C/UR-046", "TITLE": "Red Rock Benchmark", "REGION": "CO-Uncompahgre", "ASSOCIATION": "USA - Colorado", "POINTS": "1", "BONUSPOINTS": "0"}}, {"type": "Feature", "geometry": {"type": "Point", "coordinates": [-108.9457, 38.4726]}, "properties": {"NAME": "W0C/UR-047", "TITLE": "Sewemup Mesa", "REGION": "CO-Uncompahgre", "ASSOCIATION": "USA - Colorado", "POINTS": "1", "BONUSPOINTS": "0"}}, {"type": "Feature", "geometry": {"type": "Point", "coordinates": [-107.7995, 38.6713]}, "properties": {"NAME": "W0C/UR-048", "TITLE": "Black Ridge", "REGION": "CO-Uncompahgre", "ASSOCIATION": "USA - Colorado", "POINTS": "1", "BONUSPOINTS": "0"}}, {"type": "Feature", "geometry": {"type": "Point", "coordinates": [-108.6139, 38.1583]}, "properties": {"NAME": "W0C/UR-049", "TITLE": "Naturita Ridge", "REGION": "CO-Uncompahgre", "ASSOCIATION": "USA - Colorado", "POINTS": "1", "BONUSPOINTS": "0"}}, {"type": "Feature", "geometry": {"type": "Point", "coordinates": [-108.6729, 38.1879]}, "properties": {"NAME": "W0C/UR-050", "TITLE": "Coke Benchmark", "REGION": "CO-Uncompahgre", "ASSOCIATION": "USA - Colorado", "POINTS": "1", "BONUSPOINTS": "0"}}, {"type": "Feature", "geometry": {"type": "Point", "coordinates": [-108.8776, 38.254]}, "properties": {"NAME": "W0C/UR-051", "TITLE": "Skein Mesa", "REGION": "CO-Uncompahgre", "ASSOCIATION": "USA - Colorado", "POINTS": "1", "BONUSPOINTS": "0"}}, {"type": "Feature", "geometry": {"type": "Point", "coordinates": [-107.8482, 38.6187]}, "properties": {"NAME": "W0C/UR-052", "TITLE": "7113", "REGION": "CO-Uncompahgre", "ASSOCIATION": "USA - Colorado", "POINTS": "1", "BONUSPOINTS": "0"}}, {"type": "Feature", "geometry": {"type": "Point", "coordinates": [-107.8515, 38.7003]}, "properties": {"NAME": "W0C/UR-053", "TITLE": "6991", "REGION": "CO-Uncompahgre", "ASSOCIATION": "USA - Colorado", "POINTS": "1", "BONUSPOINTS": "0"}}, {"type": "Feature", "geometry": {"type": "Point", "coordinates": [-108.7757, 38.3026]}, "properties": {"NAME": "W0C/UR-054", "TITLE": "6955", "REGION": "CO-Uncompahgre", "ASSOCIATION": "USA - Colorado", "POINTS": "1", "BONUSPOINTS": "0"}}, {"type": "Feature", "geometry": {"type": "Point", "coordinates": [-108.9229, 38.3157]}, "properties": {"NAME": "W0C/UR-055", "TITLE": "Nyswonger Mesa", "REGION": "CO-Uncompahgre", "ASSOCIATION": "USA - Colorado", "POINTS": "1", "BONUSPOINTS": "0"}}, {"type": "Feature", "geometry": {"type": "Point", "coordinates": [-108.9458, 38.1961]}, "properties": {"NAME": "W0C/UR-056", "TITLE": "Buck Mesa", "REGION": "CO-Uncompahgre", "ASSOCIATION": "USA - Colorado", "POINTS": "1", "BONUSPOINTS": "0"}}, {"type": "Feature", "geometry": {"type": "Point", "coordinates": [-108.9337, 38.2408]}, "properties": {"NAME": "W0C/UR-057", "TITLE": "Muleshoe Bend", "REGION": "CO-Uncompahgre", "ASSOCIATION": "USA - Colorado", "POINTS": "1", "BONUSPOINTS": "0"}}]}