{"type": "FeatureCollection", "name": "W0C/LG SUMMITS", "features": [{"type": "Feature", "geometry": {"type": "Point", "coordinates": [-105.5853, 37.9667]}, "properties": {"NAME": "W0C/LG-001", "TITLE": "Crestone Peak", "REGION": "CO-La Garita", "ASSOCIATION": "USA - Colorado", "POINTS": "10", "BONUSPOINTS": "3"}}, {"type": "Feature", "geometry": {"type": "Point", "coordinates": [-105.6025, 37.9797]}, "properties": {"NAME": "W0C/LG-002", "TITLE": "Kit Carson Mountain", "REGION": "CO-La Garita", "ASSOCIATION": "USA - Colorado", "POINTS": "10", "BONUSPOINTS": "3"}}, {"type": "Feature", "geometry": {"type": "Point", "coordinates": [-106.9233, 38.023]}, "properties": {"NAME": "W0C/LG-003", "TITLE": "Stewart Peak", "REGION": "CO-La Garita", "ASSOCIATION": "USA - Colorado", "POINTS": "10", "BONUSPOINTS": "3"}}, {"type": "Feature", "geometry": {"type": "Point", "coordinates": [-106.8952, 37.9912]}, "properties": {"NAME": "W0C/LG-004", "TITLE": "Organ Mountain", "REGION": "CO-La Garita", "ASSOCIATION": "USA - Colorado", "POINTS": "10", "BONUSPOINTS": "3"}}, {"type": "Feature", "geometry": {"type": "Point", "coordinates": [-106.9215, 38.0053]}, "properties": {"NAME": "W0C/LG-005", "TITLE": "Baldy Alto", "REGION": "CO-La Garita", "ASSOCIATION": "USA - Colorado", "POINTS": "10", "BONUSPOINTS": "3"}}, {"type": "Feature", "geometry": {"type": "Point", "coordinates": [-105.5589, 37.9442]}, "properties": {"NAME": "W0C/LG-006", "TITLE": "Pico Aislado", "REGION": "CO-La Garita", "ASSOCIATION": "USA - Colorado", "POINTS": "10", "BONUSPOINTS": "3"}}, {"type": "Feature", "geometry": {"type": "Point", "coordinates": [-105.619, 38.0035]}, "properties": {"NAME": "W0C/LG-007", "TITLE": "13546", "REGION": "CO-La Garita", "ASSOCIATION": "USA - Colorado", "POINTS": "10", "BONUSPOINTS": "3"}}, {"type": "Feature", "geometry": {"type": "Point", "coordinates": [-105.6855, 38.1212]}, "properties": {"NAME": "W0C/LG-008", "TITLE": "13490", "REGION": "CO-La Garita", "ASSOCIATION": "USA - Colorado", "POINTS": "8", "BONUSPOINTS": "3"}}, {"type": "Feature", "geometry": {"type": "Point", "coordinates": [-105.4949, 37.8492]}, "properties": {"NAME": "W0C/LG-009", "TITLE": "Mount Herard", "REGION": "CO-La Garita", "ASSOCIATION": "USA - Colorado", "POINTS": "8", "BONUSPOINTS": "3"}}, {"type": "Feature", "geometry": {"type": "Point", "coordinates": [-105.7136, 38.1389]}, "properties": {"NAME": "W0C/LG-010", "TITLE": "Mount Owen", "REGION": "CO-La Garita", "ASSOCIATION": "USA - Colorado", "POINTS": "8", "BONUSPOINTS": "3"}}, {"type": "Feature", "geometry": {"type": "Point", "coordinates": [-106.218, 38.3249]}, "properties": {"NAME": "W0C/LG-011", "TITLE": "Antora Peak", "REGION": "CO-La Garita", "ASSOCIATION": "USA - Colorado", "POINTS": "8", "BONUSPOINTS": "3"}}, {"type": "Feature", "geometry": {"type": "Point", "coordinates": [-105.4924, 37.8614]}, "properties": {"NAME": "W0C/LG-012", "TITLE": "Medano Peak", "REGION": "CO-La Garita", "ASSOCIATION": "USA - Colorado", "POINTS": "8", "BONUSPOINTS": "3"}}, {"type": "Feature", "geometry": {"type": "Point", "coordinates": [-105.6895, 38.0949]}, "properties": {"NAME": "W0C/LG-013", "TITLE": "13062", "REGION": "CO-La Garita", "ASSOCIATION": "USA - Colorado", "POINTS": "8", "BONUSPOINTS": "3"}}, {"type": "Feature", "geometry": {"type": "Point", "coordinates": [-105.6589, 38.0601]}, "properties": {"NAME": "W0C/LG-014", "TITLE": "Pyramid Mountain", "REGION": "CO-La Garita", "ASSOCIATION": "USA - Colorado", "POINTS": "8", "BONUSPOINTS": "3"}}, {"type": "Feature", "geometry": {"type": "Point", "coordinates": [-106.6348, 37.9044]}, "properties": {"NAME": "W0C/LG-015", "TITLE": "Mesa Mountain", "REGION": "CO-La Garita", "ASSOCIATION": "USA - Colorado", "POINTS": "8", "BONUSPOINTS": "3"}}, {"type": "Feature", "geometry": {"type": "Point", "coordinates": [-105.4861, 37.8735]}, "properties": {"NAME": "W0C/LG-016", "TITLE": "12883", "REGION": "CO-La Garita", "ASSOCIATION": "USA - Colorado", "POINTS": "8", "BONUSPOINTS": "3"}}, {"type": "Feature", "geometry": {"type": "Point", "coordinates": [-105.7126, 38.0731]}, "properties": {"NAME": "W0C/LG-017", "TITLE": "Gibson Peak", "REGION": "CO-La Garita", "ASSOCIATION": "USA - Colorado", "POINTS": "8", "BONUSPOINTS": "3"}}, {"type": "Feature", "geometry": {"type": "Point", "coordinates": [-106.5414, 37.9204]}, "properties": {"NAME": "W0C/LG-018", "TITLE": "Boot Mountain", "REGION": "CO-La Garita", "ASSOCIATION": "USA - Colorado", "POINTS": "6", "BONUSPOINTS": "3"}}, {"type": "Feature", "geometry": {"type": "Point", "coordinates": [-106.1034, 38.3217]}, "properties": {"NAME": "W0C/LG-019", "TITLE": "Whale Hill", "REGION": "CO-La Garita", "ASSOCIATION": "USA - Colorado", "POINTS": "6", "BONUSPOINTS": "3"}}, {"type": "Feature", "geometry": {"type": "Point", "coordinates": [-106.8671, 38.2739]}, "properties": {"NAME": "W0C/LG-020", "TITLE": "Sawtooth Mountain", "REGION": "CO-La Garita", "ASSOCIATION": "USA - Colorado", "POINTS": "6", "BONUSPOINTS": "3"}}, {"type": "Feature", "geometry": {"type": "Point", "coordinates": [-106.104, 38.275]}, "properties": {"NAME": "W0C/LG-021", "TITLE": "Hayden Peak", "REGION": "CO-La Garita", "ASSOCIATION": "USA - Colorado", "POINTS": "6", "BONUSPOINTS": "3"}}, {"type": "Feature", "geometry": {"type": "Point", "coordinates": [-106.7332, 37.9223]}, "properties": {"NAME": "W0C/LG-022", "TITLE": "12086", "REGION": "CO-La Garita", "ASSOCIATION": "USA - Colorado", "POINTS": "6", "BONUSPOINTS": "3"}}, {"type": "Feature", "geometry": {"type": "Point", "coordinates": [-106.7317, 37.9467]}, "properties": {"NAME": "W0C/LG-023", "TITLE": "Sheep Mountain", "REGION": "CO-La Garita", "ASSOCIATION": "USA - Colorado", "POINTS": "6", "BONUSPOINTS": "3"}}, {"type": "Feature", "geometry": {"type": "Point", "coordinates": [-106.1996, 38.2756]}, "properties": {"NAME": "W0C/LG-024", "TITLE": "Flagstaff Mountain", "REGION": "CO-La Garita", "ASSOCIATION": "USA - Colorado", "POINTS": "6", "BONUSPOINTS": "3"}}, {"type": "Feature", "geometry": {"type": "Point", "coordinates": [-106.474, 38.3221]}, "properties": {"NAME": "W0C/LG-025", "TITLE": "Long Branch Baldy", "REGION": "CO-La Garita", "ASSOCIATION": "USA - Colorado", "POINTS": "6", "BONUSPOINTS": "3"}}, {"type": "Feature", "geometry": {"type": "Point", "coordinates": [-106.781, 38.0017]}, "properties": {"NAME": "W0C/LG-026", "TITLE": "Table Mountain", "REGION": "CO-La Garita", "ASSOCIATION": "USA - Colorado", "POINTS": "6", "BONUSPOINTS": "3"}}, {"type": "Feature", "geometry": {"type": "Point", "coordinates": [-106.3845, 38.2878]}, "properties": {"NAME": "W0C/LG-027", "TITLE": "Sargents Mesa", "REGION": "CO-La Garita", "ASSOCIATION": "USA - Colorado", "POINTS": "6", "BONUSPOINTS": "3"}}, {"type": "Feature", "geometry": {"type": "Point", "coordinates": [-106.7169, 38.316]}, "properties": {"NAME": "W0C/LG-028", "TITLE": "Razor Creek Dome", "REGION": "CO-La Garita", "ASSOCIATION": "USA - Colorado", "POINTS": "6", "BONUSPOINTS": "3"}}, {"type": "Feature", "geometry": {"type": "Point", "coordinates": [-106.4798, 37.9871]}, "properties": {"NAME": "W0C/LG-029", "TITLE": "Lookout Mountain", "REGION": "CO-La Garita", "ASSOCIATION": "USA - Colorado", "POINTS": "6", "BONUSPOINTS": "3"}}, {"type": "Feature", "geometry": {"type": "Point", "coordinates": [-106.7396, 38.0912]}, "properties": {"NAME": "W0C/LG-030", "TITLE": "11504", "REGION": "CO-La Garita", "ASSOCIATION": "USA - Colorado", "POINTS": "6", "BONUSPOINTS": "3"}}, {"type": "Feature", "geometry": {"type": "Point", "coordinates": [-106.5896, 38.252]}, "properties": {"NAME": "W0C/LG-031", "TITLE": "Lujan Benchmark", "REGION": "CO-La Garita", "ASSOCIATION": "USA - Colorado", "POINTS": "6", "BONUSPOINTS": "3"}}, {"type": "Feature", "geometry": {"type": "Point", "coordinates": [-106.478, 37.8338]}, "properties": {"NAME": "W0C/LG-032", "TITLE": "Blue Mountain", "REGION": "CO-La Garita", "ASSOCIATION": "USA - Colorado", "POINTS": "6", "BONUSPOINTS": "3"}}, {"type": "Feature", "geometry": {"type": "Point", "coordinates": [-106.2056, 38.3667]}, "properties": {"NAME": "W0C/LG-033", "TITLE": "Mount KIA/MIA", "REGION": "CO-La Garita", "ASSOCIATION": "USA - Colorado", "POINTS": "6", "BONUSPOINTS": "3"}}, {"type": "Feature", "geometry": {"type": "Point", "coordinates": [-106.3308, 37.9873]}, "properties": {"NAME": "W0C/LG-034", "TITLE": "11236", "REGION": "CO-La Garita", "ASSOCIATION": "USA - Colorado", "POINTS": "6", "BONUSPOINTS": "3"}}, {"type": "Feature", "geometry": {"type": "Point", "coordinates": [-106.957, 38.1258]}, "properties": {"NAME": "W0C/LG-035", "TITLE": "11140", "REGION": "CO-La Garita", "ASSOCIATION": "USA - Colorado", "POINTS": "6", "BONUSPOINTS": "3"}}, {"type": "Feature", "geometry": {"type": "Point", "coordinates": [-106.7146, 38.2267]}, "properties": {"NAME": "W0C/LG-036", "TITLE": "Cochetopa Dome", "REGION": "CO-La Garita", "ASSOCIATION": "USA - Colorado", "POINTS": "6", "BONUSPOINTS": "3"}}, {"type": "Feature", "geometry": {"type": "Point", "coordinates": [-106.2998, 38.0192]}, "properties": {"NAME": "W0C/LG-037", "TITLE": "Tracy Mountain", "REGION": "CO-La Garita", "ASSOCIATION": "USA - Colorado", "POINTS": "6", "BONUSPOINTS": "3"}}, {"type": "Feature", "geometry": {"type": "Point", "coordinates": [-106.5825, 38.1986]}, "properties": {"NAME": "W0C/LG-038", "TITLE": "10998", "REGION": "CO-La Garita", "ASSOCIATION": "USA - Colorado", "POINTS": "6", "BONUSPOINTS": "3"}}, {"type": "Feature", "geometry": {"type": "Point", "coordinates": [-106.5547, 38.2291]}, "properties": {"NAME": "W0C/LG-039", "TITLE": "10989", "REGION": "CO-La Garita", "ASSOCIATION": "USA - Colorado", "POINTS": "6", "BONUSPOINTS": "3"}}, {"type": "Feature", "geometry": {"type": "Point", "coordinates": [-106.5943, 38.3381]}, "properties": {"NAME": "W0C/LG-040", "TITLE": "10936", "REGION": "CO-La Garita", "ASSOCIATION": "USA - Colorado", "POINTS": "6", "BONUSPOINTS": "3"}}, {"type": "Feature", "geometry": {"type": "Point", "coordinates": [-106.6478, 38.2903]}, "properties": {"NAME": "W0C/LG-041", "TITLE": "Green Mountain", "REGION": "CO-La Garita", "ASSOCIATION": "USA - Colorado", "POINTS": "6", "BONUSPOINTS": "3"}}, {"type": "Feature", "geometry": {"type": "Point", "coordinates": [-106.3575, 38.0353]}, "properties": {"NAME": "W0C/LG-042", "TITLE": "Spruce Mountain", "REGION": "CO-La Garita", "ASSOCIATION": "USA - Colorado", "POINTS": "6", "BONUSPOINTS": "3"}}, {"type": "Feature", "geometry": {"type": "Point", "coordinates": [-106.4142, 37.9497]}, "properties": {"NAME": "W0C/LG-043", "TITLE": "Storm King Mountain", "REGION": "CO-La Garita", "ASSOCIATION": "USA - Colorado", "POINTS": "6", "BONUSPOINTS": "3"}}, {"type": "Feature", "geometry": {"type": "Point", "coordinates": [-106.6291, 38.3561]}, "properties": {"NAME": "W0C/LG-044", "TITLE": "10805", "REGION": "CO-La Garita", "ASSOCIATION": "USA - Colorado", "POINTS": "6", "BONUSPOINTS": "3"}}, {"type": "Feature", "geometry": {"type": "Point", "coordinates": [-106.3443, 37.9164]}, "properties": {"NAME": "W0C/LG-045", "TITLE": "10718", "REGION": "CO-La Garita", "ASSOCIATION": "USA - Colorado", "POINTS": "6", "BONUSPOINTS": "3"}}, {"type": "Feature", "geometry": {"type": "Point", "coordinates": [-106.5139, 38.0186]}, "properties": {"NAME": "W0C/LG-046", "TITLE": "Hat Mountain", "REGION": "CO-La Garita", "ASSOCIATION": "USA - Colorado", "POINTS": "6", "BONUSPOINTS": "3"}}, {"type": "Feature", "geometry": {"type": "Point", "coordinates": [-106.9802, 38.2549]}, "properties": {"NAME": "W0C/LG-047", "TITLE": "10610", "REGION": "CO-La Garita", "ASSOCIATION": "USA - Colorado", "POINTS": "6", "BONUSPOINTS": "3"}}, {"type": "Feature", "geometry": {"type": "Point", "coordinates": [-106.1576, 38.2044]}, "properties": {"NAME": "W0C/LG-048", "TITLE": "10551", "REGION": "CO-La Garita", "ASSOCIATION": "USA - Colorado", "POINTS": "6", "BONUSPOINTS": "3"}}, {"type": "Feature", "geometry": {"type": "Point", "coordinates": [-106.1078, 38.1514]}, "properties": {"NAME": "W0C/LG-049", "TITLE": "Saguache Peak", "REGION": "CO-La Garita", "ASSOCIATION": "USA - Colorado", "POINTS": "6", "BONUSPOINTS": "3"}}, {"type": "Feature", "geometry": {"type": "Point", "coordinates": [-106.4714, 37.7767]}, "properties": {"NAME": "W0C/LG-050", "TITLE": "North Twin Mountains", "REGION": "CO-La Garita", "ASSOCIATION": "USA - Colorado", "POINTS": "6", "BONUSPOINTS": "3"}}, {"type": "Feature", "geometry": {"type": "Point", "coordinates": [-106.407, 37.8158]}, "properties": {"NAME": "W0C/LG-051", "TITLE": "Eagle Mountain", "REGION": "CO-La Garita", "ASSOCIATION": "USA - Colorado", "POINTS": "4", "BONUSPOINTS": "3"}}, {"type": "Feature", "geometry": {"type": "Point", "coordinates": [-106.4073, 38.0566]}, "properties": {"NAME": "W0C/LG-052", "TITLE": "Mount Lion", "REGION": "CO-La Garita", "ASSOCIATION": "USA - Colorado", "POINTS": "4", "BONUSPOINTS": "3"}}, {"type": "Feature", "geometry": {"type": "Point", "coordinates": [-106.6368, 38.1566]}, "properties": {"NAME": "W0C/LG-053", "TITLE": "10396", "REGION": "CO-La Garita", "ASSOCIATION": "USA - Colorado", "POINTS": "4", "BONUSPOINTS": "3"}}, {"type": "Feature", "geometry": {"type": "Point", "coordinates": [-106.5734, 38.366]}, "properties": {"NAME": "W0C/LG-054", "TITLE": "Big Hill", "REGION": "CO-La Garita", "ASSOCIATION": "USA - Colorado", "POINTS": "4", "BONUSPOINTS": "3"}}, {"type": "Feature", "geometry": {"type": "Point", "coordinates": [-106.4086, 37.8716]}, "properties": {"NAME": "W0C/LG-055", "TITLE": "10150", "REGION": "CO-La Garita", "ASSOCIATION": "USA - Colorado", "POINTS": "4", "BONUSPOINTS": "3"}}, {"type": "Feature", "geometry": {"type": "Point", "coordinates": [-106.3953, 38.1561]}, "properties": {"NAME": "W0C/LG-056", "TITLE": "Trickle Mountain", "REGION": "CO-La Garita", "ASSOCIATION": "USA - Colorado", "POINTS": "4", "BONUSPOINTS": "3"}}, {"type": "Feature", "geometry": {"type": "Point", "coordinates": [-106.3663, 37.8214]}, "properties": {"NAME": "W0C/LG-057", "TITLE": "9610", "REGION": "CO-La Garita", "ASSOCIATION": "USA - Colorado", "POINTS": "4", "BONUSPOINTS": "3"}}, {"type": "Feature", "geometry": {"type": "Point", "coordinates": [-106.0351, 38.2149]}, "properties": {"NAME": "W0C/LG-058", "TITLE": "9532", "REGION": "CO-La Garita", "ASSOCIATION": "USA - Colorado", "POINTS": "4", "BONUSPOINTS": "3"}}, {"type": "Feature", "geometry": {"type": "Point", "coordinates": [-106.4376, 38.1564]}, "properties": {"NAME": "W0C/LG-059", "TITLE": "9519", "REGION": "CO-La Garita", "ASSOCIATION": "USA - Colorado", "POINTS": "4", "BONUSPOINTS": "3"}}, {"type": "Feature", "geometry": {"type": "Point", "coordinates": [-106.2939, 38.1309]}, "properties": {"NAME": "W0C/LG-060", "TITLE": "Houghland Hill", "REGION": "CO-La Garita", "ASSOCIATION": "USA - Colorado", "POINTS": "4", "BONUSPOINTS": "3"}}, {"type": "Feature", "geometry": {"type": "Point", "coordinates": [-106.7049, 38.4084]}, "properties": {"NAME": "W0C/LG-061", "TITLE": "9403", "REGION": "CO-La Garita", "ASSOCIATION": "USA - Colorado", "POINTS": "4", "BONUSPOINTS": "3"}}, {"type": "Feature", "geometry": {"type": "Point", "coordinates": [-106.3072, 37.8812]}, "properties": {"NAME": "W0C/LG-062", "TITLE": "9292", "REGION": "CO-La Garita", "ASSOCIATION": "USA - Colorado", "POINTS": "4", "BONUSPOINTS": "3"}}, {"type": "Feature", "geometry": {"type": "Point", "coordinates": [-106.2661, 37.9133]}, "properties": {"NAME": "W0C/LG-063", "TITLE": "9175", "REGION": "CO-La Garita", "ASSOCIATION": "USA - Colorado", "POINTS": "4", "BONUSPOINTS": "3"}}, {"type": "Feature", "geometry": {"type": "Point", "coordinates": [-106.3383, 37.8041]}, "properties": {"NAME": "W0C/LG-064", "TITLE": "9033", "REGION": "CO-La Garita", "ASSOCIATION": "USA - Colorado", "POINTS": "4", "BONUSPOINTS": "3"}}, {"type": "Feature", "geometry": {"type": "Point", "coordinates": [-106.408, 37.7631]}, "properties": {"NAME": "W0C/LG-065", "TITLE": "9020", "REGION": "CO-La Garita", "ASSOCIATION": "USA - Colorado", "POINTS": "4", "BONUSPOINTS": "3"}}, {"type": "Feature", "geometry": {"type": "Point", "coordinates": [-106.1808, 38.0584]}, "properties": {"NAME": "W0C/LG-066", "TITLE": "8938", "REGION": "CO-La Garita", "ASSOCIATION": "USA - Colorado", "POINTS": "2", "BONUSPOINTS": "0"}}, {"type": "Feature", "geometry": {"type": "Point", "coordinates": [-106.3545, 37.7625]}, "properties": {"NAME": "W0C/LG-067", "TITLE": "8790", "REGION": "CO-La Garita", "ASSOCIATION": "USA - Colorado", "POINTS": "2", "BONUSPOINTS": "0"}}, {"type": "Feature", "geometry": {"type": "Point", "coordinates": [-106.5888, 38.2541]}, "properties": {"NAME": "W0C/LG-068", "TITLE": "11380", "REGION": "CO-La Garita", "ASSOCIATION": "USA - Colorado", "POINTS": "6", "BONUSPOINTS": "3"}}]}