{"type": "FeatureCollection", "name": "W0C/PR SUMMITS", "features": [{"type": "Feature", "geometry": {"type": "Point", "coordinates": [-105.93, 40.6067]}, "properties": {"NAME": "W0C/PR-001", "TITLE": "Clark Peak", "REGION": "CO-Park Range", "ASSOCIATION": "USA - Colorado", "POINTS": "8", "BONUSPOINTS": "3"}}, {"type": "Feature", "geometry": {"type": "Point", "coordinates": [-105.895, 40.4694]}, "properties": {"NAME": "W0C/PR-002", "TITLE": "Mount Richthofen", "REGION": "CO-Park Range", "ASSOCIATION": "USA - Colorado", "POINTS": "8", "BONUSPOINTS": "3"}}, {"type": "Feature", "geometry": {"type": "Point", "coordinates": [-105.9472, 39.8644]}, "properties": {"NAME": "W0C/PR-003", "TITLE": "Byers Peak", "REGION": "CO-Park Range", "ASSOCIATION": "USA - Colorado", "POINTS": "8", "BONUSPOINTS": "3"}}, {"type": "Feature", "geometry": {"type": "Point", "coordinates": [-106.0772, 39.7854]}, "properties": {"NAME": "W0C/PR-004", "TITLE": "Ute Peak", "REGION": "CO-Park Range", "ASSOCIATION": "USA - Colorado", "POINTS": "6", "BONUSPOINTS": "3"}}, {"type": "Feature", "geometry": {"type": "Point", "coordinates": [-106.1361, 40.3303]}, "properties": {"NAME": "W0C/PR-005", "TITLE": "Parkview Mountain", "REGION": "CO-Park Range", "ASSOCIATION": "USA - Colorado", "POINTS": "6", "BONUSPOINTS": "3"}}, {"type": "Feature", "geometry": {"type": "Point", "coordinates": [-105.8627, 40.4799]}, "properties": {"NAME": "W0C/PR-006", "TITLE": "Lulu Mountain", "REGION": "CO-Park Range", "ASSOCIATION": "USA - Colorado", "POINTS": "6", "BONUSPOINTS": "3"}}, {"type": "Feature", "geometry": {"type": "Point", "coordinates": [-105.6952, 39.9224]}, "properties": {"NAME": "W0C/PR-007", "TITLE": "Mount Epworth", "REGION": "CO-Park Range", "ASSOCIATION": "USA - Colorado", "POINTS": "6", "BONUSPOINTS": "3"}}, {"type": "Feature", "geometry": {"type": "Point", "coordinates": [-105.9956, 40.2751]}, "properties": {"NAME": "W0C/PR-008", "TITLE": "Gravel Mountain", "REGION": "CO-Park Range", "ASSOCIATION": "USA - Colorado", "POINTS": "6", "BONUSPOINTS": "3"}}, {"type": "Feature", "geometry": {"type": "Point", "coordinates": [-106.1284, 40.1619]}, "properties": {"NAME": "W0C/PR-009", "TITLE": "Elk Mountain", "REGION": "CO-Park Range", "ASSOCIATION": "USA - Colorado", "POINTS": "6", "BONUSPOINTS": "3"}}, {"type": "Feature", "geometry": {"type": "Point", "coordinates": [-106.0426, 40.4684]}, "properties": {"NAME": "W0C/PR-010", "TITLE": "Owl Mountain", "REGION": "CO-Park Range", "ASSOCIATION": "USA - Colorado", "POINTS": "6", "BONUSPOINTS": "3"}}, {"type": "Feature", "geometry": {"type": "Point", "coordinates": [-106.9297, 40.8427]}, "properties": {"NAME": "W0C/PR-011", "TITLE": "Hahns Peak", "REGION": "CO-Park Range", "ASSOCIATION": "USA - Colorado", "POINTS": "6", "BONUSPOINTS": "3"}}, {"type": "Feature", "geometry": {"type": "Point", "coordinates": [-106.7403, 40.4561]}, "properties": {"NAME": "W0C/PR-012", "TITLE": "Mount Werner", "REGION": "CO-Park Range", "ASSOCIATION": "USA - Colorado", "POINTS": "6", "BONUSPOINTS": "3"}}, {"type": "Feature", "geometry": {"type": "Point", "coordinates": [-105.8211, 39.6427]}, "properties": {"NAME": "W0C/PR-013", "TITLE": "Torreys Peak", "REGION": "CO-Park Range", "ASSOCIATION": "USA - Colorado", "POINTS": "10", "BONUSPOINTS": "3"}}, {"type": "Feature", "geometry": {"type": "Point", "coordinates": [-106.1063, 39.3972]}, "properties": {"NAME": "W0C/PR-014", "TITLE": "Quandary Peak", "REGION": "CO-Park Range", "ASSOCIATION": "USA - Colorado", "POINTS": "10", "BONUSPOINTS": "3"}}, {"type": "Feature", "geometry": {"type": "Point", "coordinates": [-105.6687, 39.5826]}, "properties": {"NAME": "W0C/PR-015", "TITLE": "Mount Bierstadt", "REGION": "CO-Park Range", "ASSOCIATION": "USA - Colorado", "POINTS": "10", "BONUSPOINTS": "3"}}, {"type": "Feature", "geometry": {"type": "Point", "coordinates": [-106.1231, 39.4231]}, "properties": {"NAME": "W0C/PR-016", "TITLE": "Pacific Peak", "REGION": "CO-Park Range", "ASSOCIATION": "USA - Colorado", "POINTS": "10", "BONUSPOINTS": "3"}}, {"type": "Feature", "geometry": {"type": "Point", "coordinates": [-106.1144, 39.4345]}, "properties": {"NAME": "W0C/PR-017", "TITLE": "Crystal Peak", "REGION": "CO-Park Range", "ASSOCIATION": "USA - Colorado", "POINTS": "10", "BONUSPOINTS": "3"}}, {"type": "Feature", "geometry": {"type": "Point", "coordinates": [-105.7631, 39.5933]}, "properties": {"NAME": "W0C/PR-018", "TITLE": "Square Top Mountain", "REGION": "CO-Park Range", "ASSOCIATION": "USA - Colorado", "POINTS": "10", "BONUSPOINTS": "3"}}, {"type": "Feature", "geometry": {"type": "Point", "coordinates": [-105.9705, 39.4448]}, "properties": {"NAME": "W0C/PR-019", "TITLE": "Bald Mountain", "REGION": "CO-Park Range", "ASSOCIATION": "USA - Colorado", "POINTS": "10", "BONUSPOINTS": "3"}}, {"type": "Feature", "geometry": {"type": "Point", "coordinates": [-105.6606, 39.6173]}, "properties": {"NAME": "W0C/PR-020", "TITLE": "Gray Wolf Mountain", "REGION": "CO-Park Range", "ASSOCIATION": "USA - Colorado", "POINTS": "10", "BONUSPOINTS": "3"}}, {"type": "Feature", "geometry": {"type": "Point", "coordinates": [-105.8227, 39.7202]}, "properties": {"NAME": "W0C/PR-021", "TITLE": "Mount Parnassus", "REGION": "CO-Park Range", "ASSOCIATION": "USA - Colorado", "POINTS": "10", "BONUSPOINTS": "3"}}, {"type": "Feature", "geometry": {"type": "Point", "coordinates": [-105.8487, 39.6441]}, "properties": {"NAME": "W0C/PR-022", "TITLE": "Grizzly Peak", "REGION": "CO-Park Range", "ASSOCIATION": "USA - Colorado", "POINTS": "8", "BONUSPOINTS": "3"}}, {"type": "Feature", "geometry": {"type": "Point", "coordinates": [-106.3504, 39.7756]}, "properties": {"NAME": "W0C/PR-023", "TITLE": "Eagles Nest", "REGION": "CO-Park Range", "ASSOCIATION": "USA - Colorado", "POINTS": "8", "BONUSPOINTS": "3"}}, {"type": "Feature", "geometry": {"type": "Point", "coordinates": [-105.7569, 39.6157]}, "properties": {"NAME": "W0C/PR-024", "TITLE": "Mount Wilcox", "REGION": "CO-Park Range", "ASSOCIATION": "USA - Colorado", "POINTS": "8", "BONUSPOINTS": "3"}}, {"type": "Feature", "geometry": {"type": "Point", "coordinates": [-105.6176, 39.6156]}, "properties": {"NAME": "W0C/PR-025", "TITLE": "Rogers Peak", "REGION": "CO-Park Range", "ASSOCIATION": "USA - Colorado", "POINTS": "8", "BONUSPOINTS": "3"}}, {"type": "Feature", "geometry": {"type": "Point", "coordinates": [-105.8006, 39.7455]}, "properties": {"NAME": "W0C/PR-026", "TITLE": "Engelmann Peak", "REGION": "CO-Park Range", "ASSOCIATION": "USA - Colorado", "POINTS": "8", "BONUSPOINTS": "3"}}, {"type": "Feature", "geometry": {"type": "Point", "coordinates": [-106.1892, 39.654]}, "properties": {"NAME": "W0C/PR-027", "TITLE": "Mount Silverthorne", "REGION": "CO-Park Range", "ASSOCIATION": "USA - Colorado", "POINTS": "8", "BONUSPOINTS": "3"}}, {"type": "Feature", "geometry": {"type": "Point", "coordinates": [-105.6572, 40.2631]}, "properties": {"NAME": "W0C/PR-028", "TITLE": "McHenrys Peak", "REGION": "CO-Park Range", "ASSOCIATION": "USA - Colorado", "POINTS": "8", "BONUSPOINTS": "3"}}, {"type": "Feature", "geometry": {"type": "Point", "coordinates": [-106.322, 39.7326]}, "properties": {"NAME": "W0C/PR-029", "TITLE": "Peak G", "REGION": "CO-Park Range", "ASSOCIATION": "USA - Colorado", "POINTS": "8", "BONUSPOINTS": "3"}}, {"type": "Feature", "geometry": {"type": "Point", "coordinates": [-106.2498, 39.7142]}, "properties": {"NAME": "W0C/PR-030", "TITLE": "Peak Z", "REGION": "CO-Park Range", "ASSOCIATION": "USA - Colorado", "POINTS": "8", "BONUSPOINTS": "3"}}, {"type": "Feature", "geometry": {"type": "Point", "coordinates": [-105.8576, 39.6785]}, "properties": {"NAME": "W0C/PR-031", "TITLE": "Mount Sniktau", "REGION": "CO-Park Range", "ASSOCIATION": "USA - Colorado", "POINTS": "8", "BONUSPOINTS": "3"}}, {"type": "Feature", "geometry": {"type": "Point", "coordinates": [-106.2867, 39.7191]}, "properties": {"NAME": "W0C/PR-032", "TITLE": "Peak Q", "REGION": "CO-Park Range", "ASSOCIATION": "USA - Colorado", "POINTS": "8", "BONUSPOINTS": "3"}}, {"type": "Feature", "geometry": {"type": "Point", "coordinates": [-106.2796, 39.7421]}, "properties": {"NAME": "W0C/PR-033", "TITLE": "Peak L", "REGION": "CO-Park Range", "ASSOCIATION": "USA - Colorado", "POINTS": "8", "BONUSPOINTS": "3"}}, {"type": "Feature", "geometry": {"type": "Point", "coordinates": [-106.1972, 39.4549]}, "properties": {"NAME": "W0C/PR-034", "TITLE": "Jacque Peak", "REGION": "CO-Park Range", "ASSOCIATION": "USA - Colorado", "POINTS": "8", "BONUSPOINTS": "3"}}, {"type": "Feature", "geometry": {"type": "Point", "coordinates": [-106.1711, 39.6365]}, "properties": {"NAME": "W0C/PR-035", "TITLE": "Red Peak", "REGION": "CO-Park Range", "ASSOCIATION": "USA - Colorado", "POINTS": "8", "BONUSPOINTS": "3"}}, {"type": "Feature", "geometry": {"type": "Point", "coordinates": [-105.8002, 39.6589]}, "properties": {"NAME": "W0C/PR-036", "TITLE": "Kelso Mountain", "REGION": "CO-Park Range", "ASSOCIATION": "USA - Colorado", "POINTS": "8", "BONUSPOINTS": "3"}}, {"type": "Feature", "geometry": {"type": "Point", "coordinates": [-106.2316, 39.69]}, "properties": {"NAME": "W0C/PR-037", "TITLE": "Keller Mountain", "REGION": "CO-Park Range", "ASSOCIATION": "USA - Colorado", "POINTS": "8", "BONUSPOINTS": "3"}}, {"type": "Feature", "geometry": {"type": "Point", "coordinates": [-106.2779, 39.7216]}, "properties": {"NAME": "W0C/PR-038", "TITLE": "Peak R", "REGION": "CO-Park Range", "ASSOCIATION": "USA - Colorado", "POINTS": "8", "BONUSPOINTS": "3"}}, {"type": "Feature", "geometry": {"type": "Point", "coordinates": [-106.1211, 39.5358]}, "properties": {"NAME": "W0C/PR-039", "TITLE": "Tenmile Peak", "REGION": "CO-Park Range", "ASSOCIATION": "USA - Colorado", "POINTS": "8", "BONUSPOINTS": "3"}}, {"type": "Feature", "geometry": {"type": "Point", "coordinates": [-106.3065, 39.7439]}, "properties": {"NAME": "W0C/PR-040", "TITLE": "The Elephant", "REGION": "CO-Park Range", "ASSOCIATION": "USA - Colorado", "POINTS": "8", "BONUSPOINTS": "3"}}, {"type": "Feature", "geometry": {"type": "Point", "coordinates": [-105.8989, 40.4269]}, "properties": {"NAME": "W0C/PR-041", "TITLE": "Howard Mountain", "REGION": "CO-Park Range", "ASSOCIATION": "USA - Colorado", "POINTS": "8", "BONUSPOINTS": "3"}}, {"type": "Feature", "geometry": {"type": "Point", "coordinates": [-105.6738, 40.0637]}, "properties": {"NAME": "W0C/PR-042", "TITLE": "Hopi", "REGION": "CO-Park Range", "ASSOCIATION": "USA - Colorado", "POINTS": "8", "BONUSPOINTS": "3"}}, {"type": "Feature", "geometry": {"type": "Point", "coordinates": [-105.8726, 39.8305]}, "properties": {"NAME": "W0C/PR-043", "TITLE": "12763", "REGION": "CO-Park Range", "ASSOCIATION": "USA - Colorado", "POINTS": "8", "BONUSPOINTS": "3"}}, {"type": "Feature", "geometry": {"type": "Point", "coordinates": [-105.9458, 39.6889]}, "properties": {"NAME": "W0C/PR-044", "TITLE": "Coon Hill", "REGION": "CO-Park Range", "ASSOCIATION": "USA - Colorado", "POINTS": "8", "BONUSPOINTS": "3"}}, {"type": "Feature", "geometry": {"type": "Point", "coordinates": [-105.7364, 40.3467]}, "properties": {"NAME": "W0C/PR-045", "TITLE": "Sprague Mountain", "REGION": "CO-Park Range", "ASSOCIATION": "USA - Colorado", "POINTS": "8", "BONUSPOINTS": "3"}}, {"type": "Feature", "geometry": {"type": "Point", "coordinates": [-105.9038, 40.3966]}, "properties": {"NAME": "W0C/PR-046", "TITLE": "Mount Nimbus", "REGION": "CO-Park Range", "ASSOCIATION": "USA - Colorado", "POINTS": "8", "BONUSPOINTS": "3"}}, {"type": "Feature", "geometry": {"type": "Point", "coordinates": [-105.9627, 39.8558]}, "properties": {"NAME": "W0C/PR-047", "TITLE": "Bills Peak", "REGION": "CO-Park Range", "ASSOCIATION": "USA - Colorado", "POINTS": "8", "BONUSPOINTS": "3"}}, {"type": "Feature", "geometry": {"type": "Point", "coordinates": [-106.3251, 39.7613]}, "properties": {"NAME": "W0C/PR-048", "TITLE": "Dwarf Pyramid", "REGION": "CO-Park Range", "ASSOCIATION": "USA - Colorado", "POINTS": "8", "BONUSPOINTS": "3"}}, {"type": "Feature", "geometry": {"type": "Point", "coordinates": [-105.9558, 40.6592]}, "properties": {"NAME": "W0C/PR-049", "TITLE": "South Rawah Peak", "REGION": "CO-Park Range", "ASSOCIATION": "USA - Colorado", "POINTS": "8", "BONUSPOINTS": "3"}}, {"type": "Feature", "geometry": {"type": "Point", "coordinates": [-105.91, 39.5816]}, "properties": {"NAME": "W0C/PR-050", "TITLE": "Independence Mountain", "REGION": "CO-Park Range", "ASSOCIATION": "USA - Colorado", "POINTS": "8", "BONUSPOINTS": "3"}}, {"type": "Feature", "geometry": {"type": "Point", "coordinates": [-105.7098, 40.2439]}, "properties": {"NAME": "W0C/PR-051", "TITLE": "Andrews Peak", "REGION": "CO-Park Range", "ASSOCIATION": "USA - Colorado", "POINTS": "8", "BONUSPOINTS": "3"}}, {"type": "Feature", "geometry": {"type": "Point", "coordinates": [-105.9333, 40.3605]}, "properties": {"NAME": "W0C/PR-052", "TITLE": "Bowen Mountain", "REGION": "CO-Park Range", "ASSOCIATION": "USA - Colorado", "POINTS": "8", "BONUSPOINTS": "3"}}, {"type": "Feature", "geometry": {"type": "Point", "coordinates": [-106.0263, 39.6907]}, "properties": {"NAME": "W0C/PR-053", "TITLE": "Ptarmigan Peak", "REGION": "CO-Park Range", "ASSOCIATION": "USA - Colorado", "POINTS": "6", "BONUSPOINTS": "3"}}, {"type": "Feature", "geometry": {"type": "Point", "coordinates": [-105.9091, 40.4715]}, "properties": {"NAME": "W0C/PR-054", "TITLE": "Mount Mahler", "REGION": "CO-Park Range", "ASSOCIATION": "USA - Colorado", "POINTS": "6", "BONUSPOINTS": "3"}}, {"type": "Feature", "geometry": {"type": "Point", "coordinates": [-105.8083, 40.4447]}, "properties": {"NAME": "W0C/PR-055", "TITLE": "Specimen Mountain", "REGION": "CO-Park Range", "ASSOCIATION": "USA - Colorado", "POINTS": "6", "BONUSPOINTS": "3"}}, {"type": "Feature", "geometry": {"type": "Point", "coordinates": [-106.157, 39.4689]}, "properties": {"NAME": "W0C/PR-056", "TITLE": "Copper Mountain", "REGION": "CO-Park Range", "ASSOCIATION": "USA - Colorado", "POINTS": "6", "BONUSPOINTS": "3"}}, {"type": "Feature", "geometry": {"type": "Point", "coordinates": [-105.6958, 40.1584]}, "properties": {"NAME": "W0C/PR-057", "TITLE": "Hiamovi Mountain", "REGION": "CO-Park Range", "ASSOCIATION": "USA - Colorado", "POINTS": "6", "BONUSPOINTS": "3"}}, {"type": "Feature", "geometry": {"type": "Point", "coordinates": [-105.7135, 40.1689]}, "properties": {"NAME": "W0C/PR-058", "TITLE": "Watanga Mountain", "REGION": "CO-Park Range", "ASSOCIATION": "USA - Colorado", "POINTS": "6", "BONUSPOINTS": "3"}}, {"type": "Feature", "geometry": {"type": "Point", "coordinates": [-105.9601, 40.3396]}, "properties": {"NAME": "W0C/PR-059", "TITLE": "Cascade Mountain", "REGION": "CO-Park Range", "ASSOCIATION": "USA - Colorado", "POINTS": "6", "BONUSPOINTS": "3"}}, {"type": "Feature", "geometry": {"type": "Point", "coordinates": [-105.7431, 40.3103]}, "properties": {"NAME": "W0C/PR-060", "TITLE": "Snowdrift Peak", "REGION": "CO-Park Range", "ASSOCIATION": "USA - Colorado", "POINTS": "6", "BONUSPOINTS": "3"}}, {"type": "Feature", "geometry": {"type": "Point", "coordinates": [-105.8525, 40.5067]}, "properties": {"NAME": "W0C/PR-061", "TITLE": "Iron Mountain", "REGION": "CO-Park Range", "ASSOCIATION": "USA - Colorado", "POINTS": "6", "BONUSPOINTS": "3"}}, {"type": "Feature", "geometry": {"type": "Point", "coordinates": [-105.9361, 40.3864]}, "properties": {"NAME": "W0C/PR-062", "TITLE": "Paprika Peak", "REGION": "CO-Park Range", "ASSOCIATION": "USA - Colorado", "POINTS": "6", "BONUSPOINTS": "3"}}, {"type": "Feature", "geometry": {"type": "Point", "coordinates": [-105.7758, 40.3435]}, "properties": {"NAME": "W0C/PR-063", "TITLE": "Nakai Peak", "REGION": "CO-Park Range", "ASSOCIATION": "USA - Colorado", "POINTS": "6", "BONUSPOINTS": "3"}}, {"type": "Feature", "geometry": {"type": "Point", "coordinates": [-106.6631, 40.8314]}, "properties": {"NAME": "W0C/PR-064", "TITLE": "Mount Zirkel", "REGION": "CO-Park Range", "ASSOCIATION": "USA - Colorado", "POINTS": "6", "BONUSPOINTS": "3"}}, {"type": "Feature", "geometry": {"type": "Point", "coordinates": [-106.6355, 40.8047]}, "properties": {"NAME": "W0C/PR-065", "TITLE": "Flattop Mountain", "REGION": "CO-Park Range", "ASSOCIATION": "USA - Colorado", "POINTS": "6", "BONUSPOINTS": "3"}}, {"type": "Feature", "geometry": {"type": "Point", "coordinates": [-106.0022, 39.7325]}, "properties": {"NAME": "W0C/PR-066", "TITLE": "12111", "REGION": "CO-Park Range", "ASSOCIATION": "USA - Colorado", "POINTS": "6", "BONUSPOINTS": "3"}}, {"type": "Feature", "geometry": {"type": "Point", "coordinates": [-105.9403, 40.4181]}, "properties": {"NAME": "W0C/PR-067", "TITLE": "Mount Cindy", "REGION": "CO-Park Range", "ASSOCIATION": "USA - Colorado", "POINTS": "6", "BONUSPOINTS": "3"}}, {"type": "Feature", "geometry": {"type": "Point", "coordinates": [-105.7527, 40.1644]}, "properties": {"NAME": "W0C/PR-068", "TITLE": "East Twin Peaks", "REGION": "CO-Park Range", "ASSOCIATION": "USA - Colorado", "POINTS": "6", "BONUSPOINTS": "3"}}, {"type": "Feature", "geometry": {"type": "Point", "coordinates": [-106.6724, 40.6905]}, "properties": {"NAME": "W0C/PR-069", "TITLE": "Lost Ranger Peak", "REGION": "CO-Park Range", "ASSOCIATION": "USA - Colorado", "POINTS": "6", "BONUSPOINTS": "3"}}, {"type": "Feature", "geometry": {"type": "Point", "coordinates": [-106.6306, 40.8343]}, "properties": {"NAME": "W0C/PR-070", "TITLE": "Peggy Peak", "REGION": "CO-Park Range", "ASSOCIATION": "USA - Colorado", "POINTS": "6", "BONUSPOINTS": "3"}}, {"type": "Feature", "geometry": {"type": "Point", "coordinates": [-106.6803, 40.648]}, "properties": {"NAME": "W0C/PR-071", "TITLE": "Mount Ethel", "REGION": "CO-Park Range", "ASSOCIATION": "USA - Colorado", "POINTS": "6", "BONUSPOINTS": "3"}}, {"type": "Feature", "geometry": {"type": "Point", "coordinates": [-105.9108, 40.5214]}, "properties": {"NAME": "W0C/PR-072", "TITLE": "North Diamond Peaks", "REGION": "CO-Park Range", "ASSOCIATION": "USA - Colorado", "POINTS": "6", "BONUSPOINTS": "3"}}, {"type": "Feature", "geometry": {"type": "Point", "coordinates": [-106.6647, 40.8588]}, "properties": {"NAME": "W0C/PR-073", "TITLE": "Goosenest", "REGION": "CO-Park Range", "ASSOCIATION": "USA - Colorado", "POINTS": "6", "BONUSPOINTS": "3"}}, {"type": "Feature", "geometry": {"type": "Point", "coordinates": [-105.948, 39.906]}, "properties": {"NAME": "W0C/PR-074", "TITLE": "Ptarmigan Peak", "REGION": "CO-Park Range", "ASSOCIATION": "USA - Colorado", "POINTS": "6", "BONUSPOINTS": "3"}}, {"type": "Feature", "geometry": {"type": "Point", "coordinates": [-105.7202, 40.1377]}, "properties": {"NAME": "W0C/PR-075", "TITLE": "Mount Irving Hale", "REGION": "CO-Park Range", "ASSOCIATION": "USA - Colorado", "POINTS": "6", "BONUSPOINTS": "3"}}, {"type": "Feature", "geometry": {"type": "Point", "coordinates": [-105.8122, 40.3874]}, "properties": {"NAME": "W0C/PR-076", "TITLE": "Jackstraw Mountain", "REGION": "CO-Park Range", "ASSOCIATION": "USA - Colorado", "POINTS": "6", "BONUSPOINTS": "3"}}, {"type": "Feature", "geometry": {"type": "Point", "coordinates": [-106.2063, 39.8772]}, "properties": {"NAME": "W0C/PR-077", "TITLE": "Williams Peak", "REGION": "CO-Park Range", "ASSOCIATION": "USA - Colorado", "POINTS": "6", "BONUSPOINTS": "3"}}, {"type": "Feature", "geometry": {"type": "Point", "coordinates": [-106.6117, 40.7828]}, "properties": {"NAME": "W0C/PR-078", "TITLE": "Bear Mountain", "REGION": "CO-Park Range", "ASSOCIATION": "USA - Colorado", "POINTS": "6", "BONUSPOINTS": "3"}}, {"type": "Feature", "geometry": {"type": "Point", "coordinates": [-105.6739, 39.7017]}, "properties": {"NAME": "W0C/PR-079", "TITLE": "Griffith Mountain", "REGION": "CO-Park Range", "ASSOCIATION": "USA - Colorado", "POINTS": "6", "BONUSPOINTS": "3"}}, {"type": "Feature", "geometry": {"type": "Point", "coordinates": [-106.6565, 40.658]}, "properties": {"NAME": "W0C/PR-080", "TITLE": "The Forehead", "REGION": "CO-Park Range", "ASSOCIATION": "USA - Colorado", "POINTS": "6", "BONUSPOINTS": "3"}}, {"type": "Feature", "geometry": {"type": "Point", "coordinates": [-106.3112, 40.33]}, "properties": {"NAME": "W0C/PR-081", "TITLE": "Rabbit Ears Divide Peak", "REGION": "CO-Park Range", "ASSOCIATION": "USA - Colorado", "POINTS": "6", "BONUSPOINTS": "3"}}, {"type": "Feature", "geometry": {"type": "Point", "coordinates": [-105.4939, 39.6801]}, "properties": {"NAME": "W0C/PR-082", "TITLE": "MestaaâÄhehe Mountain", "REGION": "CO-Park Range", "ASSOCIATION": "USA - Colorado", "POINTS": "6", "BONUSPOINTS": "3"}}, {"type": "Feature", "geometry": {"type": "Point", "coordinates": [-106.1892, 40.3272]}, "properties": {"NAME": "W0C/PR-083", "TITLE": "Haystack Mountain", "REGION": "CO-Park Range", "ASSOCIATION": "USA - Colorado", "POINTS": "6", "BONUSPOINTS": "3"}}, {"type": "Feature", "geometry": {"type": "Point", "coordinates": [-105.6477, 39.7257]}, "properties": {"NAME": "W0C/PR-084", "TITLE": "Ute Benchmark", "REGION": "CO-Park Range", "ASSOCIATION": "USA - Colorado", "POINTS": "6", "BONUSPOINTS": "3"}}, {"type": "Feature", "geometry": {"type": "Point", "coordinates": [-105.7874, 40.3008]}, "properties": {"NAME": "W0C/PR-085", "TITLE": "Mount Patterson", "REGION": "CO-Park Range", "ASSOCIATION": "USA - Colorado", "POINTS": "6", "BONUSPOINTS": "3"}}, {"type": "Feature", "geometry": {"type": "Point", "coordinates": [-106.7006, 40.9205]}, "properties": {"NAME": "W0C/PR-086", "TITLE": "Davis Peak", "REGION": "CO-Park Range", "ASSOCIATION": "USA - Colorado", "POINTS": "6", "BONUSPOINTS": "3"}}, {"type": "Feature", "geometry": {"type": "Point", "coordinates": [-106.2478, 40.3392]}, "properties": {"NAME": "W0C/PR-087", "TITLE": "Poison Ridge", "REGION": "CO-Park Range", "ASSOCIATION": "USA - Colorado", "POINTS": "6", "BONUSPOINTS": "3"}}, {"type": "Feature", "geometry": {"type": "Point", "coordinates": [-106.326, 40.3103]}, "properties": {"NAME": "W0C/PR-088", "TITLE": "11362", "REGION": "CO-Park Range", "ASSOCIATION": "USA - Colorado", "POINTS": "6", "BONUSPOINTS": "3"}}, {"type": "Feature", "geometry": {"type": "Point", "coordinates": [-106.2408, 40.3088]}, "properties": {"NAME": "W0C/PR-089", "TITLE": "Sheep Mountain", "REGION": "CO-Park Range", "ASSOCIATION": "USA - Colorado", "POINTS": "6", "BONUSPOINTS": "3"}}, {"type": "Feature", "geometry": {"type": "Point", "coordinates": [-106.1581, 40.1962]}, "properties": {"NAME": "W0C/PR-090", "TITLE": "South Corral Peaks", "REGION": "CO-Park Range", "ASSOCIATION": "USA - Colorado", "POINTS": "6", "BONUSPOINTS": "3"}}, {"type": "Feature", "geometry": {"type": "Point", "coordinates": [-106.0518, 40.3594]}, "properties": {"NAME": "W0C/PR-091", "TITLE": "Radial Mountain", "REGION": "CO-Park Range", "ASSOCIATION": "USA - Colorado", "POINTS": "6", "BONUSPOINTS": "3"}}, {"type": "Feature", "geometry": {"type": "Point", "coordinates": [-105.8322, 40.3617]}, "properties": {"NAME": "W0C/PR-092", "TITLE": "Gray Jay Mountain", "REGION": "CO-Park Range", "ASSOCIATION": "USA - Colorado", "POINTS": "6", "BONUSPOINTS": "3"}}, {"type": "Feature", "geometry": {"type": "Point", "coordinates": [-106.715, 40.9619]}, "properties": {"NAME": "W0C/PR-093", "TITLE": "Buffalo Ridge", "REGION": "CO-Park Range", "ASSOCIATION": "USA - Colorado", "POINTS": "6", "BONUSPOINTS": "3"}}, {"type": "Feature", "geometry": {"type": "Point", "coordinates": [-106.2698, 39.928]}, "properties": {"NAME": "W0C/PR-094", "TITLE": "10881", "REGION": "CO-Park Range", "ASSOCIATION": "USA - Colorado", "POINTS": "6", "BONUSPOINTS": "3"}}, {"type": "Feature", "geometry": {"type": "Point", "coordinates": [-105.7584, 40.0266]}, "properties": {"NAME": "W0C/PR-095", "TITLE": "10854", "REGION": "CO-Park Range", "ASSOCIATION": "USA - Colorado", "POINTS": "6", "BONUSPOINTS": "3"}}, {"type": "Feature", "geometry": {"type": "Point", "coordinates": [-106.0926, 40.8408]}, "properties": {"NAME": "W0C/PR-096", "TITLE": "10833", "REGION": "CO-Park Range", "ASSOCIATION": "USA - Colorado", "POINTS": "6", "BONUSPOINTS": "3"}}, {"type": "Feature", "geometry": {"type": "Point", "coordinates": [-106.6256, 40.1713]}, "properties": {"NAME": "W0C/PR-097", "TITLE": "Dirt Benchmark", "REGION": "CO-Park Range", "ASSOCIATION": "USA - Colorado", "POINTS": "6", "BONUSPOINTS": "3"}}, {"type": "Feature", "geometry": {"type": "Point", "coordinates": [-106.0216, 39.5693]}, "properties": {"NAME": "W0C/PR-098", "TITLE": "Swan Mountain", "REGION": "CO-Park Range", "ASSOCIATION": "USA - Colorado", "POINTS": "6", "BONUSPOINTS": "3"}}, {"type": "Feature", "geometry": {"type": "Point", "coordinates": [-106.7696, 40.9354]}, "properties": {"NAME": "W0C/PR-099", "TITLE": "Black Mountain", "REGION": "CO-Park Range", "ASSOCIATION": "USA - Colorado", "POINTS": "6", "BONUSPOINTS": "3"}}, {"type": "Feature", "geometry": {"type": "Point", "coordinates": [-105.9786, 39.9544]}, "properties": {"NAME": "W0C/PR-100", "TITLE": "Blue Ridge", "REGION": "CO-Park Range", "ASSOCIATION": "USA - Colorado", "POINTS": "6", "BONUSPOINTS": "3"}}, {"type": "Feature", "geometry": {"type": "Point", "coordinates": [-106.634, 40.4383]}, "properties": {"NAME": "W0C/PR-101", "TITLE": "Elmo Benchmark", "REGION": "CO-Park Range", "ASSOCIATION": "USA - Colorado", "POINTS": "6", "BONUSPOINTS": "3"}}, {"type": "Feature", "geometry": {"type": "Point", "coordinates": [-106.3809, 40.3797]}, "properties": {"NAME": "W0C/PR-102", "TITLE": "Little Haystack Mountain", "REGION": "CO-Park Range", "ASSOCIATION": "USA - Colorado", "POINTS": "6", "BONUSPOINTS": "3"}}, {"type": "Feature", "geometry": {"type": "Point", "coordinates": [-105.9216, 39.9533]}, "properties": {"NAME": "W0C/PR-103", "TITLE": "Sheep Mountain", "REGION": "CO-Park Range", "ASSOCIATION": "USA - Colorado", "POINTS": "6", "BONUSPOINTS": "3"}}, {"type": "Feature", "geometry": {"type": "Point", "coordinates": [-105.7637, 40.0592]}, "properties": {"NAME": "W0C/PR-104", "TITLE": "10626", "REGION": "CO-Park Range", "ASSOCIATION": "USA - Colorado", "POINTS": "6", "BONUSPOINTS": "3"}}, {"type": "Feature", "geometry": {"type": "Point", "coordinates": [-106.2844, 40.2697]}, "properties": {"NAME": "W0C/PR-105", "TITLE": "10593", "REGION": "CO-Park Range", "ASSOCIATION": "USA - Colorado", "POINTS": "6", "BONUSPOINTS": "3"}}, {"type": "Feature", "geometry": {"type": "Point", "coordinates": [-106.5442, 40.0726]}, "properties": {"NAME": "W0C/PR-106", "TITLE": "Pass Benchmark", "REGION": "CO-Park Range", "ASSOCIATION": "USA - Colorado", "POINTS": "6", "BONUSPOINTS": "3"}}, {"type": "Feature", "geometry": {"type": "Point", "coordinates": [-105.9838, 39.532]}, "properties": {"NAME": "W0C/PR-107", "TITLE": "10450", "REGION": "CO-Park Range", "ASSOCIATION": "USA - Colorado", "POINTS": "4", "BONUSPOINTS": "3"}}, {"type": "Feature", "geometry": {"type": "Point", "coordinates": [-105.9911, 40.5231]}, "properties": {"NAME": "W0C/PR-108", "TITLE": "Gould Mountain", "REGION": "CO-Park Range", "ASSOCIATION": "USA - Colorado", "POINTS": "4", "BONUSPOINTS": "3"}}, {"type": "Feature", "geometry": {"type": "Point", "coordinates": [-105.943, 40.2476]}, "properties": {"NAME": "W0C/PR-109", "TITLE": "Apiatan Mountain", "REGION": "CO-Park Range", "ASSOCIATION": "USA - Colorado", "POINTS": "4", "BONUSPOINTS": "3"}}, {"type": "Feature", "geometry": {"type": "Point", "coordinates": [-105.8222, 40.2962]}, "properties": {"NAME": "W0C/PR-110", "TITLE": "Green Mountain", "REGION": "CO-Park Range", "ASSOCIATION": "USA - Colorado", "POINTS": "4", "BONUSPOINTS": "3"}}, {"type": "Feature", "geometry": {"type": "Point", "coordinates": [-106.0212, 40.408]}, "properties": {"NAME": "W0C/PR-111", "TITLE": "La Fevre Ridge", "REGION": "CO-Park Range", "ASSOCIATION": "USA - Colorado", "POINTS": "4", "BONUSPOINTS": "3"}}, {"type": "Feature", "geometry": {"type": "Point", "coordinates": [-106.4934, 40.3178]}, "properties": {"NAME": "W0C/PR-112", "TITLE": "Whiteley Peak", "REGION": "CO-Park Range", "ASSOCIATION": "USA - Colorado", "POINTS": "4", "BONUSPOINTS": "3"}}, {"type": "Feature", "geometry": {"type": "Point", "coordinates": [-105.804, 40.1138]}, "properties": {"NAME": "W0C/PR-113", "TITLE": "Granby Peak", "REGION": "CO-Park Range", "ASSOCIATION": "USA - Colorado", "POINTS": "4", "BONUSPOINTS": "3"}}, {"type": "Feature", "geometry": {"type": "Point", "coordinates": [-105.5546, 39.7925]}, "properties": {"NAME": "W0C/PR-114", "TITLE": "Bald Mountain", "REGION": "CO-Park Range", "ASSOCIATION": "USA - Colorado", "POINTS": "4", "BONUSPOINTS": "3"}}, {"type": "Feature", "geometry": {"type": "Point", "coordinates": [-106.2406, 40.4137]}, "properties": {"NAME": "W0C/PR-115", "TITLE": "Green Ridge", "REGION": "CO-Park Range", "ASSOCIATION": "USA - Colorado", "POINTS": "4", "BONUSPOINTS": "3"}}, {"type": "Feature", "geometry": {"type": "Point", "coordinates": [-106.2262, 40.1429]}, "properties": {"NAME": "W0C/PR-116", "TITLE": "Slide Mountain", "REGION": "CO-Park Range", "ASSOCIATION": "USA - Colorado", "POINTS": "4", "BONUSPOINTS": "3"}}, {"type": "Feature", "geometry": {"type": "Point", "coordinates": [-106.0134, 40.0554]}, "properties": {"NAME": "W0C/PR-117", "TITLE": "9905", "REGION": "CO-Park Range", "ASSOCIATION": "USA - Colorado", "POINTS": "4", "BONUSPOINTS": "3"}}, {"type": "Feature", "geometry": {"type": "Point", "coordinates": [-105.4265, 39.6765]}, "properties": {"NAME": "W0C/PR-118", "TITLE": "Mount Pence", "REGION": "CO-Park Range", "ASSOCIATION": "USA - Colorado", "POINTS": "4", "BONUSPOINTS": "3"}}, {"type": "Feature", "geometry": {"type": "Point", "coordinates": [-105.8222, 40.0663]}, "properties": {"NAME": "W0C/PR-119", "TITLE": "9900", "REGION": "CO-Park Range", "ASSOCIATION": "USA - Colorado", "POINTS": "4", "BONUSPOINTS": "3"}}, {"type": "Feature", "geometry": {"type": "Point", "coordinates": [-106.4393, 39.9349]}, "properties": {"NAME": "W0C/PR-120", "TITLE": "Dice Hill", "REGION": "CO-Park Range", "ASSOCIATION": "USA - Colorado", "POINTS": "4", "BONUSPOINTS": "3"}}, {"type": "Feature", "geometry": {"type": "Point", "coordinates": [-106.5347, 40.365]}, "properties": {"NAME": "W0C/PR-121", "TITLE": "Bear Mountain", "REGION": "CO-Park Range", "ASSOCIATION": "USA - Colorado", "POINTS": "4", "BONUSPOINTS": "3"}}, {"type": "Feature", "geometry": {"type": "Point", "coordinates": [-106.4458, 40.9182]}, "properties": {"NAME": "W0C/PR-122", "TITLE": "Independence Mountain", "REGION": "CO-Park Range", "ASSOCIATION": "USA - Colorado", "POINTS": "4", "BONUSPOINTS": "3"}}, {"type": "Feature", "geometry": {"type": "Point", "coordinates": [-106.5932, 40.9229]}, "properties": {"NAME": "W0C/PR-123", "TITLE": "9726", "REGION": "CO-Park Range", "ASSOCIATION": "USA - Colorado", "POINTS": "4", "BONUSPOINTS": "3"}}, {"type": "Feature", "geometry": {"type": "Point", "coordinates": [-106.0062, 40.5672]}, "properties": {"NAME": "W0C/PR-124", "TITLE": "Bull Mountain", "REGION": "CO-Park Range", "ASSOCIATION": "USA - Colorado", "POINTS": "4", "BONUSPOINTS": "3"}}, {"type": "Feature", "geometry": {"type": "Point", "coordinates": [-105.9531, 39.9983]}, "properties": {"NAME": "W0C/PR-125", "TITLE": "Ninemile Mountain", "REGION": "CO-Park Range", "ASSOCIATION": "USA - Colorado", "POINTS": "4", "BONUSPOINTS": "3"}}, {"type": "Feature", "geometry": {"type": "Point", "coordinates": [-106.3958, 40.4454]}, "properties": {"NAME": "W0C/PR-126", "TITLE": "Spicer Peak", "REGION": "CO-Park Range", "ASSOCIATION": "USA - Colorado", "POINTS": "4", "BONUSPOINTS": "3"}}, {"type": "Feature", "geometry": {"type": "Point", "coordinates": [-106.3497, 40.2793]}, "properties": {"NAME": "W0C/PR-127", "TITLE": "9525", "REGION": "CO-Park Range", "ASSOCIATION": "USA - Colorado", "POINTS": "4", "BONUSPOINTS": "3"}}, {"type": "Feature", "geometry": {"type": "Point", "coordinates": [-106.4079, 40.9177]}, "properties": {"NAME": "W0C/PR-128", "TITLE": "9427", "REGION": "CO-Park Range", "ASSOCIATION": "USA - Colorado", "POINTS": "4", "BONUSPOINTS": "3"}}, {"type": "Feature", "geometry": {"type": "Point", "coordinates": [-106.5078, 40.7714]}, "properties": {"NAME": "W0C/PR-129", "TITLE": "Sheep Mountain", "REGION": "CO-Park Range", "ASSOCIATION": "USA - Colorado", "POINTS": "4", "BONUSPOINTS": "3"}}, {"type": "Feature", "geometry": {"type": "Point", "coordinates": [-106.4424, 40.0025]}, "properties": {"NAME": "W0C/PR-130", "TITLE": "San Toy Mountain", "REGION": "CO-Park Range", "ASSOCIATION": "USA - Colorado", "POINTS": "4", "BONUSPOINTS": "3"}}, {"type": "Feature", "geometry": {"type": "Point", "coordinates": [-105.9, 40.0187]}, "properties": {"NAME": "W0C/PR-131", "TITLE": "9398", "REGION": "CO-Park Range", "ASSOCIATION": "USA - Colorado", "POINTS": "4", "BONUSPOINTS": "3"}}, {"type": "Feature", "geometry": {"type": "Point", "coordinates": [-106.5187, 40.1961]}, "properties": {"NAME": "W0C/PR-132", "TITLE": "Tyler Mountain", "REGION": "CO-Park Range", "ASSOCIATION": "USA - Colorado", "POINTS": "4", "BONUSPOINTS": "3"}}, {"type": "Feature", "geometry": {"type": "Point", "coordinates": [-106.5541, 40.4997]}, "properties": {"NAME": "W0C/PR-133", "TITLE": "North Mexican Ridge", "REGION": "CO-Park Range", "ASSOCIATION": "USA - Colorado", "POINTS": "4", "BONUSPOINTS": "3"}}, {"type": "Feature", "geometry": {"type": "Point", "coordinates": [-105.9646, 40.1899]}, "properties": {"NAME": "W0C/PR-134", "TITLE": "Trail Mountain", "REGION": "CO-Park Range", "ASSOCIATION": "USA - Colorado", "POINTS": "4", "BONUSPOINTS": "3"}}, {"type": "Feature", "geometry": {"type": "Point", "coordinates": [-105.8494, 40.082]}, "properties": {"NAME": "W0C/PR-135", "TITLE": "9328", "REGION": "CO-Park Range", "ASSOCIATION": "USA - Colorado", "POINTS": "4", "BONUSPOINTS": "3"}}, {"type": "Feature", "geometry": {"type": "Point", "coordinates": [-106.2921, 40.4832]}, "properties": {"NAME": "W0C/PR-136", "TITLE": "Buffalo Ridge", "REGION": "CO-Park Range", "ASSOCIATION": "USA - Colorado", "POINTS": "4", "BONUSPOINTS": "3"}}, {"type": "Feature", "geometry": {"type": "Point", "coordinates": [-106.4867, 40.7015]}, "properties": {"NAME": "W0C/PR-137", "TITLE": "Delaney Butte", "REGION": "CO-Park Range", "ASSOCIATION": "USA - Colorado", "POINTS": "4", "BONUSPOINTS": "3"}}, {"type": "Feature", "geometry": {"type": "Point", "coordinates": [-106.2504, 40.9361]}, "properties": {"NAME": "W0C/PR-138", "TITLE": "Pinkham Mountain", "REGION": "CO-Park Range", "ASSOCIATION": "USA - Colorado", "POINTS": "4", "BONUSPOINTS": "3"}}, {"type": "Feature", "geometry": {"type": "Point", "coordinates": [-106.4817, 40.5228]}, "properties": {"NAME": "W0C/PR-139", "TITLE": "Pole Mountain", "REGION": "CO-Park Range", "ASSOCIATION": "USA - Colorado", "POINTS": "4", "BONUSPOINTS": "3"}}, {"type": "Feature", "geometry": {"type": "Point", "coordinates": [-106.3914, 40.1181]}, "properties": {"NAME": "W0C/PR-140", "TITLE": "Wolford Mountain", "REGION": "CO-Park Range", "ASSOCIATION": "USA - Colorado", "POINTS": "4", "BONUSPOINTS": "3"}}, {"type": "Feature", "geometry": {"type": "Point", "coordinates": [-105.9871, 40.14]}, "properties": {"NAME": "W0C/PR-141", "TITLE": "9180", "REGION": "CO-Park Range", "ASSOCIATION": "USA - Colorado", "POINTS": "4", "BONUSPOINTS": "3"}}, {"type": "Feature", "geometry": {"type": "Point", "coordinates": [-106.2625, 40.897]}, "properties": {"NAME": "W0C/PR-142", "TITLE": "Sentinel Mountain", "REGION": "CO-Park Range", "ASSOCIATION": "USA - Colorado", "POINTS": "4", "BONUSPOINTS": "3"}}, {"type": "Feature", "geometry": {"type": "Point", "coordinates": [-106.3305, 39.9794]}, "properties": {"NAME": "W0C/PR-143", "TITLE": "Lawson Ridge", "REGION": "CO-Park Range", "ASSOCIATION": "USA - Colorado", "POINTS": "4", "BONUSPOINTS": "3"}}, {"type": "Feature", "geometry": {"type": "Point", "coordinates": [-105.8331, 40.1878]}, "properties": {"NAME": "W0C/PR-144", "TITLE": "Green Ridge", "REGION": "CO-Park Range", "ASSOCIATION": "USA - Colorado", "POINTS": "4", "BONUSPOINTS": "3"}}, {"type": "Feature", "geometry": {"type": "Point", "coordinates": [-106.3517, 40.2066]}, "properties": {"NAME": "W0C/PR-145", "TITLE": "8862", "REGION": "CO-Park Range", "ASSOCIATION": "USA - Colorado", "POINTS": "2", "BONUSPOINTS": "0"}}, {"type": "Feature", "geometry": {"type": "Point", "coordinates": [-106.3525, 40.0283]}, "properties": {"NAME": "W0C/PR-146", "TITLE": "Junction Butte", "REGION": "CO-Park Range", "ASSOCIATION": "USA - Colorado", "POINTS": "2", "BONUSPOINTS": "0"}}, {"type": "Feature", "geometry": {"type": "Point", "coordinates": [-106.334, 40.9194]}, "properties": {"NAME": "W0C/PR-147", "TITLE": "Watson Mountain", "REGION": "CO-Park Range", "ASSOCIATION": "USA - Colorado", "POINTS": "2", "BONUSPOINTS": "0"}}, {"type": "Feature", "geometry": {"type": "Point", "coordinates": [-105.4117, 39.7289]}, "properties": {"NAME": "W0C/PR-148", "TITLE": "8595", "REGION": "CO-Park Range", "ASSOCIATION": "USA - Colorado", "POINTS": "2", "BONUSPOINTS": "0"}}, {"type": "Feature", "geometry": {"type": "Point", "coordinates": [-106.5695, 39.932]}, "properties": {"NAME": "W0C/PR-149", "TITLE": "8373", "REGION": "CO-Park Range", "ASSOCIATION": "USA - Colorado", "POINTS": "2", "BONUSPOINTS": "0"}}, {"type": "Feature", "geometry": {"type": "Point", "coordinates": [-105.4213, 39.7459]}, "properties": {"NAME": "W0C/PR-150", "TITLE": "Floyd Benchmark", "REGION": "CO-Park Range", "ASSOCIATION": "USA - Colorado", "POINTS": "2", "BONUSPOINTS": "0"}}, {"type": "Feature", "geometry": {"type": "Point", "coordinates": [-105.9245, 40.5816]}, "properties": {"NAME": "W0C/PR-151", "TITLE": "12386", "REGION": "CO-Park Range", "ASSOCIATION": "USA - Colorado", "POINTS": "6", "BONUSPOINTS": "3"}}, {"type": "Feature", "geometry": {"type": "Point", "coordinates": [-106.6476, 40.774]}, "properties": {"NAME": "W0C/PR-152", "TITLE": "11820", "REGION": "CO-Park Range", "ASSOCIATION": "USA - Colorado", "POINTS": "6", "BONUSPOINTS": "3"}}, {"type": "Feature", "geometry": {"type": "Point", "coordinates": [-106.2656, 40.361]}, "properties": {"NAME": "W0C/PR-153", "TITLE": "Sheep Mountain", "REGION": "CO-Park Range", "ASSOCIATION": "USA - Colorado", "POINTS": "6", "BONUSPOINTS": "3"}}, {"type": "Feature", "geometry": {"type": "Point", "coordinates": [-106.3339, 40.2504]}, "properties": {"NAME": "W0C/PR-154", "TITLE": "9660", "REGION": "CO-Park Range", "ASSOCIATION": "USA - Colorado", "POINTS": "4", "BONUSPOINTS": "3"}}, {"type": "Feature", "geometry": {"type": "Point", "coordinates": [-105.9043, 40.1632]}, "properties": {"NAME": "W0C/PR-155", "TITLE": "Table Mountain", "REGION": "CO-Park Range", "ASSOCIATION": "USA - Colorado", "POINTS": "2", "BONUSPOINTS": "0"}}, {"type": "Feature", "geometry": {"type": "Point", "coordinates": [-106.2207, 40.0373]}, "properties": {"NAME": "W0C/PR-156", "TITLE": "8420", "REGION": "CO-Park Range", "ASSOCIATION": "USA - Colorado", "POINTS": "2", "BONUSPOINTS": "0"}}]}