{"type": "FeatureCollection", "name": "W0C/SM SUMMITS", "features": [{"type": "Feature", "geometry": {"type": "Point", "coordinates": [-107.9915, 37.8391]}, "properties": {"NAME": "W0C/SM-001", "TITLE": "Mount Wilson", "REGION": "CO-San Miguel", "ASSOCIATION": "USA - Colorado", "POINTS": "10", "BONUSPOINTS": "3"}}, {"type": "Feature", "geometry": {"type": "Point", "coordinates": [-107.9847, 37.8603]}, "properties": {"NAME": "W0C/SM-002", "TITLE": "Wilson Peak", "REGION": "CO-San Miguel", "ASSOCIATION": "USA - Colorado", "POINTS": "10", "BONUSPOINTS": "3"}}, {"type": "Feature", "geometry": {"type": "Point", "coordinates": [-107.984, 37.8452]}, "properties": {"NAME": "W0C/SM-003", "TITLE": "Gladstone Peak", "REGION": "CO-San Miguel", "ASSOCIATION": "USA - Colorado", "POINTS": "10", "BONUSPOINTS": "3"}}, {"type": "Feature", "geometry": {"type": "Point", "coordinates": [-107.8619, 37.7562]}, "properties": {"NAME": "W0C/SM-004", "TITLE": "Grizzly Peak", "REGION": "CO-San Miguel", "ASSOCIATION": "USA - Colorado", "POINTS": "10", "BONUSPOINTS": "3"}}, {"type": "Feature", "geometry": {"type": "Point", "coordinates": [-108.0014, 37.8568]}, "properties": {"NAME": "W0C/SM-005", "TITLE": "13540", "REGION": "CO-San Miguel", "ASSOCIATION": "USA - Colorado", "POINTS": "10", "BONUSPOINTS": "3"}}, {"type": "Feature", "geometry": {"type": "Point", "coordinates": [-108.108, 37.8536]}, "properties": {"NAME": "W0C/SM-006", "TITLE": "Middle Peak", "REGION": "CO-San Miguel", "ASSOCIATION": "USA - Colorado", "POINTS": "8", "BONUSPOINTS": "3"}}, {"type": "Feature", "geometry": {"type": "Point", "coordinates": [-108.0964, 37.8402]}, "properties": {"NAME": "W0C/SM-007", "TITLE": "Dolores Peak", "REGION": "CO-San Miguel", "ASSOCIATION": "USA - Colorado", "POINTS": "8", "BONUSPOINTS": "3"}}, {"type": "Feature", "geometry": {"type": "Point", "coordinates": [-107.9506, 37.8359]}, "properties": {"NAME": "W0C/SM-008", "TITLE": "Lizard Head", "REGION": "CO-San Miguel", "ASSOCIATION": "USA - Colorado", "POINTS": "8", "BONUSPOINTS": "3"}}, {"type": "Feature", "geometry": {"type": "Point", "coordinates": [-107.9342, 37.8583]}, "properties": {"NAME": "W0C/SM-009", "TITLE": "Sunshine Mountain", "REGION": "CO-San Miguel", "ASSOCIATION": "USA - Colorado", "POINTS": "8", "BONUSPOINTS": "3"}}, {"type": "Feature", "geometry": {"type": "Point", "coordinates": [-107.9876, 37.6853]}, "properties": {"NAME": "W0C/SM-010", "TITLE": "Blackhawk Mountain", "REGION": "CO-San Miguel", "ASSOCIATION": "USA - Colorado", "POINTS": "8", "BONUSPOINTS": "3"}}, {"type": "Feature", "geometry": {"type": "Point", "coordinates": [-108.1256, 37.8475]}, "properties": {"NAME": "W0C/SM-011", "TITLE": "Dunn Peak", "REGION": "CO-San Miguel", "ASSOCIATION": "USA - Colorado", "POINTS": "8", "BONUSPOINTS": "3"}}, {"type": "Feature", "geometry": {"type": "Point", "coordinates": [-108.2555, 37.8879]}, "properties": {"NAME": "W0C/SM-012", "TITLE": "Lone Cone", "REGION": "CO-San Miguel", "ASSOCIATION": "USA - Colorado", "POINTS": "8", "BONUSPOINTS": "3"}}, {"type": "Feature", "geometry": {"type": "Point", "coordinates": [-107.9284, 37.7098]}, "properties": {"NAME": "W0C/SM-013", "TITLE": "Hermosa Peak", "REGION": "CO-San Miguel", "ASSOCIATION": "USA - Colorado", "POINTS": "8", "BONUSPOINTS": "3"}}, {"type": "Feature", "geometry": {"type": "Point", "coordinates": [-108.073, 37.4598]}, "properties": {"NAME": "W0C/SM-014", "TITLE": "Sharkstooth Peak", "REGION": "CO-San Miguel", "ASSOCIATION": "USA - Colorado", "POINTS": "6", "BONUSPOINTS": "3"}}, {"type": "Feature", "geometry": {"type": "Point", "coordinates": [-108.0581, 37.7344]}, "properties": {"NAME": "W0C/SM-015", "TITLE": "Elliott Mountain", "REGION": "CO-San Miguel", "ASSOCIATION": "USA - Colorado", "POINTS": "6", "BONUSPOINTS": "3"}}, {"type": "Feature", "geometry": {"type": "Point", "coordinates": [-108.0809, 37.6964]}, "properties": {"NAME": "W0C/SM-016", "TITLE": "Anchor Mountain", "REGION": "CO-San Miguel", "ASSOCIATION": "USA - Colorado", "POINTS": "6", "BONUSPOINTS": "3"}}, {"type": "Feature", "geometry": {"type": "Point", "coordinates": [-108.0059, 37.7167]}, "properties": {"NAME": "W0C/SM-017", "TITLE": "Telescope Mountain", "REGION": "CO-San Miguel", "ASSOCIATION": "USA - Colorado", "POINTS": "6", "BONUSPOINTS": "3"}}, {"type": "Feature", "geometry": {"type": "Point", "coordinates": [-108.2187, 37.835]}, "properties": {"NAME": "W0C/SM-018", "TITLE": "Groundhog Mountain", "REGION": "CO-San Miguel", "ASSOCIATION": "USA - Colorado", "POINTS": "6", "BONUSPOINTS": "3"}}, {"type": "Feature", "geometry": {"type": "Point", "coordinates": [-107.9217, 37.8236]}, "properties": {"NAME": "W0C/SM-019", "TITLE": "Black Face", "REGION": "CO-San Miguel", "ASSOCIATION": "USA - Colorado", "POINTS": "6", "BONUSPOINTS": "3"}}, {"type": "Feature", "geometry": {"type": "Point", "coordinates": [-107.9483, 37.7458]}, "properties": {"NAME": "W0C/SM-020", "TITLE": "Flattop Mountain", "REGION": "CO-San Miguel", "ASSOCIATION": "USA - Colorado", "POINTS": "6", "BONUSPOINTS": "3"}}, {"type": "Feature", "geometry": {"type": "Point", "coordinates": [-108.0908, 37.9276]}, "properties": {"NAME": "W0C/SM-021", "TITLE": "Little Cone", "REGION": "CO-San Miguel", "ASSOCIATION": "USA - Colorado", "POINTS": "6", "BONUSPOINTS": "3"}}, {"type": "Feature", "geometry": {"type": "Point", "coordinates": [-108.1059, 37.3823]}, "properties": {"NAME": "W0C/SM-022", "TITLE": "Madden Peak", "REGION": "CO-San Miguel", "ASSOCIATION": "USA - Colorado", "POINTS": "6", "BONUSPOINTS": "3"}}, {"type": "Feature", "geometry": {"type": "Point", "coordinates": [-108.1272, 37.411]}, "properties": {"NAME": "W0C/SM-023", "TITLE": "Helmet Peak", "REGION": "CO-San Miguel", "ASSOCIATION": "USA - Colorado", "POINTS": "6", "BONUSPOINTS": "3"}}, {"type": "Feature", "geometry": {"type": "Point", "coordinates": [-107.9089, 37.8471]}, "properties": {"NAME": "W0C/SM-024", "TITLE": "San Bernardo Mountain", "REGION": "CO-San Miguel", "ASSOCIATION": "USA - Colorado", "POINTS": "6", "BONUSPOINTS": "3"}}, {"type": "Feature", "geometry": {"type": "Point", "coordinates": [-108.1909, 37.7853]}, "properties": {"NAME": "W0C/SM-025", "TITLE": "Black Mesa", "REGION": "CO-San Miguel", "ASSOCIATION": "USA - Colorado", "POINTS": "6", "BONUSPOINTS": "3"}}, {"type": "Feature", "geometry": {"type": "Point", "coordinates": [-108.1065, 37.4856]}, "properties": {"NAME": "W0C/SM-026", "TITLE": "Burro Mountain", "REGION": "CO-San Miguel", "ASSOCIATION": "USA - Colorado", "POINTS": "6", "BONUSPOINTS": "3"}}, {"type": "Feature", "geometry": {"type": "Point", "coordinates": [-107.973, 37.9914]}, "properties": {"NAME": "W0C/SM-027", "TITLE": "Gray Head", "REGION": "CO-San Miguel", "ASSOCIATION": "USA - Colorado", "POINTS": "6", "BONUSPOINTS": "3"}}, {"type": "Feature", "geometry": {"type": "Point", "coordinates": [-108.1634, 37.7514]}, "properties": {"NAME": "W0C/SM-028", "TITLE": "Willow Divide", "REGION": "CO-San Miguel", "ASSOCIATION": "USA - Colorado", "POINTS": "4", "BONUSPOINTS": "3"}}, {"type": "Feature", "geometry": {"type": "Point", "coordinates": [-108.4026, 37.9108]}, "properties": {"NAME": "W0C/SM-029", "TITLE": "North Mountain", "REGION": "CO-San Miguel", "ASSOCIATION": "USA - Colorado", "POINTS": "4", "BONUSPOINTS": "3"}}, {"type": "Feature", "geometry": {"type": "Point", "coordinates": [-108.2593, 37.7275]}, "properties": {"NAME": "W0C/SM-030", "TITLE": "9900", "REGION": "CO-San Miguel", "ASSOCIATION": "USA - Colorado", "POINTS": "4", "BONUSPOINTS": "3"}}, {"type": "Feature", "geometry": {"type": "Point", "coordinates": [-108.318, 37.7917]}, "properties": {"NAME": "W0C/SM-031", "TITLE": "Flattop Mountain", "REGION": "CO-San Miguel", "ASSOCIATION": "USA - Colorado", "POINTS": "4", "BONUSPOINTS": "3"}}, {"type": "Feature", "geometry": {"type": "Point", "coordinates": [-108.0157, 38.0093]}, "properties": {"NAME": "W0C/SM-032", "TITLE": "9660", "REGION": "CO-San Miguel", "ASSOCIATION": "USA - Colorado", "POINTS": "4", "BONUSPOINTS": "3"}}, {"type": "Feature", "geometry": {"type": "Point", "coordinates": [-108.3894, 37.7509]}, "properties": {"NAME": "W0C/SM-033", "TITLE": "Belmear Mountain", "REGION": "CO-San Miguel", "ASSOCIATION": "USA - Colorado", "POINTS": "4", "BONUSPOINTS": "3"}}, {"type": "Feature", "geometry": {"type": "Point", "coordinates": [-107.9686, 38.0584]}, "properties": {"NAME": "W0C/SM-034", "TITLE": "Hastings Mesa", "REGION": "CO-San Miguel", "ASSOCIATION": "USA - Colorado", "POINTS": "4", "BONUSPOINTS": "3"}}, {"type": "Feature", "geometry": {"type": "Point", "coordinates": [-108.3987, 37.7905]}, "properties": {"NAME": "W0C/SM-035", "TITLE": "South Mountain", "REGION": "CO-San Miguel", "ASSOCIATION": "USA - Colorado", "POINTS": "4", "BONUSPOINTS": "3"}}, {"type": "Feature", "geometry": {"type": "Point", "coordinates": [-108.8049, 37.2688]}, "properties": {"NAME": "W0C/SM-036", "TITLE": "Black Mountain", "REGION": "CO-San Miguel", "ASSOCIATION": "USA - Colorado", "POINTS": "4", "BONUSPOINTS": "3"}}, {"type": "Feature", "geometry": {"type": "Point", "coordinates": [-108.3682, 37.7164]}, "properties": {"NAME": "W0C/SM-037", "TITLE": "Beaver Mountain", "REGION": "CO-San Miguel", "ASSOCIATION": "USA - Colorado", "POINTS": "4", "BONUSPOINTS": "3"}}, {"type": "Feature", "geometry": {"type": "Point", "coordinates": [-108.5715, 37.7675]}, "properties": {"NAME": "W0C/SM-038", "TITLE": "Glade Benchmark", "REGION": "CO-San Miguel", "ASSOCIATION": "USA - Colorado", "POINTS": "4", "BONUSPOINTS": "3"}}, {"type": "Feature", "geometry": {"type": "Point", "coordinates": [-108.4789, 37.7662]}, "properties": {"NAME": "W0C/SM-039", "TITLE": "Lone Mesa", "REGION": "CO-San Miguel", "ASSOCIATION": "USA - Colorado", "POINTS": "4", "BONUSPOINTS": "3"}}, {"type": "Feature", "geometry": {"type": "Point", "coordinates": [-108.222, 37.9975]}, "properties": {"NAME": "W0C/SM-040", "TITLE": "Big Baldy", "REGION": "CO-San Miguel", "ASSOCIATION": "USA - Colorado", "POINTS": "4", "BONUSPOINTS": "3"}}, {"type": "Feature", "geometry": {"type": "Point", "coordinates": [-108.3285, 37.6542]}, "properties": {"NAME": "W0C/SM-041", "TITLE": "Bald Hill", "REGION": "CO-San Miguel", "ASSOCIATION": "USA - Colorado", "POINTS": "4", "BONUSPOINTS": "3"}}, {"type": "Feature", "geometry": {"type": "Point", "coordinates": [-108.5091, 37.6941]}, "properties": {"NAME": "W0C/SM-042", "TITLE": "Elston Mountain", "REGION": "CO-San Miguel", "ASSOCIATION": "USA - Colorado", "POINTS": "4", "BONUSPOINTS": "3"}}, {"type": "Feature", "geometry": {"type": "Point", "coordinates": [-108.0719, 38.0401]}, "properties": {"NAME": "W0C/SM-043", "TITLE": "9140", "REGION": "CO-San Miguel", "ASSOCIATION": "USA - Colorado", "POINTS": "4", "BONUSPOINTS": "3"}}, {"type": "Feature", "geometry": {"type": "Point", "coordinates": [-108.7834, 37.2658]}, "properties": {"NAME": "W0C/SM-044", "TITLE": "Horse Mountain", "REGION": "CO-San Miguel", "ASSOCIATION": "USA - Colorado", "POINTS": "4", "BONUSPOINTS": "3"}}, {"type": "Feature", "geometry": {"type": "Point", "coordinates": [-108.5561, 37.7182]}, "properties": {"NAME": "W0C/SM-045", "TITLE": "Narraguinnep Mountain", "REGION": "CO-San Miguel", "ASSOCIATION": "USA - Colorado", "POINTS": "4", "BONUSPOINTS": "3"}}, {"type": "Feature", "geometry": {"type": "Point", "coordinates": [-108.4229, 37.9827]}, "properties": {"NAME": "W0C/SM-046", "TITLE": "Hamilton Mesa", "REGION": "CO-San Miguel", "ASSOCIATION": "USA - Colorado", "POINTS": "2", "BONUSPOINTS": "3"}}, {"type": "Feature", "geometry": {"type": "Point", "coordinates": [-108.5253, 37.7277]}, "properties": {"NAME": "W0C/SM-047", "TITLE": "8971", "REGION": "CO-San Miguel", "ASSOCIATION": "USA - Colorado", "POINTS": "2", "BONUSPOINTS": "0"}}, {"type": "Feature", "geometry": {"type": "Point", "coordinates": [-108.5176, 37.7459]}, "properties": {"NAME": "W0C/SM-048", "TITLE": "8944", "REGION": "CO-San Miguel", "ASSOCIATION": "USA - Colorado", "POINTS": "2", "BONUSPOINTS": "0"}}, {"type": "Feature", "geometry": {"type": "Point", "coordinates": [-108.5162, 37.9025]}, "properties": {"NAME": "W0C/SM-049", "TITLE": "8926", "REGION": "CO-San Miguel", "ASSOCIATION": "USA - Colorado", "POINTS": "2", "BONUSPOINTS": "0"}}, {"type": "Feature", "geometry": {"type": "Point", "coordinates": [-108.8072, 37.2201]}, "properties": {"NAME": "W0C/SM-050", "TITLE": "The Knees", "REGION": "CO-San Miguel", "ASSOCIATION": "USA - Colorado", "POINTS": "2", "BONUSPOINTS": "0"}}, {"type": "Feature", "geometry": {"type": "Point", "coordinates": [-108.2306, 37.3407]}, "properties": {"NAME": "W0C/SM-051", "TITLE": "Menefee Mountain", "REGION": "CO-San Miguel", "ASSOCIATION": "USA - Colorado", "POINTS": "2", "BONUSPOINTS": "0"}}, {"type": "Feature", "geometry": {"type": "Point", "coordinates": [-108.431, 37.7454]}, "properties": {"NAME": "W0C/SM-052", "TITLE": "8810", "REGION": "CO-San Miguel", "ASSOCIATION": "USA - Colorado", "POINTS": "2", "BONUSPOINTS": "0"}}, {"type": "Feature", "geometry": {"type": "Point", "coordinates": [-108.5013, 37.7961]}, "properties": {"NAME": "W0C/SM-053", "TITLE": "Thomas Mountain", "REGION": "CO-San Miguel", "ASSOCIATION": "USA - Colorado", "POINTS": "2", "BONUSPOINTS": "0"}}, {"type": "Feature", "geometry": {"type": "Point", "coordinates": [-108.4564, 37.8861]}, "properties": {"NAME": "W0C/SM-054", "TITLE": "8666", "REGION": "CO-San Miguel", "ASSOCIATION": "USA - Colorado", "POINTS": "2", "BONUSPOINTS": "0"}}, {"type": "Feature", "geometry": {"type": "Point", "coordinates": [-108.7941, 37.298]}, "properties": {"NAME": "W0C/SM-055", "TITLE": "Marble Mountain", "REGION": "CO-San Miguel", "ASSOCIATION": "USA - Colorado", "POINTS": "2", "BONUSPOINTS": "0"}}, {"type": "Feature", "geometry": {"type": "Point", "coordinates": [-108.2135, 37.2983]}, "properties": {"NAME": "W0C/SM-056", "TITLE": "La Monte Peak", "REGION": "CO-San Miguel", "ASSOCIATION": "USA - Colorado", "POINTS": "2", "BONUSPOINTS": "0"}}, {"type": "Feature", "geometry": {"type": "Point", "coordinates": [-108.4187, 37.3157]}, "properties": {"NAME": "W0C/SM-057", "TITLE": "Point Lookout", "REGION": "CO-San Miguel", "ASSOCIATION": "USA - Colorado", "POINTS": "2", "BONUSPOINTS": "0"}}, {"type": "Feature", "geometry": {"type": "Point", "coordinates": [-108.4309, 37.2998]}, "properties": {"NAME": "W0C/SM-058", "TITLE": "Prater Ridge", "REGION": "CO-San Miguel", "ASSOCIATION": "USA - Colorado", "POINTS": "2", "BONUSPOINTS": "0"}}, {"type": "Feature", "geometry": {"type": "Point", "coordinates": [-108.8367, 37.9156]}, "properties": {"NAME": "W0C/SM-059", "TITLE": "8210", "REGION": "CO-San Miguel", "ASSOCIATION": "USA - Colorado", "POINTS": "2", "BONUSPOINTS": "0"}}, {"type": "Feature", "geometry": {"type": "Point", "coordinates": [-108.3335, 37.2773]}, "properties": {"NAME": "W0C/SM-060", "TITLE": "Weber Mountain", "REGION": "CO-San Miguel", "ASSOCIATION": "USA - Colorado", "POINTS": "2", "BONUSPOINTS": "0"}}, {"type": "Feature", "geometry": {"type": "Point", "coordinates": [-108.7932, 37.8056]}, "properties": {"NAME": "W0C/SM-061", "TITLE": "Dolores Canyon Overlook", "REGION": "CO-San Miguel", "ASSOCIATION": "USA - Colorado", "POINTS": "2", "BONUSPOINTS": "0"}}, {"type": "Feature", "geometry": {"type": "Point", "coordinates": [-108.6117, 37.5911]}, "properties": {"NAME": "W0C/SM-062", "TITLE": "7775", "REGION": "CO-San Miguel", "ASSOCIATION": "USA - Colorado", "POINTS": "1", "BONUSPOINTS": "0"}}, {"type": "Feature", "geometry": {"type": "Point", "coordinates": [-108.6375, 37.2252]}, "properties": {"NAME": "W0C/SM-063", "TITLE": "7710", "REGION": "CO-San Miguel", "ASSOCIATION": "USA - Colorado", "POINTS": "1", "BONUSPOINTS": "0"}}, {"type": "Feature", "geometry": {"type": "Point", "coordinates": [-108.9944, 38.0063]}, "properties": {"NAME": "W0C/SM-064", "TITLE": "Summit Point", "REGION": "CO-San Miguel", "ASSOCIATION": "USA - Colorado", "POINTS": "1", "BONUSPOINTS": "0"}}, {"type": "Feature", "geometry": {"type": "Point", "coordinates": [-108.8078, 37.942]}, "properties": {"NAME": "W0C/SM-065", "TITLE": "Joe Davis Hill", "REGION": "CO-San Miguel", "ASSOCIATION": "USA - Colorado", "POINTS": "1", "BONUSPOINTS": "0"}}, {"type": "Feature", "geometry": {"type": "Point", "coordinates": [-108.7819, 38.0975]}, "properties": {"NAME": "W0C/SM-066", "TITLE": "Hamm Benchmark", "REGION": "CO-San Miguel", "ASSOCIATION": "USA - Colorado", "POINTS": "1", "BONUSPOINTS": "0"}}, {"type": "Feature", "geometry": {"type": "Point", "coordinates": [-108.9742, 38.1522]}, "properties": {"NAME": "W0C/SM-067", "TITLE": "Island Mesa", "REGION": "CO-San Miguel", "ASSOCIATION": "USA - Colorado", "POINTS": "1", "BONUSPOINTS": "0"}}, {"type": "Feature", "geometry": {"type": "Point", "coordinates": [-108.7716, 37.3698]}, "properties": {"NAME": "W0C/SM-068", "TITLE": "Goodman Point", "REGION": "CO-San Miguel", "ASSOCIATION": "USA - Colorado", "POINTS": "1", "BONUSPOINTS": "0"}}, {"type": "Feature", "geometry": {"type": "Point", "coordinates": [-108.9127, 38.1241]}, "properties": {"NAME": "W0C/SM-069", "TITLE": "Grassy Hills", "REGION": "CO-San Miguel", "ASSOCIATION": "USA - Colorado", "POINTS": "1", "BONUSPOINTS": "0"}}, {"type": "Feature", "geometry": {"type": "Point", "coordinates": [-108.6391, 37.043]}, "properties": {"NAME": "W0C/SM-070", "TITLE": "Mesa Benchmark", "REGION": "CO-San Miguel", "ASSOCIATION": "USA - Colorado", "POINTS": "1", "BONUSPOINTS": "0"}}, {"type": "Feature", "geometry": {"type": "Point", "coordinates": [-108.8766, 38.0919]}, "properties": {"NAME": "W0C/SM-071", "TITLE": "Cape Horn", "REGION": "CO-San Miguel", "ASSOCIATION": "USA - Colorado", "POINTS": "1", "BONUSPOINTS": "0"}}, {"type": "Feature", "geometry": {"type": "Point", "coordinates": [-108.5831, 37.0398]}, "properties": {"NAME": "W0C/SM-072", "TITLE": "6491", "REGION": "CO-San Miguel", "ASSOCIATION": "USA - Colorado", "POINTS": "1", "BONUSPOINTS": "0"}}, {"type": "Feature", "geometry": {"type": "Point", "coordinates": [-108.6894, 37.1262]}, "properties": {"NAME": "W0C/SM-073", "TITLE": "Squaw", "REGION": "CO-San Miguel", "ASSOCIATION": "USA - Colorado", "POINTS": "1", "BONUSPOINTS": "0"}}]}