{"type": "FeatureCollection", "name": "W0C/RP SUMMITS", "features": [{"type": "Feature", "geometry": {"type": "Point", "coordinates": [-107.0833, 40.0146]}, "properties": {"NAME": "W0C/RP-001", "TITLE": "Flat Top Mountain", "REGION": "CO-Roan Plateau", "ASSOCIATION": "USA - Colorado", "POINTS": "6", "BONUSPOINTS": "3"}}, {"type": "Feature", "geometry": {"type": "Point", "coordinates": [-107.3409, 39.95]}, "properties": {"NAME": "W0C/RP-002", "TITLE": "Big Marvine Peak", "REGION": "CO-Roan Plateau", "ASSOCIATION": "USA - Colorado", "POINTS": "6", "BONUSPOINTS": "3"}}, {"type": "Feature", "geometry": {"type": "Point", "coordinates": [-107.369, 40.7833]}, "properties": {"NAME": "W0C/RP-003", "TITLE": "Black Mountain", "REGION": "CO-Roan Plateau", "ASSOCIATION": "USA - Colorado", "POINTS": "6", "BONUSPOINTS": "3"}}, {"type": "Feature", "geometry": {"type": "Point", "coordinates": [-107.3798, 39.4253]}, "properties": {"NAME": "W0C/RP-004", "TITLE": "Sunlight Peak", "REGION": "CO-Roan Plateau", "ASSOCIATION": "USA - Colorado", "POINTS": "6", "BONUSPOINTS": "3"}}, {"type": "Feature", "geometry": {"type": "Point", "coordinates": [-108.8701, 40.6069]}, "properties": {"NAME": "W0C/RP-005", "TITLE": "Zenobia Peak", "REGION": "CO-Roan Plateau", "ASSOCIATION": "USA - Colorado", "POINTS": "4", "BONUSPOINTS": "3"}}, {"type": "Feature", "geometry": {"type": "Point", "coordinates": [-107.1328, 39.9223]}, "properties": {"NAME": "W0C/RP-006", "TITLE": "Sheep Mountain", "REGION": "CO-Roan Plateau", "ASSOCIATION": "USA - Colorado", "POINTS": "6", "BONUSPOINTS": "3"}}, {"type": "Feature", "geometry": {"type": "Point", "coordinates": [-107.1253, 39.9736]}, "properties": {"NAME": "W0C/RP-007", "TITLE": "Derby Peak", "REGION": "CO-Roan Plateau", "ASSOCIATION": "USA - Colorado", "POINTS": "6", "BONUSPOINTS": "3"}}, {"type": "Feature", "geometry": {"type": "Point", "coordinates": [-107.0966, 40.0821]}, "properties": {"NAME": "W0C/RP-008", "TITLE": "Orno Peak", "REGION": "CO-Roan Plateau", "ASSOCIATION": "USA - Colorado", "POINTS": "6", "BONUSPOINTS": "3"}}, {"type": "Feature", "geometry": {"type": "Point", "coordinates": [-107.2508, 39.9414]}, "properties": {"NAME": "W0C/RP-009", "TITLE": "Trappers Peak", "REGION": "CO-Roan Plateau", "ASSOCIATION": "USA - Colorado", "POINTS": "6", "BONUSPOINTS": "3"}}, {"type": "Feature", "geometry": {"type": "Point", "coordinates": [-107.2065, 39.9011]}, "properties": {"NAME": "W0C/RP-010", "TITLE": "Shingle Peak", "REGION": "CO-Roan Plateau", "ASSOCIATION": "USA - Colorado", "POINTS": "6", "BONUSPOINTS": "3"}}, {"type": "Feature", "geometry": {"type": "Point", "coordinates": [-107.3242, 39.983]}, "properties": {"NAME": "W0C/RP-011", "TITLE": "South Little Marvine Peaks", "REGION": "CO-Roan Plateau", "ASSOCIATION": "USA - Colorado", "POINTS": "6", "BONUSPOINTS": "3"}}, {"type": "Feature", "geometry": {"type": "Point", "coordinates": [-107.169, 40.123]}, "properties": {"NAME": "W0C/RP-012", "TITLE": "Pyramid Peak", "REGION": "CO-Roan Plateau", "ASSOCIATION": "USA - Colorado", "POINTS": "6", "BONUSPOINTS": "3"}}, {"type": "Feature", "geometry": {"type": "Point", "coordinates": [-107.4175, 39.7944]}, "properties": {"NAME": "W0C/RP-013", "TITLE": "Blair Mountain", "REGION": "CO-Roan Plateau", "ASSOCIATION": "USA - Colorado", "POINTS": "6", "BONUSPOINTS": "3"}}, {"type": "Feature", "geometry": {"type": "Point", "coordinates": [-107.3584, 39.8947]}, "properties": {"NAME": "W0C/RP-014", "TITLE": "Timber Mountain", "REGION": "CO-Roan Plateau", "ASSOCIATION": "USA - Colorado", "POINTS": "6", "BONUSPOINTS": "3"}}, {"type": "Feature", "geometry": {"type": "Point", "coordinates": [-107.3815, 39.753]}, "properties": {"NAME": "W0C/RP-015", "TITLE": "White River Plateau", "REGION": "CO-Roan Plateau", "ASSOCIATION": "USA - Colorado", "POINTS": "6", "BONUSPOINTS": "3"}}, {"type": "Feature", "geometry": {"type": "Point", "coordinates": [-107.8661, 39.3864]}, "properties": {"NAME": "W0C/RP-016", "TITLE": "North Mamm Peak", "REGION": "CO-Roan Plateau", "ASSOCIATION": "USA - Colorado", "POINTS": "6", "BONUSPOINTS": "3"}}, {"type": "Feature", "geometry": {"type": "Point", "coordinates": [-107.3334, 40.1397]}, "properties": {"NAME": "W0C/RP-017", "TITLE": "Pagoda Peak", "REGION": "CO-Roan Plateau", "ASSOCIATION": "USA - Colorado", "POINTS": "6", "BONUSPOINTS": "3"}}, {"type": "Feature", "geometry": {"type": "Point", "coordinates": [-107.3792, 40.1155]}, "properties": {"NAME": "W0C/RP-018", "TITLE": "Sand Peak", "REGION": "CO-Roan Plateau", "ASSOCIATION": "USA - Colorado", "POINTS": "6", "BONUSPOINTS": "3"}}, {"type": "Feature", "geometry": {"type": "Point", "coordinates": [-107.5338, 40.1275]}, "properties": {"NAME": "W0C/RP-019", "TITLE": "Sleepy Cat Peak", "REGION": "CO-Roan Plateau", "ASSOCIATION": "USA - Colorado", "POINTS": "6", "BONUSPOINTS": "3"}}, {"type": "Feature", "geometry": {"type": "Point", "coordinates": [-107.7898, 39.3463]}, "properties": {"NAME": "W0C/RP-020", "TITLE": "Bald Mountain", "REGION": "CO-Roan Plateau", "ASSOCIATION": "USA - Colorado", "POINTS": "6", "BONUSPOINTS": "3"}}, {"type": "Feature", "geometry": {"type": "Point", "coordinates": [-107.5109, 39.3359]}, "properties": {"NAME": "W0C/RP-021", "TITLE": "Flagpole Mountain", "REGION": "CO-Roan Plateau", "ASSOCIATION": "USA - Colorado", "POINTS": "6", "BONUSPOINTS": "3"}}, {"type": "Feature", "geometry": {"type": "Point", "coordinates": [-107.4276, 39.3958]}, "properties": {"NAME": "W0C/RP-022", "TITLE": "Bald Mountain", "REGION": "CO-Roan Plateau", "ASSOCIATION": "USA - Colorado", "POINTS": "4", "BONUSPOINTS": "3"}}, {"type": "Feature", "geometry": {"type": "Point", "coordinates": [-107.1615, 40.2089]}, "properties": {"NAME": "W0C/RP-023", "TITLE": "Dunckley Flat Tops (HP)", "REGION": "CO-Roan Plateau", "ASSOCIATION": "USA - Colorado", "POINTS": "4", "BONUSPOINTS": "3"}}, {"type": "Feature", "geometry": {"type": "Point", "coordinates": [-107.3712, 39.3894]}, "properties": {"NAME": "W0C/RP-024", "TITLE": "Williams Peak", "REGION": "CO-Roan Plateau", "ASSOCIATION": "USA - Colorado", "POINTS": "4", "BONUSPOINTS": "3"}}, {"type": "Feature", "geometry": {"type": "Point", "coordinates": [-107.6587, 39.1974]}, "properties": {"NAME": "W0C/RP-025", "TITLE": "Porter Mountain", "REGION": "CO-Roan Plateau", "ASSOCIATION": "USA - Colorado", "POINTS": "4", "BONUSPOINTS": "3"}}, {"type": "Feature", "geometry": {"type": "Point", "coordinates": [-107.8491, 39.7669]}, "properties": {"NAME": "W0C/RP-026", "TITLE": "Big Mountain", "REGION": "CO-Roan Plateau", "ASSOCIATION": "USA - Colorado", "POINTS": "4", "BONUSPOINTS": "3"}}, {"type": "Feature", "geometry": {"type": "Point", "coordinates": [-107.3402, 39.3819]}, "properties": {"NAME": "W0C/RP-027", "TITLE": "Compass Mountain", "REGION": "CO-Roan Plateau", "ASSOCIATION": "USA - Colorado", "POINTS": "4", "BONUSPOINTS": "3"}}, {"type": "Feature", "geometry": {"type": "Point", "coordinates": [-107.565, 39.255]}, "properties": {"NAME": "W0C/RP-028", "TITLE": "Reno Mountain", "REGION": "CO-Roan Plateau", "ASSOCIATION": "USA - Colorado", "POINTS": "4", "BONUSPOINTS": "3"}}, {"type": "Feature", "geometry": {"type": "Point", "coordinates": [-108.7717, 38.8261]}, "properties": {"NAME": "W0C/RP-029", "TITLE": "PiÃ±on Mesa HP", "REGION": "CO-Roan Plateau", "ASSOCIATION": "USA - Colorado", "POINTS": "4", "BONUSPOINTS": "3"}}, {"type": "Feature", "geometry": {"type": "Point", "coordinates": [-107.6367, 39.2654]}, "properties": {"NAME": "W0C/RP-030", "TITLE": "Hightower Mountain", "REGION": "CO-Roan Plateau", "ASSOCIATION": "USA - Colorado", "POINTS": "4", "BONUSPOINTS": "3"}}, {"type": "Feature", "geometry": {"type": "Point", "coordinates": [-107.6628, 40.0854]}, "properties": {"NAME": "W0C/RP-031", "TITLE": "Sawmill Mountain", "REGION": "CO-Roan Plateau", "ASSOCIATION": "USA - Colorado", "POINTS": "4", "BONUSPOINTS": "3"}}, {"type": "Feature", "geometry": {"type": "Point", "coordinates": [-107.2024, 39.5415]}, "properties": {"NAME": "W0C/RP-032", "TITLE": "9460", "REGION": "CO-Roan Plateau", "ASSOCIATION": "USA - Colorado", "POINTS": "4", "BONUSPOINTS": "3"}}, {"type": "Feature", "geometry": {"type": "Point", "coordinates": [-107.2736, 39.5961]}, "properties": {"NAME": "W0C/RP-033", "TITLE": "9454", "REGION": "CO-Roan Plateau", "ASSOCIATION": "USA - Colorado", "POINTS": "4", "BONUSPOINTS": "3"}}, {"type": "Feature", "geometry": {"type": "Point", "coordinates": [-107.8272, 39.7155]}, "properties": {"NAME": "W0C/RP-034", "TITLE": "Horse Mountain", "REGION": "CO-Roan Plateau", "ASSOCIATION": "USA - Colorado", "POINTS": "4", "BONUSPOINTS": "3"}}, {"type": "Feature", "geometry": {"type": "Point", "coordinates": [-107.8419, 39.8541]}, "properties": {"NAME": "W0C/RP-035", "TITLE": "9325", "REGION": "CO-Roan Plateau", "ASSOCIATION": "USA - Colorado", "POINTS": "4", "BONUSPOINTS": "3"}}, {"type": "Feature", "geometry": {"type": "Point", "coordinates": [-108.034, 39.3227]}, "properties": {"NAME": "W0C/RP-036", "TITLE": "Horse Mountain", "REGION": "CO-Roan Plateau", "ASSOCIATION": "USA - Colorado", "POINTS": "4", "BONUSPOINTS": "3"}}, {"type": "Feature", "geometry": {"type": "Point", "coordinates": [-107.9098, 39.5672]}, "properties": {"NAME": "W0C/RP-037", "TITLE": "Gardner Benchmark", "REGION": "CO-Roan Plateau", "ASSOCIATION": "USA - Colorado", "POINTS": "4", "BONUSPOINTS": "3"}}, {"type": "Feature", "geometry": {"type": "Point", "coordinates": [-108.842, 38.7482]}, "properties": {"NAME": "W0C/RP-038", "TITLE": "West Benchmark", "REGION": "CO-Roan Plateau", "ASSOCIATION": "USA - Colorado", "POINTS": "4", "BONUSPOINTS": "3"}}, {"type": "Feature", "geometry": {"type": "Point", "coordinates": [-107.4119, 40.1971]}, "properties": {"NAME": "W0C/RP-039", "TITLE": "Horse Mountain", "REGION": "CO-Roan Plateau", "ASSOCIATION": "USA - Colorado", "POINTS": "4", "BONUSPOINTS": "3"}}, {"type": "Feature", "geometry": {"type": "Point", "coordinates": [-107.9164, 39.7197]}, "properties": {"NAME": "W0C/RP-040", "TITLE": "Monument Peak", "REGION": "CO-Roan Plateau", "ASSOCIATION": "USA - Colorado", "POINTS": "4", "BONUSPOINTS": "3"}}, {"type": "Feature", "geometry": {"type": "Point", "coordinates": [-107.5972, 40.0642]}, "properties": {"NAME": "W0C/RP-041", "TITLE": "Ellison Mountain", "REGION": "CO-Roan Plateau", "ASSOCIATION": "USA - Colorado", "POINTS": "4", "BONUSPOINTS": "3"}}, {"type": "Feature", "geometry": {"type": "Point", "coordinates": [-107.7141, 39.2142]}, "properties": {"NAME": "W0C/RP-042", "TITLE": "Baldridge Point", "REGION": "CO-Roan Plateau", "ASSOCIATION": "USA - Colorado", "POINTS": "4", "BONUSPOINTS": "3"}}, {"type": "Feature", "geometry": {"type": "Point", "coordinates": [-107.4764, 39.2708]}, "properties": {"NAME": "W0C/RP-043", "TITLE": "Haystack Mountain", "REGION": "CO-Roan Plateau", "ASSOCIATION": "USA - Colorado", "POINTS": "4", "BONUSPOINTS": "3"}}, {"type": "Feature", "geometry": {"type": "Point", "coordinates": [-108.1705, 39.4384]}, "properties": {"NAME": "W0C/RP-044", "TITLE": "Shale Benchmark", "REGION": "CO-Roan Plateau", "ASSOCIATION": "USA - Colorado", "POINTS": "2", "BONUSPOINTS": "0"}}, {"type": "Feature", "geometry": {"type": "Point", "coordinates": [-107.6986, 39.2326]}, "properties": {"NAME": "W0C/RP-045", "TITLE": "Lenna Peak", "REGION": "CO-Roan Plateau", "ASSOCIATION": "USA - Colorado", "POINTS": "2", "BONUSPOINTS": "0"}}, {"type": "Feature", "geometry": {"type": "Point", "coordinates": [-108.8528, 39.6211]}, "properties": {"NAME": "W0C/RP-046", "TITLE": "8873", "REGION": "CO-Roan Plateau", "ASSOCIATION": "USA - Colorado", "POINTS": "2", "BONUSPOINTS": "0"}}, {"type": "Feature", "geometry": {"type": "Point", "coordinates": [-107.9228, 39.759]}, "properties": {"NAME": "W0C/RP-047", "TITLE": "8851", "REGION": "CO-Roan Plateau", "ASSOCIATION": "USA - Colorado", "POINTS": "2", "BONUSPOINTS": "0"}}, {"type": "Feature", "geometry": {"type": "Point", "coordinates": [-107.8066, 39.2339]}, "properties": {"NAME": "W0C/RP-048", "TITLE": "Campbell Mountain", "REGION": "CO-Roan Plateau", "ASSOCIATION": "USA - Colorado", "POINTS": "2", "BONUSPOINTS": "0"}}, {"type": "Feature", "geometry": {"type": "Point", "coordinates": [-107.4008, 39.5896]}, "properties": {"NAME": "W0C/RP-049", "TITLE": "Storm King Mountain", "REGION": "CO-Roan Plateau", "ASSOCIATION": "USA - Colorado", "POINTS": "2", "BONUSPOINTS": "0"}}, {"type": "Feature", "geometry": {"type": "Point", "coordinates": [-108.837, 39.5859]}, "properties": {"NAME": "W0C/RP-050", "TITLE": "8780", "REGION": "CO-Roan Plateau", "ASSOCIATION": "USA - Colorado", "POINTS": "2", "BONUSPOINTS": "0"}}, {"type": "Feature", "geometry": {"type": "Point", "coordinates": [-108.7206, 38.7608]}, "properties": {"NAME": "W0C/RP-051", "TITLE": "Thimble Rock Point", "REGION": "CO-Roan Plateau", "ASSOCIATION": "USA - Colorado", "POINTS": "2", "BONUSPOINTS": "0"}}, {"type": "Feature", "geometry": {"type": "Point", "coordinates": [-107.7637, 40.1573]}, "properties": {"NAME": "W0C/RP-052", "TITLE": "Yellow Jacket Benchmark", "REGION": "CO-Roan Plateau", "ASSOCIATION": "USA - Colorado", "POINTS": "2", "BONUSPOINTS": "0"}}, {"type": "Feature", "geometry": {"type": "Point", "coordinates": [-107.9185, 39.8031]}, "properties": {"NAME": "W0C/RP-053", "TITLE": "8702", "REGION": "CO-Roan Plateau", "ASSOCIATION": "USA - Colorado", "POINTS": "2", "BONUSPOINTS": "0"}}, {"type": "Feature", "geometry": {"type": "Point", "coordinates": [-109.0423, 38.5678]}, "properties": {"NAME": "W0C/RP-054", "TITLE": "8700", "REGION": "CO-Roan Plateau", "ASSOCIATION": "USA - Colorado", "POINTS": "2", "BONUSPOINTS": "0"}}, {"type": "Feature", "geometry": {"type": "Point", "coordinates": [-107.895, 40.1649]}, "properties": {"NAME": "W0C/RP-055", "TITLE": "Danforth Hills", "REGION": "CO-Roan Plateau", "ASSOCIATION": "USA - Colorado", "POINTS": "2", "BONUSPOINTS": "0"}}, {"type": "Feature", "geometry": {"type": "Point", "coordinates": [-108.5911, 39.3956]}, "properties": {"NAME": "W0C/RP-056", "TITLE": "8658", "REGION": "CO-Roan Plateau", "ASSOCIATION": "USA - Colorado", "POINTS": "2", "BONUSPOINTS": "0"}}, {"type": "Feature", "geometry": {"type": "Point", "coordinates": [-107.6264, 40.1584]}, "properties": {"NAME": "W0C/RP-057", "TITLE": "Three Points Mountain", "REGION": "CO-Roan Plateau", "ASSOCIATION": "USA - Colorado", "POINTS": "2", "BONUSPOINTS": "0"}}, {"type": "Feature", "geometry": {"type": "Point", "coordinates": [-107.2571, 39.5415]}, "properties": {"NAME": "W0C/RP-058", "TITLE": "Lookout Mountain", "REGION": "CO-Roan Plateau", "ASSOCIATION": "USA - Colorado", "POINTS": "2", "BONUSPOINTS": "0"}}, {"type": "Feature", "geometry": {"type": "Point", "coordinates": [-108.6063, 39.4088]}, "properties": {"NAME": "W0C/RP-059", "TITLE": "West Cow Ridge", "REGION": "CO-Roan Plateau", "ASSOCIATION": "USA - Colorado", "POINTS": "2", "BONUSPOINTS": "0"}}, {"type": "Feature", "geometry": {"type": "Point", "coordinates": [-108.876, 39.7155]}, "properties": {"NAME": "W0C/RP-060", "TITLE": "Oil Spring Mountain", "REGION": "CO-Roan Plateau", "ASSOCIATION": "USA - Colorado", "POINTS": "2", "BONUSPOINTS": "0"}}, {"type": "Feature", "geometry": {"type": "Point", "coordinates": [-107.7955, 40.0993]}, "properties": {"NAME": "W0C/RP-061", "TITLE": "8568", "REGION": "CO-Roan Plateau", "ASSOCIATION": "USA - Colorado", "POINTS": "2", "BONUSPOINTS": "0"}}, {"type": "Feature", "geometry": {"type": "Point", "coordinates": [-107.8924, 39.9511]}, "properties": {"NAME": "W0C/RP-062", "TITLE": "Lo 7 Hill", "REGION": "CO-Roan Plateau", "ASSOCIATION": "USA - Colorado", "POINTS": "2", "BONUSPOINTS": "0"}}, {"type": "Feature", "geometry": {"type": "Point", "coordinates": [-108.4462, 39.3835]}, "properties": {"NAME": "W0C/RP-063", "TITLE": "East Horse Mountain", "REGION": "CO-Roan Plateau", "ASSOCIATION": "USA - Colorado", "POINTS": "2", "BONUSPOINTS": "0"}}, {"type": "Feature", "geometry": {"type": "Point", "coordinates": [-108.732, 39.731]}, "properties": {"NAME": "W0C/RP-064", "TITLE": "Brushy Point", "REGION": "CO-Roan Plateau", "ASSOCIATION": "USA - Colorado", "POINTS": "2", "BONUSPOINTS": "0"}}, {"type": "Feature", "geometry": {"type": "Point", "coordinates": [-107.7456, 40.0813]}, "properties": {"NAME": "W0C/RP-065", "TITLE": "8460", "REGION": "CO-Roan Plateau", "ASSOCIATION": "USA - Colorado", "POINTS": "2", "BONUSPOINTS": "0"}}, {"type": "Feature", "geometry": {"type": "Point", "coordinates": [-108.8526, 39.7756]}, "properties": {"NAME": "W0C/RP-066", "TITLE": "Texas Mountain", "REGION": "CO-Roan Plateau", "ASSOCIATION": "USA - Colorado", "POINTS": "2", "BONUSPOINTS": "0"}}, {"type": "Feature", "geometry": {"type": "Point", "coordinates": [-108.1888, 39.4016]}, "properties": {"NAME": "W0C/RP-067", "TITLE": "Mount Logan", "REGION": "CO-Roan Plateau", "ASSOCIATION": "USA - Colorado", "POINTS": "2", "BONUSPOINTS": "0"}}, {"type": "Feature", "geometry": {"type": "Point", "coordinates": [-107.7394, 39.9702]}, "properties": {"NAME": "W0C/RP-068", "TITLE": "Oak Ridge", "REGION": "CO-Roan Plateau", "ASSOCIATION": "USA - Colorado", "POINTS": "2", "BONUSPOINTS": "0"}}, {"type": "Feature", "geometry": {"type": "Point", "coordinates": [-107.6544, 39.6716]}, "properties": {"NAME": "W0C/RP-069", "TITLE": "8375", "REGION": "CO-Roan Plateau", "ASSOCIATION": "USA - Colorado", "POINTS": "2", "BONUSPOINTS": "0"}}, {"type": "Feature", "geometry": {"type": "Point", "coordinates": [-108.0073, 39.8969]}, "properties": {"NAME": "W0C/RP-070", "TITLE": "Joe Bush Mountain", "REGION": "CO-Roan Plateau", "ASSOCIATION": "USA - Colorado", "POINTS": "2", "BONUSPOINTS": "0"}}, {"type": "Feature", "geometry": {"type": "Point", "coordinates": [-107.9722, 39.7493]}, "properties": {"NAME": "W0C/RP-071", "TITLE": "8332", "REGION": "CO-Roan Plateau", "ASSOCIATION": "USA - Colorado", "POINTS": "2", "BONUSPOINTS": "0"}}, {"type": "Feature", "geometry": {"type": "Point", "coordinates": [-108.0945, 39.2711]}, "properties": {"NAME": "W0C/RP-072", "TITLE": "Castle Peak", "REGION": "CO-Roan Plateau", "ASSOCIATION": "USA - Colorado", "POINTS": "2", "BONUSPOINTS": "0"}}, {"type": "Feature", "geometry": {"type": "Point", "coordinates": [-108.5502, 40.0452]}, "properties": {"NAME": "W0C/RP-073", "TITLE": "Calamity Ridge", "REGION": "CO-Roan Plateau", "ASSOCIATION": "USA - Colorado", "POINTS": "2", "BONUSPOINTS": "0"}}, {"type": "Feature", "geometry": {"type": "Point", "coordinates": [-108.5671, 39.3677]}, "properties": {"NAME": "W0C/RP-074", "TITLE": "8276", "REGION": "CO-Roan Plateau", "ASSOCIATION": "USA - Colorado", "POINTS": "2", "BONUSPOINTS": "0"}}, {"type": "Feature", "geometry": {"type": "Point", "coordinates": [-107.4417, 39.5404]}, "properties": {"NAME": "W0C/RP-075", "TITLE": "Horse Mountain", "REGION": "CO-Roan Plateau", "ASSOCIATION": "USA - Colorado", "POINTS": "2", "BONUSPOINTS": "0"}}, {"type": "Feature", "geometry": {"type": "Point", "coordinates": [-108.3479, 39.419]}, "properties": {"NAME": "W0C/RP-076", "TITLE": "East Cow Ridge", "REGION": "CO-Roan Plateau", "ASSOCIATION": "USA - Colorado", "POINTS": "2", "BONUSPOINTS": "0"}}, {"type": "Feature", "geometry": {"type": "Point", "coordinates": [-107.8914, 40.1053]}, "properties": {"NAME": "W0C/RP-077", "TITLE": "8197", "REGION": "CO-Roan Plateau", "ASSOCIATION": "USA - Colorado", "POINTS": "2", "BONUSPOINTS": "0"}}, {"type": "Feature", "geometry": {"type": "Point", "coordinates": [-108.5525, 39.3636]}, "properties": {"NAME": "W0C/RP-078", "TITLE": "8180", "REGION": "CO-Roan Plateau", "ASSOCIATION": "USA - Colorado", "POINTS": "2", "BONUSPOINTS": "0"}}, {"type": "Feature", "geometry": {"type": "Point", "coordinates": [-108.214, 39.1293]}, "properties": {"NAME": "W0C/RP-079", "TITLE": "Chalk Mountain", "REGION": "CO-Roan Plateau", "ASSOCIATION": "USA - Colorado", "POINTS": "2", "BONUSPOINTS": "0"}}, {"type": "Feature", "geometry": {"type": "Point", "coordinates": [-108.5087, 39.3102]}, "properties": {"NAME": "W0C/RP-080", "TITLE": "Corcoran Peak", "REGION": "CO-Roan Plateau", "ASSOCIATION": "USA - Colorado", "POINTS": "2", "BONUSPOINTS": "0"}}, {"type": "Feature", "geometry": {"type": "Point", "coordinates": [-107.6948, 39.6072]}, "properties": {"NAME": "W0C/RP-081", "TITLE": "8057", "REGION": "CO-Roan Plateau", "ASSOCIATION": "USA - Colorado", "POINTS": "2", "BONUSPOINTS": "0"}}, {"type": "Feature", "geometry": {"type": "Point", "coordinates": [-107.7182, 39.6129]}, "properties": {"NAME": "W0C/RP-082", "TITLE": "Andgee Benchmark", "REGION": "CO-Roan Plateau", "ASSOCIATION": "USA - Colorado", "POINTS": "2", "BONUSPOINTS": "0"}}, {"type": "Feature", "geometry": {"type": "Point", "coordinates": [-108.4117, 39.321]}, "properties": {"NAME": "W0C/RP-083", "TITLE": "8028", "REGION": "CO-Roan Plateau", "ASSOCIATION": "USA - Colorado", "POINTS": "2", "BONUSPOINTS": "0"}}, {"type": "Feature", "geometry": {"type": "Point", "coordinates": [-107.9296, 40.1319]}, "properties": {"NAME": "W0C/RP-084", "TITLE": "8025", "REGION": "CO-Roan Plateau", "ASSOCIATION": "USA - Colorado", "POINTS": "2", "BONUSPOINTS": "0"}}, {"type": "Feature", "geometry": {"type": "Point", "coordinates": [-108.5104, 39.3407]}, "properties": {"NAME": "W0C/RP-085", "TITLE": "7940", "REGION": "CO-Roan Plateau", "ASSOCIATION": "USA - Colorado", "POINTS": "1", "BONUSPOINTS": "0"}}, {"type": "Feature", "geometry": {"type": "Point", "coordinates": [-108.8108, 38.7548]}, "properties": {"NAME": "W0C/RP-086", "TITLE": "7902", "REGION": "CO-Roan Plateau", "ASSOCIATION": "USA - Colorado", "POINTS": "1", "BONUSPOINTS": "0"}}, {"type": "Feature", "geometry": {"type": "Point", "coordinates": [-107.7905, 39.6312]}, "properties": {"NAME": "W0C/RP-087", "TITLE": "7860", "REGION": "CO-Roan Plateau", "ASSOCIATION": "USA - Colorado", "POINTS": "1", "BONUSPOINTS": "0"}}, {"type": "Feature", "geometry": {"type": "Point", "coordinates": [-107.6426, 39.6032]}, "properties": {"NAME": "W0C/RP-088", "TITLE": "Jerry Benchmark", "REGION": "CO-Roan Plateau", "ASSOCIATION": "USA - Colorado", "POINTS": "1", "BONUSPOINTS": "0"}}, {"type": "Feature", "geometry": {"type": "Point", "coordinates": [-108.1331, 39.2769]}, "properties": {"NAME": "W0C/RP-089", "TITLE": "Horsethief Mountain", "REGION": "CO-Roan Plateau", "ASSOCIATION": "USA - Colorado", "POINTS": "1", "BONUSPOINTS": "0"}}, {"type": "Feature", "geometry": {"type": "Point", "coordinates": [-107.6771, 39.6044]}, "properties": {"NAME": "W0C/RP-090", "TITLE": "7835", "REGION": "CO-Roan Plateau", "ASSOCIATION": "USA - Colorado", "POINTS": "1", "BONUSPOINTS": "0"}}, {"type": "Feature", "geometry": {"type": "Point", "coordinates": [-107.9109, 39.2205]}, "properties": {"NAME": "W0C/RP-091", "TITLE": "Red Mountain", "REGION": "CO-Roan Plateau", "ASSOCIATION": "USA - Colorado", "POINTS": "1", "BONUSPOINTS": "0"}}, {"type": "Feature", "geometry": {"type": "Point", "coordinates": [-107.6055, 39.5927]}, "properties": {"NAME": "W0C/RP-092", "TITLE": "Burning Mountain", "REGION": "CO-Roan Plateau", "ASSOCIATION": "USA - Colorado", "POINTS": "1", "BONUSPOINTS": "0"}}, {"type": "Feature", "geometry": {"type": "Point", "coordinates": [-108.9781, 39.8883]}, "properties": {"NAME": "W0C/RP-093", "TITLE": "Rabbit Mountain", "REGION": "CO-Roan Plateau", "ASSOCIATION": "USA - Colorado", "POINTS": "1", "BONUSPOINTS": "0"}}, {"type": "Feature", "geometry": {"type": "Point", "coordinates": [-107.9251, 40.0669]}, "properties": {"NAME": "W0C/RP-094", "TITLE": "7620", "REGION": "CO-Roan Plateau", "ASSOCIATION": "USA - Colorado", "POINTS": "1", "BONUSPOINTS": "0"}}, {"type": "Feature", "geometry": {"type": "Point", "coordinates": [-107.2018, 39.4355]}, "properties": {"NAME": "W0C/RP-095", "TITLE": "7553", "REGION": "CO-Roan Plateau", "ASSOCIATION": "USA - Colorado", "POINTS": "1", "BONUSPOINTS": "0"}}, {"type": "Feature", "geometry": {"type": "Point", "coordinates": [-107.5609, 39.6374]}, "properties": {"NAME": "W0C/RP-096", "TITLE": "7540", "REGION": "CO-Roan Plateau", "ASSOCIATION": "USA - Colorado", "POINTS": "1", "BONUSPOINTS": "0"}}, {"type": "Feature", "geometry": {"type": "Point", "coordinates": [-107.2822, 39.4349]}, "properties": {"NAME": "W0C/RP-097", "TITLE": "7460", "REGION": "CO-Roan Plateau", "ASSOCIATION": "USA - Colorado", "POINTS": "1", "BONUSPOINTS": "0"}}, {"type": "Feature", "geometry": {"type": "Point", "coordinates": [-108.1232, 40.1001]}, "properties": {"NAME": "W0C/RP-098", "TITLE": "Black Mountain", "REGION": "CO-Roan Plateau", "ASSOCIATION": "USA - Colorado", "POINTS": "1", "BONUSPOINTS": "0"}}, {"type": "Feature", "geometry": {"type": "Point", "coordinates": [-108.9805, 39.8333]}, "properties": {"NAME": "W0C/RP-099", "TITLE": "Park Mountain", "REGION": "CO-Roan Plateau", "ASSOCIATION": "USA - Colorado", "POINTS": "1", "BONUSPOINTS": "0"}}, {"type": "Feature", "geometry": {"type": "Point", "coordinates": [-108.3313, 40.1248]}, "properties": {"NAME": "W0C/RP-100", "TITLE": "7150", "REGION": "CO-Roan Plateau", "ASSOCIATION": "USA - Colorado", "POINTS": "1", "BONUSPOINTS": "0"}}, {"type": "Feature", "geometry": {"type": "Point", "coordinates": [-108.9925, 39.9159]}, "properties": {"NAME": "W0C/RP-101", "TITLE": "Gilsonite Hills", "REGION": "CO-Roan Plateau", "ASSOCIATION": "USA - Colorado", "POINTS": "1", "BONUSPOINTS": "0"}}, {"type": "Feature", "geometry": {"type": "Point", "coordinates": [-109.0321, 39.7613]}, "properties": {"NAME": "W0C/RP-102", "TITLE": "White Face Butte", "REGION": "CO-Roan Plateau", "ASSOCIATION": "USA - Colorado", "POINTS": "1", "BONUSPOINTS": "0"}}, {"type": "Feature", "geometry": {"type": "Point", "coordinates": [-107.5633, 39.6132]}, "properties": {"NAME": "W0C/RP-103", "TITLE": "6808", "REGION": "CO-Roan Plateau", "ASSOCIATION": "USA - Colorado", "POINTS": "1", "BONUSPOINTS": "0"}}, {"type": "Feature", "geometry": {"type": "Point", "coordinates": [-108.6909, 39.3427]}, "properties": {"NAME": "W0C/RP-104", "TITLE": "6740", "REGION": "CO-Roan Plateau", "ASSOCIATION": "USA - Colorado", "POINTS": "1", "BONUSPOINTS": "0"}}, {"type": "Feature", "geometry": {"type": "Point", "coordinates": [-108.9722, 38.7314]}, "properties": {"NAME": "W0C/RP-105", "TITLE": "6719", "REGION": "CO-Roan Plateau", "ASSOCIATION": "USA - Colorado", "POINTS": "1", "BONUSPOINTS": "0"}}, {"type": "Feature", "geometry": {"type": "Point", "coordinates": [-108.3998, 39.2507]}, "properties": {"NAME": "W0C/RP-106", "TITLE": "Knight Benchmark", "REGION": "CO-Roan Plateau", "ASSOCIATION": "USA - Colorado", "POINTS": "1", "BONUSPOINTS": "0"}}, {"type": "Feature", "geometry": {"type": "Point", "coordinates": [-108.3526, 39.1302]}, "properties": {"NAME": "W0C/RP-107", "TITLE": "Mount Lincoln", "REGION": "CO-Roan Plateau", "ASSOCIATION": "USA - Colorado", "POINTS": "1", "BONUSPOINTS": "0"}}, {"type": "Feature", "geometry": {"type": "Point", "coordinates": [-108.0825, 39.1999]}, "properties": {"NAME": "W0C/RP-108", "TITLE": "6654", "REGION": "CO-Roan Plateau", "ASSOCIATION": "USA - Colorado", "POINTS": "1", "BONUSPOINTS": "0"}}, {"type": "Feature", "geometry": {"type": "Point", "coordinates": [-108.2699, 38.8993]}, "properties": {"NAME": "W0C/RP-109", "TITLE": "6580", "REGION": "CO-Roan Plateau", "ASSOCIATION": "USA - Colorado", "POINTS": "1", "BONUSPOINTS": "0"}}, {"type": "Feature", "geometry": {"type": "Point", "coordinates": [-108.3925, 38.7917]}, "properties": {"NAME": "W0C/RP-110", "TITLE": "Star Mesa", "REGION": "CO-Roan Plateau", "ASSOCIATION": "USA - Colorado", "POINTS": "1", "BONUSPOINTS": "0"}}, {"type": "Feature", "geometry": {"type": "Point", "coordinates": [-108.8692, 38.5112]}, "properties": {"NAME": "W0C/RP-111", "TITLE": "Blue Mesa", "REGION": "CO-Roan Plateau", "ASSOCIATION": "USA - Colorado", "POINTS": "1", "BONUSPOINTS": "0"}}, {"type": "Feature", "geometry": {"type": "Point", "coordinates": [-108.7919, 40.1711]}, "properties": {"NAME": "W0C/RP-112", "TITLE": "6521", "REGION": "CO-Roan Plateau", "ASSOCIATION": "USA - Colorado", "POINTS": "1", "BONUSPOINTS": "0"}}, {"type": "Feature", "geometry": {"type": "Point", "coordinates": [-108.8982, 40.0155]}, "properties": {"NAME": "W0C/RP-113", "TITLE": "Shavetail Benchmark", "REGION": "CO-Roan Plateau", "ASSOCIATION": "USA - Colorado", "POINTS": "1", "BONUSPOINTS": "0"}}, {"type": "Feature", "geometry": {"type": "Point", "coordinates": [-108.5595, 40.2055]}, "properties": {"NAME": "W0C/RP-114", "TITLE": "Coal Ridge", "REGION": "CO-Roan Plateau", "ASSOCIATION": "USA - Colorado", "POINTS": "1", "BONUSPOINTS": "0"}}, {"type": "Feature", "geometry": {"type": "Point", "coordinates": [-108.1354, 39.323]}, "properties": {"NAME": "W0C/RP-115", "TITLE": "6230", "REGION": "CO-Roan Plateau", "ASSOCIATION": "USA - Colorado", "POINTS": "1", "BONUSPOINTS": "0"}}, {"type": "Feature", "geometry": {"type": "Point", "coordinates": [-108.3226, 39.1603]}, "properties": {"NAME": "W0C/RP-116", "TITLE": "6100", "REGION": "CO-Roan Plateau", "ASSOCIATION": "USA - Colorado", "POINTS": "1", "BONUSPOINTS": "0"}}, {"type": "Feature", "geometry": {"type": "Point", "coordinates": [-108.9482, 39.1932]}, "properties": {"NAME": "W0C/RP-117", "TITLE": "Rabbit's Ear Mesa", "REGION": "CO-Roan Plateau", "ASSOCIATION": "USA - Colorado", "POINTS": "1", "BONUSPOINTS": "0"}}, {"type": "Feature", "geometry": {"type": "Point", "coordinates": [-108.4065, 38.8744]}, "properties": {"NAME": "W0C/RP-118", "TITLE": "RB-18 Benchmark", "REGION": "CO-Roan Plateau", "ASSOCIATION": "USA - Colorado", "POINTS": "1", "BONUSPOINTS": "0"}}, {"type": "Feature", "geometry": {"type": "Point", "coordinates": [-108.8506, 39.184]}, "properties": {"NAME": "W0C/RP-119", "TITLE": "5398", "REGION": "CO-Roan Plateau", "ASSOCIATION": "USA - Colorado", "POINTS": "1", "BONUSPOINTS": "0"}}, {"type": "Feature", "geometry": {"type": "Point", "coordinates": [-107.8946, 39.5868]}, "properties": {"NAME": "W0C/RP-120", "TITLE": "Roan Plateau", "REGION": "CO-Roan Plateau", "ASSOCIATION": "USA - Colorado", "POINTS": "4", "BONUSPOINTS": "3"}}, {"type": "Feature", "geometry": {"type": "Point", "coordinates": [-108.6524, 39.6589]}, "properties": {"NAME": "W0C/RP-121", "TITLE": "9060", "REGION": "CO-Roan Plateau", "ASSOCIATION": "USA - Colorado", "POINTS": "4", "BONUSPOINTS": "3"}}, {"type": "Feature", "geometry": {"type": "Point", "coordinates": [-107.2334, 40.327]}, "properties": {"NAME": "W0C/RP-122", "TITLE": "8460", "REGION": "CO-Roan Plateau", "ASSOCIATION": "USA - Colorado", "POINTS": "2", "BONUSPOINTS": "0"}}, {"type": "Feature", "geometry": {"type": "Point", "coordinates": [-108.6581, 39.4181]}, "properties": {"NAME": "W0C/RP-123", "TITLE": "8206", "REGION": "CO-Roan Plateau", "ASSOCIATION": "USA - Colorado", "POINTS": "2", "BONUSPOINTS": "0"}}, {"type": "Feature", "geometry": {"type": "Point", "coordinates": [-107.8709, 40.1113]}, "properties": {"NAME": "W0C/RP-124", "TITLE": "8203", "REGION": "CO-Roan Plateau", "ASSOCIATION": "USA - Colorado", "POINTS": "2", "BONUSPOINTS": "0"}}, {"type": "Feature", "geometry": {"type": "Point", "coordinates": [-108.4455, 39.3188]}, "properties": {"NAME": "W0C/RP-125", "TITLE": "7988", "REGION": "CO-Roan Plateau", "ASSOCIATION": "USA - Colorado", "POINTS": "1", "BONUSPOINTS": "0"}}, {"type": "Feature", "geometry": {"type": "Point", "coordinates": [-107.7446, 39.6194]}, "properties": {"NAME": "W0C/RP-126", "TITLE": "7634", "REGION": "CO-Roan Plateau", "ASSOCIATION": "USA - Colorado", "POINTS": "1", "BONUSPOINTS": "0"}}, {"type": "Feature", "geometry": {"type": "Point", "coordinates": [-108.8728, 39.1974]}, "properties": {"NAME": "W0C/RP-127", "TITLE": "Mack Benchmark", "REGION": "CO-Roan Plateau", "ASSOCIATION": "USA - Colorado", "POINTS": "1", "BONUSPOINTS": "0"}}]}