{"type": "FeatureCollection", "name": "W0C/SJ SUMMITS", "features": [{"type": "Feature", "geometry": {"type": "Point", "coordinates": [-107.5044, 37.9129]}, "properties": {"NAME": "W0C/SJ-001", "TITLE": "Handies Peak", "REGION": "CO-San Juan", "ASSOCIATION": "USA - Colorado", "POINTS": "10", "BONUSPOINTS": "3"}}, {"type": "Feature", "geometry": {"type": "Point", "coordinates": [-107.8285, 37.7994]}, "properties": {"NAME": "W0C/SJ-002", "TITLE": "Vermilion Peak", "REGION": "CO-San Juan", "ASSOCIATION": "USA - Colorado", "POINTS": "10", "BONUSPOINTS": "3"}}, {"type": "Feature", "geometry": {"type": "Point", "coordinates": [-107.4671, 37.8645]}, "properties": {"NAME": "W0C/SJ-003", "TITLE": "Half Peak", "REGION": "CO-San Juan", "ASSOCIATION": "USA - Colorado", "POINTS": "10", "BONUSPOINTS": "3"}}, {"type": "Feature", "geometry": {"type": "Point", "coordinates": [-107.5813, 37.6849]}, "properties": {"NAME": "W0C/SJ-004", "TITLE": "Trinity Peak", "REGION": "CO-San Juan", "ASSOCIATION": "USA - Colorado", "POINTS": "10", "BONUSPOINTS": "3"}}, {"type": "Feature", "geometry": {"type": "Point", "coordinates": [-107.8647, 37.7792]}, "properties": {"NAME": "W0C/SJ-005", "TITLE": "San Miguel Peak", "REGION": "CO-San Juan", "ASSOCIATION": "USA - Colorado", "POINTS": "10", "BONUSPOINTS": "3"}}, {"type": "Feature", "geometry": {"type": "Point", "coordinates": [-107.7933, 37.9865]}, "properties": {"NAME": "W0C/SJ-006", "TITLE": "Gilpin Peak", "REGION": "CO-San Juan", "ASSOCIATION": "USA - Colorado", "POINTS": "10", "BONUSPOINTS": "3"}}, {"type": "Feature", "geometry": {"type": "Point", "coordinates": [-107.7871, 37.8968]}, "properties": {"NAME": "W0C/SJ-007", "TITLE": "La Junta Peak", "REGION": "CO-San Juan", "ASSOCIATION": "USA - Colorado", "POINTS": "8", "BONUSPOINTS": "3"}}, {"type": "Feature", "geometry": {"type": "Point", "coordinates": [-108.0889, 37.445]}, "properties": {"NAME": "W0C/SJ-008", "TITLE": "Hesperus Mountain", "REGION": "CO-San Juan", "ASSOCIATION": "USA - Colorado", "POINTS": "8", "BONUSPOINTS": "3"}}, {"type": "Feature", "geometry": {"type": "Point", "coordinates": [-106.434, 37.4833]}, "properties": {"NAME": "W0C/SJ-009", "TITLE": "Bennett Peak", "REGION": "CO-San Juan", "ASSOCIATION": "USA - Colorado", "POINTS": "8", "BONUSPOINTS": "3"}}, {"type": "Feature", "geometry": {"type": "Point", "coordinates": [-107.6889, 37.7079]}, "properties": {"NAME": "W0C/SJ-010", "TITLE": "Snowdon Peak", "REGION": "CO-San Juan", "ASSOCIATION": "USA - Colorado", "POINTS": "8", "BONUSPOINTS": "3"}}, {"type": "Feature", "geometry": {"type": "Point", "coordinates": [-107.8065, 37.6992]}, "properties": {"NAME": "W0C/SJ-011", "TITLE": "Engineer Mountain", "REGION": "CO-San Juan", "ASSOCIATION": "USA - Colorado", "POINTS": "8", "BONUSPOINTS": "3"}}, {"type": "Feature", "geometry": {"type": "Point", "coordinates": [-106.795, 37.4559]}, "properties": {"NAME": "W0C/SJ-012", "TITLE": "Alberta Peak", "REGION": "CO-San Juan", "ASSOCIATION": "USA - Colorado", "POINTS": "6", "BONUSPOINTS": "3"}}, {"type": "Feature", "geometry": {"type": "Point", "coordinates": [-107.5227, 38.8029]}, "properties": {"NAME": "W0C/SJ-013", "TITLE": "Mount Lamborn", "REGION": "CO-San Juan", "ASSOCIATION": "USA - Colorado", "POINTS": "6", "BONUSPOINTS": "3"}}, {"type": "Feature", "geometry": {"type": "Point", "coordinates": [-107.844, 39.0794]}, "properties": {"NAME": "W0C/SJ-014", "TITLE": "Leon Peak", "REGION": "CO-San Juan", "ASSOCIATION": "USA - Colorado", "POINTS": "6", "BONUSPOINTS": "3"}}, {"type": "Feature", "geometry": {"type": "Point", "coordinates": [-107.9436, 39.0606]}, "properties": {"NAME": "W0C/SJ-015", "TITLE": "Crag Crest", "REGION": "CO-San Juan", "ASSOCIATION": "USA - Colorado", "POINTS": "6", "BONUSPOINTS": "3"}}, {"type": "Feature", "geometry": {"type": "Point", "coordinates": [-108.7786, 37.2839]}, "properties": {"NAME": "W0C/SJ-016", "TITLE": "Ute Peak", "REGION": "CO-San Juan", "ASSOCIATION": "USA - Colorado", "POINTS": "4", "BONUSPOINTS": "3"}}, {"type": "Feature", "geometry": {"type": "Point", "coordinates": [-107.2864, 37.308]}, "properties": {"NAME": "W0C/SJ-017", "TITLE": "Horse Mountain", "REGION": "CO-San Juan", "ASSOCIATION": "USA - Colorado", "POINTS": "4", "BONUSPOINTS": "3"}}, {"type": "Feature", "geometry": {"type": "Point", "coordinates": [-106.944, 37.0898]}, "properties": {"NAME": "W0C/SJ-018", "TITLE": "Klutter Mountain", "REGION": "CO-San Juan", "ASSOCIATION": "USA - Colorado", "POINTS": "2", "BONUSPOINTS": "0"}}, {"type": "Feature", "geometry": {"type": "Point", "coordinates": [-108.4615, 37.2805]}, "properties": {"NAME": "W0C/SJ-019", "TITLE": "Park Point", "REGION": "CO-San Juan", "ASSOCIATION": "USA - Colorado", "POINTS": "2", "BONUSPOINTS": "0"}}, {"type": "Feature", "geometry": {"type": "Point", "coordinates": [-108.5175, 38.827]}, "properties": {"NAME": "W0C/SJ-020", "TITLE": "Gibbler Mountain", "REGION": "CO-San Juan", "ASSOCIATION": "USA - Colorado", "POINTS": "1", "BONUSPOINTS": "0"}}, {"type": "Feature", "geometry": {"type": "Point", "coordinates": [-107.6064, 38.7114]}, "properties": {"NAME": "W0C/SJ-021", "TITLE": "Youngs Peak", "REGION": "CO-San Juan", "ASSOCIATION": "USA - Colorado", "POINTS": "1", "BONUSPOINTS": "0"}}, {"type": "Feature", "geometry": {"type": "Point", "coordinates": [-108.9747, 38.709]}, "properties": {"NAME": "W0C/SJ-022", "TITLE": "The Palisade", "REGION": "CO-San Juan", "ASSOCIATION": "USA - Colorado", "POINTS": "1", "BONUSPOINTS": "0"}}, {"type": "Feature", "geometry": {"type": "Point", "coordinates": [-107.5528, 37.0112]}, "properties": {"NAME": "W0C/SJ-023", "TITLE": "Tiffany Peak", "REGION": "CO-San Juan", "ASSOCIATION": "USA - Colorado", "POINTS": "1", "BONUSPOINTS": "0"}}, {"type": "Feature", "geometry": {"type": "Point", "coordinates": [-108.1767, 39.2161]}, "properties": {"NAME": "W0C/SJ-024", "TITLE": "Black Mountain", "REGION": "CO-San Juan", "ASSOCIATION": "USA - Colorado", "POINTS": "1", "BONUSPOINTS": "0"}}, {"type": "Feature", "geometry": {"type": "Point", "coordinates": [-108.7188, 37.0779]}, "properties": {"NAME": "W0C/SJ-025", "TITLE": "Chimney Rock", "REGION": "CO-San Juan", "ASSOCIATION": "USA - Colorado", "POINTS": "1", "BONUSPOINTS": "0"}}, {"type": "Feature", "geometry": {"type": "Point", "coordinates": [-108.3349, 39.0697]}, "properties": {"NAME": "W0C/SJ-026", "TITLE": "Horse Mountain", "REGION": "CO-San Juan", "ASSOCIATION": "USA - Colorado", "POINTS": "1", "BONUSPOINTS": "0"}}, {"type": "Feature", "geometry": {"type": "Point", "coordinates": [-107.6226, 37.6219]}, "properties": {"NAME": "W0C/SJ-027", "TITLE": "Mount Eolus", "REGION": "CO-San Juan", "ASSOCIATION": "USA - Colorado", "POINTS": "10", "BONUSPOINTS": "3"}}, {"type": "Feature", "geometry": {"type": "Point", "coordinates": [-107.5919, 37.6212]}, "properties": {"NAME": "W0C/SJ-028", "TITLE": "Windom Peak", "REGION": "CO-San Juan", "ASSOCIATION": "USA - Colorado", "POINTS": "10", "BONUSPOINTS": "3"}}, {"type": "Feature", "geometry": {"type": "Point", "coordinates": [-107.6462, 37.6323]}, "properties": {"NAME": "W0C/SJ-029", "TITLE": "Pigeon Peak", "REGION": "CO-San Juan", "ASSOCIATION": "USA - Colorado", "POINTS": "10", "BONUSPOINTS": "3"}}, {"type": "Feature", "geometry": {"type": "Point", "coordinates": [-107.6028, 37.6893]}, "properties": {"NAME": "W0C/SJ-030", "TITLE": "Vestal Peak", "REGION": "CO-San Juan", "ASSOCIATION": "USA - Colorado", "POINTS": "10", "BONUSPOINTS": "3"}}, {"type": "Feature", "geometry": {"type": "Point", "coordinates": [-107.6399, 37.6274]}, "properties": {"NAME": "W0C/SJ-031", "TITLE": "Turret Peak", "REGION": "CO-San Juan", "ASSOCIATION": "USA - Colorado", "POINTS": "10", "BONUSPOINTS": "3"}}, {"type": "Feature", "geometry": {"type": "Point", "coordinates": [-107.584, 37.6456]}, "properties": {"NAME": "W0C/SJ-032", "TITLE": "Jagged Mountain", "REGION": "CO-San Juan", "ASSOCIATION": "USA - Colorado", "POINTS": "10", "BONUSPOINTS": "3"}}, {"type": "Feature", "geometry": {"type": "Point", "coordinates": [-107.6102, 37.6928]}, "properties": {"NAME": "W0C/SJ-033", "TITLE": "Arrow Peak", "REGION": "CO-San Juan", "ASSOCIATION": "USA - Colorado", "POINTS": "10", "BONUSPOINTS": "3"}}, {"type": "Feature", "geometry": {"type": "Point", "coordinates": [-107.6291, 37.6431]}, "properties": {"NAME": "W0C/SJ-034", "TITLE": "Animas Mountain", "REGION": "CO-San Juan", "ASSOCIATION": "USA - Colorado", "POINTS": "10", "BONUSPOINTS": "3"}}, {"type": "Feature", "geometry": {"type": "Point", "coordinates": [-107.8067, 37.8247]}, "properties": {"NAME": "W0C/SJ-035", "TITLE": "Ulysses S. Grant Peak", "REGION": "CO-San Juan", "ASSOCIATION": "USA - Colorado", "POINTS": "10", "BONUSPOINTS": "3"}}, {"type": "Feature", "geometry": {"type": "Point", "coordinates": [-107.5595, 37.6765]}, "properties": {"NAME": "W0C/SJ-036", "TITLE": "Storm King Peak", "REGION": "CO-San Juan", "ASSOCIATION": "USA - Colorado", "POINTS": "10", "BONUSPOINTS": "3"}}, {"type": "Feature", "geometry": {"type": "Point", "coordinates": [-107.5553, 37.9437]}, "properties": {"NAME": "W0C/SJ-037", "TITLE": "Animas Forks Mountain", "REGION": "CO-San Juan", "ASSOCIATION": "USA - Colorado", "POINTS": "10", "BONUSPOINTS": "3"}}, {"type": "Feature", "geometry": {"type": "Point", "coordinates": [-107.5852, 37.6603]}, "properties": {"NAME": "W0C/SJ-038", "TITLE": "Peak Six", "REGION": "CO-San Juan", "ASSOCIATION": "USA - Colorado", "POINTS": "10", "BONUSPOINTS": "3"}}, {"type": "Feature", "geometry": {"type": "Point", "coordinates": [-107.8259, 37.766]}, "properties": {"NAME": "W0C/SJ-039", "TITLE": "Rolling Mountain", "REGION": "CO-San Juan", "ASSOCIATION": "USA - Colorado", "POINTS": "10", "BONUSPOINTS": "3"}}, {"type": "Feature", "geometry": {"type": "Point", "coordinates": [-107.4937, 37.607]}, "properties": {"NAME": "W0C/SJ-040", "TITLE": "Mount Oso", "REGION": "CO-San Juan", "ASSOCIATION": "USA - Colorado", "POINTS": "10", "BONUSPOINTS": "3"}}, {"type": "Feature", "geometry": {"type": "Point", "coordinates": [-107.7802, 37.8623]}, "properties": {"NAME": "W0C/SJ-041", "TITLE": "Lookout Peak", "REGION": "CO-San Juan", "ASSOCIATION": "USA - Colorado", "POINTS": "10", "BONUSPOINTS": "3"}}, {"type": "Feature", "geometry": {"type": "Point", "coordinates": [-107.548, 37.6703]}, "properties": {"NAME": "W0C/SJ-042", "TITLE": "Mount Silex", "REGION": "CO-San Juan", "ASSOCIATION": "USA - Colorado", "POINTS": "10", "BONUSPOINTS": "3"}}, {"type": "Feature", "geometry": {"type": "Point", "coordinates": [-107.5465, 37.7041]}, "properties": {"NAME": "W0C/SJ-043", "TITLE": "White Dome", "REGION": "CO-San Juan", "ASSOCIATION": "USA - Colorado", "POINTS": "10", "BONUSPOINTS": "3"}}, {"type": "Feature", "geometry": {"type": "Point", "coordinates": [-107.5403, 37.6635]}, "properties": {"NAME": "W0C/SJ-044", "TITLE": "The Guardian", "REGION": "CO-San Juan", "ASSOCIATION": "USA - Colorado", "POINTS": "10", "BONUSPOINTS": "3"}}, {"type": "Feature", "geometry": {"type": "Point", "coordinates": [-107.5701, 37.6175]}, "properties": {"NAME": "W0C/SJ-045", "TITLE": "Greylock Mountain", "REGION": "CO-San Juan", "ASSOCIATION": "USA - Colorado", "POINTS": "10", "BONUSPOINTS": "3"}}, {"type": "Feature", "geometry": {"type": "Point", "coordinates": [-107.623, 37.8574]}, "properties": {"NAME": "W0C/SJ-046", "TITLE": "Tower Mountain", "REGION": "CO-San Juan", "ASSOCIATION": "USA - Colorado", "POINTS": "10", "BONUSPOINTS": "3"}}, {"type": "Feature", "geometry": {"type": "Point", "coordinates": [-107.5746, 37.6529]}, "properties": {"NAME": "W0C/SJ-047", "TITLE": "Leviathan Peak", "REGION": "CO-San Juan", "ASSOCIATION": "USA - Colorado", "POINTS": "10", "BONUSPOINTS": "3"}}, {"type": "Feature", "geometry": {"type": "Point", "coordinates": [-107.6196, 37.6892]}, "properties": {"NAME": "W0C/SJ-048", "TITLE": "Graystone Peak", "REGION": "CO-San Juan", "ASSOCIATION": "USA - Colorado", "POINTS": "8", "BONUSPOINTS": "3"}}, {"type": "Feature", "geometry": {"type": "Point", "coordinates": [-107.6475, 37.8594]}, "properties": {"NAME": "W0C/SJ-049", "TITLE": "Storm Peak", "REGION": "CO-San Juan", "ASSOCIATION": "USA - Colorado", "POINTS": "8", "BONUSPOINTS": "3"}}, {"type": "Feature", "geometry": {"type": "Point", "coordinates": [-107.5457, 37.7995]}, "properties": {"NAME": "W0C/SJ-050", "TITLE": "Canby Mountain", "REGION": "CO-San Juan", "ASSOCIATION": "USA - Colorado", "POINTS": "8", "BONUSPOINTS": "3"}}, {"type": "Feature", "geometry": {"type": "Point", "coordinates": [-107.7492, 37.8979]}, "properties": {"NAME": "W0C/SJ-051", "TITLE": "T 10", "REGION": "CO-San Juan", "ASSOCIATION": "USA - Colorado", "POINTS": "8", "BONUSPOINTS": "3"}}, {"type": "Feature", "geometry": {"type": "Point", "coordinates": [-107.5759, 37.7083]}, "properties": {"NAME": "W0C/SJ-052", "TITLE": "Peak Two", "REGION": "CO-San Juan", "ASSOCIATION": "USA - Colorado", "POINTS": "8", "BONUSPOINTS": "3"}}, {"type": "Feature", "geometry": {"type": "Point", "coordinates": [-107.6098, 37.9079]}, "properties": {"NAME": "W0C/SJ-053", "TITLE": "Hanson Peak", "REGION": "CO-San Juan", "ASSOCIATION": "USA - Colorado", "POINTS": "8", "BONUSPOINTS": "3"}}, {"type": "Feature", "geometry": {"type": "Point", "coordinates": [-107.6182, 37.7871]}, "properties": {"NAME": "W0C/SJ-054", "TITLE": "Kendall Peak", "REGION": "CO-San Juan", "ASSOCIATION": "USA - Colorado", "POINTS": "8", "BONUSPOINTS": "3"}}, {"type": "Feature", "geometry": {"type": "Point", "coordinates": [-107.6078, 37.7717]}, "properties": {"NAME": "W0C/SJ-055", "TITLE": "Mountaineer Peak", "REGION": "CO-San Juan", "ASSOCIATION": "USA - Colorado", "POINTS": "8", "BONUSPOINTS": "3"}}, {"type": "Feature", "geometry": {"type": "Point", "coordinates": [-107.7858, 37.7716]}, "properties": {"NAME": "W0C/SJ-056", "TITLE": "East Twin Sisters", "REGION": "CO-San Juan", "ASSOCIATION": "USA - Colorado", "POINTS": "8", "BONUSPOINTS": "3"}}, {"type": "Feature", "geometry": {"type": "Point", "coordinates": [-107.5663, 37.6503]}, "properties": {"NAME": "W0C/SJ-057", "TITLE": "Vallecito Mountain", "REGION": "CO-San Juan", "ASSOCIATION": "USA - Colorado", "POINTS": "8", "BONUSPOINTS": "3"}}, {"type": "Feature", "geometry": {"type": "Point", "coordinates": [-107.4863, 37.5963]}, "properties": {"NAME": "W0C/SJ-058", "TITLE": "Mount Soso", "REGION": "CO-San Juan", "ASSOCIATION": "USA - Colorado", "POINTS": "8", "BONUSPOINTS": "3"}}, {"type": "Feature", "geometry": {"type": "Point", "coordinates": [-107.5987, 37.7967]}, "properties": {"NAME": "W0C/SJ-059", "TITLE": "Little Giant Peak", "REGION": "CO-San Juan", "ASSOCIATION": "USA - Colorado", "POINTS": "8", "BONUSPOINTS": "3"}}, {"type": "Feature", "geometry": {"type": "Point", "coordinates": [-107.6075, 37.6597]}, "properties": {"NAME": "W0C/SJ-060", "TITLE": "Peak Four", "REGION": "CO-San Juan", "ASSOCIATION": "USA - Colorado", "POINTS": "8", "BONUSPOINTS": "3"}}, {"type": "Feature", "geometry": {"type": "Point", "coordinates": [-107.5601, 37.6697]}, "properties": {"NAME": "W0C/SJ-061", "TITLE": "Peak Nine", "REGION": "CO-San Juan", "ASSOCIATION": "USA - Colorado", "POINTS": "8", "BONUSPOINTS": "3"}}, {"type": "Feature", "geometry": {"type": "Point", "coordinates": [-107.7904, 37.8361]}, "properties": {"NAME": "W0C/SJ-062", "TITLE": "South Lookout Peak", "REGION": "CO-San Juan", "ASSOCIATION": "USA - Colorado", "POINTS": "8", "BONUSPOINTS": "3"}}, {"type": "Feature", "geometry": {"type": "Point", "coordinates": [-107.5999, 37.8608]}, "properties": {"NAME": "W0C/SJ-063", "TITLE": "Dome Mountain", "REGION": "CO-San Juan", "ASSOCIATION": "USA - Colorado", "POINTS": "8", "BONUSPOINTS": "3"}}, {"type": "Feature", "geometry": {"type": "Point", "coordinates": [-107.7038, 37.7858]}, "properties": {"NAME": "W0C/SJ-064", "TITLE": "Sultan Mountain", "REGION": "CO-San Juan", "ASSOCIATION": "USA - Colorado", "POINTS": "8", "BONUSPOINTS": "3"}}, {"type": "Feature", "geometry": {"type": "Point", "coordinates": [-107.6243, 37.8825]}, "properties": {"NAME": "W0C/SJ-065", "TITLE": "Proposal Peak", "REGION": "CO-San Juan", "ASSOCIATION": "USA - Colorado", "POINTS": "8", "BONUSPOINTS": "3"}}, {"type": "Feature", "geometry": {"type": "Point", "coordinates": [-107.616, 37.5918]}, "properties": {"NAME": "W0C/SJ-066", "TITLE": "Aztec Mountain", "REGION": "CO-San Juan", "ASSOCIATION": "USA - Colorado", "POINTS": "8", "BONUSPOINTS": "3"}}, {"type": "Feature", "geometry": {"type": "Point", "coordinates": [-107.4944, 37.7026]}, "properties": {"NAME": "W0C/SJ-067", "TITLE": "13308", "REGION": "CO-San Juan", "ASSOCIATION": "USA - Colorado", "POINTS": "8", "BONUSPOINTS": "3"}}, {"type": "Feature", "geometry": {"type": "Point", "coordinates": [-107.5136, 37.626]}, "properties": {"NAME": "W0C/SJ-068", "TITLE": "P 2", "REGION": "CO-San Juan", "ASSOCIATION": "USA - Colorado", "POINTS": "8", "BONUSPOINTS": "3"}}, {"type": "Feature", "geometry": {"type": "Point", "coordinates": [-106.6968, 37.3506]}, "properties": {"NAME": "W0C/SJ-069", "TITLE": "Summit Peak", "REGION": "CO-San Juan", "ASSOCIATION": "USA - Colorado", "POINTS": "8", "BONUSPOINTS": "3"}}, {"type": "Feature", "geometry": {"type": "Point", "coordinates": [-107.5034, 37.6249]}, "properties": {"NAME": "W0C/SJ-070", "TITLE": "P 3", "REGION": "CO-San Juan", "ASSOCIATION": "USA - Colorado", "POINTS": "8", "BONUSPOINTS": "3"}}, {"type": "Feature", "geometry": {"type": "Point", "coordinates": [-107.6173, 37.699]}, "properties": {"NAME": "W0C/SJ-071", "TITLE": "Electric Peak", "REGION": "CO-San Juan", "ASSOCIATION": "USA - Colorado", "POINTS": "8", "BONUSPOINTS": "3"}}, {"type": "Feature", "geometry": {"type": "Point", "coordinates": [-107.518, 37.7833]}, "properties": {"NAME": "W0C/SJ-072", "TITLE": "Sheep Mountain", "REGION": "CO-San Juan", "ASSOCIATION": "USA - Colorado", "POINTS": "8", "BONUSPOINTS": "3"}}, {"type": "Feature", "geometry": {"type": "Point", "coordinates": [-107.6239, 37.897]}, "properties": {"NAME": "W0C/SJ-073", "TITLE": "Bonita Peak", "REGION": "CO-San Juan", "ASSOCIATION": "USA - Colorado", "POINTS": "8", "BONUSPOINTS": "3"}}, {"type": "Feature", "geometry": {"type": "Point", "coordinates": [-107.4981, 37.6754]}, "properties": {"NAME": "W0C/SJ-074", "TITLE": "13230", "REGION": "CO-San Juan", "ASSOCIATION": "USA - Colorado", "POINTS": "8", "BONUSPOINTS": "3"}}, {"type": "Feature", "geometry": {"type": "Point", "coordinates": [-107.5094, 37.5949]}, "properties": {"NAME": "W0C/SJ-075", "TITLE": "Irving Peak", "REGION": "CO-San Juan", "ASSOCIATION": "USA - Colorado", "POINTS": "8", "BONUSPOINTS": "3"}}, {"type": "Feature", "geometry": {"type": "Point", "coordinates": [-107.5083, 37.6763]}, "properties": {"NAME": "W0C/SJ-076", "TITLE": "Mount Nebo", "REGION": "CO-San Juan", "ASSOCIATION": "USA - Colorado", "POINTS": "8", "BONUSPOINTS": "3"}}, {"type": "Feature", "geometry": {"type": "Point", "coordinates": [-107.6128, 37.934]}, "properties": {"NAME": "W0C/SJ-077", "TITLE": "Tuttle Mountain", "REGION": "CO-San Juan", "ASSOCIATION": "USA - Colorado", "POINTS": "8", "BONUSPOINTS": "3"}}, {"type": "Feature", "geometry": {"type": "Point", "coordinates": [-108.0792, 37.4295]}, "properties": {"NAME": "W0C/SJ-078", "TITLE": "Babcock Peak", "REGION": "CO-San Juan", "ASSOCIATION": "USA - Colorado", "POINTS": "8", "BONUSPOINTS": "3"}}, {"type": "Feature", "geometry": {"type": "Point", "coordinates": [-107.4893, 37.659]}, "properties": {"NAME": "W0C/SJ-079", "TITLE": "13169", "REGION": "CO-San Juan", "ASSOCIATION": "USA - Colorado", "POINTS": "8", "BONUSPOINTS": "3"}}, {"type": "Feature", "geometry": {"type": "Point", "coordinates": [-107.5594, 37.5651]}, "properties": {"NAME": "W0C/SJ-080", "TITLE": "Amherst Mountain", "REGION": "CO-San Juan", "ASSOCIATION": "USA - Colorado", "POINTS": "8", "BONUSPOINTS": "3"}}, {"type": "Feature", "geometry": {"type": "Point", "coordinates": [-107.5528, 37.7907]}, "properties": {"NAME": "W0C/SJ-081", "TITLE": "Stony Pass Peak", "REGION": "CO-San Juan", "ASSOCIATION": "USA - Colorado", "POINTS": "8", "BONUSPOINTS": "3"}}, {"type": "Feature", "geometry": {"type": "Point", "coordinates": [-107.7271, 37.6629]}, "properties": {"NAME": "W0C/SJ-082", "TITLE": "Twilight Peak", "REGION": "CO-San Juan", "ASSOCIATION": "USA - Colorado", "POINTS": "8", "BONUSPOINTS": "3"}}, {"type": "Feature", "geometry": {"type": "Point", "coordinates": [-107.7699, 37.826]}, "properties": {"NAME": "W0C/SJ-083", "TITLE": "V 5", "REGION": "CO-San Juan", "ASSOCIATION": "USA - Colorado", "POINTS": "8", "BONUSPOINTS": "3"}}, {"type": "Feature", "geometry": {"type": "Point", "coordinates": [-106.6914, 37.3731]}, "properties": {"NAME": "W0C/SJ-084", "TITLE": "Montezuma Peak", "REGION": "CO-San Juan", "ASSOCIATION": "USA - Colorado", "POINTS": "8", "BONUSPOINTS": "3"}}, {"type": "Feature", "geometry": {"type": "Point", "coordinates": [-107.7206, 37.6502]}, "properties": {"NAME": "W0C/SJ-085", "TITLE": "West Needle Mountain", "REGION": "CO-San Juan", "ASSOCIATION": "USA - Colorado", "POINTS": "8", "BONUSPOINTS": "3"}}, {"type": "Feature", "geometry": {"type": "Point", "coordinates": [-107.7501, 37.7815]}, "properties": {"NAME": "W0C/SJ-086", "TITLE": "V 7", "REGION": "CO-San Juan", "ASSOCIATION": "USA - Colorado", "POINTS": "8", "BONUSPOINTS": "3"}}, {"type": "Feature", "geometry": {"type": "Point", "coordinates": [-107.6762, 37.5835]}, "properties": {"NAME": "W0C/SJ-087", "TITLE": "Overlook Point", "REGION": "CO-San Juan", "ASSOCIATION": "USA - Colorado", "POINTS": "8", "BONUSPOINTS": "3"}}, {"type": "Feature", "geometry": {"type": "Point", "coordinates": [-107.7328, 37.7947]}, "properties": {"NAME": "W0C/SJ-088", "TITLE": "Bear Mountain", "REGION": "CO-San Juan", "ASSOCIATION": "USA - Colorado", "POINTS": "8", "BONUSPOINTS": "3"}}, {"type": "Feature", "geometry": {"type": "Point", "coordinates": [-106.6845, 37.2867]}, "properties": {"NAME": "W0C/SJ-089", "TITLE": "12887", "REGION": "CO-San Juan", "ASSOCIATION": "USA - Colorado", "POINTS": "8", "BONUSPOINTS": "3"}}, {"type": "Feature", "geometry": {"type": "Point", "coordinates": [-106.6803, 37.3859]}, "properties": {"NAME": "W0C/SJ-090", "TITLE": "Long Trek Mountain", "REGION": "CO-San Juan", "ASSOCIATION": "USA - Colorado", "POINTS": "8", "BONUSPOINTS": "3"}}, {"type": "Feature", "geometry": {"type": "Point", "coordinates": [-106.6892, 37.2652]}, "properties": {"NAME": "W0C/SJ-091", "TITLE": "Snow Benchmark", "REGION": "CO-San Juan", "ASSOCIATION": "USA - Colorado", "POINTS": "8", "BONUSPOINTS": "3"}}, {"type": "Feature", "geometry": {"type": "Point", "coordinates": [-107.6898, 37.8801]}, "properties": {"NAME": "W0C/SJ-092", "TITLE": "McMillan Peak", "REGION": "CO-San Juan", "ASSOCIATION": "USA - Colorado", "POINTS": "8", "BONUSPOINTS": "3"}}, {"type": "Feature", "geometry": {"type": "Point", "coordinates": [-107.5848, 37.5358]}, "properties": {"NAME": "W0C/SJ-093", "TITLE": "Sheridan Mountain", "REGION": "CO-San Juan", "ASSOCIATION": "USA - Colorado", "POINTS": "8", "BONUSPOINTS": "3"}}, {"type": "Feature", "geometry": {"type": "Point", "coordinates": [-106.6271, 37.1045]}, "properties": {"NAME": "W0C/SJ-094", "TITLE": "Banded Peak", "REGION": "CO-San Juan", "ASSOCIATION": "USA - Colorado", "POINTS": "8", "BONUSPOINTS": "3"}}, {"type": "Feature", "geometry": {"type": "Point", "coordinates": [-108.0145, 37.422]}, "properties": {"NAME": "W0C/SJ-095", "TITLE": "Lewis Mountain", "REGION": "CO-San Juan", "ASSOCIATION": "USA - Colorado", "POINTS": "8", "BONUSPOINTS": "3"}}, {"type": "Feature", "geometry": {"type": "Point", "coordinates": [-106.686, 37.259]}, "properties": {"NAME": "W0C/SJ-096", "TITLE": "12727", "REGION": "CO-San Juan", "ASSOCIATION": "USA - Colorado", "POINTS": "8", "BONUSPOINTS": "3"}}, {"type": "Feature", "geometry": {"type": "Point", "coordinates": [-107.7073, 37.8378]}, "properties": {"NAME": "W0C/SJ-097", "TITLE": "Anvil Mountain", "REGION": "CO-San Juan", "ASSOCIATION": "USA - Colorado", "POINTS": "8", "BONUSPOINTS": "3"}}, {"type": "Feature", "geometry": {"type": "Point", "coordinates": [-107.8628, 37.6739]}, "properties": {"NAME": "W0C/SJ-098", "TITLE": "Grayrock Peak", "REGION": "CO-San Juan", "ASSOCIATION": "USA - Colorado", "POINTS": "8", "BONUSPOINTS": "3"}}, {"type": "Feature", "geometry": {"type": "Point", "coordinates": [-106.7742, 37.2889]}, "properties": {"NAME": "W0C/SJ-099", "TITLE": "Blackhead Peak", "REGION": "CO-San Juan", "ASSOCIATION": "USA - Colorado", "POINTS": "8", "BONUSPOINTS": "3"}}, {"type": "Feature", "geometry": {"type": "Point", "coordinates": [-108.0296, 37.3868]}, "properties": {"NAME": "W0C/SJ-100", "TITLE": "Silver Mountain", "REGION": "CO-San Juan", "ASSOCIATION": "USA - Colorado", "POINTS": "8", "BONUSPOINTS": "3"}}, {"type": "Feature", "geometry": {"type": "Point", "coordinates": [-106.6768, 37.3001]}, "properties": {"NAME": "W0C/SJ-101", "TITLE": "12492", "REGION": "CO-San Juan", "ASSOCIATION": "USA - Colorado", "POINTS": "6", "BONUSPOINTS": "3"}}, {"type": "Feature", "geometry": {"type": "Point", "coordinates": [-107.5976, 37.5142]}, "properties": {"NAME": "W0C/SJ-102", "TITLE": "Endlich Mesa", "REGION": "CO-San Juan", "ASSOCIATION": "USA - Colorado", "POINTS": "6", "BONUSPOINTS": "3"}}, {"type": "Feature", "geometry": {"type": "Point", "coordinates": [-106.7755, 37.3184]}, "properties": {"NAME": "W0C/SJ-103", "TITLE": "Sand Mountain", "REGION": "CO-San Juan", "ASSOCIATION": "USA - Colorado", "POINTS": "6", "BONUSPOINTS": "3"}}, {"type": "Feature", "geometry": {"type": "Point", "coordinates": [-106.732, 37.336]}, "properties": {"NAME": "W0C/SJ-104", "TITLE": "12410", "REGION": "CO-San Juan", "ASSOCIATION": "USA - Colorado", "POINTS": "6", "BONUSPOINTS": "3"}}, {"type": "Feature", "geometry": {"type": "Point", "coordinates": [-106.6169, 37.16]}, "properties": {"NAME": "W0C/SJ-105", "TITLE": "Gramps Peak", "REGION": "CO-San Juan", "ASSOCIATION": "USA - Colorado", "POINTS": "6", "BONUSPOINTS": "3"}}, {"type": "Feature", "geometry": {"type": "Point", "coordinates": [-106.6459, 37.1744]}, "properties": {"NAME": "W0C/SJ-106", "TITLE": "Fets Peak", "REGION": "CO-San Juan", "ASSOCIATION": "USA - Colorado", "POINTS": "6", "BONUSPOINTS": "3"}}, {"type": "Feature", "geometry": {"type": "Point", "coordinates": [-106.75, 37.1418]}, "properties": {"NAME": "W0C/SJ-107", "TITLE": "Chalk Benchmark", "REGION": "CO-San Juan", "ASSOCIATION": "USA - Colorado", "POINTS": "6", "BONUSPOINTS": "3"}}, {"type": "Feature", "geometry": {"type": "Point", "coordinates": [-106.6289, 37.0403]}, "properties": {"NAME": "W0C/SJ-108", "TITLE": "Chama Peak", "REGION": "CO-San Juan", "ASSOCIATION": "USA - Colorado", "POINTS": "6", "BONUSPOINTS": "3"}}, {"type": "Feature", "geometry": {"type": "Point", "coordinates": [-106.8259, 37.3248]}, "properties": {"NAME": "W0C/SJ-109", "TITLE": "Coal Benchmark", "REGION": "CO-San Juan", "ASSOCIATION": "USA - Colorado", "POINTS": "6", "BONUSPOINTS": "3"}}, {"type": "Feature", "geometry": {"type": "Point", "coordinates": [-107.7665, 37.6725]}, "properties": {"NAME": "W0C/SJ-110", "TITLE": "Potato Hill", "REGION": "CO-San Juan", "ASSOCIATION": "USA - Colorado", "POINTS": "6", "BONUSPOINTS": "3"}}, {"type": "Feature", "geometry": {"type": "Point", "coordinates": [-106.8063, 37.2585]}, "properties": {"NAME": "W0C/SJ-111", "TITLE": "Squaretop Mountain", "REGION": "CO-San Juan", "ASSOCIATION": "USA - Colorado", "POINTS": "6", "BONUSPOINTS": "3"}}, {"type": "Feature", "geometry": {"type": "Point", "coordinates": [-106.7303, 37.1806]}, "properties": {"NAME": "W0C/SJ-112", "TITLE": "11755", "REGION": "CO-San Juan", "ASSOCIATION": "USA - Colorado", "POINTS": "6", "BONUSPOINTS": "3"}}, {"type": "Feature", "geometry": {"type": "Point", "coordinates": [-107.9966, 37.3998]}, "properties": {"NAME": "W0C/SJ-113", "TITLE": "Bald Knob", "REGION": "CO-San Juan", "ASSOCIATION": "USA - Colorado", "POINTS": "6", "BONUSPOINTS": "3"}}, {"type": "Feature", "geometry": {"type": "Point", "coordinates": [-106.7336, 37.3928]}, "properties": {"NAME": "W0C/SJ-114", "TITLE": "11100", "REGION": "CO-San Juan", "ASSOCIATION": "USA - Colorado", "POINTS": "6", "BONUSPOINTS": "3"}}, {"type": "Feature", "geometry": {"type": "Point", "coordinates": [-108.0374, 37.3493]}, "properties": {"NAME": "W0C/SJ-115", "TITLE": "Baldy Peak", "REGION": "CO-San Juan", "ASSOCIATION": "USA - Colorado", "POINTS": "6", "BONUSPOINTS": "3"}}, {"type": "Feature", "geometry": {"type": "Point", "coordinates": [-107.9446, 37.4392]}, "properties": {"NAME": "W0C/SJ-116", "TITLE": "Monument Hill", "REGION": "CO-San Juan", "ASSOCIATION": "USA - Colorado", "POINTS": "6", "BONUSPOINTS": "3"}}, {"type": "Feature", "geometry": {"type": "Point", "coordinates": [-107.8526, 37.618]}, "properties": {"NAME": "W0C/SJ-117", "TITLE": "10822", "REGION": "CO-San Juan", "ASSOCIATION": "USA - Colorado", "POINTS": "6", "BONUSPOINTS": "3"}}, {"type": "Feature", "geometry": {"type": "Point", "coordinates": [-107.4789, 37.3711]}, "properties": {"NAME": "W0C/SJ-118", "TITLE": "Indian Mountain", "REGION": "CO-San Juan", "ASSOCIATION": "USA - Colorado", "POINTS": "4", "BONUSPOINTS": "3"}}, {"type": "Feature", "geometry": {"type": "Point", "coordinates": [-107.4201, 37.3495]}, "properties": {"NAME": "W0C/SJ-119", "TITLE": "Baldy Mountain", "REGION": "CO-San Juan", "ASSOCIATION": "USA - Colorado", "POINTS": "4", "BONUSPOINTS": "3"}}, {"type": "Feature", "geometry": {"type": "Point", "coordinates": [-107.6342, 37.3853]}, "properties": {"NAME": "W0C/SJ-120", "TITLE": "9911", "REGION": "CO-San Juan", "ASSOCIATION": "USA - Colorado", "POINTS": "4", "BONUSPOINTS": "3"}}, {"type": "Feature", "geometry": {"type": "Point", "coordinates": [-107.2345, 37.3376]}, "properties": {"NAME": "W0C/SJ-121", "TITLE": "Middle Mountain", "REGION": "CO-San Juan", "ASSOCIATION": "USA - Colorado", "POINTS": "4", "BONUSPOINTS": "3"}}, {"type": "Feature", "geometry": {"type": "Point", "coordinates": [-107.9626, 37.3658]}, "properties": {"NAME": "W0C/SJ-122", "TITLE": "9589", "REGION": "CO-San Juan", "ASSOCIATION": "USA - Colorado", "POINTS": "4", "BONUSPOINTS": "3"}}, {"type": "Feature", "geometry": {"type": "Point", "coordinates": [-107.677, 37.3859]}, "properties": {"NAME": "W0C/SJ-123", "TITLE": "9488", "REGION": "CO-San Juan", "ASSOCIATION": "USA - Colorado", "POINTS": "4", "BONUSPOINTS": "3"}}, {"type": "Feature", "geometry": {"type": "Point", "coordinates": [-107.7959, 37.605]}, "properties": {"NAME": "W0C/SJ-124", "TITLE": "9374", "REGION": "CO-San Juan", "ASSOCIATION": "USA - Colorado", "POINTS": "4", "BONUSPOINTS": "3"}}, {"type": "Feature", "geometry": {"type": "Point", "coordinates": [-106.9632, 37.0234]}, "properties": {"NAME": "W0C/SJ-125", "TITLE": "Archuleta Mesa", "REGION": "CO-San Juan", "ASSOCIATION": "USA - Colorado", "POINTS": "4", "BONUSPOINTS": "3"}}, {"type": "Feature", "geometry": {"type": "Point", "coordinates": [-106.9212, 37.376]}, "properties": {"NAME": "W0C/SJ-126", "TITLE": "9205", "REGION": "CO-San Juan", "ASSOCIATION": "USA - Colorado", "POINTS": "4", "BONUSPOINTS": "3"}}, {"type": "Feature", "geometry": {"type": "Point", "coordinates": [-108.0299, 37.3103]}, "properties": {"NAME": "W0C/SJ-127", "TITLE": "9204", "REGION": "CO-San Juan", "ASSOCIATION": "USA - Colorado", "POINTS": "4", "BONUSPOINTS": "3"}}, {"type": "Feature", "geometry": {"type": "Point", "coordinates": [-108.0765, 37.3079]}, "properties": {"NAME": "W0C/SJ-128", "TITLE": "9060", "REGION": "CO-San Juan", "ASSOCIATION": "USA - Colorado", "POINTS": "4", "BONUSPOINTS": "3"}}, {"type": "Feature", "geometry": {"type": "Point", "coordinates": [-107.6649, 37.3455]}, "properties": {"NAME": "W0C/SJ-129", "TITLE": "8999", "REGION": "CO-San Juan", "ASSOCIATION": "USA - Colorado", "POINTS": "2", "BONUSPOINTS": "3"}}, {"type": "Feature", "geometry": {"type": "Point", "coordinates": [-107.4631, 37.1935]}, "properties": {"NAME": "W0C/SJ-130", "TITLE": "8980", "REGION": "CO-San Juan", "ASSOCIATION": "USA - Colorado", "POINTS": "2", "BONUSPOINTS": "3"}}, {"type": "Feature", "geometry": {"type": "Point", "coordinates": [-107.1878, 37.2945]}, "properties": {"NAME": "W0C/SJ-131", "TITLE": "Chris Mountain", "REGION": "CO-San Juan", "ASSOCIATION": "USA - Colorado", "POINTS": "2", "BONUSPOINTS": "0"}}, {"type": "Feature", "geometry": {"type": "Point", "coordinates": [-106.9827, 37.3464]}, "properties": {"NAME": "W0C/SJ-132", "TITLE": "Jackson Mountain", "REGION": "CO-San Juan", "ASSOCIATION": "USA - Colorado", "POINTS": "2", "BONUSPOINTS": "0"}}, {"type": "Feature", "geometry": {"type": "Point", "coordinates": [-107.7024, 37.3266]}, "properties": {"NAME": "W0C/SJ-133", "TITLE": "Vosburg Pike", "REGION": "CO-San Juan", "ASSOCIATION": "USA - Colorado", "POINTS": "2", "BONUSPOINTS": "0"}}, {"type": "Feature", "geometry": {"type": "Point", "coordinates": [-106.8599, 37.1957]}, "properties": {"NAME": "W0C/SJ-134", "TITLE": "Blue Mountain", "REGION": "CO-San Juan", "ASSOCIATION": "USA - Colorado", "POINTS": "2", "BONUSPOINTS": "0"}}, {"type": "Feature", "geometry": {"type": "Point", "coordinates": [-107.5133, 37.3209]}, "properties": {"NAME": "W0C/SJ-135", "TITLE": "Wickenson Mountain", "REGION": "CO-San Juan", "ASSOCIATION": "USA - Colorado", "POINTS": "2", "BONUSPOINTS": "0"}}, {"type": "Feature", "geometry": {"type": "Point", "coordinates": [-107.4719, 37.2467]}, "properties": {"NAME": "W0C/SJ-136", "TITLE": "8761", "REGION": "CO-San Juan", "ASSOCIATION": "USA - Colorado", "POINTS": "2", "BONUSPOINTS": "0"}}, {"type": "Feature", "geometry": {"type": "Point", "coordinates": [-106.8269, 36.9987]}, "properties": {"NAME": "W0C/SJ-137", "TITLE": "Vigil Mesa", "REGION": "CO-San Juan", "ASSOCIATION": "USA - Colorado", "POINTS": "2", "BONUSPOINTS": "0"}}, {"type": "Feature", "geometry": {"type": "Point", "coordinates": [-107.9614, 37.3167]}, "properties": {"NAME": "W0C/SJ-138", "TITLE": "Barnroof Point", "REGION": "CO-San Juan", "ASSOCIATION": "USA - Colorado", "POINTS": "2", "BONUSPOINTS": "0"}}, {"type": "Feature", "geometry": {"type": "Point", "coordinates": [-107.221, 37.1418]}, "properties": {"NAME": "W0C/SJ-139", "TITLE": "Kearns Benchmark", "REGION": "CO-San Juan", "ASSOCIATION": "USA - Colorado", "POINTS": "2", "BONUSPOINTS": "0"}}, {"type": "Feature", "geometry": {"type": "Point", "coordinates": [-107.9273, 37.314]}, "properties": {"NAME": "W0C/SJ-140", "TITLE": "8682", "REGION": "CO-San Juan", "ASSOCIATION": "USA - Colorado", "POINTS": "2", "BONUSPOINTS": "0"}}, {"type": "Feature", "geometry": {"type": "Point", "coordinates": [-107.5441, 37.3198]}, "properties": {"NAME": "W0C/SJ-141", "TITLE": "Shaefer Mountain", "REGION": "CO-San Juan", "ASSOCIATION": "USA - Colorado", "POINTS": "2", "BONUSPOINTS": "0"}}, {"type": "Feature", "geometry": {"type": "Point", "coordinates": [-107.0909, 37.1843]}, "properties": {"NAME": "W0C/SJ-142", "TITLE": "Oak Brush Hill", "REGION": "CO-San Juan", "ASSOCIATION": "USA - Colorado", "POINTS": "2", "BONUSPOINTS": "0"}}, {"type": "Feature", "geometry": {"type": "Point", "coordinates": [-106.863, 37.0527]}, "properties": {"NAME": "W0C/SJ-143", "TITLE": "8620", "REGION": "CO-San Juan", "ASSOCIATION": "USA - Colorado", "POINTS": "2", "BONUSPOINTS": "0"}}, {"type": "Feature", "geometry": {"type": "Point", "coordinates": [-107.3916, 37.2457]}, "properties": {"NAME": "W0C/SJ-144", "TITLE": "8615", "REGION": "CO-San Juan", "ASSOCIATION": "USA - Colorado", "POINTS": "2", "BONUSPOINTS": "0"}}, {"type": "Feature", "geometry": {"type": "Point", "coordinates": [-107.4087, 37.2557]}, "properties": {"NAME": "W0C/SJ-145", "TITLE": "Los Pinos Benchmark", "REGION": "CO-San Juan", "ASSOCIATION": "USA - Colorado", "POINTS": "2", "BONUSPOINTS": "0"}}, {"type": "Feature", "geometry": {"type": "Point", "coordinates": [-107.324, 37.1037]}, "properties": {"NAME": "W0C/SJ-146", "TITLE": "Sandoval Mesa", "REGION": "CO-San Juan", "ASSOCIATION": "USA - Colorado", "POINTS": "2", "BONUSPOINTS": "0"}}, {"type": "Feature", "geometry": {"type": "Point", "coordinates": [-107.1077, 37.3301]}, "properties": {"NAME": "W0C/SJ-147", "TITLE": "Coyote Hill", "REGION": "CO-San Juan", "ASSOCIATION": "USA - Colorado", "POINTS": "2", "BONUSPOINTS": "0"}}, {"type": "Feature", "geometry": {"type": "Point", "coordinates": [-107.9999, 37.1715]}, "properties": {"NAME": "W0C/SJ-148", "TITLE": "Bridge Timber Mountain", "REGION": "CO-San Juan", "ASSOCIATION": "USA - Colorado", "POINTS": "2", "BONUSPOINTS": "0"}}, {"type": "Feature", "geometry": {"type": "Point", "coordinates": [-107.5271, 37.3062]}, "properties": {"NAME": "W0C/SJ-149", "TITLE": "8300", "REGION": "CO-San Juan", "ASSOCIATION": "USA - Colorado", "POINTS": "2", "BONUSPOINTS": "0"}}, {"type": "Feature", "geometry": {"type": "Point", "coordinates": [-107.6304, 37.3135]}, "properties": {"NAME": "W0C/SJ-150", "TITLE": "8285", "REGION": "CO-San Juan", "ASSOCIATION": "USA - Colorado", "POINTS": "2", "BONUSPOINTS": "0"}}, {"type": "Feature", "geometry": {"type": "Point", "coordinates": [-107.0754, 37.1637]}, "properties": {"NAME": "W0C/SJ-151", "TITLE": "8260", "REGION": "CO-San Juan", "ASSOCIATION": "USA - Colorado", "POINTS": "2", "BONUSPOINTS": "0"}}, {"type": "Feature", "geometry": {"type": "Point", "coordinates": [-107.9548, 37.2056]}, "properties": {"NAME": "W0C/SJ-152", "TITLE": "Basin Mountain", "REGION": "CO-San Juan", "ASSOCIATION": "USA - Colorado", "POINTS": "2", "BONUSPOINTS": "0"}}, {"type": "Feature", "geometry": {"type": "Point", "coordinates": [-107.0382, 37.0326]}, "properties": {"NAME": "W0C/SJ-153", "TITLE": "8244", "REGION": "CO-San Juan", "ASSOCIATION": "USA - Colorado", "POINTS": "2", "BONUSPOINTS": "0"}}, {"type": "Feature", "geometry": {"type": "Point", "coordinates": [-107.5928, 37.3157]}, "properties": {"NAME": "W0C/SJ-154", "TITLE": "Ludwig Mountain", "REGION": "CO-San Juan", "ASSOCIATION": "USA - Colorado", "POINTS": "2", "BONUSPOINTS": "0"}}, {"type": "Feature", "geometry": {"type": "Point", "coordinates": [-106.9973, 37.1715]}, "properties": {"NAME": "W0C/SJ-155", "TITLE": "Eightmile Mesa", "REGION": "CO-San Juan", "ASSOCIATION": "USA - Colorado", "POINTS": "2", "BONUSPOINTS": "0"}}, {"type": "Feature", "geometry": {"type": "Point", "coordinates": [-107.8247, 37.2795]}, "properties": {"NAME": "W0C/SJ-156", "TITLE": "8175", "REGION": "CO-San Juan", "ASSOCIATION": "USA - Colorado", "POINTS": "2", "BONUSPOINTS": "0"}}, {"type": "Feature", "geometry": {"type": "Point", "coordinates": [-107.8639, 37.3261]}, "properties": {"NAME": "W0C/SJ-157", "TITLE": "Animas City Mountain", "REGION": "CO-San Juan", "ASSOCIATION": "USA - Colorado", "POINTS": "2", "BONUSPOINTS": "0"}}, {"type": "Feature", "geometry": {"type": "Point", "coordinates": [-107.1077, 37.1022]}, "properties": {"NAME": "W0C/SJ-158", "TITLE": "Cat Benchmark", "REGION": "CO-San Juan", "ASSOCIATION": "USA - Colorado", "POINTS": "2", "BONUSPOINTS": "0"}}, {"type": "Feature", "geometry": {"type": "Point", "coordinates": [-107.0961, 37.1395]}, "properties": {"NAME": "W0C/SJ-159", "TITLE": "Newton Mesa", "REGION": "CO-San Juan", "ASSOCIATION": "USA - Colorado", "POINTS": "2", "BONUSPOINTS": "0"}}, {"type": "Feature", "geometry": {"type": "Point", "coordinates": [-107.2795, 37.0427]}, "properties": {"NAME": "W0C/SJ-160", "TITLE": "7975", "REGION": "CO-San Juan", "ASSOCIATION": "USA - Colorado", "POINTS": "1", "BONUSPOINTS": "0"}}, {"type": "Feature", "geometry": {"type": "Point", "coordinates": [-107.2407, 37.2226]}, "properties": {"NAME": "W0C/SJ-161", "TITLE": "Haystack Mountain", "REGION": "CO-San Juan", "ASSOCIATION": "USA - Colorado", "POINTS": "1", "BONUSPOINTS": "0"}}, {"type": "Feature", "geometry": {"type": "Point", "coordinates": [-107.82, 37.2977]}, "properties": {"NAME": "W0C/SJ-162", "TITLE": "7954", "REGION": "CO-San Juan", "ASSOCIATION": "USA - Colorado", "POINTS": "1", "BONUSPOINTS": "0"}}, {"type": "Feature", "geometry": {"type": "Point", "coordinates": [-107.3009, 37.1945]}, "properties": {"NAME": "W0C/SJ-163", "TITLE": "Chimney Rock", "REGION": "CO-San Juan", "ASSOCIATION": "USA - Colorado", "POINTS": "1", "BONUSPOINTS": "0"}}, {"type": "Feature", "geometry": {"type": "Point", "coordinates": [-107.8933, 37.2322]}, "properties": {"NAME": "W0C/SJ-164", "TITLE": "Carbon Benchmark", "REGION": "CO-San Juan", "ASSOCIATION": "USA - Colorado", "POINTS": "1", "BONUSPOINTS": "0"}}, {"type": "Feature", "geometry": {"type": "Point", "coordinates": [-107.0599, 37.0631]}, "properties": {"NAME": "W0C/SJ-165", "TITLE": "Montezuma Mesa", "REGION": "CO-San Juan", "ASSOCIATION": "USA - Colorado", "POINTS": "1", "BONUSPOINTS": "0"}}, {"type": "Feature", "geometry": {"type": "Point", "coordinates": [-107.2189, 37.2062]}, "properties": {"NAME": "W0C/SJ-166", "TITLE": "7740", "REGION": "CO-San Juan", "ASSOCIATION": "USA - Colorado", "POINTS": "1", "BONUSPOINTS": "0"}}, {"type": "Feature", "geometry": {"type": "Point", "coordinates": [-107.906, 37.262]}, "properties": {"NAME": "W0C/SJ-167", "TITLE": "Smelter Mountain", "REGION": "CO-San Juan", "ASSOCIATION": "USA - Colorado", "POINTS": "1", "BONUSPOINTS": "0"}}, {"type": "Feature", "geometry": {"type": "Point", "coordinates": [-107.3409, 37.0]}, "properties": {"NAME": "W0C/SJ-168", "TITLE": "Carracas Mesa", "REGION": "CO-San Juan", "ASSOCIATION": "USA - Colorado", "POINTS": "1", "BONUSPOINTS": "0"}}, {"type": "Feature", "geometry": {"type": "Point", "coordinates": [-107.3648, 37.2333]}, "properties": {"NAME": "W0C/SJ-169", "TITLE": "7660", "REGION": "CO-San Juan", "ASSOCIATION": "USA - Colorado", "POINTS": "1", "BONUSPOINTS": "0"}}, {"type": "Feature", "geometry": {"type": "Point", "coordinates": [-107.7694, 37.0784]}, "properties": {"NAME": "W0C/SJ-170", "TITLE": "Mesa Mountains (HP)", "REGION": "CO-San Juan", "ASSOCIATION": "USA - Colorado", "POINTS": "1", "BONUSPOINTS": "0"}}, {"type": "Feature", "geometry": {"type": "Point", "coordinates": [-107.9297, 37.0868]}, "properties": {"NAME": "W0C/SJ-171", "TITLE": "Round Top Mountain", "REGION": "CO-San Juan", "ASSOCIATION": "USA - Colorado", "POINTS": "1", "BONUSPOINTS": "0"}}, {"type": "Feature", "geometry": {"type": "Point", "coordinates": [-107.481, 37.9088]}, "properties": {"NAME": "W0C/SJ-172", "TITLE": "13795", "REGION": "CO-San Juan", "ASSOCIATION": "USA - Colorado", "POINTS": "10", "BONUSPOINTS": "3"}}, {"type": "Feature", "geometry": {"type": "Point", "coordinates": [-107.7957, 37.8901]}, "properties": {"NAME": "W0C/SJ-173", "TITLE": "Wasatch Mountain", "REGION": "CO-San Juan", "ASSOCIATION": "USA - Colorado", "POINTS": "10", "BONUSPOINTS": "3"}}, {"type": "Feature", "geometry": {"type": "Point", "coordinates": [-107.5773, 37.6963]}, "properties": {"NAME": "W0C/SJ-174", "TITLE": "Peak Three", "REGION": "CO-San Juan", "ASSOCIATION": "USA - Colorado", "POINTS": "8", "BONUSPOINTS": "3"}}, {"type": "Feature", "geometry": {"type": "Point", "coordinates": [-107.7232, 37.9341]}, "properties": {"NAME": "W0C/SJ-175", "TITLE": "T 7", "REGION": "CO-San Juan", "ASSOCIATION": "USA - Colorado", "POINTS": "8", "BONUSPOINTS": "3"}}, {"type": "Feature", "geometry": {"type": "Point", "coordinates": [-107.7161, 37.942]}, "properties": {"NAME": "W0C/SJ-176", "TITLE": "T 8", "REGION": "CO-San Juan", "ASSOCIATION": "USA - Colorado", "POINTS": "8", "BONUSPOINTS": "3"}}, {"type": "Feature", "geometry": {"type": "Point", "coordinates": [-108.6472, 38.5766]}, "properties": {"NAME": "W0C/SJ-177", "TITLE": "Uncompahgre Butte", "REGION": "CO-San Juan", "ASSOCIATION": "USA - Colorado", "POINTS": "4", "BONUSPOINTS": "3"}}, {"type": "Feature", "geometry": {"type": "Point", "coordinates": [-106.8878, 37.1772]}, "properties": {"NAME": "W0C/SJ-178", "TITLE": "Winter Hills", "REGION": "CO-San Juan", "ASSOCIATION": "USA - Colorado", "POINTS": "2", "BONUSPOINTS": "0"}}, {"type": "Feature", "geometry": {"type": "Point", "coordinates": [-108.6244, 37.2422]}, "properties": {"NAME": "W0C/SJ-179", "TITLE": "Rocky Ridge", "REGION": "CO-San Juan", "ASSOCIATION": "USA - Colorado", "POINTS": "1", "BONUSPOINTS": "0"}}, {"type": "Feature", "geometry": {"type": "Point", "coordinates": [-108.9509, 38.4573]}, "properties": {"NAME": "W0C/SJ-180", "TITLE": "Sinbad Ridge", "REGION": "CO-San Juan", "ASSOCIATION": "USA - Colorado", "POINTS": "1", "BONUSPOINTS": "0"}}]}