{"type": "FeatureCollection", "name": "W0C/SL SUMMITS", "features": [{"type": "Feature", "geometry": {"type": "Point", "coordinates": [-105.4857, 37.5775]}, "properties": {"NAME": "W0C/SL-001", "TITLE": "Blanca Peak", "REGION": "CO-San Luis", "ASSOCIATION": "USA - Colorado", "POINTS": "10", "BONUSPOINTS": "3"}}, {"type": "Feature", "geometry": {"type": "Point", "coordinates": [-105.1857, 37.1222]}, "properties": {"NAME": "W0C/SL-002", "TITLE": "Culebra Peak", "REGION": "CO-San Luis", "ASSOCIATION": "USA - Colorado", "POINTS": "10", "BONUSPOINTS": "3"}}, {"type": "Feature", "geometry": {"type": "Point", "coordinates": [-105.4448, 37.5837]}, "properties": {"NAME": "W0C/SL-003", "TITLE": "Mount Lindsey", "REGION": "CO-San Luis", "ASSOCIATION": "USA - Colorado", "POINTS": "10", "BONUSPOINTS": "3"}}, {"type": "Feature", "geometry": {"type": "Point", "coordinates": [-105.4477, 37.6004]}, "properties": {"NAME": "W0C/SL-004", "TITLE": "Huerfano Peak", "REGION": "CO-San Luis", "ASSOCIATION": "USA - Colorado", "POINTS": "10", "BONUSPOINTS": "3"}}, {"type": "Feature", "geometry": {"type": "Point", "coordinates": [-105.1911, 37.0942]}, "properties": {"NAME": "W0C/SL-005", "TITLE": "Vermejo Peak", "REGION": "CO-San Luis", "ASSOCIATION": "USA - Colorado", "POINTS": "10", "BONUSPOINTS": "3"}}, {"type": "Feature", "geometry": {"type": "Point", "coordinates": [-105.2108, 37.0725]}, "properties": {"NAME": "W0C/SL-006", "TITLE": "Purgatoire Peak", "REGION": "CO-San Luis", "ASSOCIATION": "USA - Colorado", "POINTS": "10", "BONUSPOINTS": "3"}}, {"type": "Feature", "geometry": {"type": "Point", "coordinates": [-105.519, 37.5899]}, "properties": {"NAME": "W0C/SL-007", "TITLE": "North Twin Peaks", "REGION": "CO-San Luis", "ASSOCIATION": "USA - Colorado", "POINTS": "10", "BONUSPOINTS": "3"}}, {"type": "Feature", "geometry": {"type": "Point", "coordinates": [-105.1754, 37.1401]}, "properties": {"NAME": "W0C/SL-008", "TITLE": "13565", "REGION": "CO-San Luis", "ASSOCIATION": "USA - Colorado", "POINTS": "10", "BONUSPOINTS": "3"}}, {"type": "Feature", "geometry": {"type": "Point", "coordinates": [-105.1648, 37.2891]}, "properties": {"NAME": "W0C/SL-009", "TITLE": "Trinchera Peak", "REGION": "CO-San Luis", "ASSOCIATION": "USA - Colorado", "POINTS": "10", "BONUSPOINTS": "3"}}, {"type": "Feature", "geometry": {"type": "Point", "coordinates": [-105.1545, 37.2584]}, "properties": {"NAME": "W0C/SL-010", "TITLE": "Cuatro Peak", "REGION": "CO-San Luis", "ASSOCIATION": "USA - Colorado", "POINTS": "8", "BONUSPOINTS": "3"}}, {"type": "Feature", "geometry": {"type": "Point", "coordinates": [-105.2086, 37.0843]}, "properties": {"NAME": "W0C/SL-011", "TITLE": "Alamosito", "REGION": "CO-San Luis", "ASSOCIATION": "USA - Colorado", "POINTS": "8", "BONUSPOINTS": "3"}}, {"type": "Feature", "geometry": {"type": "Point", "coordinates": [-105.1663, 37.1966]}, "properties": {"NAME": "W0C/SL-012", "TITLE": "Beaubien Peak", "REGION": "CO-San Luis", "ASSOCIATION": "USA - Colorado", "POINTS": "8", "BONUSPOINTS": "3"}}, {"type": "Feature", "geometry": {"type": "Point", "coordinates": [-105.4643, 37.5846]}, "properties": {"NAME": "W0C/SL-013", "TITLE": "Huerfanito", "REGION": "CO-San Luis", "ASSOCIATION": "USA - Colorado", "POINTS": "8", "BONUSPOINTS": "3"}}, {"type": "Feature", "geometry": {"type": "Point", "coordinates": [-105.2967, 36.9964]}, "properties": {"NAME": "W0C/SL-014", "TITLE": "State Line Peak", "REGION": "CO-San Luis", "ASSOCIATION": "USA - Colorado", "POINTS": "8", "BONUSPOINTS": "3"}}, {"type": "Feature", "geometry": {"type": "Point", "coordinates": [-105.2215, 37.0467]}, "properties": {"NAME": "W0C/SL-015", "TITLE": "12843", "REGION": "CO-San Luis", "ASSOCIATION": "USA - Colorado", "POINTS": "8", "BONUSPOINTS": "3"}}, {"type": "Feature", "geometry": {"type": "Point", "coordinates": [-105.1985, 37.224]}, "properties": {"NAME": "W0C/SL-016", "TITLE": "12794", "REGION": "CO-San Luis", "ASSOCIATION": "USA - Colorado", "POINTS": "8", "BONUSPOINTS": "3"}}, {"type": "Feature", "geometry": {"type": "Point", "coordinates": [-105.1663, 37.3408]}, "properties": {"NAME": "W0C/SL-017", "TITLE": "Teddys Peak", "REGION": "CO-San Luis", "ASSOCIATION": "USA - Colorado", "POINTS": "8", "BONUSPOINTS": "3"}}, {"type": "Feature", "geometry": {"type": "Point", "coordinates": [-105.3703, 37.6395]}, "properties": {"NAME": "W0C/SL-018", "TITLE": "Slide Mountain", "REGION": "CO-San Luis", "ASSOCIATION": "USA - Colorado", "POINTS": "6", "BONUSPOINTS": "3"}}, {"type": "Feature", "geometry": {"type": "Point", "coordinates": [-105.2574, 37.2921]}, "properties": {"NAME": "W0C/SL-019", "TITLE": "12026", "REGION": "CO-San Luis", "ASSOCIATION": "USA - Colorado", "POINTS": "6", "BONUSPOINTS": "3"}}, {"type": "Feature", "geometry": {"type": "Point", "coordinates": [-105.2399, 37.2578]}, "properties": {"NAME": "W0C/SL-020", "TITLE": "11994", "REGION": "CO-San Luis", "ASSOCIATION": "USA - Colorado", "POINTS": "6", "BONUSPOINTS": "3"}}, {"type": "Feature", "geometry": {"type": "Point", "coordinates": [-105.1891, 37.0302]}, "properties": {"NAME": "W0C/SL-021", "TITLE": "11682", "REGION": "CO-San Luis", "ASSOCIATION": "USA - Colorado", "POINTS": "6", "BONUSPOINTS": "3"}}, {"type": "Feature", "geometry": {"type": "Point", "coordinates": [-105.1721, 37.4009]}, "properties": {"NAME": "W0C/SL-022", "TITLE": "Harrison Peak", "REGION": "CO-San Luis", "ASSOCIATION": "USA - Colorado", "POINTS": "6", "BONUSPOINTS": "3"}}, {"type": "Feature", "geometry": {"type": "Point", "coordinates": [-105.2537, 37.6374]}, "properties": {"NAME": "W0C/SL-023", "TITLE": "Iron Mountain", "REGION": "CO-San Luis", "ASSOCIATION": "USA - Colorado", "POINTS": "6", "BONUSPOINTS": "3"}}, {"type": "Feature", "geometry": {"type": "Point", "coordinates": [-105.3059, 37.2909]}, "properties": {"NAME": "W0C/SL-024", "TITLE": "10962", "REGION": "CO-San Luis", "ASSOCIATION": "USA - Colorado", "POINTS": "6", "BONUSPOINTS": "3"}}, {"type": "Feature", "geometry": {"type": "Point", "coordinates": [-105.2319, 37.4668]}, "properties": {"NAME": "W0C/SL-025", "TITLE": "Elk Benchmark", "REGION": "CO-San Luis", "ASSOCIATION": "USA - Colorado", "POINTS": "6", "BONUSPOINTS": "3"}}, {"type": "Feature", "geometry": {"type": "Point", "coordinates": [-105.2822, 37.4023]}, "properties": {"NAME": "W0C/SL-026", "TITLE": "10557", "REGION": "CO-San Luis", "ASSOCIATION": "USA - Colorado", "POINTS": "6", "BONUSPOINTS": "3"}}, {"type": "Feature", "geometry": {"type": "Point", "coordinates": [-105.2223, 37.5839]}, "properties": {"NAME": "W0C/SL-027", "TITLE": "10553", "REGION": "CO-San Luis", "ASSOCIATION": "USA - Colorado", "POINTS": "6", "BONUSPOINTS": "3"}}, {"type": "Feature", "geometry": {"type": "Point", "coordinates": [-105.3737, 37.5274]}, "properties": {"NAME": "W0C/SL-028", "TITLE": "10418", "REGION": "CO-San Luis", "ASSOCIATION": "USA - Colorado", "POINTS": "4", "BONUSPOINTS": "3"}}, {"type": "Feature", "geometry": {"type": "Point", "coordinates": [-105.1856, 37.428]}, "properties": {"NAME": "W0C/SL-029", "TITLE": "10322", "REGION": "CO-San Luis", "ASSOCIATION": "USA - Colorado", "POINTS": "4", "BONUSPOINTS": "3"}}, {"type": "Feature", "geometry": {"type": "Point", "coordinates": [-105.3152, 37.1519]}, "properties": {"NAME": "W0C/SL-030", "TITLE": "9742", "REGION": "CO-San Luis", "ASSOCIATION": "USA - Colorado", "POINTS": "4", "BONUSPOINTS": "3"}}, {"type": "Feature", "geometry": {"type": "Point", "coordinates": [-105.3336, 37.1033]}, "properties": {"NAME": "W0C/SL-031", "TITLE": "9305", "REGION": "CO-San Luis", "ASSOCIATION": "USA - Colorado", "POINTS": "4", "BONUSPOINTS": "3"}}, {"type": "Feature", "geometry": {"type": "Point", "coordinates": [-105.4484, 37.0518]}, "properties": {"NAME": "W0C/SL-032", "TITLE": "San Pedro Mesa", "REGION": "CO-San Luis", "ASSOCIATION": "USA - Colorado", "POINTS": "4", "BONUSPOINTS": "3"}}, {"type": "Feature", "geometry": {"type": "Point", "coordinates": [-105.3852, 37.3715]}, "properties": {"NAME": "W0C/SL-033", "TITLE": "8941", "REGION": "CO-San Luis", "ASSOCIATION": "USA - Colorado", "POINTS": "2", "BONUSPOINTS": "0"}}, {"type": "Feature", "geometry": {"type": "Point", "coordinates": [-105.7029, 37.2474]}, "properties": {"NAME": "W0C/SL-034", "TITLE": "San Luis Hills", "REGION": "CO-San Luis", "ASSOCIATION": "USA - Colorado", "POINTS": "2", "BONUSPOINTS": "0"}}, {"type": "Feature", "geometry": {"type": "Point", "coordinates": [-105.6764, 37.2346]}, "properties": {"NAME": "W0C/SL-035", "TITLE": "Music Mesa", "REGION": "CO-San Luis", "ASSOCIATION": "USA - Colorado", "POINTS": "2", "BONUSPOINTS": "0"}}, {"type": "Feature", "geometry": {"type": "Point", "coordinates": [-105.6091, 37.2475]}, "properties": {"NAME": "W0C/SL-036", "TITLE": "8521", "REGION": "CO-San Luis", "ASSOCIATION": "USA - Colorado", "POINTS": "2", "BONUSPOINTS": "0"}}, {"type": "Feature", "geometry": {"type": "Point", "coordinates": [-105.2181, 37.3949]}, "properties": {"NAME": "W0C/SL-037", "TITLE": "11037", "REGION": "CO-San Luis", "ASSOCIATION": "USA - Colorado", "POINTS": "6", "BONUSPOINTS": "3"}}, {"type": "Feature", "geometry": {"type": "Point", "coordinates": [-105.1044, 37.335]}, "properties": {"NAME": "W0C/SL-038", "TITLE": "Boyd Mountain", "REGION": "CO-San Luis", "ASSOCIATION": "USA - Colorado", "POINTS": "4", "BONUSPOINTS": "3"}}]}