{"type": "FeatureCollection", "name": "W0C/FR SUMMITS", "features": [{"type": "Feature", "geometry": {"type": "Point", "coordinates": [-106.1112, 39.3514]}, "properties": {"NAME": "W0C/FR-001", "TITLE": "Mount Lincoln", "REGION": "CO-Front Range", "ASSOCIATION": "USA - Colorado", "POINTS": "10", "BONUSPOINTS": "3"}}, {"type": "Feature", "geometry": {"type": "Point", "coordinates": [-105.8175, 39.6338]}, "properties": {"NAME": "W0C/FR-002", "TITLE": "Grays Peak", "REGION": "CO-Front Range", "ASSOCIATION": "USA - Colorado", "POINTS": "10", "BONUSPOINTS": "3"}}, {"type": "Feature", "geometry": {"type": "Point", "coordinates": [-105.6434, 39.5884]}, "properties": {"NAME": "W0C/FR-003", "TITLE": "Mount Blue Sky", "REGION": "CO-Front Range", "ASSOCIATION": "USA - Colorado", "POINTS": "10", "BONUSPOINTS": "3"}}, {"type": "Feature", "geometry": {"type": "Point", "coordinates": [-105.0444, 38.8406]}, "properties": {"NAME": "W0C/FR-004", "TITLE": "Pikes Peak", "REGION": "CO-Front Range", "ASSOCIATION": "USA - Colorado", "POINTS": "10", "BONUSPOINTS": "3"}}, {"type": "Feature", "geometry": {"type": "Point", "coordinates": [-106.0053, 39.3394]}, "properties": {"NAME": "W0C/FR-005", "TITLE": "Mount Silverheels", "REGION": "CO-Front Range", "ASSOCIATION": "USA - Colorado", "POINTS": "10", "BONUSPOINTS": "3"}}, {"type": "Feature", "geometry": {"type": "Point", "coordinates": [-105.8042, 39.7203]}, "properties": {"NAME": "W0C/FR-006", "TITLE": "Bard Peak", "REGION": "CO-Front Range", "ASSOCIATION": "USA - Colorado", "POINTS": "10", "BONUSPOINTS": "3"}}, {"type": "Feature", "geometry": {"type": "Point", "coordinates": [-105.6065, 39.5561]}, "properties": {"NAME": "W0C/FR-007", "TITLE": "Rosalie Peak", "REGION": "CO-Front Range", "ASSOCIATION": "USA - Colorado", "POINTS": "10", "BONUSPOINTS": "3"}}, {"type": "Feature", "geometry": {"type": "Point", "coordinates": [-105.6463, 40.4845]}, "properties": {"NAME": "W0C/FR-008", "TITLE": "Hagues Peak", "REGION": "CO-Front Range", "ASSOCIATION": "USA - Colorado", "POINTS": "10", "BONUSPOINTS": "3"}}, {"type": "Feature", "geometry": {"type": "Point", "coordinates": [-105.6812, 40.4572]}, "properties": {"NAME": "W0C/FR-009", "TITLE": "Ypsilon Mountain", "REGION": "CO-Front Range", "ASSOCIATION": "USA - Colorado", "POINTS": "10", "BONUSPOINTS": "3"}}, {"type": "Feature", "geometry": {"type": "Point", "coordinates": [-105.6643, 40.4685]}, "properties": {"NAME": "W0C/FR-010", "TITLE": "Fairchild Mountain", "REGION": "CO-Front Range", "ASSOCIATION": "USA - Colorado", "POINTS": "10", "BONUSPOINTS": "3"}}, {"type": "Feature", "geometry": {"type": "Point", "coordinates": [-105.6509, 40.0584]}, "properties": {"NAME": "W0C/FR-011", "TITLE": "Apache Peak", "REGION": "CO-Front Range", "ASSOCIATION": "USA - Colorado", "POINTS": "8", "BONUSPOINTS": "3"}}, {"type": "Feature", "geometry": {"type": "Point", "coordinates": [-105.6635, 40.2392]}, "properties": {"NAME": "W0C/FR-012", "TITLE": "Mount Alice", "REGION": "CO-Front Range", "ASSOCIATION": "USA - Colorado", "POINTS": "8", "BONUSPOINTS": "3"}}, {"type": "Feature", "geometry": {"type": "Point", "coordinates": [-105.6162, 40.099]}, "properties": {"NAME": "W0C/FR-013", "TITLE": "Mount Audubon", "REGION": "CO-Front Range", "ASSOCIATION": "USA - Colorado", "POINTS": "8", "BONUSPOINTS": "3"}}, {"type": "Feature", "geometry": {"type": "Point", "coordinates": [-105.6464, 40.182]}, "properties": {"NAME": "W0C/FR-014", "TITLE": "Copeland Mountain", "REGION": "CO-Front Range", "ASSOCIATION": "USA - Colorado", "POINTS": "8", "BONUSPOINTS": "3"}}, {"type": "Feature", "geometry": {"type": "Point", "coordinates": [-105.6831, 39.9947]}, "properties": {"NAME": "W0C/FR-015", "TITLE": "Mount Jasper", "REGION": "CO-Front Range", "ASSOCIATION": "USA - Colorado", "POINTS": "8", "BONUSPOINTS": "3"}}, {"type": "Feature", "geometry": {"type": "Point", "coordinates": [-105.7792, 40.3717]}, "properties": {"NAME": "W0C/FR-016", "TITLE": "Mount Ida", "REGION": "CO-Front Range", "ASSOCIATION": "USA - Colorado", "POINTS": "8", "BONUSPOINTS": "3"}}, {"type": "Feature", "geometry": {"type": "Point", "coordinates": [-105.6314, 39.4958]}, "properties": {"NAME": "W0C/FR-017", "TITLE": "Mount Logan", "REGION": "CO-Front Range", "ASSOCIATION": "USA - Colorado", "POINTS": "8", "BONUSPOINTS": "3"}}, {"type": "Feature", "geometry": {"type": "Point", "coordinates": [-105.6861, 40.3028]}, "properties": {"NAME": "W0C/FR-018", "TITLE": "Hallett Peak", "REGION": "CO-Front Range", "ASSOCIATION": "USA - Colorado", "POINTS": "8", "BONUSPOINTS": "3"}}, {"type": "Feature", "geometry": {"type": "Point", "coordinates": [-105.7106, 40.4083]}, "properties": {"NAME": "W0C/FR-019", "TITLE": "Sundance Mountain", "REGION": "CO-Front Range", "ASSOCIATION": "USA - Colorado", "POINTS": "6", "BONUSPOINTS": "3"}}, {"type": "Feature", "geometry": {"type": "Point", "coordinates": [-105.6609, 39.5293]}, "properties": {"NAME": "W0C/FR-020", "TITLE": "Kataka Mountain", "REGION": "CO-Front Range", "ASSOCIATION": "USA - Colorado", "POINTS": "6", "BONUSPOINTS": "3"}}, {"type": "Feature", "geometry": {"type": "Point", "coordinates": [-105.4978, 39.2385]}, "properties": {"NAME": "W0C/FR-021", "TITLE": "Bison Peak", "REGION": "CO-Front Range", "ASSOCIATION": "USA - Colorado", "POINTS": "6", "BONUSPOINTS": "3"}}, {"type": "Feature", "geometry": {"type": "Point", "coordinates": [-105.6053, 39.368]}, "properties": {"NAME": "W0C/FR-022", "TITLE": "Peak X", "REGION": "CO-Front Range", "ASSOCIATION": "USA - Colorado", "POINTS": "6", "BONUSPOINTS": "3"}}, {"type": "Feature", "geometry": {"type": "Point", "coordinates": [-104.9935, 38.7913]}, "properties": {"NAME": "W0C/FR-023", "TITLE": "Almagre Mountain", "REGION": "CO-Front Range", "ASSOCIATION": "USA - Colorado", "POINTS": "6", "BONUSPOINTS": "3"}}, {"type": "Feature", "geometry": {"type": "Point", "coordinates": [-105.6937, 39.5508]}, "properties": {"NAME": "W0C/FR-024", "TITLE": "Mount Evans", "REGION": "CO-Front Range", "ASSOCIATION": "USA - Colorado", "POINTS": "8", "BONUSPOINTS": "3"}}, {"type": "Feature", "geometry": {"type": "Point", "coordinates": [-105.4683, 39.2194]}, "properties": {"NAME": "W0C/FR-025", "TITLE": "McCurdy Mountain", "REGION": "CO-Front Range", "ASSOCIATION": "USA - Colorado", "POINTS": "6", "BONUSPOINTS": "3"}}, {"type": "Feature", "geometry": {"type": "Point", "coordinates": [-105.5856, 40.161]}, "properties": {"NAME": "W0C/FR-026", "TITLE": "Saint Vrain Mountain", "REGION": "CO-Front Range", "ASSOCIATION": "USA - Colorado", "POINTS": "6", "BONUSPOINTS": "3"}}, {"type": "Feature", "geometry": {"type": "Point", "coordinates": [-105.8947, 40.6247]}, "properties": {"NAME": "W0C/FR-027", "TITLE": "Cameron Peak", "REGION": "CO-Front Range", "ASSOCIATION": "USA - Colorado", "POINTS": "6", "BONUSPOINTS": "3"}}, {"type": "Feature", "geometry": {"type": "Point", "coordinates": [-106.402, 37.4661]}, "properties": {"NAME": "W0C/FR-028", "TITLE": "Windy Mountain", "REGION": "CO-Front Range", "ASSOCIATION": "USA - Colorado", "POINTS": "8", "BONUSPOINTS": "3"}}, {"type": "Feature", "geometry": {"type": "Point", "coordinates": [-105.6106, 39.3119]}, "properties": {"NAME": "W0C/FR-029", "TITLE": "North Tarryall Peak", "REGION": "CO-Front Range", "ASSOCIATION": "USA - Colorado", "POINTS": "6", "BONUSPOINTS": "3"}}, {"type": "Feature", "geometry": {"type": "Point", "coordinates": [-105.5228, 39.6757]}, "properties": {"NAME": "W0C/FR-030", "TITLE": "Chief Mountain", "REGION": "CO-Front Range", "ASSOCIATION": "USA - Colorado", "POINTS": "6", "BONUSPOINTS": "3"}}, {"type": "Feature", "geometry": {"type": "Point", "coordinates": [-105.6873, 38.7184]}, "properties": {"NAME": "W0C/FR-031", "TITLE": "Black Mountain", "REGION": "CO-Front Range", "ASSOCIATION": "USA - Colorado", "POINTS": "6", "BONUSPOINTS": "3"}}, {"type": "Feature", "geometry": {"type": "Point", "coordinates": [-105.3681, 39.2755]}, "properties": {"NAME": "W0C/FR-032", "TITLE": "Buffalo Peak", "REGION": "CO-Front Range", "ASSOCIATION": "USA - Colorado", "POINTS": "6", "BONUSPOINTS": "3"}}, {"type": "Feature", "geometry": {"type": "Point", "coordinates": [-105.6695, 39.7233]}, "properties": {"NAME": "W0C/FR-033", "TITLE": "Saxon Mountain", "REGION": "CO-Front Range", "ASSOCIATION": "USA - Colorado", "POINTS": "6", "BONUSPOINTS": "3"}}, {"type": "Feature", "geometry": {"type": "Point", "coordinates": [-104.948, 38.7541]}, "properties": {"NAME": "W0C/FR-034", "TITLE": "Mount Rosa", "REGION": "CO-Front Range", "ASSOCIATION": "USA - Colorado", "POINTS": "6", "BONUSPOINTS": "3"}}, {"type": "Feature", "geometry": {"type": "Point", "coordinates": [-105.4864, 39.5564]}, "properties": {"NAME": "W0C/FR-035", "TITLE": "Meridian Hill", "REGION": "CO-Front Range", "ASSOCIATION": "USA - Colorado", "POINTS": "6", "BONUSPOINTS": "3"}}, {"type": "Feature", "geometry": {"type": "Point", "coordinates": [-105.62, 40.4296]}, "properties": {"NAME": "W0C/FR-036", "TITLE": "Bighorn Mountain", "REGION": "CO-Front Range", "ASSOCIATION": "USA - Colorado", "POINTS": "6", "BONUSPOINTS": "3"}}, {"type": "Feature", "geometry": {"type": "Point", "coordinates": [-105.5174, 40.2885]}, "properties": {"NAME": "W0C/FR-037", "TITLE": "East Twin Sisters Peaks", "REGION": "CO-Front Range", "ASSOCIATION": "USA - Colorado", "POINTS": "6", "BONUSPOINTS": "3"}}, {"type": "Feature", "geometry": {"type": "Point", "coordinates": [-105.441, 39.1549]}, "properties": {"NAME": "W0C/FR-038", "TITLE": "South Tarryall Peak", "REGION": "CO-Front Range", "ASSOCIATION": "USA - Colorado", "POINTS": "6", "BONUSPOINTS": "3"}}, {"type": "Feature", "geometry": {"type": "Point", "coordinates": [-105.5672, 40.2951]}, "properties": {"NAME": "W0C/FR-039", "TITLE": "Estes Cone", "REGION": "CO-Front Range", "ASSOCIATION": "USA - Colorado", "POINTS": "6", "BONUSPOINTS": "3"}}, {"type": "Feature", "geometry": {"type": "Point", "coordinates": [-104.9475, 38.8076]}, "properties": {"NAME": "W0C/FR-040", "TITLE": "Mount Garfield", "REGION": "CO-Front Range", "ASSOCIATION": "USA - Colorado", "POINTS": "6", "BONUSPOINTS": "3"}}, {"type": "Feature", "geometry": {"type": "Point", "coordinates": [-105.6405, 38.7954]}, "properties": {"NAME": "W0C/FR-041", "TITLE": "Dicks Peak", "REGION": "CO-Front Range", "ASSOCIATION": "USA - Colorado", "POINTS": "6", "BONUSPOINTS": "3"}}, {"type": "Feature", "geometry": {"type": "Point", "coordinates": [-105.4715, 39.7105]}, "properties": {"NAME": "W0C/FR-042", "TITLE": "Santa Fe Mountain", "REGION": "CO-Front Range", "ASSOCIATION": "USA - Colorado", "POINTS": "6", "BONUSPOINTS": "3"}}, {"type": "Feature", "geometry": {"type": "Point", "coordinates": [-105.3001, 39.3052]}, "properties": {"NAME": "W0C/FR-044", "TITLE": "Green Mountain", "REGION": "CO-Front Range", "ASSOCIATION": "USA - Colorado", "POINTS": "4", "BONUSPOINTS": "3"}}, {"type": "Feature", "geometry": {"type": "Point", "coordinates": [-105.218, 38.7558]}, "properties": {"NAME": "W0C/FR-045", "TITLE": "Mount Pisgah", "REGION": "CO-Front Range", "ASSOCIATION": "USA - Colorado", "POINTS": "4", "BONUSPOINTS": "3"}}, {"type": "Feature", "geometry": {"type": "Point", "coordinates": [-105.4717, 40.6052]}, "properties": {"NAME": "W0C/FR-046", "TITLE": "West White Pine Mountain", "REGION": "CO-Front Range", "ASSOCIATION": "USA - Colorado", "POINTS": "4", "BONUSPOINTS": "3"}}, {"type": "Feature", "geometry": {"type": "Point", "coordinates": [-105.4563, 39.6673]}, "properties": {"NAME": "W0C/FR-047", "TITLE": "Mount Judge", "REGION": "CO-Front Range", "ASSOCIATION": "USA - Colorado", "POINTS": "4", "BONUSPOINTS": "3"}}, {"type": "Feature", "geometry": {"type": "Point", "coordinates": [-105.1975, 39.1717]}, "properties": {"NAME": "W0C/FR-048", "TITLE": "Thunder Butte", "REGION": "CO-Front Range", "ASSOCIATION": "USA - Colorado", "POINTS": "4", "BONUSPOINTS": "3"}}, {"type": "Feature", "geometry": {"type": "Point", "coordinates": [-105.3705, 39.8284]}, "properties": {"NAME": "W0C/FR-049", "TITLE": "Centralia Mountain", "REGION": "CO-Front Range", "ASSOCIATION": "USA - Colorado", "POINTS": "4", "BONUSPOINTS": "3"}}, {"type": "Feature", "geometry": {"type": "Point", "coordinates": [-105.5411, 40.3191]}, "properties": {"NAME": "W0C/FR-050", "TITLE": "Lily Mountain", "REGION": "CO-Front Range", "ASSOCIATION": "USA - Colorado", "POINTS": "4", "BONUSPOINTS": "3"}}, {"type": "Feature", "geometry": {"type": "Point", "coordinates": [-105.1013, 39.2603]}, "properties": {"NAME": "W0C/FR-051", "TITLE": "Devils Head", "REGION": "CO-Front Range", "ASSOCIATION": "USA - Colorado", "POINTS": "4", "BONUSPOINTS": "3"}}, {"type": "Feature", "geometry": {"type": "Point", "coordinates": [-104.935, 38.9506]}, "properties": {"NAME": "W0C/FR-052", "TITLE": "Ormes Peak", "REGION": "CO-Front Range", "ASSOCIATION": "USA - Colorado", "POINTS": "4", "BONUSPOINTS": "3"}}, {"type": "Feature", "geometry": {"type": "Point", "coordinates": [-104.8807, 38.7371]}, "properties": {"NAME": "W0C/FR-053", "TITLE": "Cheyenne Mountain", "REGION": "CO-Front Range", "ASSOCIATION": "USA - Colorado", "POINTS": "4", "BONUSPOINTS": "3"}}, {"type": "Feature", "geometry": {"type": "Point", "coordinates": [-105.6761, 39.7518]}, "properties": {"NAME": "W0C/FR-054", "TITLE": "Douglas Mountain", "REGION": "CO-Front Range", "ASSOCIATION": "USA - Colorado", "POINTS": "4", "BONUSPOINTS": "3"}}, {"type": "Feature", "geometry": {"type": "Point", "coordinates": [-105.417, 40.2916]}, "properties": {"NAME": "W0C/FR-055", "TITLE": "Kenny Mountain", "REGION": "CO-Front Range", "ASSOCIATION": "USA - Colorado", "POINTS": "4", "BONUSPOINTS": "3"}}, {"type": "Feature", "geometry": {"type": "Point", "coordinates": [-105.4087, 40.352]}, "properties": {"NAME": "W0C/FR-056", "TITLE": "Panorama Peak", "REGION": "CO-Front Range", "ASSOCIATION": "USA - Colorado", "POINTS": "4", "BONUSPOINTS": "3"}}, {"type": "Feature", "geometry": {"type": "Point", "coordinates": [-105.4248, 40.4322]}, "properties": {"NAME": "W0C/FR-057", "TITLE": "Crosier Mountain", "REGION": "CO-Front Range", "ASSOCIATION": "USA - Colorado", "POINTS": "4", "BONUSPOINTS": "3"}}, {"type": "Feature", "geometry": {"type": "Point", "coordinates": [-105.5872, 40.3307]}, "properties": {"NAME": "W0C/FR-058", "TITLE": "Emerald Mountain", "REGION": "CO-Front Range", "ASSOCIATION": "USA - Colorado", "POINTS": "4", "BONUSPOINTS": "3"}}, {"type": "Feature", "geometry": {"type": "Point", "coordinates": [-105.2754, 39.3148]}, "properties": {"NAME": "W0C/FR-059", "TITLE": "Little Scraggy Peak", "REGION": "CO-Front Range", "ASSOCIATION": "USA - Colorado", "POINTS": "4", "BONUSPOINTS": "3"}}, {"type": "Feature", "geometry": {"type": "Point", "coordinates": [-105.2923, 39.5549]}, "properties": {"NAME": "W0C/FR-060", "TITLE": "Berrian Mountain", "REGION": "CO-Front Range", "ASSOCIATION": "USA - Colorado", "POINTS": "4", "BONUSPOINTS": "3"}}, {"type": "Feature", "geometry": {"type": "Point", "coordinates": [-105.4678, 40.1957]}, "properties": {"NAME": "W0C/FR-061", "TITLE": "Taylor Mountain", "REGION": "CO-Front Range", "ASSOCIATION": "USA - Colorado", "POINTS": "4", "BONUSPOINTS": "3"}}, {"type": "Feature", "geometry": {"type": "Point", "coordinates": [-105.4597, 39.4152]}, "properties": {"NAME": "W0C/FR-062", "TITLE": "Mount Bailey", "REGION": "CO-Front Range", "ASSOCIATION": "USA - Colorado", "POINTS": "4", "BONUSPOINTS": "3"}}, {"type": "Feature", "geometry": {"type": "Point", "coordinates": [-104.9264, 39.0818]}, "properties": {"NAME": "W0C/FR-063", "TITLE": "Mount Herman", "REGION": "CO-Front Range", "ASSOCIATION": "USA - Colorado", "POINTS": "4", "BONUSPOINTS": "3"}}, {"type": "Feature", "geometry": {"type": "Point", "coordinates": [-105.4384, 40.4291]}, "properties": {"NAME": "W0C/FR-064", "TITLE": "West Crosier", "REGION": "CO-Front Range", "ASSOCIATION": "USA - Colorado", "POINTS": "4", "BONUSPOINTS": "3"}}, {"type": "Feature", "geometry": {"type": "Point", "coordinates": [-105.258, 39.562]}, "properties": {"NAME": "W0C/FR-065", "TITLE": "Doublehead Mountain", "REGION": "CO-Front Range", "ASSOCIATION": "USA - Colorado", "POINTS": "2", "BONUSPOINTS": "3"}}, {"type": "Feature", "geometry": {"type": "Point", "coordinates": [-105.3908, 39.0732]}, "properties": {"NAME": "W0C/FR-066", "TITLE": "Tappan Mountain", "REGION": "CO-Front Range", "ASSOCIATION": "USA - Colorado", "POINTS": "2", "BONUSPOINTS": "0"}}, {"type": "Feature", "geometry": {"type": "Point", "coordinates": [-105.3136, 39.893]}, "properties": {"NAME": "W0C/FR-067", "TITLE": "Crescent Mountain", "REGION": "CO-Front Range", "ASSOCIATION": "USA - Colorado", "POINTS": "2", "BONUSPOINTS": "0"}}, {"type": "Feature", "geometry": {"type": "Point", "coordinates": [-105.5757, 40.3585]}, "properties": {"NAME": "W0C/FR-068", "TITLE": "Eagle Cliff Mountain", "REGION": "CO-Front Range", "ASSOCIATION": "USA - Colorado", "POINTS": "2", "BONUSPOINTS": "0"}}, {"type": "Feature", "geometry": {"type": "Point", "coordinates": [-105.5219, 40.3596]}, "properties": {"NAME": "W0C/FR-069", "TITLE": "Prospect Mountain", "REGION": "CO-Front Range", "ASSOCIATION": "USA - Colorado", "POINTS": "2", "BONUSPOINTS": "0"}}, {"type": "Feature", "geometry": {"type": "Point", "coordinates": [-105.5502, 40.3895]}, "properties": {"NAME": "W0C/FR-070", "TITLE": "Castle Mountain", "REGION": "CO-Front Range", "ASSOCIATION": "USA - Colorado", "POINTS": "2", "BONUSPOINTS": "0"}}, {"type": "Feature", "geometry": {"type": "Point", "coordinates": [-105.2019, 39.3493]}, "properties": {"NAME": "W0C/FR-071", "TITLE": "Long Scraggy Peak", "REGION": "CO-Front Range", "ASSOCIATION": "USA - Colorado", "POINTS": "2", "BONUSPOINTS": "0"}}, {"type": "Feature", "geometry": {"type": "Point", "coordinates": [-105.4617, 40.3748]}, "properties": {"NAME": "W0C/FR-072", "TITLE": "Mount Olympus", "REGION": "CO-Front Range", "ASSOCIATION": "USA - Colorado", "POINTS": "2", "BONUSPOINTS": "0"}}, {"type": "Feature", "geometry": {"type": "Point", "coordinates": [-105.3639, 39.3587]}, "properties": {"NAME": "W0C/FR-073", "TITLE": "Redskin Mountain", "REGION": "CO-Front Range", "ASSOCIATION": "USA - Colorado", "POINTS": "2", "BONUSPOINTS": "0"}}, {"type": "Feature", "geometry": {"type": "Point", "coordinates": [-105.2902, 39.6229]}, "properties": {"NAME": "W0C/FR-074", "TITLE": "Bear Mountain", "REGION": "CO-Front Range", "ASSOCIATION": "USA - Colorado", "POINTS": "2", "BONUSPOINTS": "0"}}, {"type": "Feature", "geometry": {"type": "Point", "coordinates": [-105.2992, 39.9537]}, "properties": {"NAME": "W0C/FR-075", "TITLE": "South Boulder Peak", "REGION": "CO-Front Range", "ASSOCIATION": "USA - Colorado", "POINTS": "2", "BONUSPOINTS": "0"}}, {"type": "Feature", "geometry": {"type": "Point", "coordinates": [-105.3609, 39.6104]}, "properties": {"NAME": "W0C/FR-076", "TITLE": "Evergreen Mountain", "REGION": "CO-Front Range", "ASSOCIATION": "USA - Colorado", "POINTS": "2", "BONUSPOINTS": "0"}}, {"type": "Feature", "geometry": {"type": "Point", "coordinates": [-105.3057, 39.2493]}, "properties": {"NAME": "W0C/FR-077", "TITLE": "Sugarloaf Peak", "REGION": "CO-Front Range", "ASSOCIATION": "USA - Colorado", "POINTS": "2", "BONUSPOINTS": "0"}}, {"type": "Feature", "geometry": {"type": "Point", "coordinates": [-105.2958, 39.4192]}, "properties": {"NAME": "W0C/FR-078", "TITLE": "Banner Peak", "REGION": "CO-Front Range", "ASSOCIATION": "USA - Colorado", "POINTS": "2", "BONUSPOINTS": "0"}}, {"type": "Feature", "geometry": {"type": "Point", "coordinates": [-105.3528, 40.6354]}, "properties": {"NAME": "W0C/FR-079", "TITLE": "Mount Ethel", "REGION": "CO-Front Range", "ASSOCIATION": "USA - Colorado", "POINTS": "2", "BONUSPOINTS": "0"}}, {"type": "Feature", "geometry": {"type": "Point", "coordinates": [-105.3108, 40.4121]}, "properties": {"NAME": "W0C/FR-080", "TITLE": "Sheep Mountain", "REGION": "CO-Front Range", "ASSOCIATION": "USA - Colorado", "POINTS": "2", "BONUSPOINTS": "0"}}, {"type": "Feature", "geometry": {"type": "Point", "coordinates": [-105.3853, 40.2534]}, "properties": {"NAME": "W0C/FR-081", "TITLE": "Button Rock Mountain", "REGION": "CO-Front Range", "ASSOCIATION": "USA - Colorado", "POINTS": "2", "BONUSPOINTS": "0"}}, {"type": "Feature", "geometry": {"type": "Point", "coordinates": [-105.4513, 40.4648]}, "properties": {"NAME": "W0C/FR-082", "TITLE": "Triangle Mountain", "REGION": "CO-Front Range", "ASSOCIATION": "USA - Colorado", "POINTS": "2", "BONUSPOINTS": "0"}}, {"type": "Feature", "geometry": {"type": "Point", "coordinates": [-105.2926, 39.9129]}, "properties": {"NAME": "W0C/FR-083", "TITLE": "Eldorado Mountain", "REGION": "CO-Front Range", "ASSOCIATION": "USA - Colorado", "POINTS": "2", "BONUSPOINTS": "0"}}, {"type": "Feature", "geometry": {"type": "Point", "coordinates": [-105.3108, 40.4403]}, "properties": {"NAME": "W0C/FR-084", "TITLE": "Palisade Mountain", "REGION": "CO-Front Range", "ASSOCIATION": "USA - Colorado", "POINTS": "2", "BONUSPOINTS": "0"}}, {"type": "Feature", "geometry": {"type": "Point", "coordinates": [-105.3014, 39.9821]}, "properties": {"NAME": "W0C/FR-085", "TITLE": "Green Mountain", "REGION": "CO-Front Range", "ASSOCIATION": "USA - Colorado", "POINTS": "2", "BONUSPOINTS": "0"}}, {"type": "Feature", "geometry": {"type": "Point", "coordinates": [-105.3563, 40.1976]}, "properties": {"NAME": "W0C/FR-086", "TITLE": "Coffintop Mountain", "REGION": "CO-Front Range", "ASSOCIATION": "USA - Colorado", "POINTS": "2", "BONUSPOINTS": "0"}}, {"type": "Feature", "geometry": {"type": "Point", "coordinates": [-105.1245, 39.3861]}, "properties": {"NAME": "W0C/FR-087", "TITLE": "Bennett Mountain", "REGION": "CO-Front Range", "ASSOCIATION": "USA - Colorado", "POINTS": "2", "BONUSPOINTS": "0"}}, {"type": "Feature", "geometry": {"type": "Point", "coordinates": [-105.4645, 40.672]}, "properties": {"NAME": "W0C/FR-088", "TITLE": "Mount McConnel", "REGION": "CO-Front Range", "ASSOCIATION": "USA - Colorado", "POINTS": "2", "BONUSPOINTS": "0"}}, {"type": "Feature", "geometry": {"type": "Point", "coordinates": [-105.2707, 39.2338]}, "properties": {"NAME": "W0C/FR-089", "TITLE": "Cheesman Mountain", "REGION": "CO-Front Range", "ASSOCIATION": "USA - Colorado", "POINTS": "1", "BONUSPOINTS": "0"}}, {"type": "Feature", "geometry": {"type": "Point", "coordinates": [-105.2847, 40.5753]}, "properties": {"NAME": "W0C/FR-090", "TITLE": "Christ Mountain", "REGION": "CO-Front Range", "ASSOCIATION": "USA - Colorado", "POINTS": "1", "BONUSPOINTS": "0"}}, {"type": "Feature", "geometry": {"type": "Point", "coordinates": [-105.281, 40.3353]}, "properties": {"NAME": "W0C/FR-091", "TITLE": "Blue Mountain", "REGION": "CO-Front Range", "ASSOCIATION": "USA - Colorado", "POINTS": "1", "BONUSPOINTS": "0"}}, {"type": "Feature", "geometry": {"type": "Point", "coordinates": [-105.2198, 39.6691]}, "properties": {"NAME": "W0C/FR-092", "TITLE": "Mount Morrison", "REGION": "CO-Front Range", "ASSOCIATION": "USA - Colorado", "POINTS": "1", "BONUSPOINTS": "0"}}, {"type": "Feature", "geometry": {"type": "Point", "coordinates": [-104.8489, 39.1377]}, "properties": {"NAME": "W0C/FR-093", "TITLE": "Bald Mountain", "REGION": "CO-Front Range", "ASSOCIATION": "USA - Colorado", "POINTS": "1", "BONUSPOINTS": "0"}}, {"type": "Feature", "geometry": {"type": "Point", "coordinates": [-105.3008, 40.7274]}, "properties": {"NAME": "W0C/FR-094", "TITLE": "North Greyrock", "REGION": "CO-Front Range", "ASSOCIATION": "USA - Colorado", "POINTS": "1", "BONUSPOINTS": "0"}}, {"type": "Feature", "geometry": {"type": "Point", "coordinates": [-105.2925, 40.7158]}, "properties": {"NAME": "W0C/FR-095", "TITLE": "Greyrock Mountain", "REGION": "CO-Front Range", "ASSOCIATION": "USA - Colorado", "POINTS": "1", "BONUSPOINTS": "0"}}, {"type": "Feature", "geometry": {"type": "Point", "coordinates": [-104.8444, 39.1967]}, "properties": {"NAME": "W0C/FR-096", "TITLE": "Rattlesnake Butte", "REGION": "CO-Front Range", "ASSOCIATION": "USA - Colorado", "POINTS": "1", "BONUSPOINTS": "0"}}, {"type": "Feature", "geometry": {"type": "Point", "coordinates": [-105.4248, 40.682]}, "properties": {"NAME": "W0C/FR-097", "TITLE": "Sheep Mountain", "REGION": "CO-Front Range", "ASSOCIATION": "USA - Colorado", "POINTS": "1", "BONUSPOINTS": "0"}}, {"type": "Feature", "geometry": {"type": "Point", "coordinates": [-105.4057, 40.2153]}, "properties": {"NAME": "W0C/FR-098", "TITLE": "Cook Mountain", "REGION": "CO-Front Range", "ASSOCIATION": "USA - Colorado", "POINTS": "1", "BONUSPOINTS": "0"}}, {"type": "Feature", "geometry": {"type": "Point", "coordinates": [-105.2924, 40.757]}, "properties": {"NAME": "W0C/FR-099", "TITLE": "Livermore Mountain", "REGION": "CO-Front Range", "ASSOCIATION": "USA - Colorado", "POINTS": "1", "BONUSPOINTS": "0"}}, {"type": "Feature", "geometry": {"type": "Point", "coordinates": [-104.9378, 39.3003]}, "properties": {"NAME": "W0C/FR-101", "TITLE": "Dawson Butte", "REGION": "CO-Front Range", "ASSOCIATION": "USA - Colorado", "POINTS": "1", "BONUSPOINTS": "0"}}, {"type": "Feature", "geometry": {"type": "Point", "coordinates": [-105.1967, 40.5395]}, "properties": {"NAME": "W0C/FR-102", "TITLE": "Horsetooth Mountain", "REGION": "CO-Front Range", "ASSOCIATION": "USA - Colorado", "POINTS": "1", "BONUSPOINTS": "0"}}, {"type": "Feature", "geometry": {"type": "Point", "coordinates": [-105.2511, 40.4277]}, "properties": {"NAME": "W0C/FR-103", "TITLE": "Alexander Mountain", "REGION": "CO-Front Range", "ASSOCIATION": "USA - Colorado", "POINTS": "1", "BONUSPOINTS": "0"}}, {"type": "Feature", "geometry": {"type": "Point", "coordinates": [-105.2045, 40.7393]}, "properties": {"NAME": "W0C/FR-104", "TITLE": "Bonner Peak", "REGION": "CO-Front Range", "ASSOCIATION": "USA - Colorado", "POINTS": "1", "BONUSPOINTS": "0"}}, {"type": "Feature", "geometry": {"type": "Point", "coordinates": [-104.8791, 38.568]}, "properties": {"NAME": "W0C/FR-105", "TITLE": "Timber Mountain", "REGION": "CO-Front Range", "ASSOCIATION": "USA - Colorado", "POINTS": "1", "BONUSPOINTS": "0"}}, {"type": "Feature", "geometry": {"type": "Point", "coordinates": [-105.1824, 40.4974]}, "properties": {"NAME": "W0C/FR-106", "TITLE": "Milner Mountain", "REGION": "CO-Front Range", "ASSOCIATION": "USA - Colorado", "POINTS": "1", "BONUSPOINTS": "0"}}, {"type": "Feature", "geometry": {"type": "Point", "coordinates": [-105.1779, 39.701]}, "properties": {"NAME": "W0C/FR-107", "TITLE": "Green Mountain", "REGION": "CO-Front Range", "ASSOCIATION": "USA - Colorado", "POINTS": "1", "BONUSPOINTS": "0"}}, {"type": "Feature", "geometry": {"type": "Point", "coordinates": [-105.2506, 40.2623]}, "properties": {"NAME": "W0C/FR-108", "TITLE": "Indian Mountain", "REGION": "CO-Front Range", "ASSOCIATION": "USA - Colorado", "POINTS": "1", "BONUSPOINTS": "0"}}, {"type": "Feature", "geometry": {"type": "Point", "coordinates": [-105.2204, 39.7789]}, "properties": {"NAME": "W0C/FR-109", "TITLE": "North Table Mountain", "REGION": "CO-Front Range", "ASSOCIATION": "USA - Colorado", "POINTS": "1", "BONUSPOINTS": "0"}}, {"type": "Feature", "geometry": {"type": "Point", "coordinates": [-105.6152, 40.255]}, "properties": {"NAME": "W0C/FR-110", "TITLE": "Longs Peak", "REGION": "CO-Front Range", "ASSOCIATION": "USA - Colorado", "POINTS": "10", "BONUSPOINTS": "3"}}, {"type": "Feature", "geometry": {"type": "Point", "coordinates": [-105.6416, 40.2497]}, "properties": {"NAME": "W0C/FR-111", "TITLE": "Chiefs Head Peak", "REGION": "CO-Front Range", "ASSOCIATION": "USA - Colorado", "POINTS": "10", "BONUSPOINTS": "3"}}, {"type": "Feature", "geometry": {"type": "Point", "coordinates": [-105.6502, 40.0264]}, "properties": {"NAME": "W0C/FR-112", "TITLE": "North Arapaho Peak", "REGION": "CO-Front Range", "ASSOCIATION": "USA - Colorado", "POINTS": "10", "BONUSPOINTS": "3"}}, {"type": "Feature", "geometry": {"type": "Point", "coordinates": [-105.6243, 40.0478]}, "properties": {"NAME": "W0C/FR-113", "TITLE": "Kiowa Peak", "REGION": "CO-Front Range", "ASSOCIATION": "USA - Colorado", "POINTS": "8", "BONUSPOINTS": "3"}}, {"type": "Feature", "geometry": {"type": "Point", "coordinates": [-105.6384, 40.0467]}, "properties": {"NAME": "W0C/FR-114", "TITLE": "Arikaree Peak", "REGION": "CO-Front Range", "ASSOCIATION": "USA - Colorado", "POINTS": "8", "BONUSPOINTS": "3"}}, {"type": "Feature", "geometry": {"type": "Point", "coordinates": [-105.6667, 40.17]}, "properties": {"NAME": "W0C/FR-115", "TITLE": "Ogalalla Peak", "REGION": "CO-Front Range", "ASSOCIATION": "USA - Colorado", "POINTS": "8", "BONUSPOINTS": "3"}}, {"type": "Feature", "geometry": {"type": "Point", "coordinates": [-105.6778, 40.2024]}, "properties": {"NAME": "W0C/FR-116", "TITLE": "Isolation Peak", "REGION": "CO-Front Range", "ASSOCIATION": "USA - Colorado", "POINTS": "8", "BONUSPOINTS": "3"}}, {"type": "Feature", "geometry": {"type": "Point", "coordinates": [-105.7206, 40.3544]}, "properties": {"NAME": "W0C/FR-118", "TITLE": "Stones Peak", "REGION": "CO-Front Range", "ASSOCIATION": "USA - Colorado", "POINTS": "8", "BONUSPOINTS": "3"}}, {"type": "Feature", "geometry": {"type": "Point", "coordinates": [-105.6847, 40.5509]}, "properties": {"NAME": "W0C/FR-119", "TITLE": "Comanche Peak Wilderness HP", "REGION": "CO-Front Range", "ASSOCIATION": "USA - Colorado", "POINTS": "8", "BONUSPOINTS": "3"}}, {"type": "Feature", "geometry": {"type": "Point", "coordinates": [-105.0803, 38.8126]}, "properties": {"NAME": "W0C/FR-120", "TITLE": "McReynolds Peak", "REGION": "CO-Front Range", "ASSOCIATION": "USA - Colorado", "POINTS": "6", "BONUSPOINTS": "3"}}, {"type": "Feature", "geometry": {"type": "Point", "coordinates": [-105.0547, 38.7931]}, "properties": {"NAME": "W0C/FR-121", "TITLE": "Sheep Mountain", "REGION": "CO-Front Range", "ASSOCIATION": "USA - Colorado", "POINTS": "6", "BONUSPOINTS": "3"}}, {"type": "Feature", "geometry": {"type": "Point", "coordinates": [-105.6808, 39.9597]}, "properties": {"NAME": "W0C/FR-122", "TITLE": "Skyscraper Peak", "REGION": "CO-Front Range", "ASSOCIATION": "USA - Colorado", "POINTS": "6", "BONUSPOINTS": "3"}}, {"type": "Feature", "geometry": {"type": "Point", "coordinates": [-105.7572, 40.4296]}, "properties": {"NAME": "W0C/FR-123", "TITLE": "Trail Ridge", "REGION": "CO-Front Range", "ASSOCIATION": "USA - Colorado", "POINTS": "6", "BONUSPOINTS": "3"}}, {"type": "Feature", "geometry": {"type": "Point", "coordinates": [-105.7253, 40.5791]}, "properties": {"NAME": "W0C/FR-124", "TITLE": "11859", "REGION": "CO-Front Range", "ASSOCIATION": "USA - Colorado", "POINTS": "6", "BONUSPOINTS": "3"}}, {"type": "Feature", "geometry": {"type": "Point", "coordinates": [-105.9339, 40.682]}, "properties": {"NAME": "W0C/FR-125", "TITLE": "Sheep Mountain", "REGION": "CO-Front Range", "ASSOCIATION": "USA - Colorado", "POINTS": "6", "BONUSPOINTS": "3"}}, {"type": "Feature", "geometry": {"type": "Point", "coordinates": [-105.6627, 40.6153]}, "properties": {"NAME": "W0C/FR-126", "TITLE": "Crown Benchmark", "REGION": "CO-Front Range", "ASSOCIATION": "USA - Colorado", "POINTS": "6", "BONUSPOINTS": "3"}}, {"type": "Feature", "geometry": {"type": "Point", "coordinates": [-105.5115, 40.5255]}, "properties": {"NAME": "W0C/FR-127", "TITLE": "Signal Mountain", "REGION": "CO-Front Range", "ASSOCIATION": "USA - Colorado", "POINTS": "6", "BONUSPOINTS": "3"}}, {"type": "Feature", "geometry": {"type": "Point", "coordinates": [-105.7494, 40.4994]}, "properties": {"NAME": "W0C/FR-128", "TITLE": "Confluence Peak", "REGION": "CO-Front Range", "ASSOCIATION": "USA - Colorado", "POINTS": "6", "BONUSPOINTS": "3"}}, {"type": "Feature", "geometry": {"type": "Point", "coordinates": [-105.0847, 38.758]}, "properties": {"NAME": "W0C/FR-129", "TITLE": "Cow Mountain", "REGION": "CO-Front Range", "ASSOCIATION": "USA - Colorado", "POINTS": "6", "BONUSPOINTS": "3"}}, {"type": "Feature", "geometry": {"type": "Point", "coordinates": [-105.716, 40.7703]}, "properties": {"NAME": "W0C/FR-130", "TITLE": "Killpecker Mountain", "REGION": "CO-Front Range", "ASSOCIATION": "USA - Colorado", "POINTS": "6", "BONUSPOINTS": "3"}}, {"type": "Feature", "geometry": {"type": "Point", "coordinates": [-105.7789, 40.5351]}, "properties": {"NAME": "W0C/FR-131", "TITLE": "10980", "REGION": "CO-Front Range", "ASSOCIATION": "USA - Colorado", "POINTS": "6", "BONUSPOINTS": "3"}}, {"type": "Feature", "geometry": {"type": "Point", "coordinates": [-105.1068, 38.7733]}, "properties": {"NAME": "W0C/FR-132", "TITLE": "Trachyte Knob", "REGION": "CO-Front Range", "ASSOCIATION": "USA - Colorado", "POINTS": "6", "BONUSPOINTS": "3"}}, {"type": "Feature", "geometry": {"type": "Point", "coordinates": [-105.1123, 38.7153]}, "properties": {"NAME": "W0C/FR-133", "TITLE": "Big Bull Mountain", "REGION": "CO-Front Range", "ASSOCIATION": "USA - Colorado", "POINTS": "6", "BONUSPOINTS": "3"}}, {"type": "Feature", "geometry": {"type": "Point", "coordinates": [-104.9712, 38.814]}, "properties": {"NAME": "W0C/FR-134", "TITLE": "Tuckaway Mountain", "REGION": "CO-Front Range", "ASSOCIATION": "USA - Colorado", "POINTS": "6", "BONUSPOINTS": "3"}}, {"type": "Feature", "geometry": {"type": "Point", "coordinates": [-105.1399, 38.7361]}, "properties": {"NAME": "W0C/FR-135", "TITLE": "Bull Hill", "REGION": "CO-Front Range", "ASSOCIATION": "USA - Colorado", "POINTS": "6", "BONUSPOINTS": "3"}}, {"type": "Feature", "geometry": {"type": "Point", "coordinates": [-105.1668, 38.7826]}, "properties": {"NAME": "W0C/FR-136", "TITLE": "Rhyolite Mountain", "REGION": "CO-Front Range", "ASSOCIATION": "USA - Colorado", "POINTS": "6", "BONUSPOINTS": "3"}}, {"type": "Feature", "geometry": {"type": "Point", "coordinates": [-105.4465, 40.5139]}, "properties": {"NAME": "W0C/FR-137", "TITLE": "10720", "REGION": "CO-Front Range", "ASSOCIATION": "USA - Colorado", "POINTS": "6", "BONUSPOINTS": "3"}}, {"type": "Feature", "geometry": {"type": "Point", "coordinates": [-104.9545, 38.8312]}, "properties": {"NAME": "W0C/FR-138", "TITLE": "Cameron Cone", "REGION": "CO-Front Range", "ASSOCIATION": "USA - Colorado", "POINTS": "6", "BONUSPOINTS": "3"}}, {"type": "Feature", "geometry": {"type": "Point", "coordinates": [-105.3776, 39.2206]}, "properties": {"NAME": "W0C/FR-139", "TITLE": "10654", "REGION": "CO-Front Range", "ASSOCIATION": "USA - Colorado", "POINTS": "6", "BONUSPOINTS": "3"}}, {"type": "Feature", "geometry": {"type": "Point", "coordinates": [-104.988, 38.7267]}, "properties": {"NAME": "W0C/FR-140", "TITLE": "10650", "REGION": "CO-Front Range", "ASSOCIATION": "USA - Colorado", "POINTS": "6", "BONUSPOINTS": "3"}}, {"type": "Feature", "geometry": {"type": "Point", "coordinates": [-105.3939, 39.2545]}, "properties": {"NAME": "W0C/FR-141", "TITLE": "10620", "REGION": "CO-Front Range", "ASSOCIATION": "USA - Colorado", "POINTS": "6", "BONUSPOINTS": "3"}}, {"type": "Feature", "geometry": {"type": "Point", "coordinates": [-105.1244, 38.9071]}, "properties": {"NAME": "W0C/FR-142", "TITLE": "Raspberry Mountain", "REGION": "CO-Front Range", "ASSOCIATION": "USA - Colorado", "POINTS": "6", "BONUSPOINTS": "3"}}, {"type": "Feature", "geometry": {"type": "Point", "coordinates": [-105.1169, 38.6941]}, "properties": {"NAME": "W0C/FR-143", "TITLE": "Brind Mountain", "REGION": "CO-Front Range", "ASSOCIATION": "USA - Colorado", "POINTS": "4", "BONUSPOINTS": "3"}}, {"type": "Feature", "geometry": {"type": "Point", "coordinates": [-104.9463, 38.7254]}, "properties": {"NAME": "W0C/FR-144", "TITLE": "Knights Peak", "REGION": "CO-Front Range", "ASSOCIATION": "USA - Colorado", "POINTS": "4", "BONUSPOINTS": "3"}}, {"type": "Feature", "geometry": {"type": "Point", "coordinates": [-105.5768, 40.4136]}, "properties": {"NAME": "W0C/FR-145", "TITLE": "McGregor Mountain", "REGION": "CO-Front Range", "ASSOCIATION": "USA - Colorado", "POINTS": "4", "BONUSPOINTS": "3"}}, {"type": "Feature", "geometry": {"type": "Point", "coordinates": [-105.4463, 40.6048]}, "properties": {"NAME": "W0C/FR-146", "TITLE": "East White Pine Mountain", "REGION": "CO-Front Range", "ASSOCIATION": "USA - Colorado", "POINTS": "4", "BONUSPOINTS": "3"}}, {"type": "Feature", "geometry": {"type": "Point", "coordinates": [-106.0032, 40.808]}, "properties": {"NAME": "W0C/FR-147", "TITLE": "10148", "REGION": "CO-Front Range", "ASSOCIATION": "USA - Colorado", "POINTS": "4", "BONUSPOINTS": "3"}}, {"type": "Feature", "geometry": {"type": "Point", "coordinates": [-105.5626, 39.9219]}, "properties": {"NAME": "W0C/FR-148", "TITLE": "Buckeye Mountain", "REGION": "CO-Front Range", "ASSOCIATION": "USA - Colorado", "POINTS": "4", "BONUSPOINTS": "3"}}, {"type": "Feature", "geometry": {"type": "Point", "coordinates": [-104.9634, 38.6966]}, "properties": {"NAME": "W0C/FR-149", "TITLE": "Green Mountain", "REGION": "CO-Front Range", "ASSOCIATION": "USA - Colorado", "POINTS": "4", "BONUSPOINTS": "3"}}, {"type": "Feature", "geometry": {"type": "Point", "coordinates": [-105.5674, 40.3135]}, "properties": {"NAME": "W0C/FR-150", "TITLE": "Thunder Peak", "REGION": "CO-Front Range", "ASSOCIATION": "USA - Colorado", "POINTS": "4", "BONUSPOINTS": "3"}}, {"type": "Feature", "geometry": {"type": "Point", "coordinates": [-105.8346, 40.9175]}, "properties": {"NAME": "W0C/FR-151", "TITLE": "Bull Mountain", "REGION": "CO-Front Range", "ASSOCIATION": "USA - Colorado", "POINTS": "4", "BONUSPOINTS": "3"}}, {"type": "Feature", "geometry": {"type": "Point", "coordinates": [-105.5512, 40.4155]}, "properties": {"NAME": "W0C/FR-152", "TITLE": "The Needles", "REGION": "CO-Front Range", "ASSOCIATION": "USA - Colorado", "POINTS": "4", "BONUSPOINTS": "3"}}, {"type": "Feature", "geometry": {"type": "Point", "coordinates": [-105.4207, 39.8047]}, "properties": {"NAME": "W0C/FR-153", "TITLE": "Ely Hill", "REGION": "CO-Front Range", "ASSOCIATION": "USA - Colorado", "POINTS": "4", "BONUSPOINTS": "3"}}, {"type": "Feature", "geometry": {"type": "Point", "coordinates": [-105.8185, 40.641]}, "properties": {"NAME": "W0C/FR-154", "TITLE": "10020", "REGION": "CO-Front Range", "ASSOCIATION": "USA - Colorado", "POINTS": "4", "BONUSPOINTS": "3"}}, {"type": "Feature", "geometry": {"type": "Point", "coordinates": [-105.5844, 40.3793]}, "properties": {"NAME": "W0C/FR-155", "TITLE": "Deer Mountain", "REGION": "CO-Front Range", "ASSOCIATION": "USA - Colorado", "POINTS": "4", "BONUSPOINTS": "3"}}, {"type": "Feature", "geometry": {"type": "Point", "coordinates": [-105.8073, 40.6035]}, "properties": {"NAME": "W0C/FR-156", "TITLE": "9986", "REGION": "CO-Front Range", "ASSOCIATION": "USA - Colorado", "POINTS": "4", "BONUSPOINTS": "3"}}, {"type": "Feature", "geometry": {"type": "Point", "coordinates": [-105.639, 40.8719]}, "properties": {"NAME": "W0C/FR-157", "TITLE": "Black Mountain", "REGION": "CO-Front Range", "ASSOCIATION": "USA - Colorado", "POINTS": "4", "BONUSPOINTS": "3"}}, {"type": "Feature", "geometry": {"type": "Point", "coordinates": [-105.1586, 38.6581]}, "properties": {"NAME": "W0C/FR-158", "TITLE": "9880", "REGION": "CO-Front Range", "ASSOCIATION": "USA - Colorado", "POINTS": "4", "BONUSPOINTS": "3"}}, {"type": "Feature", "geometry": {"type": "Point", "coordinates": [-105.1808, 38.6754]}, "properties": {"NAME": "W0C/FR-159", "TITLE": "Little Pisgah Peak", "REGION": "CO-Front Range", "ASSOCIATION": "USA - Colorado", "POINTS": "4", "BONUSPOINTS": "3"}}, {"type": "Feature", "geometry": {"type": "Point", "coordinates": [-105.4748, 40.3025]}, "properties": {"NAME": "W0C/FR-160", "TITLE": "Pierson Mountain", "REGION": "CO-Front Range", "ASSOCIATION": "USA - Colorado", "POINTS": "4", "BONUSPOINTS": "3"}}, {"type": "Feature", "geometry": {"type": "Point", "coordinates": [-105.3806, 39.3113]}, "properties": {"NAME": "W0C/FR-161", "TITLE": "The Castle", "REGION": "CO-Front Range", "ASSOCIATION": "USA - Colorado", "POINTS": "4", "BONUSPOINTS": "3"}}, {"type": "Feature", "geometry": {"type": "Point", "coordinates": [-105.2893, 38.9961]}, "properties": {"NAME": "W0C/FR-162", "TITLE": "Crystal Peak", "REGION": "CO-Front Range", "ASSOCIATION": "USA - Colorado", "POINTS": "4", "BONUSPOINTS": "3"}}, {"type": "Feature", "geometry": {"type": "Point", "coordinates": [-105.2198, 38.7848]}, "properties": {"NAME": "W0C/FR-163", "TITLE": "9595", "REGION": "CO-Front Range", "ASSOCIATION": "USA - Colorado", "POINTS": "4", "BONUSPOINTS": "3"}}, {"type": "Feature", "geometry": {"type": "Point", "coordinates": [-105.3973, 39.8274]}, "properties": {"NAME": "W0C/FR-164", "TITLE": "Visitor Point", "REGION": "CO-Front Range", "ASSOCIATION": "USA - Colorado", "POINTS": "4", "BONUSPOINTS": "3"}}, {"type": "Feature", "geometry": {"type": "Point", "coordinates": [-105.2229, 39.0583]}, "properties": {"NAME": "W0C/FR-165", "TITLE": "Signal Butte", "REGION": "CO-Front Range", "ASSOCIATION": "USA - Colorado", "POINTS": "4", "BONUSPOINTS": "3"}}, {"type": "Feature", "geometry": {"type": "Point", "coordinates": [-105.2812, 39.4844]}, "properties": {"NAME": "W0C/FR-166", "TITLE": "Riley Peak", "REGION": "CO-Front Range", "ASSOCIATION": "USA - Colorado", "POINTS": "4", "BONUSPOINTS": "3"}}, {"type": "Feature", "geometry": {"type": "Point", "coordinates": [-105.3542, 39.8749]}, "properties": {"NAME": "W0C/FR-167", "TITLE": "Blue Mountain", "REGION": "CO-Front Range", "ASSOCIATION": "USA - Colorado", "POINTS": "4", "BONUSPOINTS": "3"}}, {"type": "Feature", "geometry": {"type": "Point", "coordinates": [-104.8944, 38.7178]}, "properties": {"NAME": "W0C/FR-168", "TITLE": "9410", "REGION": "CO-Front Range", "ASSOCIATION": "USA - Colorado", "POINTS": "4", "BONUSPOINTS": "3"}}, {"type": "Feature", "geometry": {"type": "Point", "coordinates": [-105.8717, 40.7591]}, "properties": {"NAME": "W0C/FR-169", "TITLE": "Middle Mountain", "REGION": "CO-Front Range", "ASSOCIATION": "USA - Colorado", "POINTS": "4", "BONUSPOINTS": "3"}}, {"type": "Feature", "geometry": {"type": "Point", "coordinates": [-105.3379, 39.8768]}, "properties": {"NAME": "W0C/FR-170", "TITLE": "Blue Benchmark", "REGION": "CO-Front Range", "ASSOCIATION": "USA - Colorado", "POINTS": "4", "BONUSPOINTS": "3"}}, {"type": "Feature", "geometry": {"type": "Point", "coordinates": [-105.6315, 40.96]}, "properties": {"NAME": "W0C/FR-171", "TITLE": "Green Mountain", "REGION": "CO-Front Range", "ASSOCIATION": "USA - Colorado", "POINTS": "4", "BONUSPOINTS": "3"}}, {"type": "Feature", "geometry": {"type": "Point", "coordinates": [-105.4173, 40.6209]}, "properties": {"NAME": "W0C/FR-172", "TITLE": "9166", "REGION": "CO-Front Range", "ASSOCIATION": "USA - Colorado", "POINTS": "4", "BONUSPOINTS": "3"}}, {"type": "Feature", "geometry": {"type": "Point", "coordinates": [-105.4872, 39.9156]}, "properties": {"NAME": "W0C/FR-173", "TITLE": "Rollins Benchmark", "REGION": "CO-Front Range", "ASSOCIATION": "USA - Colorado", "POINTS": "4", "BONUSPOINTS": "3"}}, {"type": "Feature", "geometry": {"type": "Point", "coordinates": [-105.4517, 40.0254]}, "properties": {"NAME": "W0C/FR-174", "TITLE": "Bald Mountain", "REGION": "CO-Front Range", "ASSOCIATION": "USA - Colorado", "POINTS": "4", "BONUSPOINTS": "3"}}, {"type": "Feature", "geometry": {"type": "Point", "coordinates": [-105.2867, 39.5263]}, "properties": {"NAME": "W0C/FR-175", "TITLE": "9128", "REGION": "CO-Front Range", "ASSOCIATION": "USA - Colorado", "POINTS": "4", "BONUSPOINTS": "3"}}, {"type": "Feature", "geometry": {"type": "Point", "coordinates": [-105.935, 40.9945]}, "properties": {"NAME": "W0C/FR-176", "TITLE": "Red Mountain", "REGION": "CO-Front Range", "ASSOCIATION": "USA - Colorado", "POINTS": "4", "BONUSPOINTS": "3"}}, {"type": "Feature", "geometry": {"type": "Point", "coordinates": [-105.5195, 40.2305]}, "properties": {"NAME": "W0C/FR-177", "TITLE": "Popeye Peak", "REGION": "CO-Front Range", "ASSOCIATION": "USA - Colorado", "POINTS": "4", "BONUSPOINTS": "3"}}, {"type": "Feature", "geometry": {"type": "Point", "coordinates": [-105.3304, 39.1896]}, "properties": {"NAME": "W0C/FR-178", "TITLE": "Sheeprock", "REGION": "CO-Front Range", "ASSOCIATION": "USA - Colorado", "POINTS": "2", "BONUSPOINTS": "0"}}, {"type": "Feature", "geometry": {"type": "Point", "coordinates": [-105.4571, 40.2269]}, "properties": {"NAME": "W0C/FR-179", "TITLE": "8849", "REGION": "CO-Front Range", "ASSOCIATION": "USA - Colorado", "POINTS": "2", "BONUSPOINTS": "0"}}, {"type": "Feature", "geometry": {"type": "Point", "coordinates": [-105.3131, 39.4611]}, "properties": {"NAME": "W0C/FR-180", "TITLE": "8812", "REGION": "CO-Front Range", "ASSOCIATION": "USA - Colorado", "POINTS": "2", "BONUSPOINTS": "0"}}, {"type": "Feature", "geometry": {"type": "Point", "coordinates": [-105.327, 39.9097]}, "properties": {"NAME": "W0C/FR-181", "TITLE": "Scar Top Mountain", "REGION": "CO-Front Range", "ASSOCIATION": "USA - Colorado", "POINTS": "2", "BONUSPOINTS": "0"}}, {"type": "Feature", "geometry": {"type": "Point", "coordinates": [-105.3302, 39.165]}, "properties": {"NAME": "W0C/FR-182", "TITLE": "South Sheeprock", "REGION": "CO-Front Range", "ASSOCIATION": "USA - Colorado", "POINTS": "2", "BONUSPOINTS": "0"}}, {"type": "Feature", "geometry": {"type": "Point", "coordinates": [-105.5565, 40.9021]}, "properties": {"NAME": "W0C/FR-183", "TITLE": "8740", "REGION": "CO-Front Range", "ASSOCIATION": "USA - Colorado", "POINTS": "2", "BONUSPOINTS": "0"}}, {"type": "Feature", "geometry": {"type": "Point", "coordinates": [-105.3846, 39.9728]}, "properties": {"NAME": "W0C/FR-184", "TITLE": "Twin Sisters Peak", "REGION": "CO-Front Range", "ASSOCIATION": "USA - Colorado", "POINTS": "2", "BONUSPOINTS": "0"}}, {"type": "Feature", "geometry": {"type": "Point", "coordinates": [-105.3591, 39.7524]}, "properties": {"NAME": "W0C/FR-185", "TITLE": "Centennial Cone", "REGION": "CO-Front Range", "ASSOCIATION": "USA - Colorado", "POINTS": "2", "BONUSPOINTS": "0"}}, {"type": "Feature", "geometry": {"type": "Point", "coordinates": [-105.3511, 40.1402]}, "properties": {"NAME": "W0C/FR-186", "TITLE": "8588", "REGION": "CO-Front Range", "ASSOCIATION": "USA - Colorado", "POINTS": "2", "BONUSPOINTS": "0"}}, {"type": "Feature", "geometry": {"type": "Point", "coordinates": [-105.2559, 39.4224]}, "properties": {"NAME": "W0C/FR-187", "TITLE": "Cathedral Spires", "REGION": "CO-Front Range", "ASSOCIATION": "USA - Colorado", "POINTS": "2", "BONUSPOINTS": "0"}}, {"type": "Feature", "geometry": {"type": "Point", "coordinates": [-105.6376, 40.6978]}, "properties": {"NAME": "W0C/FR-188", "TITLE": "8488", "REGION": "CO-Front Range", "ASSOCIATION": "USA - Colorado", "POINTS": "2", "BONUSPOINTS": "0"}}, {"type": "Feature", "geometry": {"type": "Point", "coordinates": [-105.3781, 40.1838]}, "properties": {"NAME": "W0C/FR-189", "TITLE": "8422", "REGION": "CO-Front Range", "ASSOCIATION": "USA - Colorado", "POINTS": "2", "BONUSPOINTS": "0"}}, {"type": "Feature", "geometry": {"type": "Point", "coordinates": [-105.1807, 39.4874]}, "properties": {"NAME": "W0C/FR-190", "TITLE": "Coffee Pot Hill", "REGION": "CO-Front Range", "ASSOCIATION": "USA - Colorado", "POINTS": "2", "BONUSPOINTS": "0"}}, {"type": "Feature", "geometry": {"type": "Point", "coordinates": [-105.3457, 40.1525]}, "properties": {"NAME": "W0C/FR-191", "TITLE": "8315", "REGION": "CO-Front Range", "ASSOCIATION": "USA - Colorado", "POINTS": "2", "BONUSPOINTS": "0"}}, {"type": "Feature", "geometry": {"type": "Point", "coordinates": [-105.3418, 40.404]}, "properties": {"NAME": "W0C/FR-192", "TITLE": "8310", "REGION": "CO-Front Range", "ASSOCIATION": "USA - Colorado", "POINTS": "2", "BONUSPOINTS": "0"}}, {"type": "Feature", "geometry": {"type": "Point", "coordinates": [-105.4263, 40.2086]}, "properties": {"NAME": "W0C/FR-193", "TITLE": "South Sheep Mountain", "REGION": "CO-Front Range", "ASSOCIATION": "USA - Colorado", "POINTS": "2", "BONUSPOINTS": "0"}}, {"type": "Feature", "geometry": {"type": "Point", "coordinates": [-105.2938, 39.7032]}, "properties": {"NAME": "W0C/FR-194", "TITLE": "Genesee Mountain", "REGION": "CO-Front Range", "ASSOCIATION": "USA - Colorado", "POINTS": "2", "BONUSPOINTS": "0"}}, {"type": "Feature", "geometry": {"type": "Point", "coordinates": [-105.2149, 39.3955]}, "properties": {"NAME": "W0C/FR-195", "TITLE": "Raleigh Peak", "REGION": "CO-Front Range", "ASSOCIATION": "USA - Colorado", "POINTS": "2", "BONUSPOINTS": "0"}}, {"type": "Feature", "geometry": {"type": "Point", "coordinates": [-105.4739, 40.8144]}, "properties": {"NAME": "W0C/FR-196", "TITLE": "8161", "REGION": "CO-Front Range", "ASSOCIATION": "USA - Colorado", "POINTS": "2", "BONUSPOINTS": "0"}}, {"type": "Feature", "geometry": {"type": "Point", "coordinates": [-105.1648, 39.4987]}, "properties": {"NAME": "W0C/FR-197", "TITLE": "Flat Top Mountain", "REGION": "CO-Front Range", "ASSOCIATION": "USA - Colorado", "POINTS": "2", "BONUSPOINTS": "0"}}, {"type": "Feature", "geometry": {"type": "Point", "coordinates": [-105.3689, 40.6738]}, "properties": {"NAME": "W0C/FR-198", "TITLE": "7980", "REGION": "CO-Front Range", "ASSOCIATION": "USA - Colorado", "POINTS": "1", "BONUSPOINTS": "0"}}, {"type": "Feature", "geometry": {"type": "Point", "coordinates": [-105.2101, 39.5998]}, "properties": {"NAME": "W0C/FR-199", "TITLE": "7965", "REGION": "CO-Front Range", "ASSOCIATION": "USA - Colorado", "POINTS": "1", "BONUSPOINTS": "0"}}, {"type": "Feature", "geometry": {"type": "Point", "coordinates": [-105.2063, 39.5748]}, "properties": {"NAME": "W0C/FR-200", "TITLE": "7955", "REGION": "CO-Front Range", "ASSOCIATION": "USA - Colorado", "POINTS": "1", "BONUSPOINTS": "0"}}, {"type": "Feature", "geometry": {"type": "Point", "coordinates": [-105.4153, 40.7815]}, "properties": {"NAME": "W0C/FR-201", "TITLE": "7835", "REGION": "CO-Front Range", "ASSOCIATION": "USA - Colorado", "POINTS": "1", "BONUSPOINTS": "0"}}, {"type": "Feature", "geometry": {"type": "Point", "coordinates": [-104.9092, 39.2196]}, "properties": {"NAME": "W0C/FR-202", "TITLE": "Raspberry Butte", "REGION": "CO-Front Range", "ASSOCIATION": "USA - Colorado", "POINTS": "1", "BONUSPOINTS": "0"}}, {"type": "Feature", "geometry": {"type": "Point", "coordinates": [-105.2444, 40.607]}, "properties": {"NAME": "W0C/FR-203", "TITLE": "7660", "REGION": "CO-Front Range", "ASSOCIATION": "USA - Colorado", "POINTS": "1", "BONUSPOINTS": "0"}}, {"type": "Feature", "geometry": {"type": "Point", "coordinates": [-104.9863, 38.1254]}, "properties": {"NAME": "W0C/FR-204", "TITLE": "7635", "REGION": "CO-Front Range", "ASSOCIATION": "USA - Colorado", "POINTS": "1", "BONUSPOINTS": "0"}}, {"type": "Feature", "geometry": {"type": "Point", "coordinates": [-105.457, 40.6875]}, "properties": {"NAME": "W0C/FR-205", "TITLE": "7612", "REGION": "CO-Front Range", "ASSOCIATION": "USA - Colorado", "POINTS": "1", "BONUSPOINTS": "0"}}, {"type": "Feature", "geometry": {"type": "Point", "coordinates": [-104.8666, 39.2263]}, "properties": {"NAME": "W0C/FR-206", "TITLE": "Larkspur Butte", "REGION": "CO-Front Range", "ASSOCIATION": "USA - Colorado", "POINTS": "1", "BONUSPOINTS": "0"}}, {"type": "Feature", "geometry": {"type": "Point", "coordinates": [-105.2354, 40.5901]}, "properties": {"NAME": "W0C/FR-207", "TITLE": "7521", "REGION": "CO-Front Range", "ASSOCIATION": "USA - Colorado", "POINTS": "1", "BONUSPOINTS": "0"}}, {"type": "Feature", "geometry": {"type": "Point", "coordinates": [-105.3502, 40.2737]}, "properties": {"NAME": "W0C/FR-208", "TITLE": "7509", "REGION": "CO-Front Range", "ASSOCIATION": "USA - Colorado", "POINTS": "1", "BONUSPOINTS": "0"}}, {"type": "Feature", "geometry": {"type": "Point", "coordinates": [-105.3587, 40.7185]}, "properties": {"NAME": "W0C/FR-209", "TITLE": "7501", "REGION": "CO-Front Range", "ASSOCIATION": "USA - Colorado", "POINTS": "1", "BONUSPOINTS": "0"}}, {"type": "Feature", "geometry": {"type": "Point", "coordinates": [-105.3079, 40.3581]}, "properties": {"NAME": "W0C/FR-210", "TITLE": "7383", "REGION": "CO-Front Range", "ASSOCIATION": "USA - Colorado", "POINTS": "1", "BONUSPOINTS": "0"}}, {"type": "Feature", "geometry": {"type": "Point", "coordinates": [-105.2752, 40.3686]}, "properties": {"NAME": "W0C/FR-211", "TITLE": "7335", "REGION": "CO-Front Range", "ASSOCIATION": "USA - Colorado", "POINTS": "1", "BONUSPOINTS": "0"}}, {"type": "Feature", "geometry": {"type": "Point", "coordinates": [-105.2586, 40.6363]}, "properties": {"NAME": "W0C/FR-212", "TITLE": "7260", "REGION": "CO-Front Range", "ASSOCIATION": "USA - Colorado", "POINTS": "1", "BONUSPOINTS": "0"}}, {"type": "Feature", "geometry": {"type": "Point", "coordinates": [-105.3857, 40.9069]}, "properties": {"NAME": "W0C/FR-213", "TITLE": "7220", "REGION": "CO-Front Range", "ASSOCIATION": "USA - Colorado", "POINTS": "1", "BONUSPOINTS": "0"}}, {"type": "Feature", "geometry": {"type": "Point", "coordinates": [-105.1742, 40.9415]}, "properties": {"NAME": "W0C/FR-214", "TITLE": "Table Mountain", "REGION": "CO-Front Range", "ASSOCIATION": "USA - Colorado", "POINTS": "1", "BONUSPOINTS": "0"}}, {"type": "Feature", "geometry": {"type": "Point", "coordinates": [-105.2585, 39.8327]}, "properties": {"NAME": "W0C/FR-215", "TITLE": "South Ralston", "REGION": "CO-Front Range", "ASSOCIATION": "USA - Colorado", "POINTS": "1", "BONUSPOINTS": "0"}}, {"type": "Feature", "geometry": {"type": "Point", "coordinates": [-105.216, 40.717]}, "properties": {"NAME": "W0C/FR-216", "TITLE": "6823", "REGION": "CO-Front Range", "ASSOCIATION": "USA - Colorado", "POINTS": "1", "BONUSPOINTS": "0"}}, {"type": "Feature", "geometry": {"type": "Point", "coordinates": [-105.2689, 40.2514]}, "properties": {"NAME": "W0C/FR-217", "TITLE": "6700", "REGION": "CO-Front Range", "ASSOCIATION": "USA - Colorado", "POINTS": "1", "BONUSPOINTS": "0"}}, {"type": "Feature", "geometry": {"type": "Point", "coordinates": [-105.2379, 40.4018]}, "properties": {"NAME": "W0C/FR-218", "TITLE": "6674", "REGION": "CO-Front Range", "ASSOCIATION": "USA - Colorado", "POINTS": "1", "BONUSPOINTS": "0"}}, {"type": "Feature", "geometry": {"type": "Point", "coordinates": [-104.8733, 38.4876]}, "properties": {"NAME": "W0C/FR-219", "TITLE": "Booth Mountain", "REGION": "CO-Front Range", "ASSOCIATION": "USA - Colorado", "POINTS": "1", "BONUSPOINTS": "0"}}, {"type": "Feature", "geometry": {"type": "Point", "coordinates": [-105.1465, 40.8485]}, "properties": {"NAME": "W0C/FR-220", "TITLE": "6380", "REGION": "CO-Front Range", "ASSOCIATION": "USA - Colorado", "POINTS": "1", "BONUSPOINTS": "0"}}, {"type": "Feature", "geometry": {"type": "Point", "coordinates": [-105.1578, 40.7588]}, "properties": {"NAME": "W0C/FR-221", "TITLE": "Weaver Peak", "REGION": "CO-Front Range", "ASSOCIATION": "USA - Colorado", "POINTS": "1", "BONUSPOINTS": "0"}}, {"type": "Feature", "geometry": {"type": "Point", "coordinates": [-105.7255, 38.7452]}, "properties": {"NAME": "W0C/FR-222", "TITLE": "10715", "REGION": "CO-Front Range", "ASSOCIATION": "USA - Colorado", "POINTS": "6", "BONUSPOINTS": "3"}}, {"type": "Feature", "geometry": {"type": "Point", "coordinates": [-105.8198, 40.5669]}, "properties": {"NAME": "W0C/FR-223", "TITLE": "10472", "REGION": "CO-Front Range", "ASSOCIATION": "USA - Colorado", "POINTS": "4", "BONUSPOINTS": "3"}}, {"type": "Feature", "geometry": {"type": "Point", "coordinates": [-105.5206, 38.7809]}, "properties": {"NAME": "W0C/FR-224", "TITLE": "10140", "REGION": "CO-Front Range", "ASSOCIATION": "USA - Colorado", "POINTS": "4", "BONUSPOINTS": "3"}}, {"type": "Feature", "geometry": {"type": "Point", "coordinates": [-105.7883, 38.7889]}, "properties": {"NAME": "W0C/FR-225", "TITLE": "Agate Mountain", "REGION": "CO-Front Range", "ASSOCIATION": "USA - Colorado", "POINTS": "4", "BONUSPOINTS": "3"}}, {"type": "Feature", "geometry": {"type": "Point", "coordinates": [-105.5468, 40.3347]}, "properties": {"NAME": "W0C/FR-226", "TITLE": "Rams Horn Mountain", "REGION": "CO-Front Range", "ASSOCIATION": "USA - Colorado", "POINTS": "4", "BONUSPOINTS": "3"}}, {"type": "Feature", "geometry": {"type": "Point", "coordinates": [-105.5466, 40.8364]}, "properties": {"NAME": "W0C/FR-227", "TITLE": "8555", "REGION": "CO-Front Range", "ASSOCIATION": "USA - Colorado", "POINTS": "2", "BONUSPOINTS": "0"}}, {"type": "Feature", "geometry": {"type": "Point", "coordinates": [-105.303, 40.6221]}, "properties": {"NAME": "W0C/FR-228", "TITLE": "8037", "REGION": "CO-Front Range", "ASSOCIATION": "USA - Colorado", "POINTS": "2", "BONUSPOINTS": "0"}}, {"type": "Feature", "geometry": {"type": "Point", "coordinates": [-105.3333, 40.6592]}, "properties": {"NAME": "W0C/FR-229", "TITLE": "7875", "REGION": "CO-Front Range", "ASSOCIATION": "USA - Colorado", "POINTS": "1", "BONUSPOINTS": "0"}}, {"type": "Feature", "geometry": {"type": "Point", "coordinates": [-105.7575, 40.3711]}, "properties": {"NAME": "W0C/FR-230", "TITLE": "Mount Julian", "REGION": "CO-Front Range", "ASSOCIATION": "USA - Colorado", "POINTS": "8", "BONUSPOINTS": "3"}}, {"type": "Feature", "geometry": {"type": "Point", "coordinates": [-105.8311, 40.6616]}, "properties": {"NAME": "W0C/FR-231", "TITLE": "10060", "REGION": "CO-Front Range", "ASSOCIATION": "USA - Colorado", "POINTS": "4", "BONUSPOINTS": "3"}}]}