{"type": "FeatureCollection", "name": "W3/WE SUMMITS", "features": [{"type": "Feature", "geometry": {"type": "Point", "coordinates": [-79.3693, 39.5487]}, "properties": {"NAME": "W3/WE-001", "TITLE": "Marsh Hill", "REGION": "Western", "ASSOCIATION": "USA - DE / MD / PA", "POINTS": "10", "BONUSPOINTS": "3"}}, {"type": "Feature", "geometry": {"type": "Point", "coordinates": [-78.8974, 39.5818]}, "properties": {"NAME": "W3/WE-002", "TITLE": "Dans Rock", "REGION": "Western", "ASSOCIATION": "USA - DE / MD / PA", "POINTS": "8", "BONUSPOINTS": "3"}}, {"type": "Feature", "geometry": {"type": "Point", "coordinates": [-78.6205, 39.6209]}, "properties": {"NAME": "W3/WE-003", "TITLE": "Warrior Mtn", "REGION": "Western", "ASSOCIATION": "USA - DE / MD / PA", "POINTS": "6", "BONUSPOINTS": "3"}}, {"type": "Feature", "geometry": {"type": "Point", "coordinates": [-77.5125, 39.6967]}, "properties": {"NAME": "W3/WE-004", "TITLE": "Quirauk Mtn", "REGION": "Western", "ASSOCIATION": "USA - DE / MD / PA", "POINTS": "6", "BONUSPOINTS": "3"}}, {"type": "Feature", "geometry": {"type": "Point", "coordinates": [-78.4885, 39.5805]}, "properties": {"NAME": "W3/WE-005", "TITLE": "Town Hill", "REGION": "Western", "ASSOCIATION": "USA - DE / MD / PA", "POINTS": "6", "BONUSPOINTS": "3"}}, {"type": "Feature", "geometry": {"type": "Point", "coordinates": [-78.2883, 39.7105]}, "properties": {"NAME": "W3/WE-006", "TITLE": "Sideling Hill", "REGION": "Western", "ASSOCIATION": "USA - DE / MD / PA", "POINTS": "4", "BONUSPOINTS": "3"}}, {"type": "Feature", "geometry": {"type": "Point", "coordinates": [-77.6266, 39.4484]}, "properties": {"NAME": "W3/WE-007", "TITLE": "Lambs Knoll", "REGION": "Western", "ASSOCIATION": "USA - DE / MD / PA", "POINTS": "4", "BONUSPOINTS": "3"}}, {"type": "Feature", "geometry": {"type": "Point", "coordinates": [-78.5836, 39.6756]}, "properties": {"NAME": "W3/WE-008", "TITLE": "Toms Hill", "REGION": "Western", "ASSOCIATION": "USA - DE / MD / PA", "POINTS": "4", "BONUSPOINTS": "3"}}, {"type": "Feature", "geometry": {"type": "Point", "coordinates": [-78.8206, 39.6301]}, "properties": {"NAME": "W3/WE-009", "TITLE": "Haystack Mtn", "REGION": "Western", "ASSOCIATION": "USA - DE / MD / PA", "POINTS": "4", "BONUSPOINTS": "3"}}, {"type": "Feature", "geometry": {"type": "Point", "coordinates": [-78.4067, 39.6907]}, "properties": {"NAME": "W3/WE-010", "TITLE": "Town Hill", "REGION": "Western", "ASSOCIATION": "USA - DE / MD / PA", "POINTS": "2", "BONUSPOINTS": "3"}}, {"type": "Feature", "geometry": {"type": "Point", "coordinates": [-77.9695, 39.6559]}, "properties": {"NAME": "W3/WE-011", "TITLE": "Fairview Mtn", "REGION": "Western", "ASSOCIATION": "USA - DE / MD / PA", "POINTS": "2", "BONUSPOINTS": "3"}}, {"type": "Feature", "geometry": {"type": "Point", "coordinates": [-78.5698, 39.694]}, "properties": {"NAME": "W3/WE-012", "TITLE": "Warrior Mtn 1530", "REGION": "Western", "ASSOCIATION": "USA - DE / MD / PA", "POINTS": "2", "BONUSPOINTS": "3"}}, {"type": "Feature", "geometry": {"type": "Point", "coordinates": [-77.6896, 39.3866]}, "properties": {"NAME": "W3/WE-013", "TITLE": "Blue Ridge", "REGION": "Western", "ASSOCIATION": "USA - DE / MD / PA", "POINTS": "2", "BONUSPOINTS": "3"}}, {"type": "Feature", "geometry": {"type": "Point", "coordinates": [-78.2345, 39.678]}, "properties": {"NAME": "W3/WE-014", "TITLE": "Roundtop Hill", "REGION": "Western", "ASSOCIATION": "USA - DE / MD / PA", "POINTS": "1", "BONUSPOINTS": "0"}}, {"type": "Feature", "geometry": {"type": "Point", "coordinates": [-78.6199, 39.7194]}, "properties": {"NAME": "W3/WE-015", "TITLE": "Martin Mountain", "REGION": "Western", "ASSOCIATION": "USA - DE / MD / PA", "POINTS": "4", "BONUSPOINTS": "3"}}, {"type": "Feature", "geometry": {"type": "Point", "coordinates": [-78.9025, 39.519]}, "properties": {"NAME": "W3/WE-016", "TITLE": "Fort Hill", "REGION": "Western", "ASSOCIATION": "USA - DE / MD / PA", "POINTS": "2", "BONUSPOINTS": "3"}}, {"type": "Feature", "geometry": {"type": "Point", "coordinates": [-78.7113, 39.7187]}, "properties": {"NAME": "W3/WE-017", "TITLE": "1530", "REGION": "Western", "ASSOCIATION": "USA - DE / MD / PA", "POINTS": "2", "BONUSPOINTS": "3"}}, {"type": "Feature", "geometry": {"type": "Point", "coordinates": [-78.7243, 39.7086]}, "properties": {"NAME": "W3/WE-018", "TITLE": "1510", "REGION": "Western", "ASSOCIATION": "USA - DE / MD / PA", "POINTS": "2", "BONUSPOINTS": "3"}}, {"type": "Feature", "geometry": {"type": "Point", "coordinates": [-77.7002, 39.4532]}, "properties": {"NAME": "W3/WE-019", "TITLE": "Red Hill", "REGION": "Western", "ASSOCIATION": "USA - DE / MD / PA", "POINTS": "1", "BONUSPOINTS": "0"}}]}