{"type": "FeatureCollection", "name": "W4C/US SUMMITS", "features": [{"type": "Feature", "geometry": {"type": "Point", "coordinates": [-82.7773, 35.0652]}, "properties": {"NAME": "W4C/US-001", "TITLE": "Sassafras Mountain", "REGION": "SC-Upstate", "ASSOCIATION": "USA - Carolinas", "POINTS": "4", "BONUSPOINTS": "3"}}, {"type": "Feature", "geometry": {"type": "Point", "coordinates": [-82.7417, 35.0335]}, "properties": {"NAME": "W4C/US-002", "TITLE": "Pinnacle Mountain", "REGION": "SC-Upstate", "ASSOCIATION": "USA - Carolinas", "POINTS": "4", "BONUSPOINTS": "3"}}, {"type": "Feature", "geometry": {"type": "Point", "coordinates": [-82.6747, 35.0972]}, "properties": {"NAME": "W4C/US-003", "TITLE": "Coldbranch Mountain", "REGION": "SC-Upstate", "ASSOCIATION": "USA - Carolinas", "POINTS": "4", "BONUSPOINTS": "3"}}, {"type": "Feature", "geometry": {"type": "Point", "coordinates": [-83.0804, 34.9928]}, "properties": {"NAME": "W4C/US-004", "TITLE": "Fork Mountain", "REGION": "SC-Upstate", "ASSOCIATION": "USA - Carolinas", "POINTS": "4", "BONUSPOINTS": "3"}}, {"type": "Feature", "geometry": {"type": "Point", "coordinates": [-82.2904, 35.1701]}, "properties": {"NAME": "W4C/US-005", "TITLE": "Hogback Mountain", "REGION": "SC-Upstate", "ASSOCIATION": "USA - Carolinas", "POINTS": "4", "BONUSPOINTS": "3"}}, {"type": "Feature", "geometry": {"type": "Point", "coordinates": [-82.7035, 35.0507]}, "properties": {"NAME": "W4C/US-006", "TITLE": "Table Rock", "REGION": "SC-Upstate", "ASSOCIATION": "USA - Carolinas", "POINTS": "4", "BONUSPOINTS": "3"}}, {"type": "Feature", "geometry": {"type": "Point", "coordinates": [-82.2929, 35.1839]}, "properties": {"NAME": "W4C/US-007", "TITLE": "Rocky Spur", "REGION": "SC-Upstate", "ASSOCIATION": "USA - Carolinas", "POINTS": "4", "BONUSPOINTS": "3"}}, {"type": "Feature", "geometry": {"type": "Point", "coordinates": [-82.3361, 35.1561]}, "properties": {"NAME": "W4C/US-008", "TITLE": "Rich Mountain", "REGION": "SC-Upstate", "ASSOCIATION": "USA - Carolinas", "POINTS": "4", "BONUSPOINTS": "3"}}, {"type": "Feature", "geometry": {"type": "Point", "coordinates": [-82.4347, 35.1683]}, "properties": {"NAME": "W4C/US-009", "TITLE": "Corbin Mountain", "REGION": "SC-Upstate", "ASSOCIATION": "USA - Carolinas", "POINTS": "4", "BONUSPOINTS": "3"}}, {"type": "Feature", "geometry": {"type": "Point", "coordinates": [-82.4574, 35.1654]}, "properties": {"NAME": "W4C/US-010", "TITLE": "Panther Mountain", "REGION": "SC-Upstate", "ASSOCIATION": "USA - Carolinas", "POINTS": "2", "BONUSPOINTS": "0"}}, {"type": "Feature", "geometry": {"type": "Point", "coordinates": [-82.3827, 35.1944]}, "properties": {"NAME": "W4C/US-011", "TITLE": "Evans Mountain", "REGION": "SC-Upstate", "ASSOCIATION": "USA - Carolinas", "POINTS": "2", "BONUSPOINTS": "0"}}, {"type": "Feature", "geometry": {"type": "Point", "coordinates": [-82.4051, 35.1894]}, "properties": {"NAME": "W4C/US-012", "TITLE": "Walnut Mountain", "REGION": "SC-Upstate", "ASSOCIATION": "USA - Carolinas", "POINTS": "2", "BONUSPOINTS": "0"}}, {"type": "Feature", "geometry": {"type": "Point", "coordinates": [-83.1327, 34.9126]}, "properties": {"NAME": "W4C/US-013", "TITLE": "Big Stakey Mountain", "REGION": "SC-Upstate", "ASSOCIATION": "USA - Carolinas", "POINTS": "2", "BONUSPOINTS": "0"}}, {"type": "Feature", "geometry": {"type": "Point", "coordinates": [-82.8817, 35.0205]}, "properties": {"NAME": "W4C/US-014", "TITLE": "Laurel Fork Mountain", "REGION": "SC-Upstate", "ASSOCIATION": "USA - Carolinas", "POINTS": "2", "BONUSPOINTS": "0"}}, {"type": "Feature", "geometry": {"type": "Point", "coordinates": [-82.8037, 35.0174]}, "properties": {"NAME": "W4C/US-015", "TITLE": "Rich Mountain", "REGION": "SC-Upstate", "ASSOCIATION": "USA - Carolinas", "POINTS": "2", "BONUSPOINTS": "0"}}, {"type": "Feature", "geometry": {"type": "Point", "coordinates": [-82.9586, 35.0118]}, "properties": {"NAME": "W4C/US-016", "TITLE": "Musterground Mountain", "REGION": "SC-Upstate", "ASSOCIATION": "USA - Carolinas", "POINTS": "2", "BONUSPOINTS": "0"}}, {"type": "Feature", "geometry": {"type": "Point", "coordinates": [-82.4031, 35.161]}, "properties": {"NAME": "W4C/US-017", "TITLE": "Plumley Mountain", "REGION": "SC-Upstate", "ASSOCIATION": "USA - Carolinas", "POINTS": "2", "BONUSPOINTS": "0"}}, {"type": "Feature", "geometry": {"type": "Point", "coordinates": [-83.2363, 34.8337]}, "properties": {"NAME": "W4C/US-018", "TITLE": "John Mountain", "REGION": "SC-Upstate", "ASSOCIATION": "USA - Carolinas", "POINTS": "2", "BONUSPOINTS": "0"}}, {"type": "Feature", "geometry": {"type": "Point", "coordinates": [-82.4114, 34.9416]}, "properties": {"NAME": "W4C/US-019", "TITLE": "Paris Mountain", "REGION": "SC-Upstate", "ASSOCIATION": "USA - Carolinas", "POINTS": "1", "BONUSPOINTS": "0"}}, {"type": "Feature", "geometry": {"type": "Point", "coordinates": [-82.512, 35.1274]}, "properties": {"NAME": "W4C/US-020", "TITLE": "Osborne Mountain", "REGION": "SC-Upstate", "ASSOCIATION": "USA - Carolinas", "POINTS": "1", "BONUSPOINTS": "0"}}, {"type": "Feature", "geometry": {"type": "Point", "coordinates": [-82.7037, 34.9718]}, "properties": {"NAME": "W4C/US-021", "TITLE": "Brown Mountain", "REGION": "SC-Upstate", "ASSOCIATION": "USA - Carolinas", "POINTS": "1", "BONUSPOINTS": "0"}}, {"type": "Feature", "geometry": {"type": "Point", "coordinates": [-82.8124, 34.9968]}, "properties": {"NAME": "W4C/US-022", "TITLE": "Sharp Top Mountain", "REGION": "SC-Upstate", "ASSOCIATION": "USA - Carolinas", "POINTS": "1", "BONUSPOINTS": "0"}}, {"type": "Feature", "geometry": {"type": "Point", "coordinates": [-82.8362, 34.9804]}, "properties": {"NAME": "W4C/US-023", "TITLE": "Wadakoe Mountain", "REGION": "SC-Upstate", "ASSOCIATION": "USA - Carolinas", "POINTS": "1", "BONUSPOINTS": "0"}}, {"type": "Feature", "geometry": {"type": "Point", "coordinates": [-82.7364, 34.9791]}, "properties": {"NAME": "W4C/US-024", "TITLE": "Walnut Cove Mountain", "REGION": "SC-Upstate", "ASSOCIATION": "USA - Carolinas", "POINTS": "1", "BONUSPOINTS": "0"}}, {"type": "Feature", "geometry": {"type": "Point", "coordinates": [-82.8146, 34.9409]}, "properties": {"NAME": "W4C/US-025", "TITLE": "Rocky Bald Mountain", "REGION": "SC-Upstate", "ASSOCIATION": "USA - Carolinas", "POINTS": "1", "BONUSPOINTS": "0"}}, {"type": "Feature", "geometry": {"type": "Point", "coordinates": [-82.774, 34.9682]}, "properties": {"NAME": "W4C/US-026", "TITLE": "Odle Mountain", "REGION": "SC-Upstate", "ASSOCIATION": "USA - Carolinas", "POINTS": "1", "BONUSPOINTS": "0"}}, {"type": "Feature", "geometry": {"type": "Point", "coordinates": [-82.4163, 35.1147]}, "properties": {"NAME": "W4C/US-027", "TITLE": "Chestnut Mountain", "REGION": "SC-Upstate", "ASSOCIATION": "USA - Carolinas", "POINTS": "1", "BONUSPOINTS": "0"}}, {"type": "Feature", "geometry": {"type": "Point", "coordinates": [-82.475, 35.1095]}, "properties": {"NAME": "W4C/US-028", "TITLE": "1791", "REGION": "SC-Upstate", "ASSOCIATION": "USA - Carolinas", "POINTS": "1", "BONUSPOINTS": "0"}}, {"type": "Feature", "geometry": {"type": "Point", "coordinates": [-82.847, 34.9348]}, "properties": {"NAME": "W4C/US-029", "TITLE": "Cedar Creek Mountain", "REGION": "SC-Upstate", "ASSOCIATION": "USA - Carolinas", "POINTS": "1", "BONUSPOINTS": "0"}}, {"type": "Feature", "geometry": {"type": "Point", "coordinates": [-82.6599, 34.9007]}, "properties": {"NAME": "W4C/US-030", "TITLE": "Glassy Mountain", "REGION": "SC-Upstate", "ASSOCIATION": "USA - Carolinas", "POINTS": "1", "BONUSPOINTS": "0"}}, {"type": "Feature", "geometry": {"type": "Point", "coordinates": [-82.7804, 34.9454]}, "properties": {"NAME": "W4C/US-031", "TITLE": "Turkey Cock Mountain", "REGION": "SC-Upstate", "ASSOCIATION": "USA - Carolinas", "POINTS": "1", "BONUSPOINTS": "0"}}, {"type": "Feature", "geometry": {"type": "Point", "coordinates": [-82.8779, 34.9878]}, "properties": {"NAME": "W4C/US-032", "TITLE": "Piney Mountain", "REGION": "SC-Upstate", "ASSOCIATION": "USA - Carolinas", "POINTS": "1", "BONUSPOINTS": "0"}}, {"type": "Feature", "geometry": {"type": "Point", "coordinates": [-83.1202, 34.9484]}, "properties": {"NAME": "W4C/US-033", "TITLE": "Round Top", "REGION": "SC-Upstate", "ASSOCIATION": "USA - Carolinas", "POINTS": "2", "BONUSPOINTS": "0"}}]}