{"type": "FeatureCollection", "name": "W7I/CU SUMMITS", "features": [{"type": "Feature", "geometry": {"type": "Point", "coordinates": [-113.7811, 44.1373]}, "properties": {"NAME": "W7I/CU-001", "TITLE": "Borah Peak", "REGION": "ID - Custer County", "ASSOCIATION": "USA - Idaho", "POINTS": "10", "BONUSPOINTS": "3"}}, {"type": "Feature", "geometry": {"type": "Point", "coordinates": [-113.7332, 44.0821]}, "properties": {"NAME": "W7I/CU-002", "TITLE": "Leatherman Peak", "REGION": "ID - Custer County", "ASSOCIATION": "USA - Idaho", "POINTS": "10", "BONUSPOINTS": "3"}}, {"type": "Feature", "geometry": {"type": "Point", "coordinates": [-113.7134, 44.066]}, "properties": {"NAME": "W7I/CU-003", "TITLE": "Mount Church", "REGION": "ID - Custer County", "ASSOCIATION": "USA - Idaho", "POINTS": "10", "BONUSPOINTS": "3"}}, {"type": "Feature", "geometry": {"type": "Point", "coordinates": [-113.6729, 44.0651]}, "properties": {"NAME": "W7I/CU-004", "TITLE": "Mount Breitenbach", "REGION": "ID - Custer County", "ASSOCIATION": "USA - Idaho", "POINTS": "10", "BONUSPOINTS": "3"}}, {"type": "Feature", "geometry": {"type": "Point", "coordinates": [-113.6546, 44.0421]}, "properties": {"NAME": "W7I/CU-005", "TITLE": "Lost River Mountain", "REGION": "ID - Custer County", "ASSOCIATION": "USA - Idaho", "POINTS": "10", "BONUSPOINTS": "3"}}, {"type": "Feature", "geometry": {"type": "Point", "coordinates": [-113.7776, 44.106]}, "properties": {"NAME": "W7I/CU-006", "TITLE": "Mount Idaho", "REGION": "ID - Custer County", "ASSOCIATION": "USA - Idaho", "POINTS": "10", "BONUSPOINTS": "3"}}, {"type": "Feature", "geometry": {"type": "Point", "coordinates": [-113.5819, 44.0132]}, "properties": {"NAME": "W7I/CU-007", "TITLE": "McCaleb Benchmark", "REGION": "ID - Custer County", "ASSOCIATION": "USA - Idaho", "POINTS": "10", "BONUSPOINTS": "3"}}, {"type": "Feature", "geometry": {"type": "Point", "coordinates": [-113.7726, 44.0937]}, "properties": {"NAME": "W7I/CU-008", "TITLE": "11967", "REGION": "ID - Custer County", "ASSOCIATION": "USA - Idaho", "POINTS": "10", "BONUSPOINTS": "3"}}, {"type": "Feature", "geometry": {"type": "Point", "coordinates": [-113.7252, 44.0742]}, "properties": {"NAME": "W7I/CU-009", "TITLE": "Bad Rock Peak", "REGION": "ID - Custer County", "ASSOCIATION": "USA - Idaho", "POINTS": "10", "BONUSPOINTS": "3"}}, {"type": "Feature", "geometry": {"type": "Point", "coordinates": [-113.6254, 44.0452]}, "properties": {"NAME": "W7I/CU-010", "TITLE": "Far Away Mountain", "REGION": "ID - Custer County", "ASSOCIATION": "USA - Idaho", "POINTS": "10", "BONUSPOINTS": "3"}}, {"type": "Feature", "geometry": {"type": "Point", "coordinates": [-113.7545, 44.0845]}, "properties": {"NAME": "W7I/CU-011", "TITLE": "White Cap Peak", "REGION": "ID - Custer County", "ASSOCIATION": "USA - Idaho", "POINTS": "10", "BONUSPOINTS": "3"}}, {"type": "Feature", "geometry": {"type": "Point", "coordinates": [-114.0301, 43.7747]}, "properties": {"NAME": "W7I/CU-012", "TITLE": "The Fin", "REGION": "ID - Custer County", "ASSOCIATION": "USA - Idaho", "POINTS": "10", "BONUSPOINTS": "3"}}, {"type": "Feature", "geometry": {"type": "Point", "coordinates": [-114.1523, 43.7986]}, "properties": {"NAME": "W7I/CU-013", "TITLE": "Devils Bedstead East", "REGION": "ID - Custer County", "ASSOCIATION": "USA - Idaho", "POINTS": "10", "BONUSPOINTS": "3"}}, {"type": "Feature", "geometry": {"type": "Point", "coordinates": [-113.6705, 44.1145]}, "properties": {"NAME": "W7I/CU-014", "TITLE": "Mount Corruption", "REGION": "ID - Custer County", "ASSOCIATION": "USA - Idaho", "POINTS": "10", "BONUSPOINTS": "3"}}, {"type": "Feature", "geometry": {"type": "Point", "coordinates": [-114.0074, 43.7926]}, "properties": {"NAME": "W7I/CU-015", "TITLE": "Altair Peak", "REGION": "ID - Custer County", "ASSOCIATION": "USA - Idaho", "POINTS": "10", "BONUSPOINTS": "3"}}, {"type": "Feature", "geometry": {"type": "Point", "coordinates": [-114.5867, 44.0398]}, "properties": {"NAME": "W7I/CU-016", "TITLE": "Castle Peak", "REGION": "ID - Custer County", "ASSOCIATION": "USA - Idaho", "POINTS": "10", "BONUSPOINTS": "3"}}, {"type": "Feature", "geometry": {"type": "Point", "coordinates": [-114.0123, 43.8122]}, "properties": {"NAME": "W7I/CU-017", "TITLE": "Pegasus Peak", "REGION": "ID - Custer County", "ASSOCIATION": "USA - Idaho", "POINTS": "10", "BONUSPOINTS": "3"}}, {"type": "Feature", "geometry": {"type": "Point", "coordinates": [-113.5538, 44.0336]}, "properties": {"NAME": "W7I/CU-018", "TITLE": "Ross Peak", "REGION": "ID - Custer County", "ASSOCIATION": "USA - Idaho", "POINTS": "10", "BONUSPOINTS": "3"}}, {"type": "Feature", "geometry": {"type": "Point", "coordinates": [-114.4094, 43.9023]}, "properties": {"NAME": "W7I/CU-019", "TITLE": "Ryan Peak", "REGION": "ID - Custer County", "ASSOCIATION": "USA - Idaho", "POINTS": "10", "BONUSPOINTS": "3"}}, {"type": "Feature", "geometry": {"type": "Point", "coordinates": [-114.0673, 43.7972]}, "properties": {"NAME": "W7I/CU-020", "TITLE": "Angels Perch", "REGION": "ID - Custer County", "ASSOCIATION": "USA - Idaho", "POINTS": "10", "BONUSPOINTS": "3"}}, {"type": "Feature", "geometry": {"type": "Point", "coordinates": [-113.5981, 43.9939]}, "properties": {"NAME": "W7I/CU-021", "TITLE": "Mount McCaleb", "REGION": "ID - Custer County", "ASSOCIATION": "USA - Idaho", "POINTS": "10", "BONUSPOINTS": "3"}}, {"type": "Feature", "geometry": {"type": "Point", "coordinates": [-113.8001, 44.2044]}, "properties": {"NAME": "W7I/CU-022", "TITLE": "Doublespring Peak", "REGION": "ID - Custer County", "ASSOCIATION": "USA - Idaho", "POINTS": "10", "BONUSPOINTS": "3"}}, {"type": "Feature", "geometry": {"type": "Point", "coordinates": [-114.4812, 43.9122]}, "properties": {"NAME": "W7I/CU-023", "TITLE": "Glassford Peak", "REGION": "ID - Custer County", "ASSOCIATION": "USA - Idaho", "POINTS": "10", "BONUSPOINTS": "3"}}, {"type": "Feature", "geometry": {"type": "Point", "coordinates": [-113.6053, 44.0767]}, "properties": {"NAME": "W7I/CU-024", "TITLE": "Ferguson Peak", "REGION": "ID - Custer County", "ASSOCIATION": "USA - Idaho", "POINTS": "10", "BONUSPOINTS": "3"}}, {"type": "Feature", "geometry": {"type": "Point", "coordinates": [-113.6465, 44.0952]}, "properties": {"NAME": "W7I/CU-025", "TITLE": "Cleft Peak", "REGION": "ID - Custer County", "ASSOCIATION": "USA - Idaho", "POINTS": "10", "BONUSPOINTS": "3"}}, {"type": "Feature", "geometry": {"type": "Point", "coordinates": [-113.81, 43.6995]}, "properties": {"NAME": "W7I/CU-026", "TITLE": "Smiley Mountain", "REGION": "ID - Custer County", "ASSOCIATION": "USA - Idaho", "POINTS": "10", "BONUSPOINTS": "3"}}, {"type": "Feature", "geometry": {"type": "Point", "coordinates": [-114.6242, 44.1182]}, "properties": {"NAME": "W7I/CU-027", "TITLE": "Calkens Peak", "REGION": "ID - Custer County", "ASSOCIATION": "USA - Idaho", "POINTS": "10", "BONUSPOINTS": "3"}}, {"type": "Feature", "geometry": {"type": "Point", "coordinates": [-113.6037, 44.0426]}, "properties": {"NAME": "W7I/CU-028", "TITLE": "The Moat", "REGION": "ID - Custer County", "ASSOCIATION": "USA - Idaho", "POINTS": "10", "BONUSPOINTS": "3"}}, {"type": "Feature", "geometry": {"type": "Point", "coordinates": [-113.8008, 44.1014]}, "properties": {"NAME": "W7I/CU-029", "TITLE": "Mount Morrison", "REGION": "ID - Custer County", "ASSOCIATION": "USA - Idaho", "POINTS": "10", "BONUSPOINTS": "3"}}, {"type": "Feature", "geometry": {"type": "Point", "coordinates": [-113.9801, 43.8225]}, "properties": {"NAME": "W7I/CU-030", "TITLE": "Big Black Dome", "REGION": "ID - Custer County", "ASSOCIATION": "USA - Idaho", "POINTS": "10", "BONUSPOINTS": "3"}}, {"type": "Feature", "geometry": {"type": "Point", "coordinates": [-114.6284, 44.1028]}, "properties": {"NAME": "W7I/CU-031", "TITLE": "D.O. Lee Peak", "REGION": "ID - Custer County", "ASSOCIATION": "USA - Idaho", "POINTS": "10", "BONUSPOINTS": "3"}}, {"type": "Feature", "geometry": {"type": "Point", "coordinates": [-113.5151, 43.9663]}, "properties": {"NAME": "W7I/CU-032", "TITLE": "Invisible Mountain", "REGION": "ID - Custer County", "ASSOCIATION": "USA - Idaho", "POINTS": "10", "BONUSPOINTS": "3"}}, {"type": "Feature", "geometry": {"type": "Point", "coordinates": [-113.5378, 43.9929]}, "properties": {"NAME": "W7I/CU-033", "TITLE": "Wet Peak", "REGION": "ID - Custer County", "ASSOCIATION": "USA - Idaho", "POINTS": "10", "BONUSPOINTS": "3"}}, {"type": "Feature", "geometry": {"type": "Point", "coordinates": [-114.6122, 44.0753]}, "properties": {"NAME": "W7I/CU-034", "TITLE": "Lonesome Peak", "REGION": "ID - Custer County", "ASSOCIATION": "USA - Idaho", "POINTS": "10", "BONUSPOINTS": "3"}}, {"type": "Feature", "geometry": {"type": "Point", "coordinates": [-113.7265, 43.8265]}, "properties": {"NAME": "W7I/CU-035", "TITLE": "Shelly Mountain", "REGION": "ID - Custer County", "ASSOCIATION": "USA - Idaho", "POINTS": "10", "BONUSPOINTS": "3"}}, {"type": "Feature", "geometry": {"type": "Point", "coordinates": [-113.733, 43.8366]}, "properties": {"NAME": "W7I/CU-036", "TITLE": "Redbird Mountain", "REGION": "ID - Custer County", "ASSOCIATION": "USA - Idaho", "POINTS": "10", "BONUSPOINTS": "3"}}, {"type": "Feature", "geometry": {"type": "Point", "coordinates": [-114.6092, 44.091]}, "properties": {"NAME": "W7I/CU-037", "TITLE": "Mount Andrus", "REGION": "ID - Custer County", "ASSOCIATION": "USA - Idaho", "POINTS": "10", "BONUSPOINTS": "3"}}, {"type": "Feature", "geometry": {"type": "Point", "coordinates": [-113.5316, 44.0301]}, "properties": {"NAME": "W7I/CU-038", "TITLE": "Last Lost Peak", "REGION": "ID - Custer County", "ASSOCIATION": "USA - Idaho", "POINTS": "10", "BONUSPOINTS": "3"}}, {"type": "Feature", "geometry": {"type": "Point", "coordinates": [-113.7638, 43.8476]}, "properties": {"NAME": "W7I/CU-039", "TITLE": "Cabin Mountain", "REGION": "ID - Custer County", "ASSOCIATION": "USA - Idaho", "POINTS": "10", "BONUSPOINTS": "3"}}, {"type": "Feature", "geometry": {"type": "Point", "coordinates": [-113.8455, 43.7029]}, "properties": {"NAME": "W7I/CU-040", "TITLE": "Alcyon Peak", "REGION": "ID - Custer County", "ASSOCIATION": "USA - Idaho", "POINTS": "10", "BONUSPOINTS": "3"}}, {"type": "Feature", "geometry": {"type": "Point", "coordinates": [-114.5757, 44.085]}, "properties": {"NAME": "W7I/CU-041", "TITLE": "Cardiac Peak", "REGION": "ID - Custer County", "ASSOCIATION": "USA - Idaho", "POINTS": "10", "BONUSPOINTS": "3"}}, {"type": "Feature", "geometry": {"type": "Point", "coordinates": [-113.7985, 43.7285]}, "properties": {"NAME": "W7I/CU-042", "TITLE": "The Ramp", "REGION": "ID - Custer County", "ASSOCIATION": "USA - Idaho", "POINTS": "10", "BONUSPOINTS": "3"}}, {"type": "Feature", "geometry": {"type": "Point", "coordinates": [-113.8835, 44.2293]}, "properties": {"NAME": "W7I/CU-043", "TITLE": "Dickey Peak", "REGION": "ID - Custer County", "ASSOCIATION": "USA - Idaho", "POINTS": "10", "BONUSPOINTS": "3"}}, {"type": "Feature", "geometry": {"type": "Point", "coordinates": [-113.889, 44.2864]}, "properties": {"NAME": "W7I/CU-044", "TITLE": "Pavlos Peak", "REGION": "ID - Custer County", "ASSOCIATION": "USA - Idaho", "POINTS": "10", "BONUSPOINTS": "3"}}, {"type": "Feature", "geometry": {"type": "Point", "coordinates": [-113.9363, 44.3163]}, "properties": {"NAME": "W7I/CU-045", "TITLE": "Gooseberry Peak", "REGION": "ID - Custer County", "ASSOCIATION": "USA - Idaho", "POINTS": "10", "BONUSPOINTS": "3"}}, {"type": "Feature", "geometry": {"type": "Point", "coordinates": [-113.9081, 44.3661]}, "properties": {"NAME": "W7I/CU-046", "TITLE": "Grouse Creek Mountain", "REGION": "ID - Custer County", "ASSOCIATION": "USA - Idaho", "POINTS": "10", "BONUSPOINTS": "3"}}, {"type": "Feature", "geometry": {"type": "Point", "coordinates": [-113.9078, 44.2813]}, "properties": {"NAME": "W7I/CU-047", "TITLE": "Petros Peak", "REGION": "ID - Custer County", "ASSOCIATION": "USA - Idaho", "POINTS": "10", "BONUSPOINTS": "3"}}, {"type": "Feature", "geometry": {"type": "Point", "coordinates": [-113.9269, 44.3383]}, "properties": {"NAME": "W7I/CU-048", "TITLE": "Trinity Peak", "REGION": "ID - Custer County", "ASSOCIATION": "USA - Idaho", "POINTS": "10", "BONUSPOINTS": "3"}}, {"type": "Feature", "geometry": {"type": "Point", "coordinates": [-114.3901, 43.9401]}, "properties": {"NAME": "W7I/CU-049", "TITLE": "Griswold Peak", "REGION": "ID - Custer County", "ASSOCIATION": "USA - Idaho", "POINTS": "10", "BONUSPOINTS": "3"}}, {"type": "Feature", "geometry": {"type": "Point", "coordinates": [-113.8713, 43.7256]}, "properties": {"NAME": "W7I/CU-050", "TITLE": "Atlas Peak", "REGION": "ID - Custer County", "ASSOCIATION": "USA - Idaho", "POINTS": "10", "BONUSPOINTS": "3"}}, {"type": "Feature", "geometry": {"type": "Point", "coordinates": [-113.9171, 44.3221]}, "properties": {"NAME": "W7I/CU-051", "TITLE": "Hope Peak", "REGION": "ID - Custer County", "ASSOCIATION": "USA - Idaho", "POINTS": "10", "BONUSPOINTS": "3"}}, {"type": "Feature", "geometry": {"type": "Point", "coordinates": [-113.8776, 44.2524]}, "properties": {"NAME": "W7I/CU-052", "TITLE": "Corner Shot Peak", "REGION": "ID - Custer County", "ASSOCIATION": "USA - Idaho", "POINTS": "8", "BONUSPOINTS": "3"}}, {"type": "Feature", "geometry": {"type": "Point", "coordinates": [-113.5468, 44.0603]}, "properties": {"NAME": "W7I/CU-053", "TITLE": "Massacre Mountain", "REGION": "ID - Custer County", "ASSOCIATION": "USA - Idaho", "POINTS": "8", "BONUSPOINTS": "3"}}, {"type": "Feature", "geometry": {"type": "Point", "coordinates": [-114.5808, 44.0522]}, "properties": {"NAME": "W7I/CU-054", "TITLE": "Merriam Peak", "REGION": "ID - Custer County", "ASSOCIATION": "USA - Idaho", "POINTS": "8", "BONUSPOINTS": "3"}}, {"type": "Feature", "geometry": {"type": "Point", "coordinates": [-114.3603, 44.0644]}, "properties": {"NAME": "W7I/CU-055", "TITLE": "Sheep Mountain", "REGION": "ID - Custer County", "ASSOCIATION": "USA - Idaho", "POINTS": "8", "BONUSPOINTS": "3"}}, {"type": "Feature", "geometry": {"type": "Point", "coordinates": [-114.6023, 44.0585]}, "properties": {"NAME": "W7I/CU-056", "TITLE": "10857", "REGION": "ID - Custer County", "ASSOCIATION": "USA - Idaho", "POINTS": "8", "BONUSPOINTS": "3"}}, {"type": "Feature", "geometry": {"type": "Point", "coordinates": [-113.7308, 43.8667]}, "properties": {"NAME": "W7I/CU-057", "TITLE": "White Knob Mountain", "REGION": "ID - Custer County", "ASSOCIATION": "USA - Idaho", "POINTS": "8", "BONUSPOINTS": "3"}}, {"type": "Feature", "geometry": {"type": "Point", "coordinates": [-113.5155, 44.0084]}, "properties": {"NAME": "W7I/CU-058", "TITLE": "Octoberfest Peak", "REGION": "ID - Custer County", "ASSOCIATION": "USA - Idaho", "POINTS": "8", "BONUSPOINTS": "3"}}, {"type": "Feature", "geometry": {"type": "Point", "coordinates": [-114.2547, 43.8973]}, "properties": {"NAME": "W7I/CU-059", "TITLE": "Mystery Peak", "REGION": "ID - Custer County", "ASSOCIATION": "USA - Idaho", "POINTS": "8", "BONUSPOINTS": "3"}}, {"type": "Feature", "geometry": {"type": "Point", "coordinates": [-113.8492, 43.7562]}, "properties": {"NAME": "W7I/CU-060", "TITLE": "Copper Basin Knob", "REGION": "ID - Custer County", "ASSOCIATION": "USA - Idaho", "POINTS": "8", "BONUSPOINTS": "3"}}, {"type": "Feature", "geometry": {"type": "Point", "coordinates": [-114.6534, 44.1228]}, "properties": {"NAME": "W7I/CU-061", "TITLE": "WCP-7", "REGION": "ID - Custer County", "ASSOCIATION": "USA - Idaho", "POINTS": "8", "BONUSPOINTS": "3"}}, {"type": "Feature", "geometry": {"type": "Point", "coordinates": [-115.0099, 44.1414]}, "properties": {"NAME": "W7I/CU-062", "TITLE": "Thompson Peak", "REGION": "ID - Custer County", "ASSOCIATION": "USA - Idaho", "POINTS": "8", "BONUSPOINTS": "3"}}, {"type": "Feature", "geometry": {"type": "Point", "coordinates": [-113.9244, 44.2948]}, "properties": {"NAME": "W7I/CU-063", "TITLE": "Pahsimeroi Pyramid", "REGION": "ID - Custer County", "ASSOCIATION": "USA - Idaho", "POINTS": "8", "BONUSPOINTS": "3"}}, {"type": "Feature", "geometry": {"type": "Point", "coordinates": [-113.4526, 44.3577]}, "properties": {"NAME": "W7I/CU-064", "TITLE": "Bear Mountain", "REGION": "ID - Custer County", "ASSOCIATION": "USA - Idaho", "POINTS": "8", "BONUSPOINTS": "3"}}, {"type": "Feature", "geometry": {"type": "Point", "coordinates": [-113.5221, 44.386]}, "properties": {"NAME": "W7I/CU-065", "TITLE": "10743", "REGION": "ID - Custer County", "ASSOCIATION": "USA - Idaho", "POINTS": "8", "BONUSPOINTS": "3"}}, {"type": "Feature", "geometry": {"type": "Point", "coordinates": [-113.9689, 44.3483]}, "properties": {"NAME": "W7I/CU-066", "TITLE": "McGowan Peak", "REGION": "ID - Custer County", "ASSOCIATION": "USA - Idaho", "POINTS": "8", "BONUSPOINTS": "3"}}, {"type": "Feature", "geometry": {"type": "Point", "coordinates": [-113.894, 44.2629]}, "properties": {"NAME": "W7I/CU-067", "TITLE": "Straight Shot Peak", "REGION": "ID - Custer County", "ASSOCIATION": "USA - Idaho", "POINTS": "8", "BONUSPOINTS": "3"}}, {"type": "Feature", "geometry": {"type": "Point", "coordinates": [-114.6359, 44.03]}, "properties": {"NAME": "W7I/CU-068", "TITLE": "Fourth of July Peak", "REGION": "ID - Custer County", "ASSOCIATION": "USA - Idaho", "POINTS": "8", "BONUSPOINTS": "3"}}, {"type": "Feature", "geometry": {"type": "Point", "coordinates": [-113.7129, 44.0465]}, "properties": {"NAME": "W7I/CU-069", "TITLE": "10705", "REGION": "ID - Custer County", "ASSOCIATION": "USA - Idaho", "POINTS": "8", "BONUSPOINTS": "3"}}, {"type": "Feature", "geometry": {"type": "Point", "coordinates": [-114.5738, 43.9543]}, "properties": {"NAME": "W7I/CU-070", "TITLE": "10705", "REGION": "ID - Custer County", "ASSOCIATION": "USA - Idaho", "POINTS": "8", "BONUSPOINTS": "3"}}, {"type": "Feature", "geometry": {"type": "Point", "coordinates": [-114.9676, 44.0428]}, "properties": {"NAME": "W7I/CU-071", "TITLE": "Decker Peak", "REGION": "ID - Custer County", "ASSOCIATION": "USA - Idaho", "POINTS": "8", "BONUSPOINTS": "3"}}, {"type": "Feature", "geometry": {"type": "Point", "coordinates": [-115.0058, 44.1524]}, "properties": {"NAME": "W7I/CU-072", "TITLE": "Williams Peak", "REGION": "ID - Custer County", "ASSOCIATION": "USA - Idaho", "POINTS": "8", "BONUSPOINTS": "3"}}, {"type": "Feature", "geometry": {"type": "Point", "coordinates": [-114.5966, 43.9425]}, "properties": {"NAME": "W7I/CU-073", "TITLE": "Alta Peak", "REGION": "ID - Custer County", "ASSOCIATION": "USA - Idaho", "POINTS": "8", "BONUSPOINTS": "3"}}, {"type": "Feature", "geometry": {"type": "Point", "coordinates": [-113.9701, 44.3674]}, "properties": {"NAME": "W7I/CU-074", "TITLE": "10620", "REGION": "ID - Custer County", "ASSOCIATION": "USA - Idaho", "POINTS": "8", "BONUSPOINTS": "3"}}, {"type": "Feature", "geometry": {"type": "Point", "coordinates": [-113.8853, 43.6621]}, "properties": {"NAME": "W7I/CU-075", "TITLE": "10613", "REGION": "ID - Custer County", "ASSOCIATION": "USA - Idaho", "POINTS": "8", "BONUSPOINTS": "3"}}, {"type": "Feature", "geometry": {"type": "Point", "coordinates": [-114.658, 44.1355]}, "properties": {"NAME": "W7I/CU-076", "TITLE": "WCP-5", "REGION": "ID - Custer County", "ASSOCIATION": "USA - Idaho", "POINTS": "8", "BONUSPOINTS": "3"}}, {"type": "Feature", "geometry": {"type": "Point", "coordinates": [-113.5455, 44.3938]}, "properties": {"NAME": "W7I/CU-077", "TITLE": "10592", "REGION": "ID - Custer County", "ASSOCIATION": "USA - Idaho", "POINTS": "8", "BONUSPOINTS": "3"}}, {"type": "Feature", "geometry": {"type": "Point", "coordinates": [-114.6605, 44.1562]}, "properties": {"NAME": "W7I/CU-078", "TITLE": "WCP-3", "REGION": "ID - Custer County", "ASSOCIATION": "USA - Idaho", "POINTS": "8", "BONUSPOINTS": "3"}}, {"type": "Feature", "geometry": {"type": "Point", "coordinates": [-114.2179, 43.8219]}, "properties": {"NAME": "W7I/CU-079", "TITLE": "Summit Creek Peak", "REGION": "ID - Custer County", "ASSOCIATION": "USA - Idaho", "POINTS": "8", "BONUSPOINTS": "3"}}, {"type": "Feature", "geometry": {"type": "Point", "coordinates": [-114.3298, 43.9685]}, "properties": {"NAME": "W7I/CU-080", "TITLE": "10522", "REGION": "ID - Custer County", "ASSOCIATION": "USA - Idaho", "POINTS": "8", "BONUSPOINTS": "3"}}, {"type": "Feature", "geometry": {"type": "Point", "coordinates": [-114.6728, 44.0083]}, "properties": {"NAME": "W7I/CU-081", "TITLE": "Washington Peak", "REGION": "ID - Custer County", "ASSOCIATION": "USA - Idaho", "POINTS": "8", "BONUSPOINTS": "3"}}, {"type": "Feature", "geometry": {"type": "Point", "coordinates": [-114.6383, 43.9495]}, "properties": {"NAME": "W7I/CU-082", "TITLE": "North Deer Lake Peak", "REGION": "ID - Custer County", "ASSOCIATION": "USA - Idaho", "POINTS": "8", "BONUSPOINTS": "3"}}, {"type": "Feature", "geometry": {"type": "Point", "coordinates": [-115.002, 44.1126]}, "properties": {"NAME": "W7I/CU-083", "TITLE": "Horstmann Peak", "REGION": "ID - Custer County", "ASSOCIATION": "USA - Idaho", "POINTS": "8", "BONUSPOINTS": "3"}}, {"type": "Feature", "geometry": {"type": "Point", "coordinates": [-114.6778, 44.1389]}, "properties": {"NAME": "W7I/CU-084", "TITLE": "WCP-4", "REGION": "ID - Custer County", "ASSOCIATION": "USA - Idaho", "POINTS": "8", "BONUSPOINTS": "3"}}, {"type": "Feature", "geometry": {"type": "Point", "coordinates": [-113.9204, 43.7124]}, "properties": {"NAME": "W7I/CU-085", "TITLE": "Star Hope Peak", "REGION": "ID - Custer County", "ASSOCIATION": "USA - Idaho", "POINTS": "8", "BONUSPOINTS": "3"}}, {"type": "Feature", "geometry": {"type": "Point", "coordinates": [-114.4957, 44.5747]}, "properties": {"NAME": "W7I/CU-086", "TITLE": "White Mountain", "REGION": "ID - Custer County", "ASSOCIATION": "USA - Idaho", "POINTS": "8", "BONUSPOINTS": "3"}}, {"type": "Feature", "geometry": {"type": "Point", "coordinates": [-113.8388, 44.2746]}, "properties": {"NAME": "W7I/CU-087", "TITLE": "10420", "REGION": "ID - Custer County", "ASSOCIATION": "USA - Idaho", "POINTS": "8", "BONUSPOINTS": "3"}}, {"type": "Feature", "geometry": {"type": "Point", "coordinates": [-114.3205, 43.95]}, "properties": {"NAME": "W7I/CU-088", "TITLE": "Meridian Peak", "REGION": "ID - Custer County", "ASSOCIATION": "USA - Idaho", "POINTS": "8", "BONUSPOINTS": "3"}}, {"type": "Feature", "geometry": {"type": "Point", "coordinates": [-114.5327, 43.9796]}, "properties": {"NAME": "W7I/CU-089", "TITLE": "10405", "REGION": "ID - Custer County", "ASSOCIATION": "USA - Idaho", "POINTS": "8", "BONUSPOINTS": "3"}}, {"type": "Feature", "geometry": {"type": "Point", "coordinates": [-114.0425, 43.8592]}, "properties": {"NAME": "W7I/CU-090", "TITLE": "10380", "REGION": "ID - Custer County", "ASSOCIATION": "USA - Idaho", "POINTS": "8", "BONUSPOINTS": "3"}}, {"type": "Feature", "geometry": {"type": "Point", "coordinates": [-114.4766, 44.5932]}, "properties": {"NAME": "W7I/CU-091", "TITLE": "South Twin Peaks", "REGION": "ID - Custer County", "ASSOCIATION": "USA - Idaho", "POINTS": "8", "BONUSPOINTS": "3"}}, {"type": "Feature", "geometry": {"type": "Point", "coordinates": [-114.8027, 44.4835]}, "properties": {"NAME": "W7I/CU-092", "TITLE": "The General", "REGION": "ID - Custer County", "ASSOCIATION": "USA - Idaho", "POINTS": "8", "BONUSPOINTS": "3"}}, {"type": "Feature", "geometry": {"type": "Point", "coordinates": [-114.3442, 44.3672]}, "properties": {"NAME": "W7I/CU-093", "TITLE": "Bald Mountain", "REGION": "ID - Custer County", "ASSOCIATION": "USA - Idaho", "POINTS": "8", "BONUSPOINTS": "3"}}, {"type": "Feature", "geometry": {"type": "Point", "coordinates": [-113.5754, 44.0905]}, "properties": {"NAME": "W7I/CU-094", "TITLE": "10297", "REGION": "ID - Custer County", "ASSOCIATION": "USA - Idaho", "POINTS": "8", "BONUSPOINTS": "3"}}, {"type": "Feature", "geometry": {"type": "Point", "coordinates": [-114.3156, 43.8922]}, "properties": {"NAME": "W7I/CU-095", "TITLE": "10284", "REGION": "ID - Custer County", "ASSOCIATION": "USA - Idaho", "POINTS": "8", "BONUSPOINTS": "3"}}, {"type": "Feature", "geometry": {"type": "Point", "coordinates": [-114.1905, 43.8427]}, "properties": {"NAME": "W7I/CU-096", "TITLE": "10273", "REGION": "ID - Custer County", "ASSOCIATION": "USA - Idaho", "POINTS": "8", "BONUSPOINTS": "3"}}, {"type": "Feature", "geometry": {"type": "Point", "coordinates": [-113.9626, 43.7243]}, "properties": {"NAME": "W7I/CU-097", "TITLE": "Glide Mountain", "REGION": "ID - Custer County", "ASSOCIATION": "USA - Idaho", "POINTS": "8", "BONUSPOINTS": "3"}}, {"type": "Feature", "geometry": {"type": "Point", "coordinates": [-114.6554, 43.9142]}, "properties": {"NAME": "W7I/CU-098", "TITLE": "Gladiator Peak", "REGION": "ID - Custer County", "ASSOCIATION": "USA - Idaho", "POINTS": "8", "BONUSPOINTS": "3"}}, {"type": "Feature", "geometry": {"type": "Point", "coordinates": [-114.9767, 44.101]}, "properties": {"NAME": "W7I/CU-099", "TITLE": "Heyburn Mountain", "REGION": "ID - Custer County", "ASSOCIATION": "USA - Idaho", "POINTS": "8", "BONUSPOINTS": "3"}}, {"type": "Feature", "geometry": {"type": "Point", "coordinates": [-113.6941, 43.8655]}, "properties": {"NAME": "W7I/CU-100", "TITLE": "10201", "REGION": "ID - Custer County", "ASSOCIATION": "USA - Idaho", "POINTS": "8", "BONUSPOINTS": "3"}}, {"type": "Feature", "geometry": {"type": "Point", "coordinates": [-114.4655, 44.6057]}, "properties": {"NAME": "W7I/CU-101", "TITLE": "North Twin Peaks", "REGION": "ID - Custer County", "ASSOCIATION": "USA - Idaho", "POINTS": "8", "BONUSPOINTS": "3"}}, {"type": "Feature", "geometry": {"type": "Point", "coordinates": [-114.7123, 43.9741]}, "properties": {"NAME": "W7I/CU-102", "TITLE": "10181", "REGION": "ID - Custer County", "ASSOCIATION": "USA - Idaho", "POINTS": "8", "BONUSPOINTS": "3"}}, {"type": "Feature", "geometry": {"type": "Point", "coordinates": [-114.7052, 43.9459]}, "properties": {"NAME": "W7I/CU-103", "TITLE": "10166", "REGION": "ID - Custer County", "ASSOCIATION": "USA - Idaho", "POINTS": "8", "BONUSPOINTS": "3"}}, {"type": "Feature", "geometry": {"type": "Point", "coordinates": [-113.6103, 44.1216]}, "properties": {"NAME": "W7I/CU-104", "TITLE": "East Burnt Peak", "REGION": "ID - Custer County", "ASSOCIATION": "USA - Idaho", "POINTS": "8", "BONUSPOINTS": "3"}}, {"type": "Feature", "geometry": {"type": "Point", "coordinates": [-114.6741, 44.0853]}, "properties": {"NAME": "W7I/CU-105", "TITLE": "10132", "REGION": "ID - Custer County", "ASSOCIATION": "USA - Idaho", "POINTS": "8", "BONUSPOINTS": "3"}}, {"type": "Feature", "geometry": {"type": "Point", "coordinates": [-114.935, 43.9935]}, "properties": {"NAME": "W7I/CU-106", "TITLE": "Imogene Benchmark", "REGION": "ID - Custer County", "ASSOCIATION": "USA - Idaho", "POINTS": "8", "BONUSPOINTS": "3"}}, {"type": "Feature", "geometry": {"type": "Point", "coordinates": [-114.6982, 44.0003]}, "properties": {"NAME": "W7I/CU-107", "TITLE": "10121", "REGION": "ID - Custer County", "ASSOCIATION": "USA - Idaho", "POINTS": "8", "BONUSPOINTS": "3"}}, {"type": "Feature", "geometry": {"type": "Point", "coordinates": [-114.2826, 43.9958]}, "properties": {"NAME": "W7I/CU-108", "TITLE": "10069", "REGION": "ID - Custer County", "ASSOCIATION": "USA - Idaho", "POINTS": "8", "BONUSPOINTS": "3"}}, {"type": "Feature", "geometry": {"type": "Point", "coordinates": [-114.7802, 44.4706]}, "properties": {"NAME": "W7I/CU-109", "TITLE": "Mount Jordan", "REGION": "ID - Custer County", "ASSOCIATION": "USA - Idaho", "POINTS": "8", "BONUSPOINTS": "3"}}, {"type": "Feature", "geometry": {"type": "Point", "coordinates": [-114.707, 43.9564]}, "properties": {"NAME": "W7I/CU-110", "TITLE": "10041", "REGION": "ID - Custer County", "ASSOCIATION": "USA - Idaho", "POINTS": "8", "BONUSPOINTS": "3"}}, {"type": "Feature", "geometry": {"type": "Point", "coordinates": [-114.117, 44.0277]}, "properties": {"NAME": "W7I/CU-111", "TITLE": "10020", "REGION": "ID - Custer County", "ASSOCIATION": "USA - Idaho", "POINTS": "8", "BONUSPOINTS": "3"}}, {"type": "Feature", "geometry": {"type": "Point", "coordinates": [-114.1319, 43.8635]}, "properties": {"NAME": "W7I/CU-112", "TITLE": "10014", "REGION": "ID - Custer County", "ASSOCIATION": "USA - Idaho", "POINTS": "8", "BONUSPOINTS": "3"}}, {"type": "Feature", "geometry": {"type": "Point", "coordinates": [-114.9022, 44.4502]}, "properties": {"NAME": "W7I/CU-113", "TITLE": "Mount Loening", "REGION": "ID - Custer County", "ASSOCIATION": "USA - Idaho", "POINTS": "8", "BONUSPOINTS": "3"}}, {"type": "Feature", "geometry": {"type": "Point", "coordinates": [-113.9545, 43.9306]}, "properties": {"NAME": "W7I/CU-114", "TITLE": "Porphyry Peak", "REGION": "ID - Custer County", "ASSOCIATION": "USA - Idaho", "POINTS": "8", "BONUSPOINTS": "3"}}, {"type": "Feature", "geometry": {"type": "Point", "coordinates": [-114.821, 44.4728]}, "properties": {"NAME": "W7I/CU-115", "TITLE": "10006", "REGION": "ID - Custer County", "ASSOCIATION": "USA - Idaho", "POINTS": "8", "BONUSPOINTS": "3"}}, {"type": "Feature", "geometry": {"type": "Point", "coordinates": [-114.821, 44.4728]}, "properties": {"NAME": "W7I/CU-116", "TITLE": "10006", "REGION": "ID - Custer County", "ASSOCIATION": "USA - Idaho", "POINTS": "8", "BONUSPOINTS": "3"}}, {"type": "Feature", "geometry": {"type": "Point", "coordinates": [-114.667, 43.9451]}, "properties": {"NAME": "W7I/CU-117", "TITLE": "9988", "REGION": "ID - Custer County", "ASSOCIATION": "USA - Idaho", "POINTS": "8", "BONUSPOINTS": "3"}}, {"type": "Feature", "geometry": {"type": "Point", "coordinates": [-114.4489, 44.6214]}, "properties": {"NAME": "W7I/CU-118", "TITLE": "White Valley Mountain", "REGION": "ID - Custer County", "ASSOCIATION": "USA - Idaho", "POINTS": "8", "BONUSPOINTS": "3"}}, {"type": "Feature", "geometry": {"type": "Point", "coordinates": [-114.1499, 44.042]}, "properties": {"NAME": "W7I/CU-119", "TITLE": "9977", "REGION": "ID - Custer County", "ASSOCIATION": "USA - Idaho", "POINTS": "8", "BONUSPOINTS": "3"}}, {"type": "Feature", "geometry": {"type": "Point", "coordinates": [-114.8977, 44.4077]}, "properties": {"NAME": "W7I/CU-120", "TITLE": "Cabin Creek Peak", "REGION": "ID - Custer County", "ASSOCIATION": "USA - Idaho", "POINTS": "8", "BONUSPOINTS": "3"}}, {"type": "Feature", "geometry": {"type": "Point", "coordinates": [-114.7589, 44.1926]}, "properties": {"NAME": "W7I/CU-121", "TITLE": "Lookout Mountain", "REGION": "ID - Custer County", "ASSOCIATION": "USA - Idaho", "POINTS": "8", "BONUSPOINTS": "3"}}, {"type": "Feature", "geometry": {"type": "Point", "coordinates": [-114.5437, 44.0465]}, "properties": {"NAME": "W7I/CU-122", "TITLE": "Mount Ernie Day", "REGION": "ID - Custer County", "ASSOCIATION": "USA - Idaho", "POINTS": "8", "BONUSPOINTS": "3"}}, {"type": "Feature", "geometry": {"type": "Point", "coordinates": [-114.917, 44.5697]}, "properties": {"NAME": "W7I/CU-123", "TITLE": "Pinyon Peak", "REGION": "ID - Custer County", "ASSOCIATION": "USA - Idaho", "POINTS": "8", "BONUSPOINTS": "3"}}, {"type": "Feature", "geometry": {"type": "Point", "coordinates": [-114.7484, 43.9657]}, "properties": {"NAME": "W7I/CU-124", "TITLE": "Horton Peak", "REGION": "ID - Custer County", "ASSOCIATION": "USA - Idaho", "POINTS": "8", "BONUSPOINTS": "3"}}, {"type": "Feature", "geometry": {"type": "Point", "coordinates": [-114.3574, 44.4252]}, "properties": {"NAME": "W7I/CU-125", "TITLE": "Ramshorn Mountain", "REGION": "ID - Custer County", "ASSOCIATION": "USA - Idaho", "POINTS": "8", "BONUSPOINTS": "3"}}, {"type": "Feature", "geometry": {"type": "Point", "coordinates": [-114.6422, 44.5322]}, "properties": {"NAME": "W7I/CU-126", "TITLE": "Sherman Peak", "REGION": "ID - Custer County", "ASSOCIATION": "USA - Idaho", "POINTS": "8", "BONUSPOINTS": "3"}}, {"type": "Feature", "geometry": {"type": "Point", "coordinates": [-114.9561, 44.0662]}, "properties": {"NAME": "W7I/CU-127", "TITLE": "Little Decker", "REGION": "ID - Custer County", "ASSOCIATION": "USA - Idaho", "POINTS": "8", "BONUSPOINTS": "3"}}, {"type": "Feature", "geometry": {"type": "Point", "coordinates": [-114.7556, 44.2197]}, "properties": {"NAME": "W7I/CU-128", "TITLE": "Prospect Point", "REGION": "ID - Custer County", "ASSOCIATION": "USA - Idaho", "POINTS": "8", "BONUSPOINTS": "3"}}, {"type": "Feature", "geometry": {"type": "Point", "coordinates": [-113.808, 43.8492]}, "properties": {"NAME": "W7I/CU-129", "TITLE": "9863", "REGION": "ID - Custer County", "ASSOCIATION": "USA - Idaho", "POINTS": "8", "BONUSPOINTS": "3"}}, {"type": "Feature", "geometry": {"type": "Point", "coordinates": [-115.0497, 44.1714]}, "properties": {"NAME": "W7I/CU-130", "TITLE": "Alpine Peak", "REGION": "ID - Custer County", "ASSOCIATION": "USA - Idaho", "POINTS": "8", "BONUSPOINTS": "3"}}, {"type": "Feature", "geometry": {"type": "Point", "coordinates": [-114.2258, 43.9863]}, "properties": {"NAME": "W7I/CU-131", "TITLE": "Herd Peak", "REGION": "ID - Custer County", "ASSOCIATION": "USA - Idaho", "POINTS": "8", "BONUSPOINTS": "3"}}, {"type": "Feature", "geometry": {"type": "Point", "coordinates": [-115.0815, 44.2127]}, "properties": {"NAME": "W7I/CU-132", "TITLE": "McGown Peak", "REGION": "ID - Custer County", "ASSOCIATION": "USA - Idaho", "POINTS": "8", "BONUSPOINTS": "3"}}, {"type": "Feature", "geometry": {"type": "Point", "coordinates": [-114.6974, 44.4197]}, "properties": {"NAME": "W7I/CU-133", "TITLE": "Mount Greylock", "REGION": "ID - Custer County", "ASSOCIATION": "USA - Idaho", "POINTS": "8", "BONUSPOINTS": "3"}}, {"type": "Feature", "geometry": {"type": "Point", "coordinates": [-113.829, 44.3327]}, "properties": {"NAME": "W7I/CU-134", "TITLE": "9854", "REGION": "ID - Custer County", "ASSOCIATION": "USA - Idaho", "POINTS": "8", "BONUSPOINTS": "3"}}, {"type": "Feature", "geometry": {"type": "Point", "coordinates": [-114.7403, 44.5277]}, "properties": {"NAME": "W7I/CU-135", "TITLE": "Mayfield Peak", "REGION": "ID - Custer County", "ASSOCIATION": "USA - Idaho", "POINTS": "8", "BONUSPOINTS": "3"}}, {"type": "Feature", "geometry": {"type": "Point", "coordinates": [-114.3861, 44.4694]}, "properties": {"NAME": "W7I/CU-136", "TITLE": "9838", "REGION": "ID - Custer County", "ASSOCIATION": "USA - Idaho", "POINTS": "8", "BONUSPOINTS": "3"}}, {"type": "Feature", "geometry": {"type": "Point", "coordinates": [-114.7197, 44.0611]}, "properties": {"NAME": "W7I/CU-137", "TITLE": "9820", "REGION": "ID - Custer County", "ASSOCIATION": "USA - Idaho", "POINTS": "8", "BONUSPOINTS": "3"}}, {"type": "Feature", "geometry": {"type": "Point", "coordinates": [-115.0685, 44.2059]}, "properties": {"NAME": "W7I/CU-138", "TITLE": "9820", "REGION": "ID - Custer County", "ASSOCIATION": "USA - Idaho", "POINTS": "8", "BONUSPOINTS": "3"}}, {"type": "Feature", "geometry": {"type": "Point", "coordinates": [-114.6558, 44.1882]}, "properties": {"NAME": "W7I/CU-139", "TITLE": "9820", "REGION": "ID - Custer County", "ASSOCIATION": "USA - Idaho", "POINTS": "8", "BONUSPOINTS": "3"}}, {"type": "Feature", "geometry": {"type": "Point", "coordinates": [-114.577, 44.4115]}, "properties": {"NAME": "W7I/CU-140", "TITLE": "Cinnibar Benchmark", "REGION": "ID - Custer County", "ASSOCIATION": "USA - Idaho", "POINTS": "8", "BONUSPOINTS": "3"}}, {"type": "Feature", "geometry": {"type": "Point", "coordinates": [-114.688, 44.4846]}, "properties": {"NAME": "W7I/CU-141", "TITLE": "9785", "REGION": "ID - Custer County", "ASSOCIATION": "USA - Idaho", "POINTS": "8", "BONUSPOINTS": "3"}}, {"type": "Feature", "geometry": {"type": "Point", "coordinates": [-114.8178, 44.1627]}, "properties": {"NAME": "W7I/CU-142", "TITLE": "9780", "REGION": "ID - Custer County", "ASSOCIATION": "USA - Idaho", "POINTS": "8", "BONUSPOINTS": "3"}}, {"type": "Feature", "geometry": {"type": "Point", "coordinates": [-114.7187, 44.4758]}, "properties": {"NAME": "W7I/CU-143", "TITLE": "9758", "REGION": "ID - Custer County", "ASSOCIATION": "USA - Idaho", "POINTS": "8", "BONUSPOINTS": "3"}}, {"type": "Feature", "geometry": {"type": "Point", "coordinates": [-114.3624, 44.3291]}, "properties": {"NAME": "W7I/CU-144", "TITLE": "9753", "REGION": "ID - Custer County", "ASSOCIATION": "USA - Idaho", "POINTS": "8", "BONUSPOINTS": "3"}}, {"type": "Feature", "geometry": {"type": "Point", "coordinates": [-114.6242, 44.3493]}, "properties": {"NAME": "W7I/CU-145", "TITLE": "Custer Lookout", "REGION": "ID - Custer County", "ASSOCIATION": "USA - Idaho", "POINTS": "8", "BONUSPOINTS": "3"}}, {"type": "Feature", "geometry": {"type": "Point", "coordinates": [-113.4642, 44.3936]}, "properties": {"NAME": "W7I/CU-146", "TITLE": "9740", "REGION": "ID - Custer County", "ASSOCIATION": "USA - Idaho", "POINTS": "8", "BONUSPOINTS": "3"}}, {"type": "Feature", "geometry": {"type": "Point", "coordinates": [-114.7762, 44.4467]}, "properties": {"NAME": "W7I/CU-147", "TITLE": "9734", "REGION": "ID - Custer County", "ASSOCIATION": "USA - Idaho", "POINTS": "8", "BONUSPOINTS": "3"}}, {"type": "Feature", "geometry": {"type": "Point", "coordinates": [-114.3155, 44.8017]}, "properties": {"NAME": "W7I/CU-148", "TITLE": "Woods Peak", "REGION": "ID - Custer County", "ASSOCIATION": "USA - Idaho", "POINTS": "8", "BONUSPOINTS": "3"}}, {"type": "Feature", "geometry": {"type": "Point", "coordinates": [-114.5292, 44.4304]}, "properties": {"NAME": "W7I/CU-149", "TITLE": "9713", "REGION": "ID - Custer County", "ASSOCIATION": "USA - Idaho", "POINTS": "8", "BONUSPOINTS": "3"}}, {"type": "Feature", "geometry": {"type": "Point", "coordinates": [-114.5736, 44.538]}, "properties": {"NAME": "W7I/CU-150", "TITLE": "9705", "REGION": "ID - Custer County", "ASSOCIATION": "USA - Idaho", "POINTS": "8", "BONUSPOINTS": "3"}}, {"type": "Feature", "geometry": {"type": "Point", "coordinates": [-114.1692, 44.3437]}, "properties": {"NAME": "W7I/CU-151", "TITLE": "Lone Pine Peak", "REGION": "ID - Custer County", "ASSOCIATION": "USA - Idaho", "POINTS": "8", "BONUSPOINTS": "3"}}, {"type": "Feature", "geometry": {"type": "Point", "coordinates": [-114.7523, 44.4693]}, "properties": {"NAME": "W7I/CU-152", "TITLE": "9690", "REGION": "ID - Custer County", "ASSOCIATION": "USA - Idaho", "POINTS": "8", "BONUSPOINTS": "3"}}, {"type": "Feature", "geometry": {"type": "Point", "coordinates": [-114.3975, 44.0586]}, "properties": {"NAME": "W7I/CU-153", "TITLE": "9688", "REGION": "ID - Custer County", "ASSOCIATION": "USA - Idaho", "POINTS": "8", "BONUSPOINTS": "3"}}, {"type": "Feature", "geometry": {"type": "Point", "coordinates": [-114.0014, 44.3635]}, "properties": {"NAME": "W7I/CU-154", "TITLE": "9674", "REGION": "ID - Custer County", "ASSOCIATION": "USA - Idaho", "POINTS": "8", "BONUSPOINTS": "3"}}, {"type": "Feature", "geometry": {"type": "Point", "coordinates": [-114.876, 44.4897]}, "properties": {"NAME": "W7I/CU-155", "TITLE": "9671", "REGION": "ID - Custer County", "ASSOCIATION": "USA - Idaho", "POINTS": "8", "BONUSPOINTS": "3"}}, {"type": "Feature", "geometry": {"type": "Point", "coordinates": [-114.5498, 44.535]}, "properties": {"NAME": "W7I/CU-156", "TITLE": "9660", "REGION": "ID - Custer County", "ASSOCIATION": "USA - Idaho", "POINTS": "8", "BONUSPOINTS": "3"}}, {"type": "Feature", "geometry": {"type": "Point", "coordinates": [-114.5706, 44.4367]}, "properties": {"NAME": "W7I/CU-157", "TITLE": "9654", "REGION": "ID - Custer County", "ASSOCIATION": "USA - Idaho", "POINTS": "8", "BONUSPOINTS": "3"}}, {"type": "Feature", "geometry": {"type": "Point", "coordinates": [-114.8085, 44.1802]}, "properties": {"NAME": "W7I/CU-158", "TITLE": "Rough", "REGION": "ID - Custer County", "ASSOCIATION": "USA - Idaho", "POINTS": "8", "BONUSPOINTS": "3"}}, {"type": "Feature", "geometry": {"type": "Point", "coordinates": [-114.7282, 44.5698]}, "properties": {"NAME": "W7I/CU-159", "TITLE": "9654", "REGION": "ID - Custer County", "ASSOCIATION": "USA - Idaho", "POINTS": "8", "BONUSPOINTS": "3"}}, {"type": "Feature", "geometry": {"type": "Point", "coordinates": [-113.5856, 43.7807]}, "properties": {"NAME": "W7I/CU-160", "TITLE": "Sheep Mountain", "REGION": "ID - Custer County", "ASSOCIATION": "USA - Idaho", "POINTS": "8", "BONUSPOINTS": "3"}}, {"type": "Feature", "geometry": {"type": "Point", "coordinates": [-114.7117, 44.4454]}, "properties": {"NAME": "W7I/CU-161", "TITLE": "Estes Mountain", "REGION": "ID - Custer County", "ASSOCIATION": "USA - Idaho", "POINTS": "8", "BONUSPOINTS": "3"}}, {"type": "Feature", "geometry": {"type": "Point", "coordinates": [-114.5933, 44.3828]}, "properties": {"NAME": "W7I/CU-162", "TITLE": "9642", "REGION": "ID - Custer County", "ASSOCIATION": "USA - Idaho", "POINTS": "8", "BONUSPOINTS": "3"}}, {"type": "Feature", "geometry": {"type": "Point", "coordinates": [-114.6622, 44.5958]}, "properties": {"NAME": "W7I/CU-163", "TITLE": "9636", "REGION": "ID - Custer County", "ASSOCIATION": "USA - Idaho", "POINTS": "8", "BONUSPOINTS": "3"}}, {"type": "Feature", "geometry": {"type": "Point", "coordinates": [-114.665, 43.9595]}, "properties": {"NAME": "W7I/CU-164", "TITLE": "9627", "REGION": "ID - Custer County", "ASSOCIATION": "USA - Idaho", "POINTS": "8", "BONUSPOINTS": "3"}}, {"type": "Feature", "geometry": {"type": "Point", "coordinates": [-113.9724, 43.7474]}, "properties": {"NAME": "W7I/CU-165", "TITLE": "West White Mountains", "REGION": "ID - Custer County", "ASSOCIATION": "USA - Idaho", "POINTS": "8", "BONUSPOINTS": "3"}}, {"type": "Feature", "geometry": {"type": "Point", "coordinates": [-114.6664, 44.4378]}, "properties": {"NAME": "W7I/CU-166", "TITLE": "9621", "REGION": "ID - Custer County", "ASSOCIATION": "USA - Idaho", "POINTS": "8", "BONUSPOINTS": "3"}}, {"type": "Feature", "geometry": {"type": "Point", "coordinates": [-113.9516, 44.4206]}, "properties": {"NAME": "W7I/CU-167", "TITLE": "9621", "REGION": "ID - Custer County", "ASSOCIATION": "USA - Idaho", "POINTS": "8", "BONUSPOINTS": "3"}}, {"type": "Feature", "geometry": {"type": "Point", "coordinates": [-114.5004, 44.4604]}, "properties": {"NAME": "W7I/CU-168", "TITLE": "9620", "REGION": "ID - Custer County", "ASSOCIATION": "USA - Idaho", "POINTS": "8", "BONUSPOINTS": "3"}}, {"type": "Feature", "geometry": {"type": "Point", "coordinates": [-114.3253, 44.7796]}, "properties": {"NAME": "W7I/CU-169", "TITLE": "Van Horn Peak", "REGION": "ID - Custer County", "ASSOCIATION": "USA - Idaho", "POINTS": "8", "BONUSPOINTS": "3"}}, {"type": "Feature", "geometry": {"type": "Point", "coordinates": [-114.8377, 44.4443]}, "properties": {"NAME": "W7I/CU-170", "TITLE": "9608", "REGION": "ID - Custer County", "ASSOCIATION": "USA - Idaho", "POINTS": "8", "BONUSPOINTS": "3"}}, {"type": "Feature", "geometry": {"type": "Point", "coordinates": [-114.087, 43.9333]}, "properties": {"NAME": "W7I/CU-171", "TITLE": "Wildhorse Peak", "REGION": "ID - Custer County", "ASSOCIATION": "USA - Idaho", "POINTS": "8", "BONUSPOINTS": "3"}}, {"type": "Feature", "geometry": {"type": "Point", "coordinates": [-113.6767, 44.1653]}, "properties": {"NAME": "W7I/CU-172", "TITLE": "9597", "REGION": "ID - Custer County", "ASSOCIATION": "USA - Idaho", "POINTS": "8", "BONUSPOINTS": "3"}}, {"type": "Feature", "geometry": {"type": "Point", "coordinates": [-114.7114, 44.5101]}, "properties": {"NAME": "W7I/CU-173", "TITLE": "9585", "REGION": "ID - Custer County", "ASSOCIATION": "USA - Idaho", "POINTS": "8", "BONUSPOINTS": "3"}}, {"type": "Feature", "geometry": {"type": "Point", "coordinates": [-113.8778, 43.9173]}, "properties": {"NAME": "W7I/CU-174", "TITLE": "9578", "REGION": "ID - Custer County", "ASSOCIATION": "USA - Idaho", "POINTS": "8", "BONUSPOINTS": "3"}}, {"type": "Feature", "geometry": {"type": "Point", "coordinates": [-114.7049, 44.5938]}, "properties": {"NAME": "W7I/CU-175", "TITLE": "9565", "REGION": "ID - Custer County", "ASSOCIATION": "USA - Idaho", "POINTS": "8", "BONUSPOINTS": "3"}}, {"type": "Feature", "geometry": {"type": "Point", "coordinates": [-115.0692, 44.1905]}, "properties": {"NAME": "W7I/CU-176", "TITLE": "9565", "REGION": "ID - Custer County", "ASSOCIATION": "USA - Idaho", "POINTS": "8", "BONUSPOINTS": "3"}}, {"type": "Feature", "geometry": {"type": "Point", "coordinates": [-114.4754, 44.4678]}, "properties": {"NAME": "W7I/CU-177", "TITLE": "9561", "REGION": "ID - Custer County", "ASSOCIATION": "USA - Idaho", "POINTS": "8", "BONUSPOINTS": "3"}}, {"type": "Feature", "geometry": {"type": "Point", "coordinates": [-113.5596, 44.2659]}, "properties": {"NAME": "W7I/CU-178", "TITLE": "Donkey Hills", "REGION": "ID - Custer County", "ASSOCIATION": "USA - Idaho", "POINTS": "8", "BONUSPOINTS": "3"}}, {"type": "Feature", "geometry": {"type": "Point", "coordinates": [-113.4905, 44.2121]}, "properties": {"NAME": "W7I/CU-179", "TITLE": "9552", "REGION": "ID - Custer County", "ASSOCIATION": "USA - Idaho", "POINTS": "8", "BONUSPOINTS": "3"}}, {"type": "Feature", "geometry": {"type": "Point", "coordinates": [-114.6457, 44.4937]}, "properties": {"NAME": "W7I/CU-180", "TITLE": "9548", "REGION": "ID - Custer County", "ASSOCIATION": "USA - Idaho", "POINTS": "8", "BONUSPOINTS": "3"}}, {"type": "Feature", "geometry": {"type": "Point", "coordinates": [-114.1044, 44.1054]}, "properties": {"NAME": "W7I/CU-181", "TITLE": "9542", "REGION": "ID - Custer County", "ASSOCIATION": "USA - Idaho", "POINTS": "8", "BONUSPOINTS": "3"}}, {"type": "Feature", "geometry": {"type": "Point", "coordinates": [-113.7933, 43.8238]}, "properties": {"NAME": "W7I/CU-182", "TITLE": "9540", "REGION": "ID - Custer County", "ASSOCIATION": "USA - Idaho", "POINTS": "8", "BONUSPOINTS": "3"}}, {"type": "Feature", "geometry": {"type": "Point", "coordinates": [-114.6311, 44.5022]}, "properties": {"NAME": "W7I/CU-183", "TITLE": "9539", "REGION": "ID - Custer County", "ASSOCIATION": "USA - Idaho", "POINTS": "8", "BONUSPOINTS": "3"}}, {"type": "Feature", "geometry": {"type": "Point", "coordinates": [-115.239, 44.4069]}, "properties": {"NAME": "W7I/CU-184", "TITLE": "Cape Horn Mountain", "REGION": "ID - Custer County", "ASSOCIATION": "USA - Idaho", "POINTS": "8", "BONUSPOINTS": "3"}}, {"type": "Feature", "geometry": {"type": "Point", "coordinates": [-114.6231, 44.4723]}, "properties": {"NAME": "W7I/CU-185", "TITLE": "9515", "REGION": "ID - Custer County", "ASSOCIATION": "USA - Idaho", "POINTS": "8", "BONUSPOINTS": "3"}}, {"type": "Feature", "geometry": {"type": "Point", "coordinates": [-113.6536, 44.1506]}, "properties": {"NAME": "W7I/CU-186", "TITLE": "9513", "REGION": "ID - Custer County", "ASSOCIATION": "USA - Idaho", "POINTS": "8", "BONUSPOINTS": "3"}}, {"type": "Feature", "geometry": {"type": "Point", "coordinates": [-114.4523, 44.4551]}, "properties": {"NAME": "W7I/CU-187", "TITLE": "9498", "REGION": "ID - Custer County", "ASSOCIATION": "USA - Idaho", "POINTS": "6", "BONUSPOINTS": "3"}}, {"type": "Feature", "geometry": {"type": "Point", "coordinates": [-114.6425, 44.3717]}, "properties": {"NAME": "W7I/CU-188", "TITLE": "Bachelor Mountain", "REGION": "ID - Custer County", "ASSOCIATION": "USA - Idaho", "POINTS": "6", "BONUSPOINTS": "3"}}, {"type": "Feature", "geometry": {"type": "Point", "coordinates": [-114.7617, 44.4235]}, "properties": {"NAME": "W7I/CU-189", "TITLE": "9483", "REGION": "ID - Custer County", "ASSOCIATION": "USA - Idaho", "POINTS": "6", "BONUSPOINTS": "3"}}, {"type": "Feature", "geometry": {"type": "Point", "coordinates": [-114.9175, 44.4154]}, "properties": {"NAME": "W7I/CU-190", "TITLE": "9470", "REGION": "ID - Custer County", "ASSOCIATION": "USA - Idaho", "POINTS": "6", "BONUSPOINTS": "3"}}, {"type": "Feature", "geometry": {"type": "Point", "coordinates": [-114.8431, 44.6275]}, "properties": {"NAME": "W7I/CU-191", "TITLE": "Grouse Creek Peak", "REGION": "ID - Custer County", "ASSOCIATION": "USA - Idaho", "POINTS": "6", "BONUSPOINTS": "3"}}, {"type": "Feature", "geometry": {"type": "Point", "coordinates": [-113.7481, 44.2709]}, "properties": {"NAME": "W7I/CU-192", "TITLE": "Spring Hill", "REGION": "ID - Custer County", "ASSOCIATION": "USA - Idaho", "POINTS": "6", "BONUSPOINTS": "3"}}, {"type": "Feature", "geometry": {"type": "Point", "coordinates": [-115.155, 44.4816]}, "properties": {"NAME": "W7I/CU-193", "TITLE": "Ruffneck Peak", "REGION": "ID - Custer County", "ASSOCIATION": "USA - Idaho", "POINTS": "6", "BONUSPOINTS": "3"}}, {"type": "Feature", "geometry": {"type": "Point", "coordinates": [-114.8635, 44.4057]}, "properties": {"NAME": "W7I/CU-194", "TITLE": "Red Mountain", "REGION": "ID - Custer County", "ASSOCIATION": "USA - Idaho", "POINTS": "6", "BONUSPOINTS": "3"}}, {"type": "Feature", "geometry": {"type": "Point", "coordinates": [-114.0169, 43.9333]}, "properties": {"NAME": "W7I/CU-195", "TITLE": "9380", "REGION": "ID - Custer County", "ASSOCIATION": "USA - Idaho", "POINTS": "6", "BONUSPOINTS": "3"}}, {"type": "Feature", "geometry": {"type": "Point", "coordinates": [-114.5843, 44.5083]}, "properties": {"NAME": "W7I/CU-196", "TITLE": "9380", "REGION": "ID - Custer County", "ASSOCIATION": "USA - Idaho", "POINTS": "6", "BONUSPOINTS": "3"}}, {"type": "Feature", "geometry": {"type": "Point", "coordinates": [-113.6416, 43.7821]}, "properties": {"NAME": "W7I/CU-197", "TITLE": "Big Flat Top", "REGION": "ID - Custer County", "ASSOCIATION": "USA - Idaho", "POINTS": "6", "BONUSPOINTS": "3"}}, {"type": "Feature", "geometry": {"type": "Point", "coordinates": [-114.3966, 44.2205]}, "properties": {"NAME": "W7I/CU-198", "TITLE": "Potaman Peak", "REGION": "ID - Custer County", "ASSOCIATION": "USA - Idaho", "POINTS": "6", "BONUSPOINTS": "3"}}, {"type": "Feature", "geometry": {"type": "Point", "coordinates": [-113.5077, 44.2238]}, "properties": {"NAME": "W7I/CU-199", "TITLE": "9375", "REGION": "ID - Custer County", "ASSOCIATION": "USA - Idaho", "POINTS": "6", "BONUSPOINTS": "3"}}, {"type": "Feature", "geometry": {"type": "Point", "coordinates": [-114.9463, 44.4852]}, "properties": {"NAME": "W7I/CU-200", "TITLE": "9373", "REGION": "ID - Custer County", "ASSOCIATION": "USA - Idaho", "POINTS": "6", "BONUSPOINTS": "3"}}, {"type": "Feature", "geometry": {"type": "Point", "coordinates": [-114.8754, 44.4375]}, "properties": {"NAME": "W7I/CU-201", "TITLE": "9361", "REGION": "ID - Custer County", "ASSOCIATION": "USA - Idaho", "POINTS": "6", "BONUSPOINTS": "3"}}, {"type": "Feature", "geometry": {"type": "Point", "coordinates": [-114.3836, 44.5302]}, "properties": {"NAME": "W7I/CU-202", "TITLE": "Corkscrew Mountain", "REGION": "ID - Custer County", "ASSOCIATION": "USA - Idaho", "POINTS": "6", "BONUSPOINTS": "3"}}, {"type": "Feature", "geometry": {"type": "Point", "coordinates": [-114.4023, 44.4352]}, "properties": {"NAME": "W7I/CU-203", "TITLE": "9338", "REGION": "ID - Custer County", "ASSOCIATION": "USA - Idaho", "POINTS": "6", "BONUSPOINTS": "3"}}, {"type": "Feature", "geometry": {"type": "Point", "coordinates": [-115.1395, 44.4941]}, "properties": {"NAME": "W7I/CU-204", "TITLE": "9334", "REGION": "ID - Custer County", "ASSOCIATION": "USA - Idaho", "POINTS": "6", "BONUSPOINTS": "3"}}, {"type": "Feature", "geometry": {"type": "Point", "coordinates": [-114.6096, 44.5202]}, "properties": {"NAME": "W7I/CU-205", "TITLE": "9323", "REGION": "ID - Custer County", "ASSOCIATION": "USA - Idaho", "POINTS": "6", "BONUSPOINTS": "3"}}, {"type": "Feature", "geometry": {"type": "Point", "coordinates": [-114.024, 44.1978]}, "properties": {"NAME": "W7I/CU-206", "TITLE": "Anderson Peak", "REGION": "ID - Custer County", "ASSOCIATION": "USA - Idaho", "POINTS": "6", "BONUSPOINTS": "3"}}, {"type": "Feature", "geometry": {"type": "Point", "coordinates": [-113.7507, 44.2416]}, "properties": {"NAME": "W7I/CU-207", "TITLE": "9315", "REGION": "ID - Custer County", "ASSOCIATION": "USA - Idaho", "POINTS": "6", "BONUSPOINTS": "3"}}, {"type": "Feature", "geometry": {"type": "Point", "coordinates": [-115.1294, 44.21]}, "properties": {"NAME": "W7I/CU-208", "TITLE": "9300", "REGION": "ID - Custer County", "ASSOCIATION": "USA - Idaho", "POINTS": "6", "BONUSPOINTS": "3"}}, {"type": "Feature", "geometry": {"type": "Point", "coordinates": [-114.0323, 43.9323]}, "properties": {"NAME": "W7I/CU-209", "TITLE": "9292", "REGION": "ID - Custer County", "ASSOCIATION": "USA - Idaho", "POINTS": "6", "BONUSPOINTS": "3"}}, {"type": "Feature", "geometry": {"type": "Point", "coordinates": [-113.5281, 44.2458]}, "properties": {"NAME": "W7I/CU-210", "TITLE": "9291", "REGION": "ID - Custer County", "ASSOCIATION": "USA - Idaho", "POINTS": "6", "BONUSPOINTS": "3"}}, {"type": "Feature", "geometry": {"type": "Point", "coordinates": [-114.7892, 44.1167]}, "properties": {"NAME": "W7I/CU-211", "TITLE": "Pigtail Benchmark", "REGION": "ID - Custer County", "ASSOCIATION": "USA - Idaho", "POINTS": "6", "BONUSPOINTS": "3"}}, {"type": "Feature", "geometry": {"type": "Point", "coordinates": [-114.5435, 44.3357]}, "properties": {"NAME": "W7I/CU-212", "TITLE": "9282", "REGION": "ID - Custer County", "ASSOCIATION": "USA - Idaho", "POINTS": "6", "BONUSPOINTS": "3"}}, {"type": "Feature", "geometry": {"type": "Point", "coordinates": [-114.8749, 44.6092]}, "properties": {"NAME": "W7I/CU-213", "TITLE": "9280", "REGION": "ID - Custer County", "ASSOCIATION": "USA - Idaho", "POINTS": "6", "BONUSPOINTS": "3"}}, {"type": "Feature", "geometry": {"type": "Point", "coordinates": [-114.7478, 43.9968]}, "properties": {"NAME": "W7I/CU-214", "TITLE": "9274", "REGION": "ID - Custer County", "ASSOCIATION": "USA - Idaho", "POINTS": "6", "BONUSPOINTS": "3"}}, {"type": "Feature", "geometry": {"type": "Point", "coordinates": [-114.0315, 43.9147]}, "properties": {"NAME": "W7I/CU-215", "TITLE": "9268", "REGION": "ID - Custer County", "ASSOCIATION": "USA - Idaho", "POINTS": "6", "BONUSPOINTS": "3"}}, {"type": "Feature", "geometry": {"type": "Point", "coordinates": [-114.5524, 44.5503]}, "properties": {"NAME": "W7I/CU-216", "TITLE": "9251", "REGION": "ID - Custer County", "ASSOCIATION": "USA - Idaho", "POINTS": "6", "BONUSPOINTS": "3"}}, {"type": "Feature", "geometry": {"type": "Point", "coordinates": [-113.5328, 44.2258]}, "properties": {"NAME": "W7I/CU-217", "TITLE": "9248", "REGION": "ID - Custer County", "ASSOCIATION": "USA - Idaho", "POINTS": "6", "BONUSPOINTS": "3"}}, {"type": "Feature", "geometry": {"type": "Point", "coordinates": [-115.1551, 44.5149]}, "properties": {"NAME": "W7I/CU-218", "TITLE": "9242", "REGION": "ID - Custer County", "ASSOCIATION": "USA - Idaho", "POINTS": "6", "BONUSPOINTS": "3"}}, {"type": "Feature", "geometry": {"type": "Point", "coordinates": [-114.4306, 44.3079]}, "properties": {"NAME": "W7I/CU-219", "TITLE": "9223", "REGION": "ID - Custer County", "ASSOCIATION": "USA - Idaho", "POINTS": "6", "BONUSPOINTS": "3"}}, {"type": "Feature", "geometry": {"type": "Point", "coordinates": [-115.1849, 44.3053]}, "properties": {"NAME": "W7I/CU-220", "TITLE": "9220", "REGION": "ID - Custer County", "ASSOCIATION": "USA - Idaho", "POINTS": "6", "BONUSPOINTS": "3"}}, {"type": "Feature", "geometry": {"type": "Point", "coordinates": [-114.3177, 44.0134]}, "properties": {"NAME": "W7I/CU-221", "TITLE": "9193", "REGION": "ID - Custer County", "ASSOCIATION": "USA - Idaho", "POINTS": "6", "BONUSPOINTS": "3"}}, {"type": "Feature", "geometry": {"type": "Point", "coordinates": [-115.0089, 44.5992]}, "properties": {"NAME": "W7I/CU-222", "TITLE": "Sheep Mountain", "REGION": "ID - Custer County", "ASSOCIATION": "USA - Idaho", "POINTS": "6", "BONUSPOINTS": "3"}}, {"type": "Feature", "geometry": {"type": "Point", "coordinates": [-114.8438, 44.3404]}, "properties": {"NAME": "W7I/CU-223", "TITLE": "McGowan Benchmark", "REGION": "ID - Custer County", "ASSOCIATION": "USA - Idaho", "POINTS": "6", "BONUSPOINTS": "3"}}, {"type": "Feature", "geometry": {"type": "Point", "coordinates": [-114.9293, 44.4481]}, "properties": {"NAME": "W7I/CU-224", "TITLE": "9185", "REGION": "ID - Custer County", "ASSOCIATION": "USA - Idaho", "POINTS": "6", "BONUSPOINTS": "3"}}, {"type": "Feature", "geometry": {"type": "Point", "coordinates": [-115.0043, 44.6175]}, "properties": {"NAME": "W7I/CU-225", "TITLE": "9175", "REGION": "ID - Custer County", "ASSOCIATION": "USA - Idaho", "POINTS": "6", "BONUSPOINTS": "3"}}, {"type": "Feature", "geometry": {"type": "Point", "coordinates": [-115.0947, 44.5057]}, "properties": {"NAME": "W7I/CU-226", "TITLE": "9165", "REGION": "ID - Custer County", "ASSOCIATION": "USA - Idaho", "POINTS": "6", "BONUSPOINTS": "3"}}, {"type": "Feature", "geometry": {"type": "Point", "coordinates": [-114.9404, 44.3936]}, "properties": {"NAME": "W7I/CU-227", "TITLE": "9141", "REGION": "ID - Custer County", "ASSOCIATION": "USA - Idaho", "POINTS": "6", "BONUSPOINTS": "3"}}, {"type": "Feature", "geometry": {"type": "Point", "coordinates": [-115.1652, 44.5568]}, "properties": {"NAME": "W7I/CU-228", "TITLE": "Greyhound Ridge", "REGION": "ID - Custer County", "ASSOCIATION": "USA - Idaho", "POINTS": "6", "BONUSPOINTS": "3"}}, {"type": "Feature", "geometry": {"type": "Point", "coordinates": [-114.9529, 44.6586]}, "properties": {"NAME": "W7I/CU-229", "TITLE": "Sliderock Ridge", "REGION": "ID - Custer County", "ASSOCIATION": "USA - Idaho", "POINTS": "6", "BONUSPOINTS": "3"}}, {"type": "Feature", "geometry": {"type": "Point", "coordinates": [-115.246, 44.5472]}, "properties": {"NAME": "W7I/CU-230", "TITLE": "9107", "REGION": "ID - Custer County", "ASSOCIATION": "USA - Idaho", "POINTS": "6", "BONUSPOINTS": "3"}}, {"type": "Feature", "geometry": {"type": "Point", "coordinates": [-115.0421, 44.49]}, "properties": {"NAME": "W7I/CU-231", "TITLE": "9100", "REGION": "ID - Custer County", "ASSOCIATION": "USA - Idaho", "POINTS": "6", "BONUSPOINTS": "3"}}, {"type": "Feature", "geometry": {"type": "Point", "coordinates": [-113.9655, 44.4528]}, "properties": {"NAME": "W7I/CU-232", "TITLE": "Meadow Peak", "REGION": "ID - Custer County", "ASSOCIATION": "USA - Idaho", "POINTS": "6", "BONUSPOINTS": "3"}}, {"type": "Feature", "geometry": {"type": "Point", "coordinates": [-115.0052, 44.5169]}, "properties": {"NAME": "W7I/CU-233", "TITLE": "9098", "REGION": "ID - Custer County", "ASSOCIATION": "USA - Idaho", "POINTS": "6", "BONUSPOINTS": "3"}}, {"type": "Feature", "geometry": {"type": "Point", "coordinates": [-114.0089, 44.4496]}, "properties": {"NAME": "W7I/CU-234", "TITLE": "Table Mountain", "REGION": "ID - Custer County", "ASSOCIATION": "USA - Idaho", "POINTS": "6", "BONUSPOINTS": "3"}}, {"type": "Feature", "geometry": {"type": "Point", "coordinates": [-114.9446, 44.3758]}, "properties": {"NAME": "W7I/CU-235", "TITLE": "9081", "REGION": "ID - Custer County", "ASSOCIATION": "USA - Idaho", "POINTS": "6", "BONUSPOINTS": "3"}}, {"type": "Feature", "geometry": {"type": "Point", "coordinates": [-114.3721, 44.4017]}, "properties": {"NAME": "W7I/CU-236", "TITLE": "9054", "REGION": "ID - Custer County", "ASSOCIATION": "USA - Idaho", "POINTS": "6", "BONUSPOINTS": "3"}}, {"type": "Feature", "geometry": {"type": "Point", "coordinates": [-113.7865, 44.2648]}, "properties": {"NAME": "W7I/CU-237", "TITLE": "9053", "REGION": "ID - Custer County", "ASSOCIATION": "USA - Idaho", "POINTS": "6", "BONUSPOINTS": "3"}}, {"type": "Feature", "geometry": {"type": "Point", "coordinates": [-114.3866, 44.6837]}, "properties": {"NAME": "W7I/CU-238", "TITLE": "9042", "REGION": "ID - Custer County", "ASSOCIATION": "USA - Idaho", "POINTS": "6", "BONUSPOINTS": "3"}}, {"type": "Feature", "geometry": {"type": "Point", "coordinates": [-114.9293, 44.5158]}, "properties": {"NAME": "W7I/CU-239", "TITLE": "9026", "REGION": "ID - Custer County", "ASSOCIATION": "USA - Idaho", "POINTS": "6", "BONUSPOINTS": "3"}}, {"type": "Feature", "geometry": {"type": "Point", "coordinates": [-114.0632, 44.2137]}, "properties": {"NAME": "W7I/CU-240", "TITLE": "9018", "REGION": "ID - Custer County", "ASSOCIATION": "USA - Idaho", "POINTS": "6", "BONUSPOINTS": "3"}}, {"type": "Feature", "geometry": {"type": "Point", "coordinates": [-114.5292, 44.4903]}, "properties": {"NAME": "W7I/CU-241", "TITLE": "9009", "REGION": "ID - Custer County", "ASSOCIATION": "USA - Idaho", "POINTS": "6", "BONUSPOINTS": "3"}}, {"type": "Feature", "geometry": {"type": "Point", "coordinates": [-115.1478, 44.2716]}, "properties": {"NAME": "W7I/CU-242", "TITLE": "9005", "REGION": "ID - Custer County", "ASSOCIATION": "USA - Idaho", "POINTS": "6", "BONUSPOINTS": "3"}}, {"type": "Feature", "geometry": {"type": "Point", "coordinates": [-114.9426, 44.5065]}, "properties": {"NAME": "W7I/CU-243", "TITLE": "9001", "REGION": "ID - Custer County", "ASSOCIATION": "USA - Idaho", "POINTS": "6", "BONUSPOINTS": "3"}}, {"type": "Feature", "geometry": {"type": "Point", "coordinates": [-115.1692, 44.4462]}, "properties": {"NAME": "W7I/CU-244", "TITLE": "8986", "REGION": "ID - Custer County", "ASSOCIATION": "USA - Idaho", "POINTS": "6", "BONUSPOINTS": "3"}}, {"type": "Feature", "geometry": {"type": "Point", "coordinates": [-114.1576, 43.9113]}, "properties": {"NAME": "W7I/CU-245", "TITLE": "8966", "REGION": "ID - Custer County", "ASSOCIATION": "USA - Idaho", "POINTS": "6", "BONUSPOINTS": "3"}}, {"type": "Feature", "geometry": {"type": "Point", "coordinates": [-115.0283, 44.5721]}, "properties": {"NAME": "W7I/CU-246", "TITLE": "8962", "REGION": "ID - Custer County", "ASSOCIATION": "USA - Idaho", "POINTS": "6", "BONUSPOINTS": "3"}}, {"type": "Feature", "geometry": {"type": "Point", "coordinates": [-113.7198, 43.788]}, "properties": {"NAME": "W7I/CU-247", "TITLE": "Round Mountain", "REGION": "ID - Custer County", "ASSOCIATION": "USA - Idaho", "POINTS": "6", "BONUSPOINTS": "3"}}, {"type": "Feature", "geometry": {"type": "Point", "coordinates": [-114.9777, 44.3385]}, "properties": {"NAME": "W7I/CU-248", "TITLE": "Basin Butte", "REGION": "ID - Custer County", "ASSOCIATION": "USA - Idaho", "POINTS": "6", "BONUSPOINTS": "3"}}, {"type": "Feature", "geometry": {"type": "Point", "coordinates": [-114.4966, 44.2785]}, "properties": {"NAME": "W7I/CU-249", "TITLE": "Saturday Mountain", "REGION": "ID - Custer County", "ASSOCIATION": "USA - Idaho", "POINTS": "6", "BONUSPOINTS": "3"}}, {"type": "Feature", "geometry": {"type": "Point", "coordinates": [-114.0634, 44.1229]}, "properties": {"NAME": "W7I/CU-250", "TITLE": "8923", "REGION": "ID - Custer County", "ASSOCIATION": "USA - Idaho", "POINTS": "6", "BONUSPOINTS": "3"}}, {"type": "Feature", "geometry": {"type": "Point", "coordinates": [-114.9715, 44.6558]}, "properties": {"NAME": "W7I/CU-251", "TITLE": "8921", "REGION": "ID - Custer County", "ASSOCIATION": "USA - Idaho", "POINTS": "6", "BONUSPOINTS": "3"}}, {"type": "Feature", "geometry": {"type": "Point", "coordinates": [-114.3452, 44.6529]}, "properties": {"NAME": "W7I/CU-252", "TITLE": "8889", "REGION": "ID - Custer County", "ASSOCIATION": "USA - Idaho", "POINTS": "6", "BONUSPOINTS": "3"}}, {"type": "Feature", "geometry": {"type": "Point", "coordinates": [-114.9799, 44.635]}, "properties": {"NAME": "W7I/CU-253", "TITLE": "8860", "REGION": "ID - Custer County", "ASSOCIATION": "USA - Idaho", "POINTS": "6", "BONUSPOINTS": "3"}}, {"type": "Feature", "geometry": {"type": "Point", "coordinates": [-114.7862, 44.3515]}, "properties": {"NAME": "W7I/CU-254", "TITLE": "8859", "REGION": "ID - Custer County", "ASSOCIATION": "USA - Idaho", "POINTS": "6", "BONUSPOINTS": "3"}}, {"type": "Feature", "geometry": {"type": "Point", "coordinates": [-114.298, 44.0824]}, "properties": {"NAME": "W7I/CU-255", "TITLE": "8831", "REGION": "ID - Custer County", "ASSOCIATION": "USA - Idaho", "POINTS": "6", "BONUSPOINTS": "3"}}, {"type": "Feature", "geometry": {"type": "Point", "coordinates": [-114.6303, 44.2236]}, "properties": {"NAME": "W7I/CU-256", "TITLE": "8829", "REGION": "ID - Custer County", "ASSOCIATION": "USA - Idaho", "POINTS": "6", "BONUSPOINTS": "3"}}, {"type": "Feature", "geometry": {"type": "Point", "coordinates": [-115.0908, 44.7094]}, "properties": {"NAME": "W7I/CU-257", "TITLE": "Little Soldier Mountain", "REGION": "ID - Custer County", "ASSOCIATION": "USA - Idaho", "POINTS": "6", "BONUSPOINTS": "3"}}, {"type": "Feature", "geometry": {"type": "Point", "coordinates": [-113.9916, 43.9159]}, "properties": {"NAME": "W7I/CU-258", "TITLE": "Castle Rock", "REGION": "ID - Custer County", "ASSOCIATION": "USA - Idaho", "POINTS": "6", "BONUSPOINTS": "3"}}, {"type": "Feature", "geometry": {"type": "Point", "coordinates": [-115.1241, 44.5283]}, "properties": {"NAME": "W7I/CU-259", "TITLE": "8780", "REGION": "ID - Custer County", "ASSOCIATION": "USA - Idaho", "POINTS": "6", "BONUSPOINTS": "3"}}, {"type": "Feature", "geometry": {"type": "Point", "coordinates": [-114.4401, 44.5629]}, "properties": {"NAME": "W7I/CU-260", "TITLE": "8767", "REGION": "ID - Custer County", "ASSOCIATION": "USA - Idaho", "POINTS": "6", "BONUSPOINTS": "3"}}, {"type": "Feature", "geometry": {"type": "Point", "coordinates": [-113.9321, 43.8469]}, "properties": {"NAME": "W7I/CU-261", "TITLE": "8763", "REGION": "ID - Custer County", "ASSOCIATION": "USA - Idaho", "POINTS": "6", "BONUSPOINTS": "3"}}, {"type": "Feature", "geometry": {"type": "Point", "coordinates": [-115.2663, 44.3421]}, "properties": {"NAME": "W7I/CU-262", "TITLE": "8762", "REGION": "ID - Custer County", "ASSOCIATION": "USA - Idaho", "POINTS": "6", "BONUSPOINTS": "3"}}, {"type": "Feature", "geometry": {"type": "Point", "coordinates": [-113.7333, 43.7569]}, "properties": {"NAME": "W7I/CU-263", "TITLE": "Middle Mountain", "REGION": "ID - Custer County", "ASSOCIATION": "USA - Idaho", "POINTS": "6", "BONUSPOINTS": "3"}}, {"type": "Feature", "geometry": {"type": "Point", "coordinates": [-114.5993, 44.2904]}, "properties": {"NAME": "W7I/CU-264", "TITLE": "8714", "REGION": "ID - Custer County", "ASSOCIATION": "USA - Idaho", "POINTS": "6", "BONUSPOINTS": "3"}}, {"type": "Feature", "geometry": {"type": "Point", "coordinates": [-115.1166, 44.6957]}, "properties": {"NAME": "W7I/CU-265", "TITLE": "8700", "REGION": "ID - Custer County", "ASSOCIATION": "USA - Idaho", "POINTS": "6", "BONUSPOINTS": "3"}}, {"type": "Feature", "geometry": {"type": "Point", "coordinates": [-114.0501, 44.0556]}, "properties": {"NAME": "W7I/CU-266", "TITLE": "8700", "REGION": "ID - Custer County", "ASSOCIATION": "USA - Idaho", "POINTS": "6", "BONUSPOINTS": "3"}}, {"type": "Feature", "geometry": {"type": "Point", "coordinates": [-114.0949, 43.9772]}, "properties": {"NAME": "W7I/CU-267", "TITLE": "8700", "REGION": "ID - Custer County", "ASSOCIATION": "USA - Idaho", "POINTS": "6", "BONUSPOINTS": "3"}}, {"type": "Feature", "geometry": {"type": "Point", "coordinates": [-115.0182, 44.4532]}, "properties": {"NAME": "W7I/CU-268", "TITLE": "8652", "REGION": "ID - Custer County", "ASSOCIATION": "USA - Idaho", "POINTS": "6", "BONUSPOINTS": "3"}}, {"type": "Feature", "geometry": {"type": "Point", "coordinates": [-113.4787, 44.1875]}, "properties": {"NAME": "W7I/CU-269", "TITLE": "Taylor Mountain", "REGION": "ID - Custer County", "ASSOCIATION": "USA - Idaho", "POINTS": "6", "BONUSPOINTS": "3"}}, {"type": "Feature", "geometry": {"type": "Point", "coordinates": [-113.6909, 43.7161]}, "properties": {"NAME": "W7I/CU-270", "TITLE": "Miller Peak", "REGION": "ID - Custer County", "ASSOCIATION": "USA - Idaho", "POINTS": "6", "BONUSPOINTS": "3"}}, {"type": "Feature", "geometry": {"type": "Point", "coordinates": [-114.1382, 44.2382]}, "properties": {"NAME": "W7I/CU-271", "TITLE": "Spar Benchmark", "REGION": "ID - Custer County", "ASSOCIATION": "USA - Idaho", "POINTS": "6", "BONUSPOINTS": "3"}}, {"type": "Feature", "geometry": {"type": "Point", "coordinates": [-113.546, 44.1857]}, "properties": {"NAME": "W7I/CU-272", "TITLE": "8604", "REGION": "ID - Custer County", "ASSOCIATION": "USA - Idaho", "POINTS": "6", "BONUSPOINTS": "3"}}, {"type": "Feature", "geometry": {"type": "Point", "coordinates": [-114.8658, 44.7383]}, "properties": {"NAME": "W7I/CU-273", "TITLE": "8573", "REGION": "ID - Custer County", "ASSOCIATION": "USA - Idaho", "POINTS": "6", "BONUSPOINTS": "3"}}, {"type": "Feature", "geometry": {"type": "Point", "coordinates": [-114.7921, 44.6354]}, "properties": {"NAME": "W7I/CU-274", "TITLE": "8565", "REGION": "ID - Custer County", "ASSOCIATION": "USA - Idaho", "POINTS": "6", "BONUSPOINTS": "3"}}, {"type": "Feature", "geometry": {"type": "Point", "coordinates": [-114.5553, 44.2744]}, "properties": {"NAME": "W7I/CU-275", "TITLE": "8564", "REGION": "ID - Custer County", "ASSOCIATION": "USA - Idaho", "POINTS": "6", "BONUSPOINTS": "3"}}, {"type": "Feature", "geometry": {"type": "Point", "coordinates": [-115.1321, 44.6347]}, "properties": {"NAME": "W7I/CU-276", "TITLE": "8546", "REGION": "ID - Custer County", "ASSOCIATION": "USA - Idaho", "POINTS": "6", "BONUSPOINTS": "3"}}, {"type": "Feature", "geometry": {"type": "Point", "coordinates": [-114.9898, 44.6892]}, "properties": {"NAME": "W7I/CU-277", "TITLE": "8540", "REGION": "ID - Custer County", "ASSOCIATION": "USA - Idaho", "POINTS": "6", "BONUSPOINTS": "3"}}, {"type": "Feature", "geometry": {"type": "Point", "coordinates": [-114.5137, 44.3359]}, "properties": {"NAME": "W7I/CU-278", "TITLE": "8540", "REGION": "ID - Custer County", "ASSOCIATION": "USA - Idaho", "POINTS": "6", "BONUSPOINTS": "3"}}, {"type": "Feature", "geometry": {"type": "Point", "coordinates": [-114.758, 44.0803]}, "properties": {"NAME": "W7I/CU-279", "TITLE": "8533", "REGION": "ID - Custer County", "ASSOCIATION": "USA - Idaho", "POINTS": "6", "BONUSPOINTS": "3"}}, {"type": "Feature", "geometry": {"type": "Point", "coordinates": [-114.0902, 44.5525]}, "properties": {"NAME": "W7I/CU-280", "TITLE": "8522", "REGION": "ID - Custer County", "ASSOCIATION": "USA - Idaho", "POINTS": "6", "BONUSPOINTS": "3"}}, {"type": "Feature", "geometry": {"type": "Point", "coordinates": [-114.3424, 44.1899]}, "properties": {"NAME": "W7I/CU-281", "TITLE": "8482", "REGION": "ID - Custer County", "ASSOCIATION": "USA - Idaho", "POINTS": "6", "BONUSPOINTS": "3"}}, {"type": "Feature", "geometry": {"type": "Point", "coordinates": [-114.3212, 44.6761]}, "properties": {"NAME": "W7I/CU-282", "TITLE": "8481", "REGION": "ID - Custer County", "ASSOCIATION": "USA - Idaho", "POINTS": "6", "BONUSPOINTS": "3"}}, {"type": "Feature", "geometry": {"type": "Point", "coordinates": [-115.2394, 44.3468]}, "properties": {"NAME": "W7I/CU-283", "TITLE": "8477", "REGION": "ID - Custer County", "ASSOCIATION": "USA - Idaho", "POINTS": "6", "BONUSPOINTS": "3"}}, {"type": "Feature", "geometry": {"type": "Point", "coordinates": [-113.9568, 44.2338]}, "properties": {"NAME": "W7I/CU-284", "TITLE": "8473", "REGION": "ID - Custer County", "ASSOCIATION": "USA - Idaho", "POINTS": "6", "BONUSPOINTS": "3"}}, {"type": "Feature", "geometry": {"type": "Point", "coordinates": [-114.203, 44.7977]}, "properties": {"NAME": "W7I/CU-285", "TITLE": "8460", "REGION": "ID - Custer County", "ASSOCIATION": "USA - Idaho", "POINTS": "6", "BONUSPOINTS": "3"}}, {"type": "Feature", "geometry": {"type": "Point", "coordinates": [-114.0299, 44.0985]}, "properties": {"NAME": "W7I/CU-286", "TITLE": "8454", "REGION": "ID - Custer County", "ASSOCIATION": "USA - Idaho", "POINTS": "6", "BONUSPOINTS": "3"}}, {"type": "Feature", "geometry": {"type": "Point", "coordinates": [-115.023, 44.6652]}, "properties": {"NAME": "W7I/CU-287", "TITLE": "8453", "REGION": "ID - Custer County", "ASSOCIATION": "USA - Idaho", "POINTS": "6", "BONUSPOINTS": "3"}}, {"type": "Feature", "geometry": {"type": "Point", "coordinates": [-113.8604, 44.4181]}, "properties": {"NAME": "W7I/CU-288", "TITLE": "Mahogany Hill", "REGION": "ID - Custer County", "ASSOCIATION": "USA - Idaho", "POINTS": "6", "BONUSPOINTS": "3"}}, {"type": "Feature", "geometry": {"type": "Point", "coordinates": [-113.9459, 44.2505]}, "properties": {"NAME": "W7I/CU-289", "TITLE": "8435", "REGION": "ID - Custer County", "ASSOCIATION": "USA - Idaho", "POINTS": "6", "BONUSPOINTS": "3"}}, {"type": "Feature", "geometry": {"type": "Point", "coordinates": [-115.0039, 44.3689]}, "properties": {"NAME": "W7I/CU-290", "TITLE": "8428", "REGION": "ID - Custer County", "ASSOCIATION": "USA - Idaho", "POINTS": "6", "BONUSPOINTS": "3"}}, {"type": "Feature", "geometry": {"type": "Point", "coordinates": [-114.2103, 44.744]}, "properties": {"NAME": "W7I/CU-291", "TITLE": "Table Mountain", "REGION": "ID - Custer County", "ASSOCIATION": "USA - Idaho", "POINTS": "6", "BONUSPOINTS": "3"}}, {"type": "Feature", "geometry": {"type": "Point", "coordinates": [-114.7548, 44.3009]}, "properties": {"NAME": "W7I/CU-292", "TITLE": "8411", "REGION": "ID - Custer County", "ASSOCIATION": "USA - Idaho", "POINTS": "6", "BONUSPOINTS": "3"}}, {"type": "Feature", "geometry": {"type": "Point", "coordinates": [-114.8226, 44.376]}, "properties": {"NAME": "W7I/CU-293", "TITLE": "8390", "REGION": "ID - Custer County", "ASSOCIATION": "USA - Idaho", "POINTS": "6", "BONUSPOINTS": "3"}}, {"type": "Feature", "geometry": {"type": "Point", "coordinates": [-114.8485, 44.7533]}, "properties": {"NAME": "W7I/CU-294", "TITLE": "Loon Creek Lookout", "REGION": "ID - Custer County", "ASSOCIATION": "USA - Idaho", "POINTS": "6", "BONUSPOINTS": "3"}}, {"type": "Feature", "geometry": {"type": "Point", "coordinates": [-115.1567, 44.3134]}, "properties": {"NAME": "W7I/CU-295", "TITLE": "8358", "REGION": "ID - Custer County", "ASSOCIATION": "USA - Idaho", "POINTS": "6", "BONUSPOINTS": "3"}}, {"type": "Feature", "geometry": {"type": "Point", "coordinates": [-114.5879, 44.5761]}, "properties": {"NAME": "W7I/CU-296", "TITLE": "8344", "REGION": "ID - Custer County", "ASSOCIATION": "USA - Idaho", "POINTS": "6", "BONUSPOINTS": "3"}}, {"type": "Feature", "geometry": {"type": "Point", "coordinates": [-114.2739, 44.4595]}, "properties": {"NAME": "W7I/CU-297", "TITLE": "Blue Mountain", "REGION": "ID - Custer County", "ASSOCIATION": "USA - Idaho", "POINTS": "6", "BONUSPOINTS": "3"}}, {"type": "Feature", "geometry": {"type": "Point", "coordinates": [-114.2971, 44.4255]}, "properties": {"NAME": "W7I/CU-298", "TITLE": "8329", "REGION": "ID - Custer County", "ASSOCIATION": "USA - Idaho", "POINTS": "6", "BONUSPOINTS": "3"}}, {"type": "Feature", "geometry": {"type": "Point", "coordinates": [-114.7738, 44.6439]}, "properties": {"NAME": "W7I/CU-299", "TITLE": "8304", "REGION": "ID - Custer County", "ASSOCIATION": "USA - Idaho", "POINTS": "6", "BONUSPOINTS": "3"}}, {"type": "Feature", "geometry": {"type": "Point", "coordinates": [-115.0505, 44.3826]}, "properties": {"NAME": "W7I/CU-300", "TITLE": "8304", "REGION": "ID - Custer County", "ASSOCIATION": "USA - Idaho", "POINTS": "6", "BONUSPOINTS": "3"}}, {"type": "Feature", "geometry": {"type": "Point", "coordinates": [-114.0944, 44.2551]}, "properties": {"NAME": "W7I/CU-301", "TITLE": "8297 South", "REGION": "ID - Custer County", "ASSOCIATION": "USA - Idaho", "POINTS": "6", "BONUSPOINTS": "3"}}, {"type": "Feature", "geometry": {"type": "Point", "coordinates": [-114.7886, 44.5883]}, "properties": {"NAME": "W7I/CU-302", "TITLE": "8293", "REGION": "ID - Custer County", "ASSOCIATION": "USA - Idaho", "POINTS": "6", "BONUSPOINTS": "3"}}, {"type": "Feature", "geometry": {"type": "Point", "coordinates": [-114.192, 43.92]}, "properties": {"NAME": "W7I/CU-303", "TITLE": "8291", "REGION": "ID - Custer County", "ASSOCIATION": "USA - Idaho", "POINTS": "6", "BONUSPOINTS": "3"}}, {"type": "Feature", "geometry": {"type": "Point", "coordinates": [-113.517, 43.7921]}, "properties": {"NAME": "W7I/CU-304", "TITLE": "8290", "REGION": "ID - Custer County", "ASSOCIATION": "USA - Idaho", "POINTS": "6", "BONUSPOINTS": "3"}}, {"type": "Feature", "geometry": {"type": "Point", "coordinates": [-114.0445, 44.2538]}, "properties": {"NAME": "W7I/CU-305", "TITLE": "8288", "REGION": "ID - Custer County", "ASSOCIATION": "USA - Idaho", "POINTS": "6", "BONUSPOINTS": "3"}}, {"type": "Feature", "geometry": {"type": "Point", "coordinates": [-114.4272, 44.149]}, "properties": {"NAME": "W7I/CU-306", "TITLE": "8283", "REGION": "ID - Custer County", "ASSOCIATION": "USA - Idaho", "POINTS": "6", "BONUSPOINTS": "3"}}, {"type": "Feature", "geometry": {"type": "Point", "coordinates": [-115.0377, 44.3421]}, "properties": {"NAME": "W7I/CU-307", "TITLE": "8267", "REGION": "ID - Custer County", "ASSOCIATION": "USA - Idaho", "POINTS": "6", "BONUSPOINTS": "3"}}, {"type": "Feature", "geometry": {"type": "Point", "coordinates": [-113.9925, 44.2278]}, "properties": {"NAME": "W7I/CU-308", "TITLE": "8256", "REGION": "ID - Custer County", "ASSOCIATION": "USA - Idaho", "POINTS": "6", "BONUSPOINTS": "3"}}, {"type": "Feature", "geometry": {"type": "Point", "coordinates": [-114.6537, 44.3922]}, "properties": {"NAME": "W7I/CU-309", "TITLE": "8250", "REGION": "ID - Custer County", "ASSOCIATION": "USA - Idaho", "POINTS": "6", "BONUSPOINTS": "3"}}, {"type": "Feature", "geometry": {"type": "Point", "coordinates": [-114.215, 44.3888]}, "properties": {"NAME": "W7I/CU-310", "TITLE": "8250", "REGION": "ID - Custer County", "ASSOCIATION": "USA - Idaho", "POINTS": "6", "BONUSPOINTS": "3"}}, {"type": "Feature", "geometry": {"type": "Point", "coordinates": [-115.1876, 44.3586]}, "properties": {"NAME": "W7I/CU-311", "TITLE": "8235", "REGION": "ID - Custer County", "ASSOCIATION": "USA - Idaho", "POINTS": "6", "BONUSPOINTS": "3"}}, {"type": "Feature", "geometry": {"type": "Point", "coordinates": [-115.0066, 44.5663]}, "properties": {"NAME": "W7I/CU-312", "TITLE": "8220", "REGION": "ID - Custer County", "ASSOCIATION": "USA - Idaho", "POINTS": "6", "BONUSPOINTS": "3"}}, {"type": "Feature", "geometry": {"type": "Point", "coordinates": [-114.1913, 44.2715]}, "properties": {"NAME": "W7I/CU-313", "TITLE": "8208", "REGION": "ID - Custer County", "ASSOCIATION": "USA - Idaho", "POINTS": "6", "BONUSPOINTS": "3"}}, {"type": "Feature", "geometry": {"type": "Point", "coordinates": [-115.0554, 44.6771]}, "properties": {"NAME": "W7I/CU-314", "TITLE": "8178", "REGION": "ID - Custer County", "ASSOCIATION": "USA - Idaho", "POINTS": "6", "BONUSPOINTS": "3"}}, {"type": "Feature", "geometry": {"type": "Point", "coordinates": [-114.926, 44.3092]}, "properties": {"NAME": "W7I/CU-315", "TITLE": "Potato Mountain", "REGION": "ID - Custer County", "ASSOCIATION": "USA - Idaho", "POINTS": "6", "BONUSPOINTS": "3"}}, {"type": "Feature", "geometry": {"type": "Point", "coordinates": [-115.0887, 44.414]}, "properties": {"NAME": "W7I/CU-316", "TITLE": "8148", "REGION": "ID - Custer County", "ASSOCIATION": "USA - Idaho", "POINTS": "6", "BONUSPOINTS": "3"}}, {"type": "Feature", "geometry": {"type": "Point", "coordinates": [-115.0776, 44.6241]}, "properties": {"NAME": "W7I/CU-317", "TITLE": "8081", "REGION": "ID - Custer County", "ASSOCIATION": "USA - Idaho", "POINTS": "6", "BONUSPOINTS": "3"}}, {"type": "Feature", "geometry": {"type": "Point", "coordinates": [-114.1693, 44.2214]}, "properties": {"NAME": "W7I/CU-318", "TITLE": "7980", "REGION": "ID - Custer County", "ASSOCIATION": "USA - Idaho", "POINTS": "6", "BONUSPOINTS": "3"}}, {"type": "Feature", "geometry": {"type": "Point", "coordinates": [-114.6394, 44.4008]}, "properties": {"NAME": "W7I/CU-319", "TITLE": "7962", "REGION": "ID - Custer County", "ASSOCIATION": "USA - Idaho", "POINTS": "6", "BONUSPOINTS": "3"}}, {"type": "Feature", "geometry": {"type": "Point", "coordinates": [-115.0768, 44.2701]}, "properties": {"NAME": "W7I/CU-320", "TITLE": "Elk Mountain", "REGION": "ID - Custer County", "ASSOCIATION": "USA - Idaho", "POINTS": "6", "BONUSPOINTS": "3"}}, {"type": "Feature", "geometry": {"type": "Point", "coordinates": [-114.2042, 44.2895]}, "properties": {"NAME": "W7I/CU-321", "TITLE": "7891", "REGION": "ID - Custer County", "ASSOCIATION": "USA - Idaho", "POINTS": "6", "BONUSPOINTS": "3"}}, {"type": "Feature", "geometry": {"type": "Point", "coordinates": [-114.2566, 44.2663]}, "properties": {"NAME": "W7I/CU-322", "TITLE": "7821", "REGION": "ID - Custer County", "ASSOCIATION": "USA - Idaho", "POINTS": "6", "BONUSPOINTS": "3"}}, {"type": "Feature", "geometry": {"type": "Point", "coordinates": [-114.2405, 44.3986]}, "properties": {"NAME": "W7I/CU-323", "TITLE": "Germer Peak", "REGION": "ID - Custer County", "ASSOCIATION": "USA - Idaho", "POINTS": "6", "BONUSPOINTS": "3"}}, {"type": "Feature", "geometry": {"type": "Point", "coordinates": [-114.2516, 44.2118]}, "properties": {"NAME": "W7I/CU-324", "TITLE": "Gossi Benchmark", "REGION": "ID - Custer County", "ASSOCIATION": "USA - Idaho", "POINTS": "6", "BONUSPOINTS": "3"}}, {"type": "Feature", "geometry": {"type": "Point", "coordinates": [-114.9013, 44.2614]}, "properties": {"NAME": "W7I/CU-325", "TITLE": "7620", "REGION": "ID - Custer County", "ASSOCIATION": "USA - Idaho", "POINTS": "6", "BONUSPOINTS": "3"}}, {"type": "Feature", "geometry": {"type": "Point", "coordinates": [-114.2187, 44.309]}, "properties": {"NAME": "W7I/CU-326", "TITLE": "7580", "REGION": "ID - Custer County", "ASSOCIATION": "USA - Idaho", "POINTS": "6", "BONUSPOINTS": "3"}}, {"type": "Feature", "geometry": {"type": "Point", "coordinates": [-114.245, 44.6361]}, "properties": {"NAME": "W7I/CU-327", "TITLE": "7580", "REGION": "ID - Custer County", "ASSOCIATION": "USA - Idaho", "POINTS": "6", "BONUSPOINTS": "3"}}, {"type": "Feature", "geometry": {"type": "Point", "coordinates": [-114.7963, 44.7]}, "properties": {"NAME": "W7I/CU-328", "TITLE": "7562", "REGION": "ID - Custer County", "ASSOCIATION": "USA - Idaho", "POINTS": "6", "BONUSPOINTS": "3"}}, {"type": "Feature", "geometry": {"type": "Point", "coordinates": [-115.065, 44.3417]}, "properties": {"NAME": "W7I/CU-329", "TITLE": "7549", "REGION": "ID - Custer County", "ASSOCIATION": "USA - Idaho", "POINTS": "6", "BONUSPOINTS": "3"}}, {"type": "Feature", "geometry": {"type": "Point", "coordinates": [-114.1872, 44.2526]}, "properties": {"NAME": "W7I/CU-330", "TITLE": "7545", "REGION": "ID - Custer County", "ASSOCIATION": "USA - Idaho", "POINTS": "6", "BONUSPOINTS": "3"}}, {"type": "Feature", "geometry": {"type": "Point", "coordinates": [-114.1191, 44.3543]}, "properties": {"NAME": "W7I/CU-331", "TITLE": "7459", "REGION": "ID - Custer County", "ASSOCIATION": "USA - Idaho", "POINTS": "4", "BONUSPOINTS": "3"}}, {"type": "Feature", "geometry": {"type": "Point", "coordinates": [-114.2944, 44.7003]}, "properties": {"NAME": "W7I/CU-332", "TITLE": "7420", "REGION": "ID - Custer County", "ASSOCIATION": "USA - Idaho", "POINTS": "4", "BONUSPOINTS": "3"}}, {"type": "Feature", "geometry": {"type": "Point", "coordinates": [-114.3211, 44.5122]}, "properties": {"NAME": "W7I/CU-333", "TITLE": "7420", "REGION": "ID - Custer County", "ASSOCIATION": "USA - Idaho", "POINTS": "4", "BONUSPOINTS": "3"}}, {"type": "Feature", "geometry": {"type": "Point", "coordinates": [-114.4893, 44.2427]}, "properties": {"NAME": "W7I/CU-334", "TITLE": "7390", "REGION": "ID - Custer County", "ASSOCIATION": "USA - Idaho", "POINTS": "4", "BONUSPOINTS": "3"}}, {"type": "Feature", "geometry": {"type": "Point", "coordinates": [-114.4999, 44.3627]}, "properties": {"NAME": "W7I/CU-335", "TITLE": "7380", "REGION": "ID - Custer County", "ASSOCIATION": "USA - Idaho", "POINTS": "4", "BONUSPOINTS": "3"}}, {"type": "Feature", "geometry": {"type": "Point", "coordinates": [-114.4885, 44.3023]}, "properties": {"NAME": "W7I/CU-336", "TITLE": "7373", "REGION": "ID - Custer County", "ASSOCIATION": "USA - Idaho", "POINTS": "4", "BONUSPOINTS": "3"}}, {"type": "Feature", "geometry": {"type": "Point", "coordinates": [-114.2388, 44.3331]}, "properties": {"NAME": "W7I/CU-337", "TITLE": "7307", "REGION": "ID - Custer County", "ASSOCIATION": "USA - Idaho", "POINTS": "4", "BONUSPOINTS": "3"}}, {"type": "Feature", "geometry": {"type": "Point", "coordinates": [-113.9813, 44.048]}, "properties": {"NAME": "W7I/CU-338", "TITLE": "Swensen Butte", "REGION": "ID - Custer County", "ASSOCIATION": "USA - Idaho", "POINTS": "4", "BONUSPOINTS": "3"}}, {"type": "Feature", "geometry": {"type": "Point", "coordinates": [-114.9895, 44.2403]}, "properties": {"NAME": "W7I/CU-339", "TITLE": "7183", "REGION": "ID - Custer County", "ASSOCIATION": "USA - Idaho", "POINTS": "4", "BONUSPOINTS": "3"}}, {"type": "Feature", "geometry": {"type": "Point", "coordinates": [-115.1398, 44.4096]}, "properties": {"NAME": "W7I/CU-340", "TITLE": "7121", "REGION": "ID - Custer County", "ASSOCIATION": "USA - Idaho", "POINTS": "4", "BONUSPOINTS": "3"}}, {"type": "Feature", "geometry": {"type": "Point", "coordinates": [-114.2612, 44.2346]}, "properties": {"NAME": "W7I/CU-341", "TITLE": "7121", "REGION": "ID - Custer County", "ASSOCIATION": "USA - Idaho", "POINTS": "4", "BONUSPOINTS": "3"}}, {"type": "Feature", "geometry": {"type": "Point", "coordinates": [-114.1436, 44.6749]}, "properties": {"NAME": "W7I/CU-342", "TITLE": "7100", "REGION": "ID - Custer County", "ASSOCIATION": "USA - Idaho", "POINTS": "4", "BONUSPOINTS": "3"}}, {"type": "Feature", "geometry": {"type": "Point", "coordinates": [-114.2027, 44.6552]}, "properties": {"NAME": "W7I/CU-343", "TITLE": "7020", "REGION": "ID - Custer County", "ASSOCIATION": "USA - Idaho", "POINTS": "4", "BONUSPOINTS": "3"}}, {"type": "Feature", "geometry": {"type": "Point", "coordinates": [-114.1453, 44.7048]}, "properties": {"NAME": "W7I/CU-344", "TITLE": "6570", "REGION": "ID - Custer County", "ASSOCIATION": "USA - Idaho", "POINTS": "4", "BONUSPOINTS": "3"}}, {"type": "Feature", "geometry": {"type": "Point", "coordinates": [-113.4643, 43.8401]}, "properties": {"NAME": "W7I/CU-345", "TITLE": "Leslie Butte", "REGION": "ID - Custer County", "ASSOCIATION": "USA - Idaho", "POINTS": "4", "BONUSPOINTS": "3"}}, {"type": "Feature", "geometry": {"type": "Point", "coordinates": [-113.9773, 44.5683]}, "properties": {"NAME": "W7I/CU-346", "TITLE": "6419", "REGION": "ID - Custer County", "ASSOCIATION": "USA - Idaho", "POINTS": "4", "BONUSPOINTS": "3"}}, {"type": "Feature", "geometry": {"type": "Point", "coordinates": [-114.2966, 44.557]}, "properties": {"NAME": "W7I/CU-347", "TITLE": "6340", "REGION": "ID - Custer County", "ASSOCIATION": "USA - Idaho", "POINTS": "4", "BONUSPOINTS": "3"}}, {"type": "Feature", "geometry": {"type": "Point", "coordinates": [-113.8093, 43.7372]}, "properties": {"NAME": "W7I/CU-348", "TITLE": "Double U", "REGION": "ID - Custer County", "ASSOCIATION": "USA - Idaho", "POINTS": "8", "BONUSPOINTS": "3"}}, {"type": "Feature", "geometry": {"type": "Point", "coordinates": [-113.7128, 44.0494]}, "properties": {"NAME": "W7I/CU-349", "TITLE": "Williams Peak", "REGION": "ID - Custer County", "ASSOCIATION": "USA - Idaho", "POINTS": "8", "BONUSPOINTS": "3"}}, {"type": "Feature", "geometry": {"type": "Point", "coordinates": [-114.9783, 44.1009]}, "properties": {"NAME": "W7I/CU-350", "TITLE": "Heyburn Mountain", "REGION": "ID - Custer County", "ASSOCIATION": "USA - Idaho", "POINTS": "8", "BONUSPOINTS": "3"}}, {"type": "Feature", "geometry": {"type": "Point", "coordinates": [-114.6812, 44.093]}, "properties": {"NAME": "W7I/CU-351", "TITLE": "9958", "REGION": "ID - Custer County", "ASSOCIATION": "USA - Idaho", "POINTS": "8", "BONUSPOINTS": "3"}}, {"type": "Feature", "geometry": {"type": "Point", "coordinates": [-114.7469, 43.9537]}, "properties": {"NAME": "W7I/CU-352", "TITLE": "9928", "REGION": "ID - Custer County", "ASSOCIATION": "USA - Idaho", "POINTS": "8", "BONUSPOINTS": "3"}}, {"type": "Feature", "geometry": {"type": "Point", "coordinates": [-113.4076, 44.346]}, "properties": {"NAME": "W7I/CU-353", "TITLE": "Cubby Peak", "REGION": "ID - Custer County", "ASSOCIATION": "USA - Idaho", "POINTS": "6", "BONUSPOINTS": "3"}}, {"type": "Feature", "geometry": {"type": "Point", "coordinates": [-115.1781, 44.6126]}, "properties": {"NAME": "W7I/CU-354", "TITLE": "8632", "REGION": "ID - Custer County", "ASSOCIATION": "USA - Idaho", "POINTS": "6", "BONUSPOINTS": "3"}}, {"type": "Feature", "geometry": {"type": "Point", "coordinates": [-114.5284, 44.3089]}, "properties": {"NAME": "W7I/CU-355", "TITLE": "8431", "REGION": "ID - Custer County", "ASSOCIATION": "USA - Idaho", "POINTS": "6", "BONUSPOINTS": "3"}}, {"type": "Feature", "geometry": {"type": "Point", "coordinates": [-114.0872, 44.6397]}, "properties": {"NAME": "W7I/CU-356", "TITLE": "6232", "REGION": "ID - Custer County", "ASSOCIATION": "USA - Idaho", "POINTS": "4", "BONUSPOINTS": "3"}}]}