{"type": "FeatureCollection", "name": "W7I/BC SUMMITS", "features": [{"type": "Feature", "geometry": {"type": "Point", "coordinates": [-114.9826, 44.0112]}, "properties": {"NAME": "W7I/BC-001", "TITLE": "Mount Cramer", "REGION": "ID - Boise County", "ASSOCIATION": "USA - Idaho", "POINTS": "8", "BONUSPOINTS": "3"}}, {"type": "Feature", "geometry": {"type": "Point", "coordinates": [-115.0372, 44.0244]}, "properties": {"NAME": "W7I/BC-002", "TITLE": "Elk Peak", "REGION": "ID - Boise County", "ASSOCIATION": "USA - Idaho", "POINTS": "8", "BONUSPOINTS": "3"}}, {"type": "Feature", "geometry": {"type": "Point", "coordinates": [-114.9969, 44.0934]}, "properties": {"NAME": "W7I/BC-003", "TITLE": "Braxon Peak", "REGION": "ID - Boise County", "ASSOCIATION": "USA - Idaho", "POINTS": "8", "BONUSPOINTS": "3"}}, {"type": "Feature", "geometry": {"type": "Point", "coordinates": [-115.0502, 44.1301]}, "properties": {"NAME": "W7I/BC-004", "TITLE": "10330", "REGION": "ID - Boise County", "ASSOCIATION": "USA - Idaho", "POINTS": "8", "BONUSPOINTS": "3"}}, {"type": "Feature", "geometry": {"type": "Point", "coordinates": [-115.0462, 44.1237]}, "properties": {"NAME": "W7I/BC-005", "TITLE": "Baron Peak", "REGION": "ID - Boise County", "ASSOCIATION": "USA - Idaho", "POINTS": "8", "BONUSPOINTS": "3"}}, {"type": "Feature", "geometry": {"type": "Point", "coordinates": [-115.0434, 44.0586]}, "properties": {"NAME": "W7I/BC-006", "TITLE": "Packrat Peak", "REGION": "ID - Boise County", "ASSOCIATION": "USA - Idaho", "POINTS": "8", "BONUSPOINTS": "3"}}, {"type": "Feature", "geometry": {"type": "Point", "coordinates": [-115.0538, 44.079]}, "properties": {"NAME": "W7I/BC-007", "TITLE": "Warbonnet Peak", "REGION": "ID - Boise County", "ASSOCIATION": "USA - Idaho", "POINTS": "8", "BONUSPOINTS": "3"}}, {"type": "Feature", "geometry": {"type": "Point", "coordinates": [-115.0615, 44.1597]}, "properties": {"NAME": "W7I/BC-008", "TITLE": "Mount Regan", "REGION": "ID - Boise County", "ASSOCIATION": "USA - Idaho", "POINTS": "8", "BONUSPOINTS": "3"}}, {"type": "Feature", "geometry": {"type": "Point", "coordinates": [-115.043, 44.0708]}, "properties": {"NAME": "W7I/BC-009", "TITLE": "Monte Verita", "REGION": "ID - Boise County", "ASSOCIATION": "USA - Idaho", "POINTS": "8", "BONUSPOINTS": "3"}}, {"type": "Feature", "geometry": {"type": "Point", "coordinates": [-115.0177, 44.0127]}, "properties": {"NAME": "W7I/BC-010", "TITLE": "10060", "REGION": "ID - Boise County", "ASSOCIATION": "USA - Idaho", "POINTS": "8", "BONUSPOINTS": "3"}}, {"type": "Feature", "geometry": {"type": "Point", "coordinates": [-115.0116, 43.9499]}, "properties": {"NAME": "W7I/BC-011", "TITLE": "Glens Peak", "REGION": "ID - Boise County", "ASSOCIATION": "USA - Idaho", "POINTS": "8", "BONUSPOINTS": "3"}}, {"type": "Feature", "geometry": {"type": "Point", "coordinates": [-115.0675, 44.0916]}, "properties": {"NAME": "W7I/BC-012", "TITLE": "Tohobit Peak", "REGION": "ID - Boise County", "ASSOCIATION": "USA - Idaho", "POINTS": "8", "BONUSPOINTS": "3"}}, {"type": "Feature", "geometry": {"type": "Point", "coordinates": [-115.0024, 44.0842]}, "properties": {"NAME": "W7I/BC-013", "TITLE": "9980", "REGION": "ID - Boise County", "ASSOCIATION": "USA - Idaho", "POINTS": "8", "BONUSPOINTS": "3"}}, {"type": "Feature", "geometry": {"type": "Point", "coordinates": [-115.0524, 44.0556]}, "properties": {"NAME": "W7I/BC-014", "TITLE": "La Fiamma", "REGION": "ID - Boise County", "ASSOCIATION": "USA - Idaho", "POINTS": "8", "BONUSPOINTS": "3"}}, {"type": "Feature", "geometry": {"type": "Point", "coordinates": [-115.0763, 43.9459]}, "properties": {"NAME": "W7I/BC-015", "TITLE": "Plummer Peak", "REGION": "ID - Boise County", "ASSOCIATION": "USA - Idaho", "POINTS": "8", "BONUSPOINTS": "3"}}, {"type": "Feature", "geometry": {"type": "Point", "coordinates": [-115.1056, 43.9955]}, "properties": {"NAME": "W7I/BC-016", "TITLE": "North Raker", "REGION": "ID - Boise County", "ASSOCIATION": "USA - Idaho", "POINTS": "8", "BONUSPOINTS": "3"}}, {"type": "Feature", "geometry": {"type": "Point", "coordinates": [-115.0507, 43.9698]}, "properties": {"NAME": "W7I/BC-017", "TITLE": "9930", "REGION": "ID - Boise County", "ASSOCIATION": "USA - Idaho", "POINTS": "8", "BONUSPOINTS": "3"}}, {"type": "Feature", "geometry": {"type": "Point", "coordinates": [-115.0293, 44.1092]}, "properties": {"NAME": "W7I/BC-018", "TITLE": "Mount Ebert", "REGION": "ID - Boise County", "ASSOCIATION": "USA - Idaho", "POINTS": "8", "BONUSPOINTS": "3"}}, {"type": "Feature", "geometry": {"type": "Point", "coordinates": [-115.092, 43.958]}, "properties": {"NAME": "W7I/BC-019", "TITLE": "Mount Everly", "REGION": "ID - Boise County", "ASSOCIATION": "USA - Idaho", "POINTS": "8", "BONUSPOINTS": "3"}}, {"type": "Feature", "geometry": {"type": "Point", "coordinates": [-115.0097, 44.0011]}, "properties": {"NAME": "W7I/BC-020", "TITLE": "9844", "REGION": "ID - Boise County", "ASSOCIATION": "USA - Idaho", "POINTS": "8", "BONUSPOINTS": "3"}}, {"type": "Feature", "geometry": {"type": "Point", "coordinates": [-115.1133, 43.9745]}, "properties": {"NAME": "W7I/BC-021", "TITLE": "Blacknose Mountain", "REGION": "ID - Boise County", "ASSOCIATION": "USA - Idaho", "POINTS": "8", "BONUSPOINTS": "3"}}, {"type": "Feature", "geometry": {"type": "Point", "coordinates": [-115.0881, 44.0549]}, "properties": {"NAME": "W7I/BC-022", "TITLE": "9765", "REGION": "ID - Boise County", "ASSOCIATION": "USA - Idaho", "POINTS": "8", "BONUSPOINTS": "3"}}, {"type": "Feature", "geometry": {"type": "Point", "coordinates": [-115.148, 44.0027]}, "properties": {"NAME": "W7I/BC-023", "TITLE": "Edaho Mountain", "REGION": "ID - Boise County", "ASSOCIATION": "USA - Idaho", "POINTS": "8", "BONUSPOINTS": "3"}}, {"type": "Feature", "geometry": {"type": "Point", "coordinates": [-115.0872, 43.9771]}, "properties": {"NAME": "W7I/BC-024", "TITLE": "9493", "REGION": "ID - Boise County", "ASSOCIATION": "USA - Idaho", "POINTS": "6", "BONUSPOINTS": "3"}}, {"type": "Feature", "geometry": {"type": "Point", "coordinates": [-115.0623, 43.9955]}, "properties": {"NAME": "W7I/BC-025", "TITLE": "JT Peak", "REGION": "ID - Boise County", "ASSOCIATION": "USA - Idaho", "POINTS": "6", "BONUSPOINTS": "3"}}, {"type": "Feature", "geometry": {"type": "Point", "coordinates": [-115.1645, 44.2649]}, "properties": {"NAME": "W7I/BC-026", "TITLE": "9300", "REGION": "ID - Boise County", "ASSOCIATION": "USA - Idaho", "POINTS": "6", "BONUSPOINTS": "3"}}, {"type": "Feature", "geometry": {"type": "Point", "coordinates": [-115.174, 44.2338]}, "properties": {"NAME": "W7I/BC-027", "TITLE": "9290", "REGION": "ID - Boise County", "ASSOCIATION": "USA - Idaho", "POINTS": "6", "BONUSPOINTS": "3"}}, {"type": "Feature", "geometry": {"type": "Point", "coordinates": [-115.1046, 44.1163]}, "properties": {"NAME": "W7I/BC-028", "TITLE": "Grandjean Peak", "REGION": "ID - Boise County", "ASSOCIATION": "USA - Idaho", "POINTS": "6", "BONUSPOINTS": "3"}}, {"type": "Feature", "geometry": {"type": "Point", "coordinates": [-115.1094, 44.1709]}, "properties": {"NAME": "W7I/BC-029", "TITLE": "Observation Peak", "REGION": "ID - Boise County", "ASSOCIATION": "USA - Idaho", "POINTS": "6", "BONUSPOINTS": "3"}}, {"type": "Feature", "geometry": {"type": "Point", "coordinates": [-115.3437, 43.9817]}, "properties": {"NAME": "W7I/BC-030", "TITLE": "North Goat", "REGION": "ID - Boise County", "ASSOCIATION": "USA - Idaho", "POINTS": "6", "BONUSPOINTS": "3"}}, {"type": "Feature", "geometry": {"type": "Point", "coordinates": [-115.1437, 44.1884]}, "properties": {"NAME": "W7I/BC-031", "TITLE": "8916", "REGION": "ID - Boise County", "ASSOCIATION": "USA - Idaho", "POINTS": "6", "BONUSPOINTS": "3"}}, {"type": "Feature", "geometry": {"type": "Point", "coordinates": [-115.2878, 44.3299]}, "properties": {"NAME": "W7I/BC-032", "TITLE": "Bull Trout Point", "REGION": "ID - Boise County", "ASSOCIATION": "USA - Idaho", "POINTS": "6", "BONUSPOINTS": "3"}}, {"type": "Feature", "geometry": {"type": "Point", "coordinates": [-115.3882, 44.01]}, "properties": {"NAME": "W7I/BC-033", "TITLE": "Wolf Mountain", "REGION": "ID - Boise County", "ASSOCIATION": "USA - Idaho", "POINTS": "6", "BONUSPOINTS": "3"}}, {"type": "Feature", "geometry": {"type": "Point", "coordinates": [-115.2035, 44.2828]}, "properties": {"NAME": "W7I/BC-034", "TITLE": "8848", "REGION": "ID - Boise County", "ASSOCIATION": "USA - Idaho", "POINTS": "6", "BONUSPOINTS": "3"}}, {"type": "Feature", "geometry": {"type": "Point", "coordinates": [-115.2281, 44.1259]}, "properties": {"NAME": "W7I/BC-035", "TITLE": "8836", "REGION": "ID - Boise County", "ASSOCIATION": "USA - Idaho", "POINTS": "6", "BONUSPOINTS": "3"}}, {"type": "Feature", "geometry": {"type": "Point", "coordinates": [-115.3225, 43.9725]}, "properties": {"NAME": "W7I/BC-036", "TITLE": "Shephard Peak", "REGION": "ID - Boise County", "ASSOCIATION": "USA - Idaho", "POINTS": "6", "BONUSPOINTS": "3"}}, {"type": "Feature", "geometry": {"type": "Point", "coordinates": [-115.2018, 44.1997]}, "properties": {"NAME": "W7I/BC-037", "TITLE": "Mount Zumwalt", "REGION": "ID - Boise County", "ASSOCIATION": "USA - Idaho", "POINTS": "6", "BONUSPOINTS": "3"}}, {"type": "Feature", "geometry": {"type": "Point", "coordinates": [-115.3206, 44.3484]}, "properties": {"NAME": "W7I/BC-038", "TITLE": "8814", "REGION": "ID - Boise County", "ASSOCIATION": "USA - Idaho", "POINTS": "6", "BONUSPOINTS": "3"}}, {"type": "Feature", "geometry": {"type": "Point", "coordinates": [-115.2468, 44.1019]}, "properties": {"NAME": "W7I/BC-039", "TITLE": "8779", "REGION": "ID - Boise County", "ASSOCIATION": "USA - Idaho", "POINTS": "6", "BONUSPOINTS": "3"}}, {"type": "Feature", "geometry": {"type": "Point", "coordinates": [-115.3041, 44.0179]}, "properties": {"NAME": "W7I/BC-040", "TITLE": "Tyee Mountain", "REGION": "ID - Boise County", "ASSOCIATION": "USA - Idaho", "POINTS": "6", "BONUSPOINTS": "3"}}, {"type": "Feature", "geometry": {"type": "Point", "coordinates": [-115.4053, 44.259]}, "properties": {"NAME": "W7I/BC-041", "TITLE": "Red Mountain", "REGION": "ID - Boise County", "ASSOCIATION": "USA - Idaho", "POINTS": "6", "BONUSPOINTS": "3"}}, {"type": "Feature", "geometry": {"type": "Point", "coordinates": [-115.2502, 44.0508]}, "properties": {"NAME": "W7I/BC-042", "TITLE": "8736", "REGION": "ID - Boise County", "ASSOCIATION": "USA - Idaho", "POINTS": "6", "BONUSPOINTS": "3"}}, {"type": "Feature", "geometry": {"type": "Point", "coordinates": [-115.3474, 44.3485]}, "properties": {"NAME": "W7I/BC-043", "TITLE": "8716", "REGION": "ID - Boise County", "ASSOCIATION": "USA - Idaho", "POINTS": "6", "BONUSPOINTS": "3"}}, {"type": "Feature", "geometry": {"type": "Point", "coordinates": [-115.2698, 44.0851]}, "properties": {"NAME": "W7I/BC-044", "TITLE": "Tenmile Ridge", "REGION": "ID - Boise County", "ASSOCIATION": "USA - Idaho", "POINTS": "6", "BONUSPOINTS": "3"}}, {"type": "Feature", "geometry": {"type": "Point", "coordinates": [-115.3, 44.0919]}, "properties": {"NAME": "W7I/BC-045", "TITLE": "8705", "REGION": "ID - Boise County", "ASSOCIATION": "USA - Idaho", "POINTS": "6", "BONUSPOINTS": "3"}}, {"type": "Feature", "geometry": {"type": "Point", "coordinates": [-115.2447, 44.2301]}, "properties": {"NAME": "W7I/BC-046", "TITLE": "8605", "REGION": "ID - Boise County", "ASSOCIATION": "USA - Idaho", "POINTS": "6", "BONUSPOINTS": "3"}}, {"type": "Feature", "geometry": {"type": "Point", "coordinates": [-115.3383, 44.0204]}, "properties": {"NAME": "W7I/BC-047", "TITLE": "8498", "REGION": "ID - Boise County", "ASSOCIATION": "USA - Idaho", "POINTS": "6", "BONUSPOINTS": "3"}}, {"type": "Feature", "geometry": {"type": "Point", "coordinates": [-115.2808, 44.2627]}, "properties": {"NAME": "W7I/BC-048", "TITLE": "8410", "REGION": "ID - Boise County", "ASSOCIATION": "USA - Idaho", "POINTS": "6", "BONUSPOINTS": "3"}}, {"type": "Feature", "geometry": {"type": "Point", "coordinates": [-115.3618, 44.2348]}, "properties": {"NAME": "W7I/BC-049", "TITLE": "8391", "REGION": "ID - Boise County", "ASSOCIATION": "USA - Idaho", "POINTS": "6", "BONUSPOINTS": "3"}}, {"type": "Feature", "geometry": {"type": "Point", "coordinates": [-115.2744, 44.2214]}, "properties": {"NAME": "W7I/BC-050", "TITLE": "8351", "REGION": "ID - Boise County", "ASSOCIATION": "USA - Idaho", "POINTS": "6", "BONUSPOINTS": "3"}}, {"type": "Feature", "geometry": {"type": "Point", "coordinates": [-115.3554, 44.0359]}, "properties": {"NAME": "W7I/BC-051", "TITLE": "8340", "REGION": "ID - Boise County", "ASSOCIATION": "USA - Idaho", "POINTS": "6", "BONUSPOINTS": "3"}}, {"type": "Feature", "geometry": {"type": "Point", "coordinates": [-115.2858, 44.2014]}, "properties": {"NAME": "W7I/BC-052", "TITLE": "8236", "REGION": "ID - Boise County", "ASSOCIATION": "USA - Idaho", "POINTS": "6", "BONUSPOINTS": "3"}}, {"type": "Feature", "geometry": {"type": "Point", "coordinates": [-115.7548, 44.2187]}, "properties": {"NAME": "W7I/BC-053", "TITLE": "8220", "REGION": "ID - Boise County", "ASSOCIATION": "USA - Idaho", "POINTS": "6", "BONUSPOINTS": "3"}}, {"type": "Feature", "geometry": {"type": "Point", "coordinates": [-115.7668, 44.2165]}, "properties": {"NAME": "W7I/BC-054", "TITLE": "8202", "REGION": "ID - Boise County", "ASSOCIATION": "USA - Idaho", "POINTS": "6", "BONUSPOINTS": "3"}}, {"type": "Feature", "geometry": {"type": "Point", "coordinates": [-115.4227, 44.2018]}, "properties": {"NAME": "W7I/BC-055", "TITLE": "8162", "REGION": "ID - Boise County", "ASSOCIATION": "USA - Idaho", "POINTS": "6", "BONUSPOINTS": "3"}}, {"type": "Feature", "geometry": {"type": "Point", "coordinates": [-115.6868, 43.9602]}, "properties": {"NAME": "W7I/BC-056", "TITLE": "Pilot Peak", "REGION": "ID - Boise County", "ASSOCIATION": "USA - Idaho", "POINTS": "6", "BONUSPOINTS": "3"}}, {"type": "Feature", "geometry": {"type": "Point", "coordinates": [-115.4929, 44.1571]}, "properties": {"NAME": "W7I/BC-057", "TITLE": "Miller Mountain", "REGION": "ID - Boise County", "ASSOCIATION": "USA - Idaho", "POINTS": "6", "BONUSPOINTS": "3"}}, {"type": "Feature", "geometry": {"type": "Point", "coordinates": [-115.2883, 44.295]}, "properties": {"NAME": "W7I/BC-058", "TITLE": "8020", "REGION": "ID - Boise County", "ASSOCIATION": "USA - Idaho", "POINTS": "6", "BONUSPOINTS": "3"}}, {"type": "Feature", "geometry": {"type": "Point", "coordinates": [-115.7255, 43.9774]}, "properties": {"NAME": "W7I/BC-059", "TITLE": "7905", "REGION": "ID - Boise County", "ASSOCIATION": "USA - Idaho", "POINTS": "6", "BONUSPOINTS": "3"}}, {"type": "Feature", "geometry": {"type": "Point", "coordinates": [-115.5871, 44.1964]}, "properties": {"NAME": "W7I/BC-060", "TITLE": "Deadwood Ridge", "REGION": "ID - Boise County", "ASSOCIATION": "USA - Idaho", "POINTS": "6", "BONUSPOINTS": "3"}}, {"type": "Feature", "geometry": {"type": "Point", "coordinates": [-115.3544, 44.1672]}, "properties": {"NAME": "W7I/BC-061", "TITLE": "Eightmile Mountain", "REGION": "ID - Boise County", "ASSOCIATION": "USA - Idaho", "POINTS": "6", "BONUSPOINTS": "3"}}, {"type": "Feature", "geometry": {"type": "Point", "coordinates": [-115.6469, 43.8987]}, "properties": {"NAME": "W7I/BC-062", "TITLE": "Sunset Mountain", "REGION": "ID - Boise County", "ASSOCIATION": "USA - Idaho", "POINTS": "6", "BONUSPOINTS": "3"}}, {"type": "Feature", "geometry": {"type": "Point", "coordinates": [-115.4741, 44.0448]}, "properties": {"NAME": "W7I/BC-063", "TITLE": "Archie Mountain", "REGION": "ID - Boise County", "ASSOCIATION": "USA - Idaho", "POINTS": "6", "BONUSPOINTS": "3"}}, {"type": "Feature", "geometry": {"type": "Point", "coordinates": [-116.0888, 43.7716]}, "properties": {"NAME": "W7I/BC-064", "TITLE": "Shafer Butte", "REGION": "ID - Boise County", "ASSOCIATION": "USA - Idaho", "POINTS": "6", "BONUSPOINTS": "3"}}, {"type": "Feature", "geometry": {"type": "Point", "coordinates": [-115.3028, 44.3062]}, "properties": {"NAME": "W7I/BC-065", "TITLE": "7570", "REGION": "ID - Boise County", "ASSOCIATION": "USA - Idaho", "POINTS": "6", "BONUSPOINTS": "3"}}, {"type": "Feature", "geometry": {"type": "Point", "coordinates": [-115.7514, 43.7448]}, "properties": {"NAME": "W7I/BC-066", "TITLE": "Thorn Creek Butte", "REGION": "ID - Boise County", "ASSOCIATION": "USA - Idaho", "POINTS": "6", "BONUSPOINTS": "3"}}, {"type": "Feature", "geometry": {"type": "Point", "coordinates": [-115.7065, 44.0955]}, "properties": {"NAME": "W7I/BC-067", "TITLE": "7460", "REGION": "ID - Boise County", "ASSOCIATION": "USA - Idaho", "POINTS": "4", "BONUSPOINTS": "3"}}, {"type": "Feature", "geometry": {"type": "Point", "coordinates": [-115.6261, 43.8734]}, "properties": {"NAME": "W7I/BC-068", "TITLE": "7460", "REGION": "ID - Boise County", "ASSOCIATION": "USA - Idaho", "POINTS": "4", "BONUSPOINTS": "3"}}, {"type": "Feature", "geometry": {"type": "Point", "coordinates": [-116.0306, 43.9923]}, "properties": {"NAME": "W7I/BC-069", "TITLE": "Hawley Mountain", "REGION": "ID - Boise County", "ASSOCIATION": "USA - Idaho", "POINTS": "4", "BONUSPOINTS": "3"}}, {"type": "Feature", "geometry": {"type": "Point", "coordinates": [-116.093, 43.7906]}, "properties": {"NAME": "W7I/BC-070", "TITLE": "Mores Mountain", "REGION": "ID - Boise County", "ASSOCIATION": "USA - Idaho", "POINTS": "4", "BONUSPOINTS": "3"}}, {"type": "Feature", "geometry": {"type": "Point", "coordinates": [-115.6765, 44.1935]}, "properties": {"NAME": "W7I/BC-071", "TITLE": "7192", "REGION": "ID - Boise County", "ASSOCIATION": "USA - Idaho", "POINTS": "4", "BONUSPOINTS": "3"}}, {"type": "Feature", "geometry": {"type": "Point", "coordinates": [-115.5916, 43.8466]}, "properties": {"NAME": "W7I/BC-072", "TITLE": "7121", "REGION": "ID - Boise County", "ASSOCIATION": "USA - Idaho", "POINTS": "4", "BONUSPOINTS": "3"}}, {"type": "Feature", "geometry": {"type": "Point", "coordinates": [-116.067, 44.2036]}, "properties": {"NAME": "W7I/BC-073", "TITLE": "Packer John Mountain", "REGION": "ID - Boise County", "ASSOCIATION": "USA - Idaho", "POINTS": "4", "BONUSPOINTS": "3"}}, {"type": "Feature", "geometry": {"type": "Point", "coordinates": [-116.0495, 43.9293]}, "properties": {"NAME": "W7I/BC-074", "TITLE": "7057", "REGION": "ID - Boise County", "ASSOCIATION": "USA - Idaho", "POINTS": "4", "BONUSPOINTS": "3"}}, {"type": "Feature", "geometry": {"type": "Point", "coordinates": [-116.0373, 44.1313]}, "properties": {"NAME": "W7I/BC-075", "TITLE": "Garden Benchmark", "REGION": "ID - Boise County", "ASSOCIATION": "USA - Idaho", "POINTS": "4", "BONUSPOINTS": "3"}}, {"type": "Feature", "geometry": {"type": "Point", "coordinates": [-115.7765, 44.1327]}, "properties": {"NAME": "W7I/BC-076", "TITLE": "6860", "REGION": "ID - Boise County", "ASSOCIATION": "USA - Idaho", "POINTS": "4", "BONUSPOINTS": "3"}}, {"type": "Feature", "geometry": {"type": "Point", "coordinates": [-116.0406, 43.8294]}, "properties": {"NAME": "W7I/BC-077", "TITLE": "6624", "REGION": "ID - Boise County", "ASSOCIATION": "USA - Idaho", "POINTS": "4", "BONUSPOINTS": "3"}}, {"type": "Feature", "geometry": {"type": "Point", "coordinates": [-115.5762, 43.9254]}, "properties": {"NAME": "W7I/BC-078", "TITLE": "6620", "REGION": "ID - Boise County", "ASSOCIATION": "USA - Idaho", "POINTS": "4", "BONUSPOINTS": "3"}}, {"type": "Feature", "geometry": {"type": "Point", "coordinates": [-116.0898, 43.7023]}, "properties": {"NAME": "W7I/BC-079", "TITLE": "Boise Peak", "REGION": "ID - Boise County", "ASSOCIATION": "USA - Idaho", "POINTS": "4", "BONUSPOINTS": "3"}}, {"type": "Feature", "geometry": {"type": "Point", "coordinates": [-116.1484, 44.1462]}, "properties": {"NAME": "W7I/BC-080", "TITLE": "Dry Buck Mountain", "REGION": "ID - Boise County", "ASSOCIATION": "USA - Idaho", "POINTS": "4", "BONUSPOINTS": "3"}}, {"type": "Feature", "geometry": {"type": "Point", "coordinates": [-115.8003, 43.9789]}, "properties": {"NAME": "W7I/BC-081", "TITLE": "6484", "REGION": "ID - Boise County", "ASSOCIATION": "USA - Idaho", "POINTS": "4", "BONUSPOINTS": "3"}}, {"type": "Feature", "geometry": {"type": "Point", "coordinates": [-115.8761, 43.6616]}, "properties": {"NAME": "W7I/BC-082", "TITLE": "Mount Heinen", "REGION": "ID - Boise County", "ASSOCIATION": "USA - Idaho", "POINTS": "4", "BONUSPOINTS": "3"}}, {"type": "Feature", "geometry": {"type": "Point", "coordinates": [-115.729, 43.8225]}, "properties": {"NAME": "W7I/BC-083", "TITLE": "6321", "REGION": "ID - Boise County", "ASSOCIATION": "USA - Idaho", "POINTS": "4", "BONUSPOINTS": "3"}}, {"type": "Feature", "geometry": {"type": "Point", "coordinates": [-115.9313, 43.8003]}, "properties": {"NAME": "W7I/BC-084", "TITLE": "Warm Springs Point", "REGION": "ID - Boise County", "ASSOCIATION": "USA - Idaho", "POINTS": "4", "BONUSPOINTS": "3"}}, {"type": "Feature", "geometry": {"type": "Point", "coordinates": [-115.6493, 43.7511]}, "properties": {"NAME": "W7I/BC-085", "TITLE": "5992", "REGION": "ID - Boise County", "ASSOCIATION": "USA - Idaho", "POINTS": "2", "BONUSPOINTS": "3"}}, {"type": "Feature", "geometry": {"type": "Point", "coordinates": [-116.0779, 44.0719]}, "properties": {"NAME": "W7I/BC-086", "TITLE": "5992", "REGION": "ID - Boise County", "ASSOCIATION": "USA - Idaho", "POINTS": "2", "BONUSPOINTS": "3"}}, {"type": "Feature", "geometry": {"type": "Point", "coordinates": [-115.8942, 44.0005]}, "properties": {"NAME": "W7I/BC-087", "TITLE": "Mineral Mountain", "REGION": "ID - Boise County", "ASSOCIATION": "USA - Idaho", "POINTS": "2", "BONUSPOINTS": "3"}}, {"type": "Feature", "geometry": {"type": "Point", "coordinates": [-116.0948, 44.0234]}, "properties": {"NAME": "W7I/BC-088", "TITLE": "5967", "REGION": "ID - Boise County", "ASSOCIATION": "USA - Idaho", "POINTS": "2", "BONUSPOINTS": "3"}}, {"type": "Feature", "geometry": {"type": "Point", "coordinates": [-116.1638, 43.7521]}, "properties": {"NAME": "W7I/BC-089", "TITLE": "Stack Rock", "REGION": "ID - Boise County", "ASSOCIATION": "USA - Idaho", "POINTS": "2", "BONUSPOINTS": "3"}}, {"type": "Feature", "geometry": {"type": "Point", "coordinates": [-116.1947, 44.1935]}, "properties": {"NAME": "W7I/BC-090", "TITLE": "Fletcher Butte", "REGION": "ID - Boise County", "ASSOCIATION": "USA - Idaho", "POINTS": "2", "BONUSPOINTS": "3"}}, {"type": "Feature", "geometry": {"type": "Point", "coordinates": [-116.204, 43.8089]}, "properties": {"NAME": "W7I/BC-091", "TITLE": "5179", "REGION": "ID - Boise County", "ASSOCIATION": "USA - Idaho", "POINTS": "2", "BONUSPOINTS": "3"}}, {"type": "Feature", "geometry": {"type": "Point", "coordinates": [-116.0217, 43.6743]}, "properties": {"NAME": "W7I/BC-092", "TITLE": "Zephyr Ridge Point", "REGION": "ID - Boise County", "ASSOCIATION": "USA - Idaho", "POINTS": "1", "BONUSPOINTS": "0"}}, {"type": "Feature", "geometry": {"type": "Point", "coordinates": [-116.2458, 44.0458]}, "properties": {"NAME": "W7I/BC-093", "TITLE": "Timber Butte", "REGION": "ID - Boise County", "ASSOCIATION": "USA - Idaho", "POINTS": "1", "BONUSPOINTS": "0"}}, {"type": "Feature", "geometry": {"type": "Point", "coordinates": [-116.2345, 43.9511]}, "properties": {"NAME": "W7I/BC-094", "TITLE": "4727", "REGION": "ID - Boise County", "ASSOCIATION": "USA - Idaho", "POINTS": "1", "BONUSPOINTS": "0"}}, {"type": "Feature", "geometry": {"type": "Point", "coordinates": [-115.9048, 43.7658]}, "properties": {"NAME": "W7I/BC-095", "TITLE": "4700", "REGION": "ID - Boise County", "ASSOCIATION": "USA - Idaho", "POINTS": "1", "BONUSPOINTS": "0"}}, {"type": "Feature", "geometry": {"type": "Point", "coordinates": [-116.2643, 43.9637]}, "properties": {"NAME": "W7I/BC-096", "TITLE": "South Mountain", "REGION": "ID - Boise County", "ASSOCIATION": "USA - Idaho", "POINTS": "1", "BONUSPOINTS": "0"}}, {"type": "Feature", "geometry": {"type": "Point", "coordinates": [-116.192, 43.8636]}, "properties": {"NAME": "W7I/BC-097", "TITLE": "4602", "REGION": "ID - Boise County", "ASSOCIATION": "USA - Idaho", "POINTS": "1", "BONUSPOINTS": "0"}}, {"type": "Feature", "geometry": {"type": "Point", "coordinates": [-116.188, 43.9569]}, "properties": {"NAME": "W7I/BC-098", "TITLE": "Mount Maria", "REGION": "ID - Boise County", "ASSOCIATION": "USA - Idaho", "POINTS": "1", "BONUSPOINTS": "0"}}, {"type": "Feature", "geometry": {"type": "Point", "coordinates": [-115.0011, 43.9728]}, "properties": {"NAME": "W7I/BC-099", "TITLE": "9362", "REGION": "ID - Boise County", "ASSOCIATION": "USA - Idaho", "POINTS": "6", "BONUSPOINTS": "3"}}, {"type": "Feature", "geometry": {"type": "Point", "coordinates": [-115.7888, 44.1813]}, "properties": {"NAME": "W7I/BC-100", "TITLE": "Scott Mountain", "REGION": "ID - Boise County", "ASSOCIATION": "USA - Idaho", "POINTS": "6", "BONUSPOINTS": "3"}}, {"type": "Feature", "geometry": {"type": "Point", "coordinates": [-115.4358, 44.0472]}, "properties": {"NAME": "W7I/BC-101", "TITLE": "7561", "REGION": "ID - Boise County", "ASSOCIATION": "USA - Idaho", "POINTS": "6", "BONUSPOINTS": "3"}}, {"type": "Feature", "geometry": {"type": "Point", "coordinates": [-115.9807, 43.83]}, "properties": {"NAME": "W7I/BC-102", "TITLE": "5672", "REGION": "ID - Boise County", "ASSOCIATION": "USA - Idaho", "POINTS": "2", "BONUSPOINTS": "3"}}]}