{"type": "FeatureCollection", "name": "W7I/IC SUMMITS", "features": [{"type": "Feature", "geometry": {"type": "Point", "coordinates": [-116.5483, 45.3241]}, "properties": {"NAME": "W7I/IC-001", "TITLE": "He Devil", "REGION": "ID - Idaho County", "ASSOCIATION": "USA - Idaho", "POINTS": "6", "BONUSPOINTS": "3"}}, {"type": "Feature", "geometry": {"type": "Point", "coordinates": [-116.5406, 45.3239]}, "properties": {"NAME": "W7I/IC-002", "TITLE": "She Devil", "REGION": "ID - Idaho County", "ASSOCIATION": "USA - Idaho", "POINTS": "6", "BONUSPOINTS": "3"}}, {"type": "Feature", "geometry": {"type": "Point", "coordinates": [-114.7934, 45.2885]}, "properties": {"NAME": "W7I/IC-003", "TITLE": "Cottonwood Butte", "REGION": "ID - Idaho County", "ASSOCIATION": "USA - Idaho", "POINTS": "6", "BONUSPOINTS": "3"}}, {"type": "Feature", "geometry": {"type": "Point", "coordinates": [-116.5548, 45.3088]}, "properties": {"NAME": "W7I/IC-004", "TITLE": "Devils Throne", "REGION": "ID - Idaho County", "ASSOCIATION": "USA - Idaho", "POINTS": "6", "BONUSPOINTS": "3"}}, {"type": "Feature", "geometry": {"type": "Point", "coordinates": [-114.7506, 45.2719]}, "properties": {"NAME": "W7I/IC-005", "TITLE": "Twin Peak", "REGION": "ID - Idaho County", "ASSOCIATION": "USA - Idaho", "POINTS": "6", "BONUSPOINTS": "3"}}, {"type": "Feature", "geometry": {"type": "Point", "coordinates": [-116.5321, 45.3196]}, "properties": {"NAME": "W7I/IC-006", "TITLE": "The Ogre", "REGION": "ID - Idaho County", "ASSOCIATION": "USA - Idaho", "POINTS": "6", "BONUSPOINTS": "3"}}, {"type": "Feature", "geometry": {"type": "Point", "coordinates": [-114.762, 45.2482]}, "properties": {"NAME": "W7I/IC-007", "TITLE": "9104", "REGION": "ID - Idaho County", "ASSOCIATION": "USA - Idaho", "POINTS": "6", "BONUSPOINTS": "3"}}, {"type": "Feature", "geometry": {"type": "Point", "coordinates": [-114.3952, 45.9013]}, "properties": {"NAME": "W7I/IC-008", "TITLE": "9012", "REGION": "ID - Idaho County", "ASSOCIATION": "USA - Idaho", "POINTS": "6", "BONUSPOINTS": "3"}}, {"type": "Feature", "geometry": {"type": "Point", "coordinates": [-114.7743, 45.5135]}, "properties": {"NAME": "W7I/IC-009", "TITLE": "Stripe Mountain", "REGION": "ID - Idaho County", "ASSOCIATION": "USA - Idaho", "POINTS": "6", "BONUSPOINTS": "3"}}, {"type": "Feature", "geometry": {"type": "Point", "coordinates": [-114.8306, 45.2637]}, "properties": {"NAME": "W7I/IC-010", "TITLE": "Farrow Mountain", "REGION": "ID - Idaho County", "ASSOCIATION": "USA - Idaho", "POINTS": "6", "BONUSPOINTS": "3"}}, {"type": "Feature", "geometry": {"type": "Point", "coordinates": [-114.8154, 45.2113]}, "properties": {"NAME": "W7I/IC-011", "TITLE": "Papoose Peak", "REGION": "ID - Idaho County", "ASSOCIATION": "USA - Idaho", "POINTS": "6", "BONUSPOINTS": "3"}}, {"type": "Feature", "geometry": {"type": "Point", "coordinates": [-114.8368, 45.6169]}, "properties": {"NAME": "W7I/IC-012", "TITLE": "Salmon Mountain", "REGION": "ID - Idaho County", "ASSOCIATION": "USA - Idaho", "POINTS": "6", "BONUSPOINTS": "3"}}, {"type": "Feature", "geometry": {"type": "Point", "coordinates": [-115.6993, 45.6205]}, "properties": {"NAME": "W7I/IC-013", "TITLE": "Buffalo Hump", "REGION": "ID - Idaho County", "ASSOCIATION": "USA - Idaho", "POINTS": "6", "BONUSPOINTS": "3"}}, {"type": "Feature", "geometry": {"type": "Point", "coordinates": [-114.4485, 45.8591]}, "properties": {"NAME": "W7I/IC-014", "TITLE": "8922", "REGION": "ID - Idaho County", "ASSOCIATION": "USA - Idaho", "POINTS": "6", "BONUSPOINTS": "3"}}, {"type": "Feature", "geometry": {"type": "Point", "coordinates": [-116.2082, 45.3177]}, "properties": {"NAME": "W7I/IC-015", "TITLE": "Patrick Butte", "REGION": "ID - Idaho County", "ASSOCIATION": "USA - Idaho", "POINTS": "6", "BONUSPOINTS": "3"}}, {"type": "Feature", "geometry": {"type": "Point", "coordinates": [-115.684, 45.6474]}, "properties": {"NAME": "W7I/IC-016", "TITLE": "North Pole", "REGION": "ID - Idaho County", "ASSOCIATION": "USA - Idaho", "POINTS": "6", "BONUSPOINTS": "3"}}, {"type": "Feature", "geometry": {"type": "Point", "coordinates": [-114.3997, 46.5022]}, "properties": {"NAME": "W7I/IC-017", "TITLE": "Ranger Peak", "REGION": "ID - Idaho County", "ASSOCIATION": "USA - Idaho", "POINTS": "6", "BONUSPOINTS": "3"}}, {"type": "Feature", "geometry": {"type": "Point", "coordinates": [-114.4931, 45.9121]}, "properties": {"NAME": "W7I/IC-018", "TITLE": "Vance Mountain", "REGION": "ID - Idaho County", "ASSOCIATION": "USA - Idaho", "POINTS": "6", "BONUSPOINTS": "3"}}, {"type": "Feature", "geometry": {"type": "Point", "coordinates": [-114.4038, 45.9671]}, "properties": {"NAME": "W7I/IC-019", "TITLE": "8785", "REGION": "ID - Idaho County", "ASSOCIATION": "USA - Idaho", "POINTS": "6", "BONUSPOINTS": "3"}}, {"type": "Feature", "geometry": {"type": "Point", "coordinates": [-114.5115, 45.8297]}, "properties": {"NAME": "W7I/IC-020", "TITLE": "Watchtower Peak", "REGION": "ID - Idaho County", "ASSOCIATION": "USA - Idaho", "POINTS": "6", "BONUSPOINTS": "3"}}, {"type": "Feature", "geometry": {"type": "Point", "coordinates": [-116.1199, 45.1762]}, "properties": {"NAME": "W7I/IC-021", "TITLE": "Bruin Mountain", "REGION": "ID - Idaho County", "ASSOCIATION": "USA - Idaho", "POINTS": "6", "BONUSPOINTS": "3"}}, {"type": "Feature", "geometry": {"type": "Point", "coordinates": [-115.9799, 45.2768]}, "properties": {"NAME": "W7I/IC-022", "TITLE": "Bear Pete Mountain", "REGION": "ID - Idaho County", "ASSOCIATION": "USA - Idaho", "POINTS": "6", "BONUSPOINTS": "3"}}, {"type": "Feature", "geometry": {"type": "Point", "coordinates": [-114.3485, 46.5102]}, "properties": {"NAME": "W7I/IC-023", "TITLE": "8702", "REGION": "ID - Idaho County", "ASSOCIATION": "USA - Idaho", "POINTS": "6", "BONUSPOINTS": "3"}}, {"type": "Feature", "geometry": {"type": "Point", "coordinates": [-114.5656, 45.5595]}, "properties": {"NAME": "W7I/IC-024", "TITLE": "Blue Joint", "REGION": "ID - Idaho County", "ASSOCIATION": "USA - Idaho", "POINTS": "6", "BONUSPOINTS": "3"}}, {"type": "Feature", "geometry": {"type": "Point", "coordinates": [-116.2099, 45.2605]}, "properties": {"NAME": "W7I/IC-025", "TITLE": "Hard Butte", "REGION": "ID - Idaho County", "ASSOCIATION": "USA - Idaho", "POINTS": "6", "BONUSPOINTS": "3"}}, {"type": "Feature", "geometry": {"type": "Point", "coordinates": [-114.4649, 46.2731]}, "properties": {"NAME": "W7I/IC-026", "TITLE": "Blodgett Mountain", "REGION": "ID - Idaho County", "ASSOCIATION": "USA - Idaho", "POINTS": "6", "BONUSPOINTS": "3"}}, {"type": "Feature", "geometry": {"type": "Point", "coordinates": [-114.4119, 45.978]}, "properties": {"NAME": "W7I/IC-027", "TITLE": "8636", "REGION": "ID - Idaho County", "ASSOCIATION": "USA - Idaho", "POINTS": "6", "BONUSPOINTS": "3"}}, {"type": "Feature", "geometry": {"type": "Point", "coordinates": [-114.4, 46.403]}, "properties": {"NAME": "W7I/IC-028", "TITLE": "8628", "REGION": "ID - Idaho County", "ASSOCIATION": "USA - Idaho", "POINTS": "6", "BONUSPOINTS": "3"}}, {"type": "Feature", "geometry": {"type": "Point", "coordinates": [-114.532, 45.9831]}, "properties": {"NAME": "W7I/IC-029", "TITLE": "8624", "REGION": "ID - Idaho County", "ASSOCIATION": "USA - Idaho", "POINTS": "6", "BONUSPOINTS": "3"}}, {"type": "Feature", "geometry": {"type": "Point", "coordinates": [-114.4804, 46.0304]}, "properties": {"NAME": "W7I/IC-030", "TITLE": "8601", "REGION": "ID - Idaho County", "ASSOCIATION": "USA - Idaho", "POINTS": "6", "BONUSPOINTS": "3"}}, {"type": "Feature", "geometry": {"type": "Point", "coordinates": [-115.2523, 45.2503]}, "properties": {"NAME": "W7I/IC-031", "TITLE": "Dead Mule Peak", "REGION": "ID - Idaho County", "ASSOCIATION": "USA - Idaho", "POINTS": "6", "BONUSPOINTS": "3"}}, {"type": "Feature", "geometry": {"type": "Point", "coordinates": [-115.333, 45.2103]}, "properties": {"NAME": "W7I/IC-032", "TITLE": "8582", "REGION": "ID - Idaho County", "ASSOCIATION": "USA - Idaho", "POINTS": "6", "BONUSPOINTS": "3"}}, {"type": "Feature", "geometry": {"type": "Point", "coordinates": [-114.2483, 45.5458]}, "properties": {"NAME": "W7I/IC-033", "TITLE": "8580", "REGION": "ID - Idaho County", "ASSOCIATION": "USA - Idaho", "POINTS": "6", "BONUSPOINTS": "3"}}, {"type": "Feature", "geometry": {"type": "Point", "coordinates": [-114.4272, 46.2837]}, "properties": {"NAME": "W7I/IC-034", "TITLE": "8540", "REGION": "ID - Idaho County", "ASSOCIATION": "USA - Idaho", "POINTS": "6", "BONUSPOINTS": "3"}}, {"type": "Feature", "geometry": {"type": "Point", "coordinates": [-115.7527, 45.2094]}, "properties": {"NAME": "W7I/IC-035", "TITLE": "Steamboat Benchmark", "REGION": "ID - Idaho County", "ASSOCIATION": "USA - Idaho", "POINTS": "6", "BONUSPOINTS": "3"}}, {"type": "Feature", "geometry": {"type": "Point", "coordinates": [-114.5648, 45.9762]}, "properties": {"NAME": "W7I/IC-036", "TITLE": "8524", "REGION": "ID - Idaho County", "ASSOCIATION": "USA - Idaho", "POINTS": "6", "BONUSPOINTS": "3"}}, {"type": "Feature", "geometry": {"type": "Point", "coordinates": [-114.4766, 45.9924]}, "properties": {"NAME": "W7I/IC-037", "TITLE": "8523", "REGION": "ID - Idaho County", "ASSOCIATION": "USA - Idaho", "POINTS": "6", "BONUSPOINTS": "3"}}, {"type": "Feature", "geometry": {"type": "Point", "coordinates": [-114.5692, 45.9947]}, "properties": {"NAME": "W7I/IC-038", "TITLE": "Nipple Knob", "REGION": "ID - Idaho County", "ASSOCIATION": "USA - Idaho", "POINTS": "6", "BONUSPOINTS": "3"}}, {"type": "Feature", "geometry": {"type": "Point", "coordinates": [-114.6638, 45.4711]}, "properties": {"NAME": "W7I/IC-039", "TITLE": "Parker Mountain", "REGION": "ID - Idaho County", "ASSOCIATION": "USA - Idaho", "POINTS": "6", "BONUSPOINTS": "3"}}, {"type": "Feature", "geometry": {"type": "Point", "coordinates": [-115.6649, 45.5895]}, "properties": {"NAME": "W7I/IC-040", "TITLE": "Mineral Hill", "REGION": "ID - Idaho County", "ASSOCIATION": "USA - Idaho", "POINTS": "6", "BONUSPOINTS": "3"}}, {"type": "Feature", "geometry": {"type": "Point", "coordinates": [-114.829, 45.5221]}, "properties": {"NAME": "W7I/IC-041", "TITLE": "Swet Point", "REGION": "ID - Idaho County", "ASSOCIATION": "USA - Idaho", "POINTS": "6", "BONUSPOINTS": "3"}}, {"type": "Feature", "geometry": {"type": "Point", "coordinates": [-115.3471, 45.3899]}, "properties": {"NAME": "W7I/IC-042", "TITLE": "Sheepeater Mountain", "REGION": "ID - Idaho County", "ASSOCIATION": "USA - Idaho", "POINTS": "6", "BONUSPOINTS": "3"}}, {"type": "Feature", "geometry": {"type": "Point", "coordinates": [-114.5549, 45.9975]}, "properties": {"NAME": "W7I/IC-043", "TITLE": "8479", "REGION": "ID - Idaho County", "ASSOCIATION": "USA - Idaho", "POINTS": "6", "BONUSPOINTS": "3"}}, {"type": "Feature", "geometry": {"type": "Point", "coordinates": [-114.5434, 46.0338]}, "properties": {"NAME": "W7I/IC-044", "TITLE": "Hunter Peak", "REGION": "ID - Idaho County", "ASSOCIATION": "USA - Idaho", "POINTS": "6", "BONUSPOINTS": "3"}}, {"type": "Feature", "geometry": {"type": "Point", "coordinates": [-115.6687, 45.5217]}, "properties": {"NAME": "W7I/IC-045", "TITLE": "Oregon Butte", "REGION": "ID - Idaho County", "ASSOCIATION": "USA - Idaho", "POINTS": "6", "BONUSPOINTS": "3"}}, {"type": "Feature", "geometry": {"type": "Point", "coordinates": [-115.8445, 45.3523]}, "properties": {"NAME": "W7I/IC-046", "TITLE": "Marshall Fin", "REGION": "ID - Idaho County", "ASSOCIATION": "USA - Idaho", "POINTS": "6", "BONUSPOINTS": "3"}}, {"type": "Feature", "geometry": {"type": "Point", "coordinates": [-114.4741, 46.1612]}, "properties": {"NAME": "W7I/IC-047", "TITLE": "8435", "REGION": "ID - Idaho County", "ASSOCIATION": "USA - Idaho", "POINTS": "6", "BONUSPOINTS": "3"}}, {"type": "Feature", "geometry": {"type": "Point", "coordinates": [-116.4949, 45.3688]}, "properties": {"NAME": "W7I/IC-048", "TITLE": "Heavens Gate", "REGION": "ID - Idaho County", "ASSOCIATION": "USA - Idaho", "POINTS": "6", "BONUSPOINTS": "3"}}, {"type": "Feature", "geometry": {"type": "Point", "coordinates": [-116.0896, 45.1787]}, "properties": {"NAME": "W7I/IC-049", "TITLE": "8420", "REGION": "ID - Idaho County", "ASSOCIATION": "USA - Idaho", "POINTS": "6", "BONUSPOINTS": "3"}}, {"type": "Feature", "geometry": {"type": "Point", "coordinates": [-114.4719, 46.1909]}, "properties": {"NAME": "W7I/IC-050", "TITLE": "Divide Number Three", "REGION": "ID - Idaho County", "ASSOCIATION": "USA - Idaho", "POINTS": "6", "BONUSPOINTS": "3"}}, {"type": "Feature", "geometry": {"type": "Point", "coordinates": [-114.4682, 46.249]}, "properties": {"NAME": "W7I/IC-051", "TITLE": "8415", "REGION": "ID - Idaho County", "ASSOCIATION": "USA - Idaho", "POINTS": "6", "BONUSPOINTS": "3"}}, {"type": "Feature", "geometry": {"type": "Point", "coordinates": [-114.4863, 45.9988]}, "properties": {"NAME": "W7I/IC-052", "TITLE": "8409", "REGION": "ID - Idaho County", "ASSOCIATION": "USA - Idaho", "POINTS": "6", "BONUSPOINTS": "3"}}, {"type": "Feature", "geometry": {"type": "Point", "coordinates": [-115.088, 45.588]}, "properties": {"NAME": "W7I/IC-053", "TITLE": "Sheep Hill", "REGION": "ID - Idaho County", "ASSOCIATION": "USA - Idaho", "POINTS": "6", "BONUSPOINTS": "3"}}, {"type": "Feature", "geometry": {"type": "Point", "coordinates": [-114.3842, 46.447]}, "properties": {"NAME": "W7I/IC-054", "TITLE": "8390", "REGION": "ID - Idaho County", "ASSOCIATION": "USA - Idaho", "POINTS": "6", "BONUSPOINTS": "3"}}, {"type": "Feature", "geometry": {"type": "Point", "coordinates": [-115.9706, 45.2942]}, "properties": {"NAME": "W7I/IC-055", "TITLE": "8375", "REGION": "ID - Idaho County", "ASSOCIATION": "USA - Idaho", "POINTS": "6", "BONUSPOINTS": "3"}}, {"type": "Feature", "geometry": {"type": "Point", "coordinates": [-114.607, 45.9588]}, "properties": {"NAME": "W7I/IC-056", "TITLE": "Mount Paloma", "REGION": "ID - Idaho County", "ASSOCIATION": "USA - Idaho", "POINTS": "6", "BONUSPOINTS": "3"}}, {"type": "Feature", "geometry": {"type": "Point", "coordinates": [-115.7429, 45.5152]}, "properties": {"NAME": "W7I/IC-057", "TITLE": "Quartzite Butte", "REGION": "ID - Idaho County", "ASSOCIATION": "USA - Idaho", "POINTS": "6", "BONUSPOINTS": "3"}}, {"type": "Feature", "geometry": {"type": "Point", "coordinates": [-115.9327, 45.6332]}, "properties": {"NAME": "W7I/IC-058", "TITLE": "Pyramid Peak", "REGION": "ID - Idaho County", "ASSOCIATION": "USA - Idaho", "POINTS": "6", "BONUSPOINTS": "3"}}, {"type": "Feature", "geometry": {"type": "Point", "coordinates": [-115.731, 45.5557]}, "properties": {"NAME": "W7I/IC-059", "TITLE": "Shining Butte", "REGION": "ID - Idaho County", "ASSOCIATION": "USA - Idaho", "POINTS": "6", "BONUSPOINTS": "3"}}, {"type": "Feature", "geometry": {"type": "Point", "coordinates": [-115.699, 45.5783]}, "properties": {"NAME": "W7I/IC-060", "TITLE": "Concord Hill", "REGION": "ID - Idaho County", "ASSOCIATION": "USA - Idaho", "POINTS": "6", "BONUSPOINTS": "3"}}, {"type": "Feature", "geometry": {"type": "Point", "coordinates": [-116.1237, 45.286]}, "properties": {"NAME": "W7I/IC-061", "TITLE": "Lava Butte", "REGION": "ID - Idaho County", "ASSOCIATION": "USA - Idaho", "POINTS": "6", "BONUSPOINTS": "3"}}, {"type": "Feature", "geometry": {"type": "Point", "coordinates": [-114.4456, 46.1837]}, "properties": {"NAME": "W7I/IC-062", "TITLE": "8317", "REGION": "ID - Idaho County", "ASSOCIATION": "USA - Idaho", "POINTS": "6", "BONUSPOINTS": "3"}}, {"type": "Feature", "geometry": {"type": "Point", "coordinates": [-114.4333, 46.3054]}, "properties": {"NAME": "W7I/IC-063", "TITLE": "8314", "REGION": "ID - Idaho County", "ASSOCIATION": "USA - Idaho", "POINTS": "6", "BONUSPOINTS": "3"}}, {"type": "Feature", "geometry": {"type": "Point", "coordinates": [-115.2989, 45.2589]}, "properties": {"NAME": "W7I/IC-064", "TITLE": "8292", "REGION": "ID - Idaho County", "ASSOCIATION": "USA - Idaho", "POINTS": "6", "BONUSPOINTS": "3"}}, {"type": "Feature", "geometry": {"type": "Point", "coordinates": [-114.3847, 46.4113]}, "properties": {"NAME": "W7I/IC-065", "TITLE": "8291", "REGION": "ID - Idaho County", "ASSOCIATION": "USA - Idaho", "POINTS": "6", "BONUSPOINTS": "3"}}, {"type": "Feature", "geometry": {"type": "Point", "coordinates": [-114.1353, 45.5578]}, "properties": {"NAME": "W7I/IC-066", "TITLE": "8290", "REGION": "ID - Idaho County", "ASSOCIATION": "USA - Idaho", "POINTS": "6", "BONUSPOINTS": "3"}}, {"type": "Feature", "geometry": {"type": "Point", "coordinates": [-116.1254, 45.2985]}, "properties": {"NAME": "W7I/IC-067", "TITLE": "Sams Throne", "REGION": "ID - Idaho County", "ASSOCIATION": "USA - Idaho", "POINTS": "6", "BONUSPOINTS": "3"}}, {"type": "Feature", "geometry": {"type": "Point", "coordinates": [-114.7304, 46.3952]}, "properties": {"NAME": "W7I/IC-068", "TITLE": "Grave Peak", "REGION": "ID - Idaho County", "ASSOCIATION": "USA - Idaho", "POINTS": "6", "BONUSPOINTS": "3"}}, {"type": "Feature", "geometry": {"type": "Point", "coordinates": [-115.4031, 45.3751]}, "properties": {"NAME": "W7I/IC-069", "TITLE": "8280", "REGION": "ID - Idaho County", "ASSOCIATION": "USA - Idaho", "POINTS": "6", "BONUSPOINTS": "3"}}, {"type": "Feature", "geometry": {"type": "Point", "coordinates": [-114.3208, 46.6469]}, "properties": {"NAME": "W7I/IC-070", "TITLE": "8261", "REGION": "ID - Idaho County", "ASSOCIATION": "USA - Idaho", "POINTS": "6", "BONUSPOINTS": "3"}}, {"type": "Feature", "geometry": {"type": "Point", "coordinates": [-114.5424, 46.1857]}, "properties": {"NAME": "W7I/IC-071", "TITLE": "Saddle Mountain", "REGION": "ID - Idaho County", "ASSOCIATION": "USA - Idaho", "POINTS": "6", "BONUSPOINTS": "3"}}, {"type": "Feature", "geometry": {"type": "Point", "coordinates": [-114.9355, 45.6574]}, "properties": {"NAME": "W7I/IC-072", "TITLE": "Sabe Mountain", "REGION": "ID - Idaho County", "ASSOCIATION": "USA - Idaho", "POINTS": "6", "BONUSPOINTS": "3"}}, {"type": "Feature", "geometry": {"type": "Point", "coordinates": [-115.6049, 45.3017]}, "properties": {"NAME": "W7I/IC-073", "TITLE": "8220", "REGION": "ID - Idaho County", "ASSOCIATION": "USA - Idaho", "POINTS": "6", "BONUSPOINTS": "3"}}, {"type": "Feature", "geometry": {"type": "Point", "coordinates": [-114.6151, 45.6327]}, "properties": {"NAME": "W7I/IC-074", "TITLE": "Devils Point", "REGION": "ID - Idaho County", "ASSOCIATION": "USA - Idaho", "POINTS": "6", "BONUSPOINTS": "3"}}, {"type": "Feature", "geometry": {"type": "Point", "coordinates": [-114.344, 46.5899]}, "properties": {"NAME": "W7I/IC-075", "TITLE": "8213", "REGION": "ID - Idaho County", "ASSOCIATION": "USA - Idaho", "POINTS": "6", "BONUSPOINTS": "3"}}, {"type": "Feature", "geometry": {"type": "Point", "coordinates": [-115.7949, 45.3216]}, "properties": {"NAME": "W7I/IC-076", "TITLE": "War Eagle Mountain", "REGION": "ID - Idaho County", "ASSOCIATION": "USA - Idaho", "POINTS": "6", "BONUSPOINTS": "3"}}, {"type": "Feature", "geometry": {"type": "Point", "coordinates": [-114.9918, 45.7024]}, "properties": {"NAME": "W7I/IC-077", "TITLE": "Burnt Knob", "REGION": "ID - Idaho County", "ASSOCIATION": "USA - Idaho", "POINTS": "6", "BONUSPOINTS": "3"}}, {"type": "Feature", "geometry": {"type": "Point", "coordinates": [-114.5557, 45.8287]}, "properties": {"NAME": "W7I/IC-078", "TITLE": "Cooper Point", "REGION": "ID - Idaho County", "ASSOCIATION": "USA - Idaho", "POINTS": "6", "BONUSPOINTS": "3"}}, {"type": "Feature", "geometry": {"type": "Point", "coordinates": [-114.9296, 45.5373]}, "properties": {"NAME": "W7I/IC-079", "TITLE": "Harrington Mountain", "REGION": "ID - Idaho County", "ASSOCIATION": "USA - Idaho", "POINTS": "6", "BONUSPOINTS": "3"}}, {"type": "Feature", "geometry": {"type": "Point", "coordinates": [-114.9268, 45.7727]}, "properties": {"NAME": "W7I/IC-080", "TITLE": "Three Prong Mountain", "REGION": "ID - Idaho County", "ASSOCIATION": "USA - Idaho", "POINTS": "6", "BONUSPOINTS": "3"}}, {"type": "Feature", "geometry": {"type": "Point", "coordinates": [-116.2017, 45.1535]}, "properties": {"NAME": "W7I/IC-081", "TITLE": "Grass Mountains HP", "REGION": "ID - Idaho County", "ASSOCIATION": "USA - Idaho", "POINTS": "6", "BONUSPOINTS": "3"}}, {"type": "Feature", "geometry": {"type": "Point", "coordinates": [-114.9588, 45.2225]}, "properties": {"NAME": "W7I/IC-082", "TITLE": "Cold Mountain Ridge", "REGION": "ID - Idaho County", "ASSOCIATION": "USA - Idaho", "POINTS": "6", "BONUSPOINTS": "3"}}, {"type": "Feature", "geometry": {"type": "Point", "coordinates": [-115.7565, 45.6256]}, "properties": {"NAME": "W7I/IC-083", "TITLE": "Bear Grass Ridge", "REGION": "ID - Idaho County", "ASSOCIATION": "USA - Idaho", "POINTS": "6", "BONUSPOINTS": "3"}}, {"type": "Feature", "geometry": {"type": "Point", "coordinates": [-115.1421, 45.2149]}, "properties": {"NAME": "W7I/IC-084", "TITLE": "Bismark Mountain", "REGION": "ID - Idaho County", "ASSOCIATION": "USA - Idaho", "POINTS": "6", "BONUSPOINTS": "3"}}, {"type": "Feature", "geometry": {"type": "Point", "coordinates": [-116.5836, 45.3598]}, "properties": {"NAME": "W7I/IC-085", "TITLE": "8111", "REGION": "ID - Idaho County", "ASSOCIATION": "USA - Idaho", "POINTS": "6", "BONUSPOINTS": "3"}}, {"type": "Feature", "geometry": {"type": "Point", "coordinates": [-114.5582, 46.0827]}, "properties": {"NAME": "W7I/IC-086", "TITLE": "Moe Peak", "REGION": "ID - Idaho County", "ASSOCIATION": "USA - Idaho", "POINTS": "6", "BONUSPOINTS": "3"}}, {"type": "Feature", "geometry": {"type": "Point", "coordinates": [-116.2489, 45.3034]}, "properties": {"NAME": "W7I/IC-087", "TITLE": "8101", "REGION": "ID - Idaho County", "ASSOCIATION": "USA - Idaho", "POINTS": "6", "BONUSPOINTS": "3"}}, {"type": "Feature", "geometry": {"type": "Point", "coordinates": [-115.8493, 45.5407]}, "properties": {"NAME": "W7I/IC-088", "TITLE": "Marble Butte", "REGION": "ID - Idaho County", "ASSOCIATION": "USA - Idaho", "POINTS": "6", "BONUSPOINTS": "3"}}, {"type": "Feature", "geometry": {"type": "Point", "coordinates": [-114.4531, 46.3459]}, "properties": {"NAME": "W7I/IC-089", "TITLE": "Frog Peak", "REGION": "ID - Idaho County", "ASSOCIATION": "USA - Idaho", "POINTS": "6", "BONUSPOINTS": "3"}}, {"type": "Feature", "geometry": {"type": "Point", "coordinates": [-114.4793, 45.9553]}, "properties": {"NAME": "W7I/IC-090", "TITLE": "8048", "REGION": "ID - Idaho County", "ASSOCIATION": "USA - Idaho", "POINTS": "6", "BONUSPOINTS": "3"}}, {"type": "Feature", "geometry": {"type": "Point", "coordinates": [-115.9331, 45.5448]}, "properties": {"NAME": "W7I/IC-091", "TITLE": "8047", "REGION": "ID - Idaho County", "ASSOCIATION": "USA - Idaho", "POINTS": "6", "BONUSPOINTS": "3"}}, {"type": "Feature", "geometry": {"type": "Point", "coordinates": [-114.8782, 45.5577]}, "properties": {"NAME": "W7I/IC-092", "TITLE": "Dennis Ridge", "REGION": "ID - Idaho County", "ASSOCIATION": "USA - Idaho", "POINTS": "6", "BONUSPOINTS": "3"}}, {"type": "Feature", "geometry": {"type": "Point", "coordinates": [-114.8551, 45.7871]}, "properties": {"NAME": "W7I/IC-093", "TITLE": "Spot Mountain", "REGION": "ID - Idaho County", "ASSOCIATION": "USA - Idaho", "POINTS": "6", "BONUSPOINTS": "3"}}, {"type": "Feature", "geometry": {"type": "Point", "coordinates": [-115.2046, 46.1771]}, "properties": {"NAME": "W7I/IC-094", "TITLE": "Fenn Mountain", "REGION": "ID - Idaho County", "ASSOCIATION": "USA - Idaho", "POINTS": "6", "BONUSPOINTS": "3"}}, {"type": "Feature", "geometry": {"type": "Point", "coordinates": [-115.8629, 45.5985]}, "properties": {"NAME": "W7I/IC-095", "TITLE": "Square Mountain", "REGION": "ID - Idaho County", "ASSOCIATION": "USA - Idaho", "POINTS": "6", "BONUSPOINTS": "3"}}, {"type": "Feature", "geometry": {"type": "Point", "coordinates": [-114.8933, 45.6214]}, "properties": {"NAME": "W7I/IC-096", "TITLE": "7999", "REGION": "ID - Idaho County", "ASSOCIATION": "USA - Idaho", "POINTS": "6", "BONUSPOINTS": "3"}}, {"type": "Feature", "geometry": {"type": "Point", "coordinates": [-114.5094, 45.9451]}, "properties": {"NAME": "W7I/IC-097", "TITLE": "7987", "REGION": "ID - Idaho County", "ASSOCIATION": "USA - Idaho", "POINTS": "6", "BONUSPOINTS": "3"}}, {"type": "Feature", "geometry": {"type": "Point", "coordinates": [-114.5069, 45.6593]}, "properties": {"NAME": "W7I/IC-098", "TITLE": "Steep Hill", "REGION": "ID - Idaho County", "ASSOCIATION": "USA - Idaho", "POINTS": "6", "BONUSPOINTS": "3"}}, {"type": "Feature", "geometry": {"type": "Point", "coordinates": [-114.4522, 46.3177]}, "properties": {"NAME": "W7I/IC-099", "TITLE": "7961", "REGION": "ID - Idaho County", "ASSOCIATION": "USA - Idaho", "POINTS": "6", "BONUSPOINTS": "3"}}, {"type": "Feature", "geometry": {"type": "Point", "coordinates": [-115.6107, 45.2352]}, "properties": {"NAME": "W7I/IC-100", "TITLE": "China Mountain", "REGION": "ID - Idaho County", "ASSOCIATION": "USA - Idaho", "POINTS": "6", "BONUSPOINTS": "3"}}, {"type": "Feature", "geometry": {"type": "Point", "coordinates": [-114.9027, 45.7642]}, "properties": {"NAME": "W7I/IC-101", "TITLE": "7936", "REGION": "ID - Idaho County", "ASSOCIATION": "USA - Idaho", "POINTS": "6", "BONUSPOINTS": "3"}}, {"type": "Feature", "geometry": {"type": "Point", "coordinates": [-115.9091, 45.6037]}, "properties": {"NAME": "W7I/IC-102", "TITLE": "7900", "REGION": "ID - Idaho County", "ASSOCIATION": "USA - Idaho", "POINTS": "6", "BONUSPOINTS": "3"}}, {"type": "Feature", "geometry": {"type": "Point", "coordinates": [-114.9227, 45.2979]}, "properties": {"NAME": "W7I/IC-103", "TITLE": "Runaway Ridge", "REGION": "ID - Idaho County", "ASSOCIATION": "USA - Idaho", "POINTS": "6", "BONUSPOINTS": "3"}}, {"type": "Feature", "geometry": {"type": "Point", "coordinates": [-114.3612, 46.5722]}, "properties": {"NAME": "W7I/IC-104", "TITLE": "7890", "REGION": "ID - Idaho County", "ASSOCIATION": "USA - Idaho", "POINTS": "6", "BONUSPOINTS": "3"}}, {"type": "Feature", "geometry": {"type": "Point", "coordinates": [-114.771, 45.6352]}, "properties": {"NAME": "W7I/IC-105", "TITLE": "Buck Knob", "REGION": "ID - Idaho County", "ASSOCIATION": "USA - Idaho", "POINTS": "6", "BONUSPOINTS": "3"}}, {"type": "Feature", "geometry": {"type": "Point", "coordinates": [-115.6055, 45.6312]}, "properties": {"NAME": "W7I/IC-106", "TITLE": "Columbia Ridge", "REGION": "ID - Idaho County", "ASSOCIATION": "USA - Idaho", "POINTS": "6", "BONUSPOINTS": "3"}}, {"type": "Feature", "geometry": {"type": "Point", "coordinates": [-115.1657, 46.2155]}, "properties": {"NAME": "W7I/IC-107", "TITLE": "East Peak", "REGION": "ID - Idaho County", "ASSOCIATION": "USA - Idaho", "POINTS": "6", "BONUSPOINTS": "3"}}, {"type": "Feature", "geometry": {"type": "Point", "coordinates": [-115.9839, 45.6052]}, "properties": {"NAME": "W7I/IC-108", "TITLE": "Round Top", "REGION": "ID - Idaho County", "ASSOCIATION": "USA - Idaho", "POINTS": "6", "BONUSPOINTS": "3"}}, {"type": "Feature", "geometry": {"type": "Point", "coordinates": [-115.2258, 46.18]}, "properties": {"NAME": "W7I/IC-109", "TITLE": "7835", "REGION": "ID - Idaho County", "ASSOCIATION": "USA - Idaho", "POINTS": "6", "BONUSPOINTS": "3"}}, {"type": "Feature", "geometry": {"type": "Point", "coordinates": [-114.5272, 46.1459]}, "properties": {"NAME": "W7I/IC-110", "TITLE": "7831", "REGION": "ID - Idaho County", "ASSOCIATION": "USA - Idaho", "POINTS": "6", "BONUSPOINTS": "3"}}, {"type": "Feature", "geometry": {"type": "Point", "coordinates": [-115.0618, 45.9127]}, "properties": {"NAME": "W7I/IC-111", "TITLE": "Elk Mountain", "REGION": "ID - Idaho County", "ASSOCIATION": "USA - Idaho", "POINTS": "6", "BONUSPOINTS": "3"}}, {"type": "Feature", "geometry": {"type": "Point", "coordinates": [-114.5148, 46.0845]}, "properties": {"NAME": "W7I/IC-112", "TITLE": "7820", "REGION": "ID - Idaho County", "ASSOCIATION": "USA - Idaho", "POINTS": "6", "BONUSPOINTS": "3"}}, {"type": "Feature", "geometry": {"type": "Point", "coordinates": [-114.6064, 46.1974]}, "properties": {"NAME": "W7I/IC-113", "TITLE": "7820", "REGION": "ID - Idaho County", "ASSOCIATION": "USA - Idaho", "POINTS": "6", "BONUSPOINTS": "3"}}, {"type": "Feature", "geometry": {"type": "Point", "coordinates": [-116.2028, 45.5075]}, "properties": {"NAME": "W7I/IC-114", "TITLE": "Southwest Butte", "REGION": "ID - Idaho County", "ASSOCIATION": "USA - Idaho", "POINTS": "6", "BONUSPOINTS": "3"}}, {"type": "Feature", "geometry": {"type": "Point", "coordinates": [-114.9659, 45.9823]}, "properties": {"NAME": "W7I/IC-115", "TITLE": "Wylies Peak", "REGION": "ID - Idaho County", "ASSOCIATION": "USA - Idaho", "POINTS": "6", "BONUSPOINTS": "3"}}, {"type": "Feature", "geometry": {"type": "Point", "coordinates": [-114.84, 45.7739]}, "properties": {"NAME": "W7I/IC-116", "TITLE": "Pyramid Mountain", "REGION": "ID - Idaho County", "ASSOCIATION": "USA - Idaho", "POINTS": "6", "BONUSPOINTS": "3"}}, {"type": "Feature", "geometry": {"type": "Point", "coordinates": [-114.44, 46.4674]}, "properties": {"NAME": "W7I/IC-117", "TITLE": "7751", "REGION": "ID - Idaho County", "ASSOCIATION": "USA - Idaho", "POINTS": "6", "BONUSPOINTS": "3"}}, {"type": "Feature", "geometry": {"type": "Point", "coordinates": [-114.6265, 45.916]}, "properties": {"NAME": "W7I/IC-118", "TITLE": "Mount George", "REGION": "ID - Idaho County", "ASSOCIATION": "USA - Idaho", "POINTS": "6", "BONUSPOINTS": "3"}}, {"type": "Feature", "geometry": {"type": "Point", "coordinates": [-114.5596, 46.2084]}, "properties": {"NAME": "W7I/IC-119", "TITLE": "7740", "REGION": "ID - Idaho County", "ASSOCIATION": "USA - Idaho", "POINTS": "6", "BONUSPOINTS": "3"}}, {"type": "Feature", "geometry": {"type": "Point", "coordinates": [-114.7724, 46.3295]}, "properties": {"NAME": "W7I/IC-120", "TITLE": "Hungry Rock", "REGION": "ID - Idaho County", "ASSOCIATION": "USA - Idaho", "POINTS": "6", "BONUSPOINTS": "3"}}, {"type": "Feature", "geometry": {"type": "Point", "coordinates": [-114.8801, 45.3426]}, "properties": {"NAME": "W7I/IC-121", "TITLE": "7733", "REGION": "ID - Idaho County", "ASSOCIATION": "USA - Idaho", "POINTS": "6", "BONUSPOINTS": "3"}}, {"type": "Feature", "geometry": {"type": "Point", "coordinates": [-115.1005, 45.9504]}, "properties": {"NAME": "W7I/IC-122", "TITLE": "Indian Peak", "REGION": "ID - Idaho County", "ASSOCIATION": "USA - Idaho", "POINTS": "6", "BONUSPOINTS": "3"}}, {"type": "Feature", "geometry": {"type": "Point", "coordinates": [-114.9192, 45.5671]}, "properties": {"NAME": "W7I/IC-123", "TITLE": "Dennis Mountain", "REGION": "ID - Idaho County", "ASSOCIATION": "USA - Idaho", "POINTS": "6", "BONUSPOINTS": "3"}}, {"type": "Feature", "geometry": {"type": "Point", "coordinates": [-115.0104, 45.9632]}, "properties": {"NAME": "W7I/IC-124", "TITLE": "7699", "REGION": "ID - Idaho County", "ASSOCIATION": "USA - Idaho", "POINTS": "6", "BONUSPOINTS": "3"}}, {"type": "Feature", "geometry": {"type": "Point", "coordinates": [-115.1792, 46.2088]}, "properties": {"NAME": "W7I/IC-125", "TITLE": "7671", "REGION": "ID - Idaho County", "ASSOCIATION": "USA - Idaho", "POINTS": "6", "BONUSPOINTS": "3"}}, {"type": "Feature", "geometry": {"type": "Point", "coordinates": [-115.2596, 46.1913]}, "properties": {"NAME": "W7I/IC-126", "TITLE": "Chimney Peak", "REGION": "ID - Idaho County", "ASSOCIATION": "USA - Idaho", "POINTS": "6", "BONUSPOINTS": "3"}}, {"type": "Feature", "geometry": {"type": "Point", "coordinates": [-115.1893, 45.6455]}, "properties": {"NAME": "W7I/IC-127", "TITLE": "Boston Mountain", "REGION": "ID - Idaho County", "ASSOCIATION": "USA - Idaho", "POINTS": "6", "BONUSPOINTS": "3"}}, {"type": "Feature", "geometry": {"type": "Point", "coordinates": [-114.76, 46.3823]}, "properties": {"NAME": "W7I/IC-128", "TITLE": "Saturday Ridge", "REGION": "ID - Idaho County", "ASSOCIATION": "USA - Idaho", "POINTS": "6", "BONUSPOINTS": "3"}}, {"type": "Feature", "geometry": {"type": "Point", "coordinates": [-114.5092, 46.2858]}, "properties": {"NAME": "W7I/IC-129", "TITLE": "7632", "REGION": "ID - Idaho County", "ASSOCIATION": "USA - Idaho", "POINTS": "6", "BONUSPOINTS": "3"}}, {"type": "Feature", "geometry": {"type": "Point", "coordinates": [-115.0453, 45.4716]}, "properties": {"NAME": "W7I/IC-130", "TITLE": "Arctic Point", "REGION": "ID - Idaho County", "ASSOCIATION": "USA - Idaho", "POINTS": "6", "BONUSPOINTS": "3"}}, {"type": "Feature", "geometry": {"type": "Point", "coordinates": [-115.0453, 45.9421]}, "properties": {"NAME": "W7I/IC-131", "TITLE": "Bilk Mountain", "REGION": "ID - Idaho County", "ASSOCIATION": "USA - Idaho", "POINTS": "6", "BONUSPOINTS": "3"}}, {"type": "Feature", "geometry": {"type": "Point", "coordinates": [-115.7649, 45.6918]}, "properties": {"NAME": "W7I/IC-132", "TITLE": "Baking Powder Mountain", "REGION": "ID - Idaho County", "ASSOCIATION": "USA - Idaho", "POINTS": "6", "BONUSPOINTS": "3"}}, {"type": "Feature", "geometry": {"type": "Point", "coordinates": [-114.9676, 45.9265]}, "properties": {"NAME": "W7I/IC-133", "TITLE": "Boxcar Mountain", "REGION": "ID - Idaho County", "ASSOCIATION": "USA - Idaho", "POINTS": "6", "BONUSPOINTS": "3"}}, {"type": "Feature", "geometry": {"type": "Point", "coordinates": [-114.4248, 46.5136]}, "properties": {"NAME": "W7I/IC-134", "TITLE": "7588", "REGION": "ID - Idaho County", "ASSOCIATION": "USA - Idaho", "POINTS": "6", "BONUSPOINTS": "3"}}, {"type": "Feature", "geometry": {"type": "Point", "coordinates": [-114.514, 46.3242]}, "properties": {"NAME": "W7I/IC-135", "TITLE": "7586", "REGION": "ID - Idaho County", "ASSOCIATION": "USA - Idaho", "POINTS": "6", "BONUSPOINTS": "3"}}, {"type": "Feature", "geometry": {"type": "Point", "coordinates": [-114.5887, 45.7677]}, "properties": {"NAME": "W7I/IC-136", "TITLE": "7580", "REGION": "ID - Idaho County", "ASSOCIATION": "USA - Idaho", "POINTS": "6", "BONUSPOINTS": "3"}}, {"type": "Feature", "geometry": {"type": "Point", "coordinates": [-115.1367, 45.9289]}, "properties": {"NAME": "W7I/IC-137", "TITLE": "Vermilion Peak", "REGION": "ID - Idaho County", "ASSOCIATION": "USA - Idaho", "POINTS": "6", "BONUSPOINTS": "3"}}, {"type": "Feature", "geometry": {"type": "Point", "coordinates": [-114.5321, 46.2587]}, "properties": {"NAME": "W7I/IC-138", "TITLE": "Dead Elk Point", "REGION": "ID - Idaho County", "ASSOCIATION": "USA - Idaho", "POINTS": "6", "BONUSPOINTS": "3"}}, {"type": "Feature", "geometry": {"type": "Point", "coordinates": [-114.769, 46.4452]}, "properties": {"NAME": "W7I/IC-139", "TITLE": "Tom Beal Peak", "REGION": "ID - Idaho County", "ASSOCIATION": "USA - Idaho", "POINTS": "6", "BONUSPOINTS": "3"}}, {"type": "Feature", "geometry": {"type": "Point", "coordinates": [-114.658, 45.9417]}, "properties": {"NAME": "W7I/IC-140", "TITLE": "7565", "REGION": "ID - Idaho County", "ASSOCIATION": "USA - Idaho", "POINTS": "6", "BONUSPOINTS": "3"}}, {"type": "Feature", "geometry": {"type": "Point", "coordinates": [-114.8241, 45.6941]}, "properties": {"NAME": "W7I/IC-141", "TITLE": "7560", "REGION": "ID - Idaho County", "ASSOCIATION": "USA - Idaho", "POINTS": "6", "BONUSPOINTS": "3"}}, {"type": "Feature", "geometry": {"type": "Point", "coordinates": [-115.0808, 45.9997]}, "properties": {"NAME": "W7I/IC-142", "TITLE": "7540", "REGION": "ID - Idaho County", "ASSOCIATION": "USA - Idaho", "POINTS": "6", "BONUSPOINTS": "3"}}, {"type": "Feature", "geometry": {"type": "Point", "coordinates": [-114.5857, 45.7316]}, "properties": {"NAME": "W7I/IC-143", "TITLE": "Nez Perce Peak", "REGION": "ID - Idaho County", "ASSOCIATION": "USA - Idaho", "POINTS": "6", "BONUSPOINTS": "3"}}, {"type": "Feature", "geometry": {"type": "Point", "coordinates": [-115.1274, 46.2897]}, "properties": {"NAME": "W7I/IC-144", "TITLE": "7530", "REGION": "ID - Idaho County", "ASSOCIATION": "USA - Idaho", "POINTS": "6", "BONUSPOINTS": "3"}}, {"type": "Feature", "geometry": {"type": "Point", "coordinates": [-114.9233, 45.9195]}, "properties": {"NAME": "W7I/IC-145", "TITLE": "Archer Mountain", "REGION": "ID - Idaho County", "ASSOCIATION": "USA - Idaho", "POINTS": "4", "BONUSPOINTS": "3"}}, {"type": "Feature", "geometry": {"type": "Point", "coordinates": [-114.6537, 45.8316]}, "properties": {"NAME": "W7I/IC-146", "TITLE": "Burnt Strip Mountain", "REGION": "ID - Idaho County", "ASSOCIATION": "USA - Idaho", "POINTS": "4", "BONUSPOINTS": "3"}}, {"type": "Feature", "geometry": {"type": "Point", "coordinates": [-114.5647, 46.2904]}, "properties": {"NAME": "W7I/IC-147", "TITLE": "Jeanette Mountain", "REGION": "ID - Idaho County", "ASSOCIATION": "USA - Idaho", "POINTS": "4", "BONUSPOINTS": "3"}}, {"type": "Feature", "geometry": {"type": "Point", "coordinates": [-115.8529, 45.2255]}, "properties": {"NAME": "W7I/IC-148", "TITLE": "Ruby Mountain", "REGION": "ID - Idaho County", "ASSOCIATION": "USA - Idaho", "POINTS": "4", "BONUSPOINTS": "3"}}, {"type": "Feature", "geometry": {"type": "Point", "coordinates": [-114.6177, 46.2961]}, "properties": {"NAME": "W7I/IC-149", "TITLE": "Diablo Mountain", "REGION": "ID - Idaho County", "ASSOCIATION": "USA - Idaho", "POINTS": "4", "BONUSPOINTS": "3"}}, {"type": "Feature", "geometry": {"type": "Point", "coordinates": [-114.8634, 45.3563]}, "properties": {"NAME": "W7I/IC-150", "TITLE": "Hungry Creek Point", "REGION": "ID - Idaho County", "ASSOCIATION": "USA - Idaho", "POINTS": "4", "BONUSPOINTS": "3"}}, {"type": "Feature", "geometry": {"type": "Point", "coordinates": [-115.117, 46.3379]}, "properties": {"NAME": "W7I/IC-151", "TITLE": "Eagle Mountain", "REGION": "ID - Idaho County", "ASSOCIATION": "USA - Idaho", "POINTS": "4", "BONUSPOINTS": "3"}}, {"type": "Feature", "geometry": {"type": "Point", "coordinates": [-115.4877, 45.6254]}, "properties": {"NAME": "W7I/IC-152", "TITLE": "7425", "REGION": "ID - Idaho County", "ASSOCIATION": "USA - Idaho", "POINTS": "4", "BONUSPOINTS": "3"}}, {"type": "Feature", "geometry": {"type": "Point", "coordinates": [-116.2365, 45.5296]}, "properties": {"NAME": "W7I/IC-153", "TITLE": "John Day Mountain", "REGION": "ID - Idaho County", "ASSOCIATION": "USA - Idaho", "POINTS": "4", "BONUSPOINTS": "3"}}, {"type": "Feature", "geometry": {"type": "Point", "coordinates": [-114.916, 46.3585]}, "properties": {"NAME": "W7I/IC-154", "TITLE": "McConnell Mountain", "REGION": "ID - Idaho County", "ASSOCIATION": "USA - Idaho", "POINTS": "4", "BONUSPOINTS": "3"}}, {"type": "Feature", "geometry": {"type": "Point", "coordinates": [-114.6171, 46.0803]}, "properties": {"NAME": "W7I/IC-155", "TITLE": "Elk Ridge", "REGION": "ID - Idaho County", "ASSOCIATION": "USA - Idaho", "POINTS": "4", "BONUSPOINTS": "3"}}, {"type": "Feature", "geometry": {"type": "Point", "coordinates": [-115.0264, 46.3003]}, "properties": {"NAME": "W7I/IC-156", "TITLE": "Wounded Doe Ridge", "REGION": "ID - Idaho County", "ASSOCIATION": "USA - Idaho", "POINTS": "4", "BONUSPOINTS": "3"}}, {"type": "Feature", "geometry": {"type": "Point", "coordinates": [-115.1569, 45.6811]}, "properties": {"NAME": "W7I/IC-157", "TITLE": "7390", "REGION": "ID - Idaho County", "ASSOCIATION": "USA - Idaho", "POINTS": "4", "BONUSPOINTS": "3"}}, {"type": "Feature", "geometry": {"type": "Point", "coordinates": [-114.8732, 46.2558]}, "properties": {"NAME": "W7I/IC-158", "TITLE": "Bailey Mountain", "REGION": "ID - Idaho County", "ASSOCIATION": "USA - Idaho", "POINTS": "4", "BONUSPOINTS": "3"}}, {"type": "Feature", "geometry": {"type": "Point", "coordinates": [-116.1867, 45.1286]}, "properties": {"NAME": "W7I/IC-159", "TITLE": "7384", "REGION": "ID - Idaho County", "ASSOCIATION": "USA - Idaho", "POINTS": "4", "BONUSPOINTS": "3"}}, {"type": "Feature", "geometry": {"type": "Point", "coordinates": [-115.2596, 46.1499]}, "properties": {"NAME": "W7I/IC-160", "TITLE": "Gedney Mountain", "REGION": "ID - Idaho County", "ASSOCIATION": "USA - Idaho", "POINTS": "4", "BONUSPOINTS": "3"}}, {"type": "Feature", "geometry": {"type": "Point", "coordinates": [-114.6291, 46.2469]}, "properties": {"NAME": "W7I/IC-161", "TITLE": "Middle Goat Heaven Peaks", "REGION": "ID - Idaho County", "ASSOCIATION": "USA - Idaho", "POINTS": "4", "BONUSPOINTS": "3"}}, {"type": "Feature", "geometry": {"type": "Point", "coordinates": [-115.3994, 45.4232]}, "properties": {"NAME": "W7I/IC-162", "TITLE": "7362", "REGION": "ID - Idaho County", "ASSOCIATION": "USA - Idaho", "POINTS": "4", "BONUSPOINTS": "3"}}, {"type": "Feature", "geometry": {"type": "Point", "coordinates": [-115.2101, 46.2477]}, "properties": {"NAME": "W7I/IC-163", "TITLE": "Stanley Butte", "REGION": "ID - Idaho County", "ASSOCIATION": "USA - Idaho", "POINTS": "4", "BONUSPOINTS": "3"}}, {"type": "Feature", "geometry": {"type": "Point", "coordinates": [-114.8536, 46.3394]}, "properties": {"NAME": "W7I/IC-164", "TITLE": "7340", "REGION": "ID - Idaho County", "ASSOCIATION": "USA - Idaho", "POINTS": "4", "BONUSPOINTS": "3"}}, {"type": "Feature", "geometry": {"type": "Point", "coordinates": [-114.6076, 46.1373]}, "properties": {"NAME": "W7I/IC-165", "TITLE": "7324", "REGION": "ID - Idaho County", "ASSOCIATION": "USA - Idaho", "POINTS": "4", "BONUSPOINTS": "3"}}, {"type": "Feature", "geometry": {"type": "Point", "coordinates": [-115.955, 45.6842]}, "properties": {"NAME": "W7I/IC-166", "TITLE": "Sawyer Ridge", "REGION": "ID - Idaho County", "ASSOCIATION": "USA - Idaho", "POINTS": "4", "BONUSPOINTS": "3"}}, {"type": "Feature", "geometry": {"type": "Point", "coordinates": [-114.7836, 46.4289]}, "properties": {"NAME": "W7I/IC-167", "TITLE": "7300", "REGION": "ID - Idaho County", "ASSOCIATION": "USA - Idaho", "POINTS": "4", "BONUSPOINTS": "3"}}, {"type": "Feature", "geometry": {"type": "Point", "coordinates": [-114.7846, 46.1474]}, "properties": {"NAME": "W7I/IC-168", "TITLE": "Freeman Peak", "REGION": "ID - Idaho County", "ASSOCIATION": "USA - Idaho", "POINTS": "4", "BONUSPOINTS": "3"}}, {"type": "Feature", "geometry": {"type": "Point", "coordinates": [-115.1335, 46.0253]}, "properties": {"NAME": "W7I/IC-169", "TITLE": "Highline Ridge", "REGION": "ID - Idaho County", "ASSOCIATION": "USA - Idaho", "POINTS": "4", "BONUSPOINTS": "3"}}, {"type": "Feature", "geometry": {"type": "Point", "coordinates": [-114.8148, 46.3861]}, "properties": {"NAME": "W7I/IC-170", "TITLE": "7256", "REGION": "ID - Idaho County", "ASSOCIATION": "USA - Idaho", "POINTS": "4", "BONUSPOINTS": "3"}}, {"type": "Feature", "geometry": {"type": "Point", "coordinates": [-115.0907, 45.8591]}, "properties": {"NAME": "W7I/IC-171", "TITLE": "Granite Peak", "REGION": "ID - Idaho County", "ASSOCIATION": "USA - Idaho", "POINTS": "4", "BONUSPOINTS": "3"}}, {"type": "Feature", "geometry": {"type": "Point", "coordinates": [-115.0761, 45.771]}, "properties": {"NAME": "W7I/IC-172", "TITLE": "Green Mountain", "REGION": "ID - Idaho County", "ASSOCIATION": "USA - Idaho", "POINTS": "4", "BONUSPOINTS": "3"}}, {"type": "Feature", "geometry": {"type": "Point", "coordinates": [-114.6704, 45.5516]}, "properties": {"NAME": "W7I/IC-173", "TITLE": "Wood Hump", "REGION": "ID - Idaho County", "ASSOCIATION": "USA - Idaho", "POINTS": "4", "BONUSPOINTS": "3"}}, {"type": "Feature", "geometry": {"type": "Point", "coordinates": [-115.0318, 45.8025]}, "properties": {"NAME": "W7I/IC-174", "TITLE": "7220", "REGION": "ID - Idaho County", "ASSOCIATION": "USA - Idaho", "POINTS": "4", "BONUSPOINTS": "3"}}, {"type": "Feature", "geometry": {"type": "Point", "coordinates": [-114.3949, 46.6646]}, "properties": {"NAME": "W7I/IC-175", "TITLE": "Skookum Butte", "REGION": "ID - Idaho County", "ASSOCIATION": "USA - Idaho", "POINTS": "4", "BONUSPOINTS": "3"}}, {"type": "Feature", "geometry": {"type": "Point", "coordinates": [-114.8135, 46.3368]}, "properties": {"NAME": "W7I/IC-176", "TITLE": "7206", "REGION": "ID - Idaho County", "ASSOCIATION": "USA - Idaho", "POINTS": "4", "BONUSPOINTS": "3"}}, {"type": "Feature", "geometry": {"type": "Point", "coordinates": [-116.4688, 45.3313]}, "properties": {"NAME": "W7I/IC-177", "TITLE": "Cannon Ball Mountain", "REGION": "ID - Idaho County", "ASSOCIATION": "USA - Idaho", "POINTS": "4", "BONUSPOINTS": "3"}}, {"type": "Feature", "geometry": {"type": "Point", "coordinates": [-114.9245, 46.431]}, "properties": {"NAME": "W7I/IC-178", "TITLE": "Bear Mountain", "REGION": "ID - Idaho County", "ASSOCIATION": "USA - Idaho", "POINTS": "4", "BONUSPOINTS": "3"}}, {"type": "Feature", "geometry": {"type": "Point", "coordinates": [-115.7474, 45.2637]}, "properties": {"NAME": "W7I/IC-179", "TITLE": "7169", "REGION": "ID - Idaho County", "ASSOCIATION": "USA - Idaho", "POINTS": "4", "BONUSPOINTS": "3"}}, {"type": "Feature", "geometry": {"type": "Point", "coordinates": [-114.7154, 45.7537]}, "properties": {"NAME": "W7I/IC-180", "TITLE": "7145", "REGION": "ID - Idaho County", "ASSOCIATION": "USA - Idaho", "POINTS": "4", "BONUSPOINTS": "3"}}, {"type": "Feature", "geometry": {"type": "Point", "coordinates": [-115.7082, 45.9055]}, "properties": {"NAME": "W7I/IC-181", "TITLE": "Pilot Knob", "REGION": "ID - Idaho County", "ASSOCIATION": "USA - Idaho", "POINTS": "4", "BONUSPOINTS": "3"}}, {"type": "Feature", "geometry": {"type": "Point", "coordinates": [-115.0378, 46.2077]}, "properties": {"NAME": "W7I/IC-182", "TITLE": "Big Rock Mountain", "REGION": "ID - Idaho County", "ASSOCIATION": "USA - Idaho", "POINTS": "4", "BONUSPOINTS": "3"}}, {"type": "Feature", "geometry": {"type": "Point", "coordinates": [-114.6912, 45.743]}, "properties": {"NAME": "W7I/IC-183", "TITLE": "Beaver Jack Mountain", "REGION": "ID - Idaho County", "ASSOCIATION": "USA - Idaho", "POINTS": "4", "BONUSPOINTS": "3"}}, {"type": "Feature", "geometry": {"type": "Point", "coordinates": [-114.7963, 46.2649]}, "properties": {"NAME": "W7I/IC-184", "TITLE": "7050", "REGION": "ID - Idaho County", "ASSOCIATION": "USA - Idaho", "POINTS": "4", "BONUSPOINTS": "3"}}, {"type": "Feature", "geometry": {"type": "Point", "coordinates": [-114.6962, 45.9497]}, "properties": {"NAME": "W7I/IC-185", "TITLE": "7042", "REGION": "ID - Idaho County", "ASSOCIATION": "USA - Idaho", "POINTS": "4", "BONUSPOINTS": "3"}}, {"type": "Feature", "geometry": {"type": "Point", "coordinates": [-114.6718, 46.3614]}, "properties": {"NAME": "W7I/IC-186", "TITLE": "7042", "REGION": "ID - Idaho County", "ASSOCIATION": "USA - Idaho", "POINTS": "4", "BONUSPOINTS": "3"}}, {"type": "Feature", "geometry": {"type": "Point", "coordinates": [-114.9861, 46.5492]}, "properties": {"NAME": "W7I/IC-187", "TITLE": "Indian Postoffice", "REGION": "ID - Idaho County", "ASSOCIATION": "USA - Idaho", "POINTS": "4", "BONUSPOINTS": "3"}}, {"type": "Feature", "geometry": {"type": "Point", "coordinates": [-114.9551, 46.0535]}, "properties": {"NAME": "W7I/IC-188", "TITLE": "Moose Ridge", "REGION": "ID - Idaho County", "ASSOCIATION": "USA - Idaho", "POINTS": "4", "BONUSPOINTS": "3"}}, {"type": "Feature", "geometry": {"type": "Point", "coordinates": [-115.5149, 45.2878]}, "properties": {"NAME": "W7I/IC-189", "TITLE": "Smith Knob", "REGION": "ID - Idaho County", "ASSOCIATION": "USA - Idaho", "POINTS": "4", "BONUSPOINTS": "3"}}, {"type": "Feature", "geometry": {"type": "Point", "coordinates": [-114.5788, 46.2401]}, "properties": {"NAME": "W7I/IC-190", "TITLE": "6983", "REGION": "ID - Idaho County", "ASSOCIATION": "USA - Idaho", "POINTS": "4", "BONUSPOINTS": "3"}}, {"type": "Feature", "geometry": {"type": "Point", "coordinates": [-115.0148, 45.438]}, "properties": {"NAME": "W7I/IC-191", "TITLE": "Mule Creek Point", "REGION": "ID - Idaho County", "ASSOCIATION": "USA - Idaho", "POINTS": "4", "BONUSPOINTS": "3"}}, {"type": "Feature", "geometry": {"type": "Point", "coordinates": [-114.6903, 45.5873]}, "properties": {"NAME": "W7I/IC-192", "TITLE": "6959", "REGION": "ID - Idaho County", "ASSOCIATION": "USA - Idaho", "POINTS": "4", "BONUSPOINTS": "3"}}, {"type": "Feature", "geometry": {"type": "Point", "coordinates": [-114.6856, 46.3212]}, "properties": {"NAME": "W7I/IC-193", "TITLE": "Cedar Ridge", "REGION": "ID - Idaho County", "ASSOCIATION": "USA - Idaho", "POINTS": "4", "BONUSPOINTS": "3"}}, {"type": "Feature", "geometry": {"type": "Point", "coordinates": [-115.4571, 46.1544]}, "properties": {"NAME": "W7I/IC-194", "TITLE": "Coolwater Mountain", "REGION": "ID - Idaho County", "ASSOCIATION": "USA - Idaho", "POINTS": "4", "BONUSPOINTS": "3"}}, {"type": "Feature", "geometry": {"type": "Point", "coordinates": [-114.4244, 46.6606]}, "properties": {"NAME": "W7I/IC-195", "TITLE": "6925", "REGION": "ID - Idaho County", "ASSOCIATION": "USA - Idaho", "POINTS": "4", "BONUSPOINTS": "3"}}, {"type": "Feature", "geometry": {"type": "Point", "coordinates": [-114.5884, 46.4574]}, "properties": {"NAME": "W7I/IC-196", "TITLE": "Savage Ridge", "REGION": "ID - Idaho County", "ASSOCIATION": "USA - Idaho", "POINTS": "4", "BONUSPOINTS": "3"}}, {"type": "Feature", "geometry": {"type": "Point", "coordinates": [-114.9524, 46.4032]}, "properties": {"NAME": "W7I/IC-197", "TITLE": "6906", "REGION": "ID - Idaho County", "ASSOCIATION": "USA - Idaho", "POINTS": "4", "BONUSPOINTS": "3"}}, {"type": "Feature", "geometry": {"type": "Point", "coordinates": [-115.2389, 45.9935]}, "properties": {"NAME": "W7I/IC-198", "TITLE": "Indian Hill", "REGION": "ID - Idaho County", "ASSOCIATION": "USA - Idaho", "POINTS": "4", "BONUSPOINTS": "3"}}, {"type": "Feature", "geometry": {"type": "Point", "coordinates": [-114.8034, 45.8123]}, "properties": {"NAME": "W7I/IC-199", "TITLE": "Fire Mountain", "REGION": "ID - Idaho County", "ASSOCIATION": "USA - Idaho", "POINTS": "4", "BONUSPOINTS": "3"}}, {"type": "Feature", "geometry": {"type": "Point", "coordinates": [-114.7459, 45.7038]}, "properties": {"NAME": "W7I/IC-200", "TITLE": "Haystack Mountain", "REGION": "ID - Idaho County", "ASSOCIATION": "USA - Idaho", "POINTS": "4", "BONUSPOINTS": "3"}}, {"type": "Feature", "geometry": {"type": "Point", "coordinates": [-115.5704, 45.4866]}, "properties": {"NAME": "W7I/IC-201", "TITLE": "Jersey Mountain", "REGION": "ID - Idaho County", "ASSOCIATION": "USA - Idaho", "POINTS": "4", "BONUSPOINTS": "3"}}, {"type": "Feature", "geometry": {"type": "Point", "coordinates": [-114.7066, 46.1122]}, "properties": {"NAME": "W7I/IC-202", "TITLE": "North Pettibone Ridge", "REGION": "ID - Idaho County", "ASSOCIATION": "USA - Idaho", "POINTS": "4", "BONUSPOINTS": "3"}}, {"type": "Feature", "geometry": {"type": "Point", "coordinates": [-115.3312, 45.8877]}, "properties": {"NAME": "W7I/IC-203", "TITLE": "Anderson Butte", "REGION": "ID - Idaho County", "ASSOCIATION": "USA - Idaho", "POINTS": "4", "BONUSPOINTS": "3"}}, {"type": "Feature", "geometry": {"type": "Point", "coordinates": [-114.5579, 46.3722]}, "properties": {"NAME": "W7I/IC-204", "TITLE": "Hidden Creek Ridge", "REGION": "ID - Idaho County", "ASSOCIATION": "USA - Idaho", "POINTS": "4", "BONUSPOINTS": "3"}}, {"type": "Feature", "geometry": {"type": "Point", "coordinates": [-114.8595, 45.7487]}, "properties": {"NAME": "W7I/IC-205", "TITLE": "Lonely Mountain", "REGION": "ID - Idaho County", "ASSOCIATION": "USA - Idaho", "POINTS": "4", "BONUSPOINTS": "3"}}, {"type": "Feature", "geometry": {"type": "Point", "coordinates": [-115.3466, 45.9275]}, "properties": {"NAME": "W7I/IC-206", "TITLE": "Green Ridge", "REGION": "ID - Idaho County", "ASSOCIATION": "USA - Idaho", "POINTS": "4", "BONUSPOINTS": "3"}}, {"type": "Feature", "geometry": {"type": "Point", "coordinates": [-115.8665, 45.683]}, "properties": {"NAME": "W7I/IC-207", "TITLE": "Dome Hill", "REGION": "ID - Idaho County", "ASSOCIATION": "USA - Idaho", "POINTS": "4", "BONUSPOINTS": "3"}}, {"type": "Feature", "geometry": {"type": "Point", "coordinates": [-114.8413, 46.2907]}, "properties": {"NAME": "W7I/IC-208", "TITLE": "6821", "REGION": "ID - Idaho County", "ASSOCIATION": "USA - Idaho", "POINTS": "4", "BONUSPOINTS": "3"}}, {"type": "Feature", "geometry": {"type": "Point", "coordinates": [-116.2593, 45.1132]}, "properties": {"NAME": "W7I/IC-209", "TITLE": "Bally Mountain", "REGION": "ID - Idaho County", "ASSOCIATION": "USA - Idaho", "POINTS": "4", "BONUSPOINTS": "3"}}, {"type": "Feature", "geometry": {"type": "Point", "coordinates": [-115.5418, 45.9682]}, "properties": {"NAME": "W7I/IC-210", "TITLE": "Iron Mountain", "REGION": "ID - Idaho County", "ASSOCIATION": "USA - Idaho", "POINTS": "4", "BONUSPOINTS": "3"}}, {"type": "Feature", "geometry": {"type": "Point", "coordinates": [-114.8514, 45.8571]}, "properties": {"NAME": "W7I/IC-211", "TITLE": "Mount Aura", "REGION": "ID - Idaho County", "ASSOCIATION": "USA - Idaho", "POINTS": "4", "BONUSPOINTS": "3"}}, {"type": "Feature", "geometry": {"type": "Point", "coordinates": [-115.8157, 45.7271]}, "properties": {"NAME": "W7I/IC-212", "TITLE": "Sourdough Peak", "REGION": "ID - Idaho County", "ASSOCIATION": "USA - Idaho", "POINTS": "4", "BONUSPOINTS": "3"}}, {"type": "Feature", "geometry": {"type": "Point", "coordinates": [-115.0857, 46.5308]}, "properties": {"NAME": "W7I/IC-213", "TITLE": "Moccasin Peak", "REGION": "ID - Idaho County", "ASSOCIATION": "USA - Idaho", "POINTS": "4", "BONUSPOINTS": "3"}}, {"type": "Feature", "geometry": {"type": "Point", "coordinates": [-115.1492, 45.8183]}, "properties": {"NAME": "W7I/IC-214", "TITLE": "Matteson Ridge", "REGION": "ID - Idaho County", "ASSOCIATION": "USA - Idaho", "POINTS": "4", "BONUSPOINTS": "3"}}, {"type": "Feature", "geometry": {"type": "Point", "coordinates": [-114.8348, 45.8775]}, "properties": {"NAME": "W7I/IC-215", "TITLE": "Running Benchmark", "REGION": "ID - Idaho County", "ASSOCIATION": "USA - Idaho", "POINTS": "4", "BONUSPOINTS": "3"}}, {"type": "Feature", "geometry": {"type": "Point", "coordinates": [-115.0323, 46.542]}, "properties": {"NAME": "W7I/IC-216", "TITLE": "6740", "REGION": "ID - Idaho County", "ASSOCIATION": "USA - Idaho", "POINTS": "4", "BONUSPOINTS": "3"}}, {"type": "Feature", "geometry": {"type": "Point", "coordinates": [-115.8749, 45.4894]}, "properties": {"NAME": "W7I/IC-217", "TITLE": "Black Butte", "REGION": "ID - Idaho County", "ASSOCIATION": "USA - Idaho", "POINTS": "4", "BONUSPOINTS": "3"}}, {"type": "Feature", "geometry": {"type": "Point", "coordinates": [-114.7047, 45.6767]}, "properties": {"NAME": "W7I/IC-218", "TITLE": "Horsejaw Mountain", "REGION": "ID - Idaho County", "ASSOCIATION": "USA - Idaho", "POINTS": "4", "BONUSPOINTS": "3"}}, {"type": "Feature", "geometry": {"type": "Point", "coordinates": [-114.9051, 46.583]}, "properties": {"NAME": "W7I/IC-219", "TITLE": "Spring Mountain", "REGION": "ID - Idaho County", "ASSOCIATION": "USA - Idaho", "POINTS": "4", "BONUSPOINTS": "3"}}, {"type": "Feature", "geometry": {"type": "Point", "coordinates": [-115.3012, 46.2782]}, "properties": {"NAME": "W7I/IC-220", "TITLE": "Huckleberry Butte", "REGION": "ID - Idaho County", "ASSOCIATION": "USA - Idaho", "POINTS": "4", "BONUSPOINTS": "3"}}, {"type": "Feature", "geometry": {"type": "Point", "coordinates": [-115.3951, 45.5524]}, "properties": {"NAME": "W7I/IC-221", "TITLE": "Churchill Mountain", "REGION": "ID - Idaho County", "ASSOCIATION": "USA - Idaho", "POINTS": "4", "BONUSPOINTS": "3"}}, {"type": "Feature", "geometry": {"type": "Point", "coordinates": [-114.6172, 46.3406]}, "properties": {"NAME": "W7I/IC-222", "TITLE": "6682", "REGION": "ID - Idaho County", "ASSOCIATION": "USA - Idaho", "POINTS": "4", "BONUSPOINTS": "3"}}, {"type": "Feature", "geometry": {"type": "Point", "coordinates": [-114.6464, 46.4712]}, "properties": {"NAME": "W7I/IC-223", "TITLE": "6671", "REGION": "ID - Idaho County", "ASSOCIATION": "USA - Idaho", "POINTS": "4", "BONUSPOINTS": "3"}}, {"type": "Feature", "geometry": {"type": "Point", "coordinates": [-114.7405, 46.0787]}, "properties": {"NAME": "W7I/IC-224", "TITLE": "South Pettibone Ridge", "REGION": "ID - Idaho County", "ASSOCIATION": "USA - Idaho", "POINTS": "4", "BONUSPOINTS": "3"}}, {"type": "Feature", "geometry": {"type": "Point", "coordinates": [-114.6003, 45.6951]}, "properties": {"NAME": "W7I/IC-225", "TITLE": "Roundtop Mountain", "REGION": "ID - Idaho County", "ASSOCIATION": "USA - Idaho", "POINTS": "4", "BONUSPOINTS": "3"}}, {"type": "Feature", "geometry": {"type": "Point", "coordinates": [-115.2201, 46.4341]}, "properties": {"NAME": "W7I/IC-226", "TITLE": "Castle Butte", "REGION": "ID - Idaho County", "ASSOCIATION": "USA - Idaho", "POINTS": "4", "BONUSPOINTS": "3"}}, {"type": "Feature", "geometry": {"type": "Point", "coordinates": [-115.324, 46.4152]}, "properties": {"NAME": "W7I/IC-227", "TITLE": "Sherman Peak", "REGION": "ID - Idaho County", "ASSOCIATION": "USA - Idaho", "POINTS": "4", "BONUSPOINTS": "3"}}, {"type": "Feature", "geometry": {"type": "Point", "coordinates": [-115.5562, 45.4217]}, "properties": {"NAME": "W7I/IC-228", "TITLE": "Moccasin Mountain", "REGION": "ID - Idaho County", "ASSOCIATION": "USA - Idaho", "POINTS": "4", "BONUSPOINTS": "3"}}, {"type": "Feature", "geometry": {"type": "Point", "coordinates": [-115.4735, 45.5052]}, "properties": {"NAME": "W7I/IC-229", "TITLE": "Blowout Mountain", "REGION": "ID - Idaho County", "ASSOCIATION": "USA - Idaho", "POINTS": "4", "BONUSPOINTS": "3"}}, {"type": "Feature", "geometry": {"type": "Point", "coordinates": [-115.1462, 46.4845]}, "properties": {"NAME": "W7I/IC-230", "TITLE": "6615", "REGION": "ID - Idaho County", "ASSOCIATION": "USA - Idaho", "POINTS": "4", "BONUSPOINTS": "3"}}, {"type": "Feature", "geometry": {"type": "Point", "coordinates": [-115.7326, 45.9555]}, "properties": {"NAME": "W7I/IC-231", "TITLE": "Baldy Mountain", "REGION": "ID - Idaho County", "ASSOCIATION": "USA - Idaho", "POINTS": "4", "BONUSPOINTS": "3"}}, {"type": "Feature", "geometry": {"type": "Point", "coordinates": [-115.4804, 45.4644]}, "properties": {"NAME": "W7I/IC-232", "TITLE": "Mammoth Mountain", "REGION": "ID - Idaho County", "ASSOCIATION": "USA - Idaho", "POINTS": "4", "BONUSPOINTS": "3"}}, {"type": "Feature", "geometry": {"type": "Point", "coordinates": [-115.1832, 45.9085]}, "properties": {"NAME": "W7I/IC-233", "TITLE": "Disgrace Butte", "REGION": "ID - Idaho County", "ASSOCIATION": "USA - Idaho", "POINTS": "4", "BONUSPOINTS": "3"}}, {"type": "Feature", "geometry": {"type": "Point", "coordinates": [-115.2365, 46.0932]}, "properties": {"NAME": "W7I/IC-234", "TITLE": "Fog Mountain", "REGION": "ID - Idaho County", "ASSOCIATION": "USA - Idaho", "POINTS": "4", "BONUSPOINTS": "3"}}, {"type": "Feature", "geometry": {"type": "Point", "coordinates": [-116.2169, 45.4528]}, "properties": {"NAME": "W7I/IC-235", "TITLE": "6553", "REGION": "ID - Idaho County", "ASSOCIATION": "USA - Idaho", "POINTS": "4", "BONUSPOINTS": "3"}}, {"type": "Feature", "geometry": {"type": "Point", "coordinates": [-115.5121, 46.446]}, "properties": {"NAME": "W7I/IC-236", "TITLE": "Rocky Ridge", "REGION": "ID - Idaho County", "ASSOCIATION": "USA - Idaho", "POINTS": "4", "BONUSPOINTS": "3"}}, {"type": "Feature", "geometry": {"type": "Point", "coordinates": [-115.2426, 46.4544]}, "properties": {"NAME": "W7I/IC-237", "TITLE": "Bald Mountain", "REGION": "ID - Idaho County", "ASSOCIATION": "USA - Idaho", "POINTS": "4", "BONUSPOINTS": "3"}}, {"type": "Feature", "geometry": {"type": "Point", "coordinates": [-114.7648, 45.9257]}, "properties": {"NAME": "W7I/IC-238", "TITLE": "6514", "REGION": "ID - Idaho County", "ASSOCIATION": "USA - Idaho", "POINTS": "4", "BONUSPOINTS": "3"}}, {"type": "Feature", "geometry": {"type": "Point", "coordinates": [-114.9462, 45.3971]}, "properties": {"NAME": "W7I/IC-239", "TITLE": "Cabin Mountain", "REGION": "ID - Idaho County", "ASSOCIATION": "USA - Idaho", "POINTS": "4", "BONUSPOINTS": "3"}}, {"type": "Feature", "geometry": {"type": "Point", "coordinates": [-116.1075, 45.6843]}, "properties": {"NAME": "W7I/IC-240", "TITLE": "Dairy Mountain", "REGION": "ID - Idaho County", "ASSOCIATION": "USA - Idaho", "POINTS": "4", "BONUSPOINTS": "3"}}, {"type": "Feature", "geometry": {"type": "Point", "coordinates": [-115.0226, 45.3941]}, "properties": {"NAME": "W7I/IC-241", "TITLE": "East McCalla Ridge", "REGION": "ID - Idaho County", "ASSOCIATION": "USA - Idaho", "POINTS": "4", "BONUSPOINTS": "3"}}, {"type": "Feature", "geometry": {"type": "Point", "coordinates": [-115.3935, 46.4124]}, "properties": {"NAME": "W7I/IC-242", "TITLE": "Willow Ridge", "REGION": "ID - Idaho County", "ASSOCIATION": "USA - Idaho", "POINTS": "4", "BONUSPOINTS": "3"}}, {"type": "Feature", "geometry": {"type": "Point", "coordinates": [-114.7, 46.0206]}, "properties": {"NAME": "W7I/IC-243", "TITLE": "6488", "REGION": "ID - Idaho County", "ASSOCIATION": "USA - Idaho", "POINTS": "4", "BONUSPOINTS": "3"}}, {"type": "Feature", "geometry": {"type": "Point", "coordinates": [-114.7087, 46.6043]}, "properties": {"NAME": "W7I/IC-244", "TITLE": "6422", "REGION": "ID - Idaho County", "ASSOCIATION": "USA - Idaho", "POINTS": "4", "BONUSPOINTS": "3"}}, {"type": "Feature", "geometry": {"type": "Point", "coordinates": [-115.5394, 45.8807]}, "properties": {"NAME": "W7I/IC-245", "TITLE": "Elk Summit", "REGION": "ID - Idaho County", "ASSOCIATION": "USA - Idaho", "POINTS": "4", "BONUSPOINTS": "3"}}, {"type": "Feature", "geometry": {"type": "Point", "coordinates": [-114.5314, 46.6145]}, "properties": {"NAME": "W7I/IC-246", "TITLE": "6388", "REGION": "ID - Idaho County", "ASSOCIATION": "USA - Idaho", "POINTS": "4", "BONUSPOINTS": "3"}}, {"type": "Feature", "geometry": {"type": "Point", "coordinates": [-115.4368, 46.4146]}, "properties": {"NAME": "W7I/IC-247", "TITLE": "Bowl Butte", "REGION": "ID - Idaho County", "ASSOCIATION": "USA - Idaho", "POINTS": "4", "BONUSPOINTS": "3"}}, {"type": "Feature", "geometry": {"type": "Point", "coordinates": [-114.7406, 45.6749]}, "properties": {"NAME": "W7I/IC-248", "TITLE": "6323", "REGION": "ID - Idaho County", "ASSOCIATION": "USA - Idaho", "POINTS": "4", "BONUSPOINTS": "3"}}, {"type": "Feature", "geometry": {"type": "Point", "coordinates": [-115.7151, 45.8366]}, "properties": {"NAME": "W7I/IC-249", "TITLE": "Reed Mountain", "REGION": "ID - Idaho County", "ASSOCIATION": "USA - Idaho", "POINTS": "4", "BONUSPOINTS": "3"}}, {"type": "Feature", "geometry": {"type": "Point", "coordinates": [-114.7001, 45.6966]}, "properties": {"NAME": "W7I/IC-250", "TITLE": "Pasture Ridge", "REGION": "ID - Idaho County", "ASSOCIATION": "USA - Idaho", "POINTS": "4", "BONUSPOINTS": "3"}}, {"type": "Feature", "geometry": {"type": "Point", "coordinates": [-114.6657, 46.5822]}, "properties": {"NAME": "W7I/IC-251", "TITLE": "Rocky Point", "REGION": "ID - Idaho County", "ASSOCIATION": "USA - Idaho", "POINTS": "4", "BONUSPOINTS": "3"}}, {"type": "Feature", "geometry": {"type": "Point", "coordinates": [-114.8946, 46.0391]}, "properties": {"NAME": "W7I/IC-252", "TITLE": "Shearer Peak", "REGION": "ID - Idaho County", "ASSOCIATION": "USA - Idaho", "POINTS": "4", "BONUSPOINTS": "3"}}, {"type": "Feature", "geometry": {"type": "Point", "coordinates": [-115.2443, 46.5188]}, "properties": {"NAME": "W7I/IC-253", "TITLE": "Porphyry Peak", "REGION": "ID - Idaho County", "ASSOCIATION": "USA - Idaho", "POINTS": "4", "BONUSPOINTS": "3"}}, {"type": "Feature", "geometry": {"type": "Point", "coordinates": [-115.1157, 46.4613]}, "properties": {"NAME": "W7I/IC-254", "TITLE": "Grave Butte", "REGION": "ID - Idaho County", "ASSOCIATION": "USA - Idaho", "POINTS": "4", "BONUSPOINTS": "3"}}, {"type": "Feature", "geometry": {"type": "Point", "coordinates": [-115.2592, 45.8239]}, "properties": {"NAME": "W7I/IC-255", "TITLE": "6180", "REGION": "ID - Idaho County", "ASSOCIATION": "USA - Idaho", "POINTS": "4", "BONUSPOINTS": "3"}}, {"type": "Feature", "geometry": {"type": "Point", "coordinates": [-115.5705, 45.365]}, "properties": {"NAME": "W7I/IC-256", "TITLE": "6178", "REGION": "ID - Idaho County", "ASSOCIATION": "USA - Idaho", "POINTS": "4", "BONUSPOINTS": "3"}}, {"type": "Feature", "geometry": {"type": "Point", "coordinates": [-116.1281, 45.8625]}, "properties": {"NAME": "W7I/IC-257", "TITLE": "6140", "REGION": "ID - Idaho County", "ASSOCIATION": "USA - Idaho", "POINTS": "4", "BONUSPOINTS": "3"}}, {"type": "Feature", "geometry": {"type": "Point", "coordinates": [-115.5187, 45.4224]}, "properties": {"NAME": "W7I/IC-258", "TITLE": "Cove Mountain", "REGION": "ID - Idaho County", "ASSOCIATION": "USA - Idaho", "POINTS": "4", "BONUSPOINTS": "3"}}, {"type": "Feature", "geometry": {"type": "Point", "coordinates": [-115.1919, 45.8581]}, "properties": {"NAME": "W7I/IC-259", "TITLE": "Sable Hill", "REGION": "ID - Idaho County", "ASSOCIATION": "USA - Idaho", "POINTS": "4", "BONUSPOINTS": "3"}}, {"type": "Feature", "geometry": {"type": "Point", "coordinates": [-116.4237, 45.7095]}, "properties": {"NAME": "W7I/IC-260", "TITLE": "Camp Howard Ridge", "REGION": "ID - Idaho County", "ASSOCIATION": "USA - Idaho", "POINTS": "4", "BONUSPOINTS": "3"}}, {"type": "Feature", "geometry": {"type": "Point", "coordinates": [-114.6768, 45.7833]}, "properties": {"NAME": "W7I/IC-261", "TITLE": "6060", "REGION": "ID - Idaho County", "ASSOCIATION": "USA - Idaho", "POINTS": "4", "BONUSPOINTS": "3"}}, {"type": "Feature", "geometry": {"type": "Point", "coordinates": [-115.5898, 46.4377]}, "properties": {"NAME": "W7I/IC-262", "TITLE": "Snowy Summit", "REGION": "ID - Idaho County", "ASSOCIATION": "USA - Idaho", "POINTS": "4", "BONUSPOINTS": "3"}}, {"type": "Feature", "geometry": {"type": "Point", "coordinates": [-114.77, 46.0109]}, "properties": {"NAME": "W7I/IC-263", "TITLE": "6047", "REGION": "ID - Idaho County", "ASSOCIATION": "USA - Idaho", "POINTS": "4", "BONUSPOINTS": "3"}}, {"type": "Feature", "geometry": {"type": "Point", "coordinates": [-114.7319, 45.8048]}, "properties": {"NAME": "W7I/IC-264", "TITLE": "Indian Ridge", "REGION": "ID - Idaho County", "ASSOCIATION": "USA - Idaho", "POINTS": "4", "BONUSPOINTS": "3"}}, {"type": "Feature", "geometry": {"type": "Point", "coordinates": [-115.4036, 45.9599]}, "properties": {"NAME": "W7I/IC-265", "TITLE": "West Horse Ridge", "REGION": "ID - Idaho County", "ASSOCIATION": "USA - Idaho", "POINTS": "4", "BONUSPOINTS": "3"}}, {"type": "Feature", "geometry": {"type": "Point", "coordinates": [-116.5167, 45.4925]}, "properties": {"NAME": "W7I/IC-266", "TITLE": "Stormy Point", "REGION": "ID - Idaho County", "ASSOCIATION": "USA - Idaho", "POINTS": "2", "BONUSPOINTS": "3"}}, {"type": "Feature", "geometry": {"type": "Point", "coordinates": [-114.962, 46.4345]}, "properties": {"NAME": "W7I/IC-267", "TITLE": "5987", "REGION": "ID - Idaho County", "ASSOCIATION": "USA - Idaho", "POINTS": "2", "BONUSPOINTS": "3"}}, {"type": "Feature", "geometry": {"type": "Point", "coordinates": [-115.0393, 46.2521]}, "properties": {"NAME": "W7I/IC-268", "TITLE": "Doe Point", "REGION": "ID - Idaho County", "ASSOCIATION": "USA - Idaho", "POINTS": "2", "BONUSPOINTS": "3"}}, {"type": "Feature", "geometry": {"type": "Point", "coordinates": [-115.6713, 46.016]}, "properties": {"NAME": "W7I/IC-269", "TITLE": "5977", "REGION": "ID - Idaho County", "ASSOCIATION": "USA - Idaho", "POINTS": "2", "BONUSPOINTS": "3"}}, {"type": "Feature", "geometry": {"type": "Point", "coordinates": [-115.8226, 45.9643]}, "properties": {"NAME": "W7I/IC-270", "TITLE": "Corral Hill", "REGION": "ID - Idaho County", "ASSOCIATION": "USA - Idaho", "POINTS": "2", "BONUSPOINTS": "3"}}, {"type": "Feature", "geometry": {"type": "Point", "coordinates": [-115.4526, 46.4705]}, "properties": {"NAME": "W7I/IC-271", "TITLE": "Weitas Butte", "REGION": "ID - Idaho County", "ASSOCIATION": "USA - Idaho", "POINTS": "2", "BONUSPOINTS": "3"}}, {"type": "Feature", "geometry": {"type": "Point", "coordinates": [-115.4719, 46.4375]}, "properties": {"NAME": "W7I/IC-272", "TITLE": "5965", "REGION": "ID - Idaho County", "ASSOCIATION": "USA - Idaho", "POINTS": "2", "BONUSPOINTS": "3"}}, {"type": "Feature", "geometry": {"type": "Point", "coordinates": [-115.4051, 46.0001]}, "properties": {"NAME": "W7I/IC-273", "TITLE": "5916", "REGION": "ID - Idaho County", "ASSOCIATION": "USA - Idaho", "POINTS": "2", "BONUSPOINTS": "3"}}, {"type": "Feature", "geometry": {"type": "Point", "coordinates": [-116.0255, 45.3801]}, "properties": {"NAME": "W7I/IC-274", "TITLE": "5844", "REGION": "ID - Idaho County", "ASSOCIATION": "USA - Idaho", "POINTS": "2", "BONUSPOINTS": "3"}}, {"type": "Feature", "geometry": {"type": "Point", "coordinates": [-114.6929, 45.9149]}, "properties": {"NAME": "W7I/IC-275", "TITLE": "5801", "REGION": "ID - Idaho County", "ASSOCIATION": "USA - Idaho", "POINTS": "2", "BONUSPOINTS": "3"}}, {"type": "Feature", "geometry": {"type": "Point", "coordinates": [-114.7571, 45.7708]}, "properties": {"NAME": "W7I/IC-276", "TITLE": "Nick Wynn Mountain", "REGION": "ID - Idaho County", "ASSOCIATION": "USA - Idaho", "POINTS": "2", "BONUSPOINTS": "3"}}, {"type": "Feature", "geometry": {"type": "Point", "coordinates": [-115.2658, 45.7733]}, "properties": {"NAME": "W7I/IC-277", "TITLE": "5775", "REGION": "ID - Idaho County", "ASSOCIATION": "USA - Idaho", "POINTS": "2", "BONUSPOINTS": "3"}}, {"type": "Feature", "geometry": {"type": "Point", "coordinates": [-116.4661, 46.0691]}, "properties": {"NAME": "W7I/IC-278", "TITLE": "Cottonwood Butte", "REGION": "ID - Idaho County", "ASSOCIATION": "USA - Idaho", "POINTS": "2", "BONUSPOINTS": "3"}}, {"type": "Feature", "geometry": {"type": "Point", "coordinates": [-115.3271, 46.121]}, "properties": {"NAME": "W7I/IC-279", "TITLE": "Glover Ridge", "REGION": "ID - Idaho County", "ASSOCIATION": "USA - Idaho", "POINTS": "2", "BONUSPOINTS": "3"}}, {"type": "Feature", "geometry": {"type": "Point", "coordinates": [-116.4052, 45.5573]}, "properties": {"NAME": "W7I/IC-280", "TITLE": "5727", "REGION": "ID - Idaho County", "ASSOCIATION": "USA - Idaho", "POINTS": "2", "BONUSPOINTS": "3"}}, {"type": "Feature", "geometry": {"type": "Point", "coordinates": [-115.4297, 46.448]}, "properties": {"NAME": "W7I/IC-281", "TITLE": "Little Weitas Butte", "REGION": "ID - Idaho County", "ASSOCIATION": "USA - Idaho", "POINTS": "2", "BONUSPOINTS": "3"}}, {"type": "Feature", "geometry": {"type": "Point", "coordinates": [-115.0103, 46.5089]}, "properties": {"NAME": "W7I/IC-282", "TITLE": "5681", "REGION": "ID - Idaho County", "ASSOCIATION": "USA - Idaho", "POINTS": "2", "BONUSPOINTS": "3"}}, {"type": "Feature", "geometry": {"type": "Point", "coordinates": [-115.429, 46.1871]}, "properties": {"NAME": "W7I/IC-283", "TITLE": "Sheep Hill", "REGION": "ID - Idaho County", "ASSOCIATION": "USA - Idaho", "POINTS": "2", "BONUSPOINTS": "3"}}, {"type": "Feature", "geometry": {"type": "Point", "coordinates": [-115.5851, 46.0463]}, "properties": {"NAME": "W7I/IC-284", "TITLE": "Goddard Point", "REGION": "ID - Idaho County", "ASSOCIATION": "USA - Idaho", "POINTS": "2", "BONUSPOINTS": "3"}}, {"type": "Feature", "geometry": {"type": "Point", "coordinates": [-116.3807, 45.6424]}, "properties": {"NAME": "W7I/IC-285", "TITLE": "Grave Point", "REGION": "ID - Idaho County", "ASSOCIATION": "USA - Idaho", "POINTS": "2", "BONUSPOINTS": "3"}}, {"type": "Feature", "geometry": {"type": "Point", "coordinates": [-115.2718, 46.3927]}, "properties": {"NAME": "W7I/IC-286", "TITLE": "No-See-Um Butte", "REGION": "ID - Idaho County", "ASSOCIATION": "USA - Idaho", "POINTS": "2", "BONUSPOINTS": "3"}}, {"type": "Feature", "geometry": {"type": "Point", "coordinates": [-114.9228, 46.5163]}, "properties": {"NAME": "W7I/IC-287", "TITLE": "5582", "REGION": "ID - Idaho County", "ASSOCIATION": "USA - Idaho", "POINTS": "2", "BONUSPOINTS": "3"}}, {"type": "Feature", "geometry": {"type": "Point", "coordinates": [-115.369, 46.4474]}, "properties": {"NAME": "W7I/IC-288", "TITLE": "5580", "REGION": "ID - Idaho County", "ASSOCIATION": "USA - Idaho", "POINTS": "2", "BONUSPOINTS": "3"}}, {"type": "Feature", "geometry": {"type": "Point", "coordinates": [-115.4207, 46.3076]}, "properties": {"NAME": "W7I/IC-289", "TITLE": "McLendon Butte", "REGION": "ID - Idaho County", "ASSOCIATION": "USA - Idaho", "POINTS": "2", "BONUSPOINTS": "3"}}, {"type": "Feature", "geometry": {"type": "Point", "coordinates": [-115.4632, 46.0466]}, "properties": {"NAME": "W7I/IC-290", "TITLE": "Saddle Ridge", "REGION": "ID - Idaho County", "ASSOCIATION": "USA - Idaho", "POINTS": "2", "BONUSPOINTS": "3"}}, {"type": "Feature", "geometry": {"type": "Point", "coordinates": [-114.7185, 46.5409]}, "properties": {"NAME": "W7I/IC-291", "TITLE": "5445", "REGION": "ID - Idaho County", "ASSOCIATION": "USA - Idaho", "POINTS": "2", "BONUSPOINTS": "3"}}, {"type": "Feature", "geometry": {"type": "Point", "coordinates": [-115.2686, 46.3388]}, "properties": {"NAME": "W7I/IC-292", "TITLE": "Lone Knob", "REGION": "ID - Idaho County", "ASSOCIATION": "USA - Idaho", "POINTS": "2", "BONUSPOINTS": "3"}}, {"type": "Feature", "geometry": {"type": "Point", "coordinates": [-114.8526, 46.5144]}, "properties": {"NAME": "W7I/IC-293", "TITLE": "5411", "REGION": "ID - Idaho County", "ASSOCIATION": "USA - Idaho", "POINTS": "2", "BONUSPOINTS": "3"}}, {"type": "Feature", "geometry": {"type": "Point", "coordinates": [-115.5229, 45.7802]}, "properties": {"NAME": "W7I/IC-294", "TITLE": "Deadwood Mountain", "REGION": "ID - Idaho County", "ASSOCIATION": "USA - Idaho", "POINTS": "2", "BONUSPOINTS": "3"}}, {"type": "Feature", "geometry": {"type": "Point", "coordinates": [-114.8851, 46.5342]}, "properties": {"NAME": "W7I/IC-295", "TITLE": "5393", "REGION": "ID - Idaho County", "ASSOCIATION": "USA - Idaho", "POINTS": "2", "BONUSPOINTS": "3"}}, {"type": "Feature", "geometry": {"type": "Point", "coordinates": [-115.2908, 46.519]}, "properties": {"NAME": "W7I/IC-296", "TITLE": "Smith Butte", "REGION": "ID - Idaho County", "ASSOCIATION": "USA - Idaho", "POINTS": "2", "BONUSPOINTS": "3"}}, {"type": "Feature", "geometry": {"type": "Point", "coordinates": [-114.9397, 46.1654]}, "properties": {"NAME": "W7I/IC-297", "TITLE": "Shissler Peak", "REGION": "ID - Idaho County", "ASSOCIATION": "USA - Idaho", "POINTS": "2", "BONUSPOINTS": "3"}}, {"type": "Feature", "geometry": {"type": "Point", "coordinates": [-115.3954, 46.3313]}, "properties": {"NAME": "W7I/IC-298", "TITLE": "Fish Butte", "REGION": "ID - Idaho County", "ASSOCIATION": "USA - Idaho", "POINTS": "2", "BONUSPOINTS": "3"}}, {"type": "Feature", "geometry": {"type": "Point", "coordinates": [-114.7223, 45.8885]}, "properties": {"NAME": "W7I/IC-299", "TITLE": "Bad Luck Mountain", "REGION": "ID - Idaho County", "ASSOCIATION": "USA - Idaho", "POINTS": "2", "BONUSPOINTS": "3"}}, {"type": "Feature", "geometry": {"type": "Point", "coordinates": [-115.0179, 46.0824]}, "properties": {"NAME": "W7I/IC-300", "TITLE": "Lone Pine Point", "REGION": "ID - Idaho County", "ASSOCIATION": "USA - Idaho", "POINTS": "2", "BONUSPOINTS": "3"}}, {"type": "Feature", "geometry": {"type": "Point", "coordinates": [-116.3532, 45.6136]}, "properties": {"NAME": "W7I/IC-301", "TITLE": "Center Ridge", "REGION": "ID - Idaho County", "ASSOCIATION": "USA - Idaho", "POINTS": "2", "BONUSPOINTS": "3"}}, {"type": "Feature", "geometry": {"type": "Point", "coordinates": [-114.9665, 46.1388]}, "properties": {"NAME": "W7I/IC-302", "TITLE": "Goat Mountain", "REGION": "ID - Idaho County", "ASSOCIATION": "USA - Idaho", "POINTS": "2", "BONUSPOINTS": "3"}}, {"type": "Feature", "geometry": {"type": "Point", "coordinates": [-114.6912, 46.5328]}, "properties": {"NAME": "W7I/IC-303", "TITLE": "5260", "REGION": "ID - Idaho County", "ASSOCIATION": "USA - Idaho", "POINTS": "2", "BONUSPOINTS": "3"}}, {"type": "Feature", "geometry": {"type": "Point", "coordinates": [-115.5237, 46.3691]}, "properties": {"NAME": "W7I/IC-304", "TITLE": "Boundary Peak", "REGION": "ID - Idaho County", "ASSOCIATION": "USA - Idaho", "POINTS": "2", "BONUSPOINTS": "3"}}, {"type": "Feature", "geometry": {"type": "Point", "coordinates": [-114.8946, 46.4915]}, "properties": {"NAME": "W7I/IC-305", "TITLE": "5237", "REGION": "ID - Idaho County", "ASSOCIATION": "USA - Idaho", "POINTS": "2", "BONUSPOINTS": "3"}}, {"type": "Feature", "geometry": {"type": "Point", "coordinates": [-115.634, 46.2457]}, "properties": {"NAME": "W7I/IC-306", "TITLE": "Walde Mountain", "REGION": "ID - Idaho County", "ASSOCIATION": "USA - Idaho", "POINTS": "2", "BONUSPOINTS": "3"}}, {"type": "Feature", "geometry": {"type": "Point", "coordinates": [-116.652, 45.3071]}, "properties": {"NAME": "W7I/IC-307", "TITLE": "5140", "REGION": "ID - Idaho County", "ASSOCIATION": "USA - Idaho", "POINTS": "2", "BONUSPOINTS": "3"}}, {"type": "Feature", "geometry": {"type": "Point", "coordinates": [-116.0002, 45.4111]}, "properties": {"NAME": "W7I/IC-308", "TITLE": "5139", "REGION": "ID - Idaho County", "ASSOCIATION": "USA - Idaho", "POINTS": "2", "BONUSPOINTS": "3"}}, {"type": "Feature", "geometry": {"type": "Point", "coordinates": [-114.8647, 45.93]}, "properties": {"NAME": "W7I/IC-309", "TITLE": "Archer Point", "REGION": "ID - Idaho County", "ASSOCIATION": "USA - Idaho", "POINTS": "2", "BONUSPOINTS": "3"}}, {"type": "Feature", "geometry": {"type": "Point", "coordinates": [-115.9674, 45.8576]}, "properties": {"NAME": "W7I/IC-310", "TITLE": "4987", "REGION": "ID - Idaho County", "ASSOCIATION": "USA - Idaho", "POINTS": "1", "BONUSPOINTS": "0"}}, {"type": "Feature", "geometry": {"type": "Point", "coordinates": [-116.572, 45.8858]}, "properties": {"NAME": "W7I/IC-311", "TITLE": "4985", "REGION": "ID - Idaho County", "ASSOCIATION": "USA - Idaho", "POINTS": "1", "BONUSPOINTS": "0"}}, {"type": "Feature", "geometry": {"type": "Point", "coordinates": [-115.7663, 46.1868]}, "properties": {"NAME": "W7I/IC-312", "TITLE": "Woodrat Mountain", "REGION": "ID - Idaho County", "ASSOCIATION": "USA - Idaho", "POINTS": "1", "BONUSPOINTS": "0"}}, {"type": "Feature", "geometry": {"type": "Point", "coordinates": [-114.747, 46.525]}, "properties": {"NAME": "W7I/IC-313", "TITLE": "4980", "REGION": "ID - Idaho County", "ASSOCIATION": "USA - Idaho", "POINTS": "1", "BONUSPOINTS": "0"}}, {"type": "Feature", "geometry": {"type": "Point", "coordinates": [-116.411, 45.6439]}, "properties": {"NAME": "W7I/IC-314", "TITLE": "4921", "REGION": "ID - Idaho County", "ASSOCIATION": "USA - Idaho", "POINTS": "1", "BONUSPOINTS": "0"}}, {"type": "Feature", "geometry": {"type": "Point", "coordinates": [-115.179, 45.5869]}, "properties": {"NAME": "W7I/IC-315", "TITLE": "4760", "REGION": "ID - Idaho County", "ASSOCIATION": "USA - Idaho", "POINTS": "1", "BONUSPOINTS": "0"}}, {"type": "Feature", "geometry": {"type": "Point", "coordinates": [-116.3471, 45.4282]}, "properties": {"NAME": "W7I/IC-316", "TITLE": "Preacher Mountain", "REGION": "ID - Idaho County", "ASSOCIATION": "USA - Idaho", "POINTS": "1", "BONUSPOINTS": "0"}}, {"type": "Feature", "geometry": {"type": "Point", "coordinates": [-114.7223, 46.5232]}, "properties": {"NAME": "W7I/IC-317", "TITLE": "4620", "REGION": "ID - Idaho County", "ASSOCIATION": "USA - Idaho", "POINTS": "1", "BONUSPOINTS": "0"}}, {"type": "Feature", "geometry": {"type": "Point", "coordinates": [-115.6738, 46.1694]}, "properties": {"NAME": "W7I/IC-318", "TITLE": "4604", "REGION": "ID - Idaho County", "ASSOCIATION": "USA - Idaho", "POINTS": "1", "BONUSPOINTS": "0"}}, {"type": "Feature", "geometry": {"type": "Point", "coordinates": [-114.8485, 45.962]}, "properties": {"NAME": "W7I/IC-319", "TITLE": "4464", "REGION": "ID - Idaho County", "ASSOCIATION": "USA - Idaho", "POINTS": "1", "BONUSPOINTS": "0"}}, {"type": "Feature", "geometry": {"type": "Point", "coordinates": [-114.7718, 46.5155]}, "properties": {"NAME": "W7I/IC-320", "TITLE": "4300", "REGION": "ID - Idaho County", "ASSOCIATION": "USA - Idaho", "POINTS": "1", "BONUSPOINTS": "0"}}, {"type": "Feature", "geometry": {"type": "Point", "coordinates": [-114.7025, 46.5128]}, "properties": {"NAME": "W7I/IC-321", "TITLE": "4140", "REGION": "ID - Idaho County", "ASSOCIATION": "USA - Idaho", "POINTS": "1", "BONUSPOINTS": "0"}}, {"type": "Feature", "geometry": {"type": "Point", "coordinates": [-114.8306, 45.9696]}, "properties": {"NAME": "W7I/IC-322", "TITLE": "Elevator Mountain", "REGION": "ID - Idaho County", "ASSOCIATION": "USA - Idaho", "POINTS": "1", "BONUSPOINTS": "0"}}, {"type": "Feature", "geometry": {"type": "Point", "coordinates": [-116.1402, 46.1493]}, "properties": {"NAME": "W7I/IC-323", "TITLE": "Big Butte", "REGION": "ID - Idaho County", "ASSOCIATION": "USA - Idaho", "POINTS": "1", "BONUSPOINTS": "0"}}, {"type": "Feature", "geometry": {"type": "Point", "coordinates": [-116.0582, 46.3275]}, "properties": {"NAME": "W7I/IC-324", "TITLE": "3850", "REGION": "ID - Idaho County", "ASSOCIATION": "USA - Idaho", "POINTS": "1", "BONUSPOINTS": "0"}}, {"type": "Feature", "geometry": {"type": "Point", "coordinates": [-116.1278, 46.1087]}, "properties": {"NAME": "W7I/IC-325", "TITLE": "Twin Buttes", "REGION": "ID - Idaho County", "ASSOCIATION": "USA - Idaho", "POINTS": "1", "BONUSPOINTS": "0"}}, {"type": "Feature", "geometry": {"type": "Point", "coordinates": [-116.7649, 45.8455]}, "properties": {"NAME": "W7I/IC-326", "TITLE": "3367", "REGION": "ID - Idaho County", "ASSOCIATION": "USA - Idaho", "POINTS": "1", "BONUSPOINTS": "0"}}, {"type": "Feature", "geometry": {"type": "Point", "coordinates": [-115.8968, 46.2852]}, "properties": {"NAME": "W7I/IC-327", "TITLE": "Paunch Mountain", "REGION": "ID - Idaho County", "ASSOCIATION": "USA - Idaho", "POINTS": "1", "BONUSPOINTS": "0"}}, {"type": "Feature", "geometry": {"type": "Point", "coordinates": [-116.6305, 46.0249]}, "properties": {"NAME": "W7I/IC-328", "TITLE": "Oxbow", "REGION": "ID - Idaho County", "ASSOCIATION": "USA - Idaho", "POINTS": "1", "BONUSPOINTS": "0"}}, {"type": "Feature", "geometry": {"type": "Point", "coordinates": [-116.2806, 45.6247]}, "properties": {"NAME": "W7I/IC-329", "TITLE": "2822", "REGION": "ID - Idaho County", "ASSOCIATION": "USA - Idaho", "POINTS": "1", "BONUSPOINTS": "0"}}, {"type": "Feature", "geometry": {"type": "Point", "coordinates": [-115.3657, 45.2816]}, "properties": {"NAME": "W7I/IC-330", "TITLE": "Mosquito Peak", "REGION": "ID - Idaho County", "ASSOCIATION": "USA - Idaho", "POINTS": "6", "BONUSPOINTS": "3"}}, {"type": "Feature", "geometry": {"type": "Point", "coordinates": [-115.3372, 45.2275]}, "properties": {"NAME": "W7I/IC-331", "TITLE": "8582", "REGION": "ID - Idaho County", "ASSOCIATION": "USA - Idaho", "POINTS": "6", "BONUSPOINTS": "3"}}, {"type": "Feature", "geometry": {"type": "Point", "coordinates": [-114.4516, 46.2153]}, "properties": {"NAME": "W7I/IC-332", "TITLE": "8272", "REGION": "ID - Idaho County", "ASSOCIATION": "USA - Idaho", "POINTS": "6", "BONUSPOINTS": "3"}}, {"type": "Feature", "geometry": {"type": "Point", "coordinates": [-115.9129, 45.2118]}, "properties": {"NAME": "W7I/IC-333", "TITLE": "8074", "REGION": "ID - Idaho County", "ASSOCIATION": "USA - Idaho", "POINTS": "6", "BONUSPOINTS": "3"}}, {"type": "Feature", "geometry": {"type": "Point", "coordinates": [-116.1472, 45.1778]}, "properties": {"NAME": "W7I/IC-334", "TITLE": "8039", "REGION": "ID - Idaho County", "ASSOCIATION": "USA - Idaho", "POINTS": "6", "BONUSPOINTS": "3"}}, {"type": "Feature", "geometry": {"type": "Point", "coordinates": [-115.9589, 45.5912]}, "properties": {"NAME": "W7I/IC-335", "TITLE": "7953", "REGION": "ID - Idaho County", "ASSOCIATION": "USA - Idaho", "POINTS": "6", "BONUSPOINTS": "3"}}, {"type": "Feature", "geometry": {"type": "Point", "coordinates": [-115.6571, 45.2232]}, "properties": {"NAME": "W7I/IC-336", "TITLE": "7820", "REGION": "ID - Idaho County", "ASSOCIATION": "USA - Idaho", "POINTS": "6", "BONUSPOINTS": "3"}}, {"type": "Feature", "geometry": {"type": "Point", "coordinates": [-114.6469, 46.1647]}, "properties": {"NAME": "W7I/IC-337", "TITLE": "Wahoo Peak", "REGION": "ID - Idaho County", "ASSOCIATION": "USA - Idaho", "POINTS": "6", "BONUSPOINTS": "3"}}, {"type": "Feature", "geometry": {"type": "Point", "coordinates": [-114.6017, 46.0468]}, "properties": {"NAME": "W7I/IC-338", "TITLE": "Long Ridge", "REGION": "ID - Idaho County", "ASSOCIATION": "USA - Idaho", "POINTS": "4", "BONUSPOINTS": "3"}}, {"type": "Feature", "geometry": {"type": "Point", "coordinates": [-115.2829, 45.4682]}, "properties": {"NAME": "W7I/IC-339", "TITLE": "Burnt Knob", "REGION": "ID - Idaho County", "ASSOCIATION": "USA - Idaho", "POINTS": "4", "BONUSPOINTS": "3"}}, {"type": "Feature", "geometry": {"type": "Point", "coordinates": [-114.9336, 46.356]}, "properties": {"NAME": "W7I/IC-340", "TITLE": "7036", "REGION": "ID - Idaho County", "ASSOCIATION": "USA - Idaho", "POINTS": "4", "BONUSPOINTS": "3"}}, {"type": "Feature", "geometry": {"type": "Point", "coordinates": [-114.7668, 45.9699]}, "properties": {"NAME": "W7I/IC-341", "TITLE": "Gardiner Peak", "REGION": "ID - Idaho County", "ASSOCIATION": "USA - Idaho", "POINTS": "4", "BONUSPOINTS": "3"}}, {"type": "Feature", "geometry": {"type": "Point", "coordinates": [-115.0174, 46.0789]}, "properties": {"NAME": "W7I/IC-342", "TITLE": "Lone Pine Point", "REGION": "ID - Idaho County", "ASSOCIATION": "USA - Idaho", "POINTS": "2", "BONUSPOINTS": "3"}}]}