{"type": "FeatureCollection", "name": "W7I/BL SUMMITS", "features": [{"type": "Feature", "geometry": {"type": "Point", "coordinates": [-114.1311, 43.7495]}, "properties": {"NAME": "W7I/BL-001", "TITLE": "Hyndman Peak", "REGION": "ID - Blaine County", "ASSOCIATION": "USA - Idaho", "POINTS": "10", "BONUSPOINTS": "3"}}, {"type": "Feature", "geometry": {"type": "Point", "coordinates": [-114.1419, 43.7742]}, "properties": {"NAME": "W7I/BL-002", "TITLE": "Goat Mountain", "REGION": "ID - Blaine County", "ASSOCIATION": "USA - Idaho", "POINTS": "10", "BONUSPOINTS": "3"}}, {"type": "Feature", "geometry": {"type": "Point", "coordinates": [-114.0519, 43.7569]}, "properties": {"NAME": "W7I/BL-003", "TITLE": "Brocky Peak", "REGION": "ID - Blaine County", "ASSOCIATION": "USA - Idaho", "POINTS": "10", "BONUSPOINTS": "3"}}, {"type": "Feature", "geometry": {"type": "Point", "coordinates": [-114.1171, 43.7407]}, "properties": {"NAME": "W7I/BL-004", "TITLE": "Old Hyndman Peak", "REGION": "ID - Blaine County", "ASSOCIATION": "USA - Idaho", "POINTS": "10", "BONUSPOINTS": "3"}}, {"type": "Feature", "geometry": {"type": "Point", "coordinates": [-114.4002, 43.8912]}, "properties": {"NAME": "W7I/BL-005", "TITLE": "Kent Peak", "REGION": "ID - Blaine County", "ASSOCIATION": "USA - Idaho", "POINTS": "10", "BONUSPOINTS": "3"}}, {"type": "Feature", "geometry": {"type": "Point", "coordinates": [-114.1264, 43.7309]}, "properties": {"NAME": "W7I/BL-006", "TITLE": "Cobb Peak", "REGION": "ID - Blaine County", "ASSOCIATION": "USA - Idaho", "POINTS": "10", "BONUSPOINTS": "3"}}, {"type": "Feature", "geometry": {"type": "Point", "coordinates": [-114.5151, 43.8947]}, "properties": {"NAME": "W7I/BL-007", "TITLE": "Culmination Peak", "REGION": "ID - Blaine County", "ASSOCIATION": "USA - Idaho", "POINTS": "10", "BONUSPOINTS": "3"}}, {"type": "Feature", "geometry": {"type": "Point", "coordinates": [-114.5574, 43.844]}, "properties": {"NAME": "W7I/BL-008", "TITLE": "Lorenzo Peak", "REGION": "ID - Blaine County", "ASSOCIATION": "USA - Idaho", "POINTS": "10", "BONUSPOINTS": "3"}}, {"type": "Feature", "geometry": {"type": "Point", "coordinates": [-114.6041, 43.8897]}, "properties": {"NAME": "W7I/BL-009", "TITLE": "Galena Peak", "REGION": "ID - Blaine County", "ASSOCIATION": "USA - Idaho", "POINTS": "10", "BONUSPOINTS": "3"}}, {"type": "Feature", "geometry": {"type": "Point", "coordinates": [-114.5821, 43.8516]}, "properties": {"NAME": "W7I/BL-010", "TITLE": "Easley Peak", "REGION": "ID - Blaine County", "ASSOCIATION": "USA - Idaho", "POINTS": "10", "BONUSPOINTS": "3"}}, {"type": "Feature", "geometry": {"type": "Point", "coordinates": [-114.5122, 43.8634]}, "properties": {"NAME": "W7I/BL-011", "TITLE": "Windows Peak", "REGION": "ID - Blaine County", "ASSOCIATION": "USA - Idaho", "POINTS": "10", "BONUSPOINTS": "3"}}, {"type": "Feature", "geometry": {"type": "Point", "coordinates": [-114.1801, 43.7899]}, "properties": {"NAME": "W7I/BL-012", "TITLE": "The Devils Bedstead", "REGION": "ID - Blaine County", "ASSOCIATION": "USA - Idaho", "POINTS": "10", "BONUSPOINTS": "3"}}, {"type": "Feature", "geometry": {"type": "Point", "coordinates": [-114.0659, 43.7078]}, "properties": {"NAME": "W7I/BL-013", "TITLE": "Iron Mountain", "REGION": "ID - Blaine County", "ASSOCIATION": "USA - Idaho", "POINTS": "8", "BONUSPOINTS": "3"}}, {"type": "Feature", "geometry": {"type": "Point", "coordinates": [-113.8396, 43.6186]}, "properties": {"NAME": "W7I/BL-014", "TITLE": "Err Peak", "REGION": "ID - Blaine County", "ASSOCIATION": "USA - Idaho", "POINTS": "8", "BONUSPOINTS": "3"}}, {"type": "Feature", "geometry": {"type": "Point", "coordinates": [-114.4156, 43.8766]}, "properties": {"NAME": "W7I/BL-015", "TITLE": "10680", "REGION": "ID - Blaine County", "ASSOCIATION": "USA - Idaho", "POINTS": "8", "BONUSPOINTS": "3"}}, {"type": "Feature", "geometry": {"type": "Point", "coordinates": [-114.3524, 43.8812]}, "properties": {"NAME": "W7I/BL-016", "TITLE": "10660", "REGION": "ID - Blaine County", "ASSOCIATION": "USA - Idaho", "POINTS": "8", "BONUSPOINTS": "3"}}, {"type": "Feature", "geometry": {"type": "Point", "coordinates": [-113.905, 43.6495]}, "properties": {"NAME": "W7I/BL-017", "TITLE": "Antares Peak", "REGION": "ID - Blaine County", "ASSOCIATION": "USA - Idaho", "POINTS": "8", "BONUSPOINTS": "3"}}, {"type": "Feature", "geometry": {"type": "Point", "coordinates": [-114.9713, 43.9382]}, "properties": {"NAME": "W7I/BL-018", "TITLE": "Snowyside Peak", "REGION": "ID - Blaine County", "ASSOCIATION": "USA - Idaho", "POINTS": "8", "BONUSPOINTS": "3"}}, {"type": "Feature", "geometry": {"type": "Point", "coordinates": [-113.8933, 43.6481]}, "properties": {"NAME": "W7I/BL-019", "TITLE": "Pincer Peak", "REGION": "ID - Blaine County", "ASSOCIATION": "USA - Idaho", "POINTS": "8", "BONUSPOINTS": "3"}}, {"type": "Feature", "geometry": {"type": "Point", "coordinates": [-114.3348, 43.8597]}, "properties": {"NAME": "W7I/BL-020", "TITLE": "10598", "REGION": "ID - Blaine County", "ASSOCIATION": "USA - Idaho", "POINTS": "8", "BONUSPOINTS": "3"}}, {"type": "Feature", "geometry": {"type": "Point", "coordinates": [-114.0946, 43.6698]}, "properties": {"NAME": "W7I/BL-021", "TITLE": "Grays Peak", "REGION": "ID - Blaine County", "ASSOCIATION": "USA - Idaho", "POINTS": "8", "BONUSPOINTS": "3"}}, {"type": "Feature", "geometry": {"type": "Point", "coordinates": [-113.8857, 43.6322]}, "properties": {"NAME": "W7I/BL-022", "TITLE": "Scorpion Mountain", "REGION": "ID - Blaine County", "ASSOCIATION": "USA - Idaho", "POINTS": "8", "BONUSPOINTS": "3"}}, {"type": "Feature", "geometry": {"type": "Point", "coordinates": [-113.9115, 43.6716]}, "properties": {"NAME": "W7I/BL-023", "TITLE": "Pioneer Mountain", "REGION": "ID - Blaine County", "ASSOCIATION": "USA - Idaho", "POINTS": "8", "BONUSPOINTS": "3"}}, {"type": "Feature", "geometry": {"type": "Point", "coordinates": [-113.8586, 43.6337]}, "properties": {"NAME": "W7I/BL-024", "TITLE": "10500", "REGION": "ID - Blaine County", "ASSOCIATION": "USA - Idaho", "POINTS": "8", "BONUSPOINTS": "3"}}, {"type": "Feature", "geometry": {"type": "Point", "coordinates": [-114.2915, 43.8004]}, "properties": {"NAME": "W7I/BL-025", "TITLE": "Rock Roll Peak", "REGION": "ID - Blaine County", "ASSOCIATION": "USA - Idaho", "POINTS": "8", "BONUSPOINTS": "3"}}, {"type": "Feature", "geometry": {"type": "Point", "coordinates": [-114.7135, 43.8221]}, "properties": {"NAME": "W7I/BL-026", "TITLE": "Saviers Peak", "REGION": "ID - Blaine County", "ASSOCIATION": "USA - Idaho", "POINTS": "8", "BONUSPOINTS": "3"}}, {"type": "Feature", "geometry": {"type": "Point", "coordinates": [-113.9459, 43.6892]}, "properties": {"NAME": "W7I/BL-027", "TITLE": "Coco Peak", "REGION": "ID - Blaine County", "ASSOCIATION": "USA - Idaho", "POINTS": "8", "BONUSPOINTS": "3"}}, {"type": "Feature", "geometry": {"type": "Point", "coordinates": [-114.4833, 43.8335]}, "properties": {"NAME": "W7I/BL-028", "TITLE": "Basils Peak", "REGION": "ID - Blaine County", "ASSOCIATION": "USA - Idaho", "POINTS": "8", "BONUSPOINTS": "3"}}, {"type": "Feature", "geometry": {"type": "Point", "coordinates": [-114.0479, 43.7143]}, "properties": {"NAME": "W7I/BL-029", "TITLE": "10391", "REGION": "ID - Blaine County", "ASSOCIATION": "USA - Idaho", "POINTS": "8", "BONUSPOINTS": "3"}}, {"type": "Feature", "geometry": {"type": "Point", "coordinates": [-114.6534, 43.762]}, "properties": {"NAME": "W7I/BL-030", "TITLE": "Norton Peak", "REGION": "ID - Blaine County", "ASSOCIATION": "USA - Idaho", "POINTS": "8", "BONUSPOINTS": "3"}}, {"type": "Feature", "geometry": {"type": "Point", "coordinates": [-114.1301, 43.706]}, "properties": {"NAME": "W7I/BL-031", "TITLE": "Paymaster Peak", "REGION": "ID - Blaine County", "ASSOCIATION": "USA - Idaho", "POINTS": "8", "BONUSPOINTS": "3"}}, {"type": "Feature", "geometry": {"type": "Point", "coordinates": [-114.9474, 43.9193]}, "properties": {"NAME": "W7I/BL-032", "TITLE": "Perfect Peak", "REGION": "ID - Blaine County", "ASSOCIATION": "USA - Idaho", "POINTS": "8", "BONUSPOINTS": "3"}}, {"type": "Feature", "geometry": {"type": "Point", "coordinates": [-113.9339, 43.6795]}, "properties": {"NAME": "W7I/BL-033", "TITLE": "Skyline Peak", "REGION": "ID - Blaine County", "ASSOCIATION": "USA - Idaho", "POINTS": "8", "BONUSPOINTS": "3"}}, {"type": "Feature", "geometry": {"type": "Point", "coordinates": [-114.8535, 43.8505]}, "properties": {"NAME": "W7I/BL-034", "TITLE": "Vienna Benchmark", "REGION": "ID - Blaine County", "ASSOCIATION": "USA - Idaho", "POINTS": "8", "BONUSPOINTS": "3"}}, {"type": "Feature", "geometry": {"type": "Point", "coordinates": [-114.9323, 43.967]}, "properties": {"NAME": "W7I/BL-035", "TITLE": "Parks Peak", "REGION": "ID - Blaine County", "ASSOCIATION": "USA - Idaho", "POINTS": "8", "BONUSPOINTS": "3"}}, {"type": "Feature", "geometry": {"type": "Point", "coordinates": [-114.6796, 43.6699]}, "properties": {"NAME": "W7I/BL-036", "TITLE": "Baker Peak", "REGION": "ID - Blaine County", "ASSOCIATION": "USA - Idaho", "POINTS": "8", "BONUSPOINTS": "3"}}, {"type": "Feature", "geometry": {"type": "Point", "coordinates": [-114.6953, 43.7775]}, "properties": {"NAME": "W7I/BL-037", "TITLE": "Shadow Peak", "REGION": "ID - Blaine County", "ASSOCIATION": "USA - Idaho", "POINTS": "8", "BONUSPOINTS": "3"}}, {"type": "Feature", "geometry": {"type": "Point", "coordinates": [-114.6693, 43.744]}, "properties": {"NAME": "W7I/BL-038", "TITLE": "Prairie Creek Peak", "REGION": "ID - Blaine County", "ASSOCIATION": "USA - Idaho", "POINTS": "8", "BONUSPOINTS": "3"}}, {"type": "Feature", "geometry": {"type": "Point", "coordinates": [-114.8936, 43.8701]}, "properties": {"NAME": "W7I/BL-039", "TITLE": "10129", "REGION": "ID - Blaine County", "ASSOCIATION": "USA - Idaho", "POINTS": "8", "BONUSPOINTS": "3"}}, {"type": "Feature", "geometry": {"type": "Point", "coordinates": [-114.6697, 43.9204]}, "properties": {"NAME": "W7I/BL-040", "TITLE": "Mushroom Peak", "REGION": "ID - Blaine County", "ASSOCIATION": "USA - Idaho", "POINTS": "8", "BONUSPOINTS": "3"}}, {"type": "Feature", "geometry": {"type": "Point", "coordinates": [-114.6868, 43.6889]}, "properties": {"NAME": "W7I/BL-041", "TITLE": "Backdrop Peak", "REGION": "ID - Blaine County", "ASSOCIATION": "USA - Idaho", "POINTS": "8", "BONUSPOINTS": "3"}}, {"type": "Feature", "geometry": {"type": "Point", "coordinates": [-114.9064, 43.9462]}, "properties": {"NAME": "W7I/BL-042", "TITLE": "McDonald Peak", "REGION": "ID - Blaine County", "ASSOCIATION": "USA - Idaho", "POINTS": "8", "BONUSPOINTS": "3"}}, {"type": "Feature", "geometry": {"type": "Point", "coordinates": [-114.9556, 43.9477]}, "properties": {"NAME": "W7I/BL-043", "TITLE": "10052", "REGION": "ID - Blaine County", "ASSOCIATION": "USA - Idaho", "POINTS": "8", "BONUSPOINTS": "3"}}, {"type": "Feature", "geometry": {"type": "Point", "coordinates": [-114.911, 43.9299]}, "properties": {"NAME": "W7I/BL-044", "TITLE": "10027", "REGION": "ID - Blaine County", "ASSOCIATION": "USA - Idaho", "POINTS": "8", "BONUSPOINTS": "3"}}, {"type": "Feature", "geometry": {"type": "Point", "coordinates": [-114.6817, 43.7906]}, "properties": {"NAME": "W7I/BL-045", "TITLE": "9980", "REGION": "ID - Blaine County", "ASSOCIATION": "USA - Idaho", "POINTS": "8", "BONUSPOINTS": "3"}}, {"type": "Feature", "geometry": {"type": "Point", "coordinates": [-114.8345, 43.8667]}, "properties": {"NAME": "W7I/BL-046", "TITLE": "Abes Armchair", "REGION": "ID - Blaine County", "ASSOCIATION": "USA - Idaho", "POINTS": "8", "BONUSPOINTS": "3"}}, {"type": "Feature", "geometry": {"type": "Point", "coordinates": [-114.2327, 43.717]}, "properties": {"NAME": "W7I/BL-047", "TITLE": "Johnstone Peak", "REGION": "ID - Blaine County", "ASSOCIATION": "USA - Idaho", "POINTS": "8", "BONUSPOINTS": "3"}}, {"type": "Feature", "geometry": {"type": "Point", "coordinates": [-114.9136, 43.8468]}, "properties": {"NAME": "W7I/BL-048", "TITLE": "9931", "REGION": "ID - Blaine County", "ASSOCIATION": "USA - Idaho", "POINTS": "8", "BONUSPOINTS": "3"}}, {"type": "Feature", "geometry": {"type": "Point", "coordinates": [-114.6819, 43.743]}, "properties": {"NAME": "W7I/BL-049", "TITLE": "9863", "REGION": "ID - Blaine County", "ASSOCIATION": "USA - Idaho", "POINTS": "8", "BONUSPOINTS": "3"}}, {"type": "Feature", "geometry": {"type": "Point", "coordinates": [-114.7805, 43.8005]}, "properties": {"NAME": "W7I/BL-050", "TITLE": "9818", "REGION": "ID - Blaine County", "ASSOCIATION": "USA - Idaho", "POINTS": "8", "BONUSPOINTS": "3"}}, {"type": "Feature", "geometry": {"type": "Point", "coordinates": [-114.3853, 43.8491]}, "properties": {"NAME": "W7I/BL-051", "TITLE": "9783", "REGION": "ID - Blaine County", "ASSOCIATION": "USA - Idaho", "POINTS": "8", "BONUSPOINTS": "3"}}, {"type": "Feature", "geometry": {"type": "Point", "coordinates": [-114.603, 43.6928]}, "properties": {"NAME": "W7I/BL-052", "TITLE": "9728", "REGION": "ID - Blaine County", "ASSOCIATION": "USA - Idaho", "POINTS": "8", "BONUSPOINTS": "3"}}, {"type": "Feature", "geometry": {"type": "Point", "coordinates": [-114.3426, 43.7906]}, "properties": {"NAME": "W7I/BL-053", "TITLE": "9675", "REGION": "ID - Blaine County", "ASSOCIATION": "USA - Idaho", "POINTS": "8", "BONUSPOINTS": "3"}}, {"type": "Feature", "geometry": {"type": "Point", "coordinates": [-114.584, 43.7025]}, "properties": {"NAME": "W7I/BL-054", "TITLE": "9660", "REGION": "ID - Blaine County", "ASSOCIATION": "USA - Idaho", "POINTS": "8", "BONUSPOINTS": "3"}}, {"type": "Feature", "geometry": {"type": "Point", "coordinates": [-114.2828, 43.8179]}, "properties": {"NAME": "W7I/BL-055", "TITLE": "9617", "REGION": "ID - Blaine County", "ASSOCIATION": "USA - Idaho", "POINTS": "8", "BONUSPOINTS": "3"}}, {"type": "Feature", "geometry": {"type": "Point", "coordinates": [-114.8171, 43.796]}, "properties": {"NAME": "W7I/BL-056", "TITLE": "9599", "REGION": "ID - Blaine County", "ASSOCIATION": "USA - Idaho", "POINTS": "8", "BONUSPOINTS": "3"}}, {"type": "Feature", "geometry": {"type": "Point", "coordinates": [-114.2986, 43.7805]}, "properties": {"NAME": "W7I/BL-057", "TITLE": "9557", "REGION": "ID - Blaine County", "ASSOCIATION": "USA - Idaho", "POINTS": "8", "BONUSPOINTS": "3"}}, {"type": "Feature", "geometry": {"type": "Point", "coordinates": [-114.1419, 43.6431]}, "properties": {"NAME": "W7I/BL-058", "TITLE": "Big Witch Peak", "REGION": "ID - Blaine County", "ASSOCIATION": "USA - Idaho", "POINTS": "8", "BONUSPOINTS": "3"}}, {"type": "Feature", "geometry": {"type": "Point", "coordinates": [-114.5892, 43.6755]}, "properties": {"NAME": "W7I/BL-059", "TITLE": "Bear Peak", "REGION": "ID - Blaine County", "ASSOCIATION": "USA - Idaho", "POINTS": "8", "BONUSPOINTS": "3"}}, {"type": "Feature", "geometry": {"type": "Point", "coordinates": [-114.8097, 43.8241]}, "properties": {"NAME": "W7I/BL-060", "TITLE": "9495", "REGION": "ID - Blaine County", "ASSOCIATION": "USA - Idaho", "POINTS": "6", "BONUSPOINTS": "3"}}, {"type": "Feature", "geometry": {"type": "Point", "coordinates": [-114.6542, 43.819]}, "properties": {"NAME": "W7I/BL-061", "TITLE": "9489", "REGION": "ID - Blaine County", "ASSOCIATION": "USA - Idaho", "POINTS": "6", "BONUSPOINTS": "3"}}, {"type": "Feature", "geometry": {"type": "Point", "coordinates": [-114.7126, 43.8904]}, "properties": {"NAME": "W7I/BL-062", "TITLE": "Avalanche Peak", "REGION": "ID - Blaine County", "ASSOCIATION": "USA - Idaho", "POINTS": "6", "BONUSPOINTS": "3"}}, {"type": "Feature", "geometry": {"type": "Point", "coordinates": [-114.7926, 43.857]}, "properties": {"NAME": "W7I/BL-063", "TITLE": "9367", "REGION": "ID - Blaine County", "ASSOCIATION": "USA - Idaho", "POINTS": "6", "BONUSPOINTS": "3"}}, {"type": "Feature", "geometry": {"type": "Point", "coordinates": [-113.6686, 43.4984]}, "properties": {"NAME": "W7I/BL-064", "TITLE": "Blizzard Mountain", "REGION": "ID - Blaine County", "ASSOCIATION": "USA - Idaho", "POINTS": "6", "BONUSPOINTS": "3"}}, {"type": "Feature", "geometry": {"type": "Point", "coordinates": [-114.5217, 43.7081]}, "properties": {"NAME": "W7I/BL-065", "TITLE": "9210", "REGION": "ID - Blaine County", "ASSOCIATION": "USA - Idaho", "POINTS": "6", "BONUSPOINTS": "3"}}, {"type": "Feature", "geometry": {"type": "Point", "coordinates": [-113.9859, 43.6656]}, "properties": {"NAME": "W7I/BL-066", "TITLE": "Mandolin Benchmark", "REGION": "ID - Blaine County", "ASSOCIATION": "USA - Idaho", "POINTS": "6", "BONUSPOINTS": "3"}}, {"type": "Feature", "geometry": {"type": "Point", "coordinates": [-114.5147, 43.7251]}, "properties": {"NAME": "W7I/BL-067", "TITLE": "Fox Peak", "REGION": "ID - Blaine County", "ASSOCIATION": "USA - Idaho", "POINTS": "6", "BONUSPOINTS": "3"}}, {"type": "Feature", "geometry": {"type": "Point", "coordinates": [-114.4093, 43.6549]}, "properties": {"NAME": "W7I/BL-068", "TITLE": "Bald Mountain", "REGION": "ID - Blaine County", "ASSOCIATION": "USA - Idaho", "POINTS": "6", "BONUSPOINTS": "3"}}, {"type": "Feature", "geometry": {"type": "Point", "coordinates": [-114.5852, 43.5499]}, "properties": {"NAME": "W7I/BL-069", "TITLE": "Cup Benchmark", "REGION": "ID - Blaine County", "ASSOCIATION": "USA - Idaho", "POINTS": "6", "BONUSPOINTS": "3"}}, {"type": "Feature", "geometry": {"type": "Point", "coordinates": [-113.6659, 43.5125]}, "properties": {"NAME": "W7I/BL-070", "TITLE": "9140", "REGION": "ID - Blaine County", "ASSOCIATION": "USA - Idaho", "POINTS": "6", "BONUSPOINTS": "3"}}, {"type": "Feature", "geometry": {"type": "Point", "coordinates": [-113.6886, 43.5419]}, "properties": {"NAME": "W7I/BL-071", "TITLE": "9098", "REGION": "ID - Blaine County", "ASSOCIATION": "USA - Idaho", "POINTS": "6", "BONUSPOINTS": "3"}}, {"type": "Feature", "geometry": {"type": "Point", "coordinates": [-114.5776, 43.5153]}, "properties": {"NAME": "W7I/BL-072", "TITLE": "Buttercup Mountain", "REGION": "ID - Blaine County", "ASSOCIATION": "USA - Idaho", "POINTS": "6", "BONUSPOINTS": "3"}}, {"type": "Feature", "geometry": {"type": "Point", "coordinates": [-114.1114, 43.6341]}, "properties": {"NAME": "W7I/BL-073", "TITLE": "9041", "REGION": "ID - Blaine County", "ASSOCIATION": "USA - Idaho", "POINTS": "6", "BONUSPOINTS": "3"}}, {"type": "Feature", "geometry": {"type": "Point", "coordinates": [-114.5215, 43.6782]}, "properties": {"NAME": "W7I/BL-074", "TITLE": "Boyle Mountain", "REGION": "ID - Blaine County", "ASSOCIATION": "USA - Idaho", "POINTS": "6", "BONUSPOINTS": "3"}}, {"type": "Feature", "geometry": {"type": "Point", "coordinates": [-114.0752, 43.6052]}, "properties": {"NAME": "W7I/BL-075", "TITLE": "8872", "REGION": "ID - Blaine County", "ASSOCIATION": "USA - Idaho", "POINTS": "6", "BONUSPOINTS": "3"}}, {"type": "Feature", "geometry": {"type": "Point", "coordinates": [-114.2677, 43.8308]}, "properties": {"NAME": "W7I/BL-076", "TITLE": "8832", "REGION": "ID - Blaine County", "ASSOCIATION": "USA - Idaho", "POINTS": "6", "BONUSPOINTS": "3"}}, {"type": "Feature", "geometry": {"type": "Point", "coordinates": [-114.467, 43.4924]}, "properties": {"NAME": "W7I/BL-077", "TITLE": "Kelly Mountain", "REGION": "ID - Blaine County", "ASSOCIATION": "USA - Idaho", "POINTS": "6", "BONUSPOINTS": "3"}}, {"type": "Feature", "geometry": {"type": "Point", "coordinates": [-114.4995, 43.7486]}, "properties": {"NAME": "W7I/BL-078", "TITLE": "8825", "REGION": "ID - Blaine County", "ASSOCIATION": "USA - Idaho", "POINTS": "6", "BONUSPOINTS": "3"}}, {"type": "Feature", "geometry": {"type": "Point", "coordinates": [-114.2505, 43.6242]}, "properties": {"NAME": "W7I/BL-079", "TITLE": "Ohio Benchmark", "REGION": "ID - Blaine County", "ASSOCIATION": "USA - Idaho", "POINTS": "6", "BONUSPOINTS": "3"}}, {"type": "Feature", "geometry": {"type": "Point", "coordinates": [-114.5632, 43.606]}, "properties": {"NAME": "W7I/BL-080", "TITLE": "8746", "REGION": "ID - Blaine County", "ASSOCIATION": "USA - Idaho", "POINTS": "6", "BONUSPOINTS": "3"}}, {"type": "Feature", "geometry": {"type": "Point", "coordinates": [-113.9825, 43.6028]}, "properties": {"NAME": "W7I/BL-081", "TITLE": "Bell Rock", "REGION": "ID - Blaine County", "ASSOCIATION": "USA - Idaho", "POINTS": "6", "BONUSPOINTS": "3"}}, {"type": "Feature", "geometry": {"type": "Point", "coordinates": [-114.4455, 43.6869]}, "properties": {"NAME": "W7I/BL-082", "TITLE": "Allen Mountain", "REGION": "ID - Blaine County", "ASSOCIATION": "USA - Idaho", "POINTS": "6", "BONUSPOINTS": "3"}}, {"type": "Feature", "geometry": {"type": "Point", "coordinates": [-114.5504, 43.663]}, "properties": {"NAME": "W7I/BL-083", "TITLE": "8563", "REGION": "ID - Blaine County", "ASSOCIATION": "USA - Idaho", "POINTS": "6", "BONUSPOINTS": "3"}}, {"type": "Feature", "geometry": {"type": "Point", "coordinates": [-114.5429, 43.4972]}, "properties": {"NAME": "W7I/BL-084", "TITLE": "8562", "REGION": "ID - Blaine County", "ASSOCIATION": "USA - Idaho", "POINTS": "6", "BONUSPOINTS": "3"}}, {"type": "Feature", "geometry": {"type": "Point", "coordinates": [-114.5313, 43.6384]}, "properties": {"NAME": "W7I/BL-085", "TITLE": "8561", "REGION": "ID - Blaine County", "ASSOCIATION": "USA - Idaho", "POINTS": "6", "BONUSPOINTS": "3"}}, {"type": "Feature", "geometry": {"type": "Point", "coordinates": [-114.4779, 43.6205]}, "properties": {"NAME": "W7I/BL-086", "TITLE": "Gim Benchmark", "REGION": "ID - Blaine County", "ASSOCIATION": "USA - Idaho", "POINTS": "6", "BONUSPOINTS": "3"}}, {"type": "Feature", "geometry": {"type": "Point", "coordinates": [-114.1618, 43.5221]}, "properties": {"NAME": "W7I/BL-087", "TITLE": "Vue Benchmark", "REGION": "ID - Blaine County", "ASSOCIATION": "USA - Idaho", "POINTS": "6", "BONUSPOINTS": "3"}}, {"type": "Feature", "geometry": {"type": "Point", "coordinates": [-114.5305, 43.5483]}, "properties": {"NAME": "W7I/BL-088", "TITLE": "8445", "REGION": "ID - Blaine County", "ASSOCIATION": "USA - Idaho", "POINTS": "6", "BONUSPOINTS": "3"}}, {"type": "Feature", "geometry": {"type": "Point", "coordinates": [-114.5156, 43.4933]}, "properties": {"NAME": "W7I/BL-089", "TITLE": "8422", "REGION": "ID - Blaine County", "ASSOCIATION": "USA - Idaho", "POINTS": "6", "BONUSPOINTS": "3"}}, {"type": "Feature", "geometry": {"type": "Point", "coordinates": [-113.955, 43.5879]}, "properties": {"NAME": "W7I/BL-090", "TITLE": "8415", "REGION": "ID - Blaine County", "ASSOCIATION": "USA - Idaho", "POINTS": "6", "BONUSPOINTS": "3"}}, {"type": "Feature", "geometry": {"type": "Point", "coordinates": [-114.4199, 43.7296]}, "properties": {"NAME": "W7I/BL-091", "TITLE": "Griffin Butte", "REGION": "ID - Blaine County", "ASSOCIATION": "USA - Idaho", "POINTS": "6", "BONUSPOINTS": "3"}}, {"type": "Feature", "geometry": {"type": "Point", "coordinates": [-114.3303, 43.7407]}, "properties": {"NAME": "W7I/BL-092", "TITLE": "8398", "REGION": "ID - Blaine County", "ASSOCIATION": "USA - Idaho", "POINTS": "6", "BONUSPOINTS": "3"}}, {"type": "Feature", "geometry": {"type": "Point", "coordinates": [-114.2253, 43.5319]}, "properties": {"NAME": "W7I/BL-093", "TITLE": "Patterson Peak", "REGION": "ID - Blaine County", "ASSOCIATION": "USA - Idaho", "POINTS": "6", "BONUSPOINTS": "3"}}, {"type": "Feature", "geometry": {"type": "Point", "coordinates": [-114.4976, 43.5074]}, "properties": {"NAME": "W7I/BL-094", "TITLE": "8344", "REGION": "ID - Blaine County", "ASSOCIATION": "USA - Idaho", "POINTS": "6", "BONUSPOINTS": "3"}}, {"type": "Feature", "geometry": {"type": "Point", "coordinates": [-114.4393, 43.6302]}, "properties": {"NAME": "W7I/BL-095", "TITLE": "8324", "REGION": "ID - Blaine County", "ASSOCIATION": "USA - Idaho", "POINTS": "6", "BONUSPOINTS": "3"}}, {"type": "Feature", "geometry": {"type": "Point", "coordinates": [-114.1904, 43.5093]}, "properties": {"NAME": "W7I/BL-096", "TITLE": "8301", "REGION": "ID - Blaine County", "ASSOCIATION": "USA - Idaho", "POINTS": "6", "BONUSPOINTS": "3"}}, {"type": "Feature", "geometry": {"type": "Point", "coordinates": [-114.2225, 43.5897]}, "properties": {"NAME": "W7I/BL-097", "TITLE": "8243", "REGION": "ID - Blaine County", "ASSOCIATION": "USA - Idaho", "POINTS": "6", "BONUSPOINTS": "3"}}, {"type": "Feature", "geometry": {"type": "Point", "coordinates": [-114.4879, 43.656]}, "properties": {"NAME": "W7I/BL-098", "TITLE": "8201", "REGION": "ID - Blaine County", "ASSOCIATION": "USA - Idaho", "POINTS": "6", "BONUSPOINTS": "3"}}, {"type": "Feature", "geometry": {"type": "Point", "coordinates": [-114.2547, 43.5571]}, "properties": {"NAME": "W7I/BL-099", "TITLE": "8189", "REGION": "ID - Blaine County", "ASSOCIATION": "USA - Idaho", "POINTS": "6", "BONUSPOINTS": "3"}}, {"type": "Feature", "geometry": {"type": "Point", "coordinates": [-114.2607, 43.5742]}, "properties": {"NAME": "W7I/BL-100", "TITLE": "8120", "REGION": "ID - Blaine County", "ASSOCIATION": "USA - Idaho", "POINTS": "6", "BONUSPOINTS": "3"}}, {"type": "Feature", "geometry": {"type": "Point", "coordinates": [-114.4227, 43.5182]}, "properties": {"NAME": "W7I/BL-101", "TITLE": "8105", "REGION": "ID - Blaine County", "ASSOCIATION": "USA - Idaho", "POINTS": "6", "BONUSPOINTS": "3"}}, {"type": "Feature", "geometry": {"type": "Point", "coordinates": [-113.9936, 43.5551]}, "properties": {"NAME": "W7I/BL-102", "TITLE": "Elk Mountain", "REGION": "ID - Blaine County", "ASSOCIATION": "USA - Idaho", "POINTS": "6", "BONUSPOINTS": "3"}}, {"type": "Feature", "geometry": {"type": "Point", "coordinates": [-114.1621, 43.4932]}, "properties": {"NAME": "W7I/BL-103", "TITLE": "8074", "REGION": "ID - Blaine County", "ASSOCIATION": "USA - Idaho", "POINTS": "6", "BONUSPOINTS": "3"}}, {"type": "Feature", "geometry": {"type": "Point", "coordinates": [-114.111, 43.4309]}, "properties": {"NAME": "W7I/BL-104", "TITLE": "Bell Mountain", "REGION": "ID - Blaine County", "ASSOCIATION": "USA - Idaho", "POINTS": "6", "BONUSPOINTS": "3"}}, {"type": "Feature", "geometry": {"type": "Point", "coordinates": [-114.4864, 43.5427]}, "properties": {"NAME": "W7I/BL-105", "TITLE": "7980", "REGION": "ID - Blaine County", "ASSOCIATION": "USA - Idaho", "POINTS": "6", "BONUSPOINTS": "3"}}, {"type": "Feature", "geometry": {"type": "Point", "coordinates": [-114.446, 43.7631]}, "properties": {"NAME": "W7I/BL-106", "TITLE": "7933", "REGION": "ID - Blaine County", "ASSOCIATION": "USA - Idaho", "POINTS": "6", "BONUSPOINTS": "3"}}, {"type": "Feature", "geometry": {"type": "Point", "coordinates": [-114.1438, 43.4415]}, "properties": {"NAME": "W7I/BL-107", "TITLE": "7921", "REGION": "ID - Blaine County", "ASSOCIATION": "USA - Idaho", "POINTS": "6", "BONUSPOINTS": "3"}}, {"type": "Feature", "geometry": {"type": "Point", "coordinates": [-113.6649, 43.4218]}, "properties": {"NAME": "W7I/BL-108", "TITLE": "7900", "REGION": "ID - Blaine County", "ASSOCIATION": "USA - Idaho", "POINTS": "6", "BONUSPOINTS": "3"}}, {"type": "Feature", "geometry": {"type": "Point", "coordinates": [-114.3159, 43.6361]}, "properties": {"NAME": "W7I/BL-109", "TITLE": "7777", "REGION": "ID - Blaine County", "ASSOCIATION": "USA - Idaho", "POINTS": "6", "BONUSPOINTS": "3"}}, {"type": "Feature", "geometry": {"type": "Point", "coordinates": [-114.0338, 43.5663]}, "properties": {"NAME": "W7I/BL-110", "TITLE": "7622", "REGION": "ID - Blaine County", "ASSOCIATION": "USA - Idaho", "POINTS": "6", "BONUSPOINTS": "3"}}, {"type": "Feature", "geometry": {"type": "Point", "coordinates": [-114.2156, 43.4464]}, "properties": {"NAME": "W7I/BL-111", "TITLE": "Lookout Mountain", "REGION": "ID - Blaine County", "ASSOCIATION": "USA - Idaho", "POINTS": "6", "BONUSPOINTS": "3"}}, {"type": "Feature", "geometry": {"type": "Point", "coordinates": [-114.088, 43.4322]}, "properties": {"NAME": "W7I/BL-112", "TITLE": "7532", "REGION": "ID - Blaine County", "ASSOCIATION": "USA - Idaho", "POINTS": "6", "BONUSPOINTS": "3"}}, {"type": "Feature", "geometry": {"type": "Point", "coordinates": [-113.9115, 43.5448]}, "properties": {"NAME": "W7I/BL-113", "TITLE": "7486", "REGION": "ID - Blaine County", "ASSOCIATION": "USA - Idaho", "POINTS": "4", "BONUSPOINTS": "3"}}, {"type": "Feature", "geometry": {"type": "Point", "coordinates": [-114.2922, 43.6431]}, "properties": {"NAME": "W7I/BL-114", "TITLE": "7462", "REGION": "ID - Blaine County", "ASSOCIATION": "USA - Idaho", "POINTS": "4", "BONUSPOINTS": "3"}}, {"type": "Feature", "geometry": {"type": "Point", "coordinates": [-114.4103, 43.5738]}, "properties": {"NAME": "W7I/BL-115", "TITLE": "7405", "REGION": "ID - Blaine County", "ASSOCIATION": "USA - Idaho", "POINTS": "4", "BONUSPOINTS": "3"}}, {"type": "Feature", "geometry": {"type": "Point", "coordinates": [-114.1492, 43.4755]}, "properties": {"NAME": "W7I/BL-116", "TITLE": "7392", "REGION": "ID - Blaine County", "ASSOCIATION": "USA - Idaho", "POINTS": "4", "BONUSPOINTS": "3"}}, {"type": "Feature", "geometry": {"type": "Point", "coordinates": [-114.1243, 43.4536]}, "properties": {"NAME": "W7I/BL-117", "TITLE": "7374", "REGION": "ID - Blaine County", "ASSOCIATION": "USA - Idaho", "POINTS": "4", "BONUSPOINTS": "3"}}, {"type": "Feature", "geometry": {"type": "Point", "coordinates": [-114.366, 43.6234]}, "properties": {"NAME": "W7I/BL-118", "TITLE": "7362", "REGION": "ID - Blaine County", "ASSOCIATION": "USA - Idaho", "POINTS": "4", "BONUSPOINTS": "3"}}, {"type": "Feature", "geometry": {"type": "Point", "coordinates": [-113.7926, 43.4138]}, "properties": {"NAME": "W7I/BL-119", "TITLE": "Pine Mountain", "REGION": "ID - Blaine County", "ASSOCIATION": "USA - Idaho", "POINTS": "4", "BONUSPOINTS": "3"}}, {"type": "Feature", "geometry": {"type": "Point", "coordinates": [-113.8467, 43.5228]}, "properties": {"NAME": "W7I/BL-120", "TITLE": "7315", "REGION": "ID - Blaine County", "ASSOCIATION": "USA - Idaho", "POINTS": "4", "BONUSPOINTS": "3"}}, {"type": "Feature", "geometry": {"type": "Point", "coordinates": [-113.8558, 43.5052]}, "properties": {"NAME": "W7I/BL-121", "TITLE": "Freedom Benchmark", "REGION": "ID - Blaine County", "ASSOCIATION": "USA - Idaho", "POINTS": "4", "BONUSPOINTS": "3"}}, {"type": "Feature", "geometry": {"type": "Point", "coordinates": [-114.3781, 43.5446]}, "properties": {"NAME": "W7I/BL-122", "TITLE": "7254", "REGION": "ID - Blaine County", "ASSOCIATION": "USA - Idaho", "POINTS": "4", "BONUSPOINTS": "3"}}, {"type": "Feature", "geometry": {"type": "Point", "coordinates": [-113.7504, 43.4408]}, "properties": {"NAME": "W7I/BL-123", "TITLE": "7180", "REGION": "ID - Blaine County", "ASSOCIATION": "USA - Idaho", "POINTS": "4", "BONUSPOINTS": "3"}}, {"type": "Feature", "geometry": {"type": "Point", "coordinates": [-114.3343, 43.4553]}, "properties": {"NAME": "W7I/BL-124", "TITLE": "7174", "REGION": "ID - Blaine County", "ASSOCIATION": "USA - Idaho", "POINTS": "4", "BONUSPOINTS": "3"}}, {"type": "Feature", "geometry": {"type": "Point", "coordinates": [-113.8858, 43.4967]}, "properties": {"NAME": "W7I/BL-125", "TITLE": "7151", "REGION": "ID - Blaine County", "ASSOCIATION": "USA - Idaho", "POINTS": "4", "BONUSPOINTS": "3"}}, {"type": "Feature", "geometry": {"type": "Point", "coordinates": [-114.3585, 43.5317]}, "properties": {"NAME": "W7I/BL-126", "TITLE": "7130", "REGION": "ID - Blaine County", "ASSOCIATION": "USA - Idaho", "POINTS": "4", "BONUSPOINTS": "3"}}, {"type": "Feature", "geometry": {"type": "Point", "coordinates": [-113.9559, 43.3993]}, "properties": {"NAME": "W7I/BL-127", "TITLE": "Lake Hills", "REGION": "ID - Blaine County", "ASSOCIATION": "USA - Idaho", "POINTS": "4", "BONUSPOINTS": "3"}}, {"type": "Feature", "geometry": {"type": "Point", "coordinates": [-114.2874, 43.5394]}, "properties": {"NAME": "W7I/BL-128", "TITLE": "6852", "REGION": "ID - Blaine County", "ASSOCIATION": "USA - Idaho", "POINTS": "4", "BONUSPOINTS": "3"}}, {"type": "Feature", "geometry": {"type": "Point", "coordinates": [-114.1205, 43.5705]}, "properties": {"NAME": "W7I/BL-129", "TITLE": "6843", "REGION": "ID - Blaine County", "ASSOCIATION": "USA - Idaho", "POINTS": "4", "BONUSPOINTS": "3"}}, {"type": "Feature", "geometry": {"type": "Point", "coordinates": [-114.3216, 43.5033]}, "properties": {"NAME": "W7I/BL-130", "TITLE": "Della Mountain", "REGION": "ID - Blaine County", "ASSOCIATION": "USA - Idaho", "POINTS": "4", "BONUSPOINTS": "3"}}, {"type": "Feature", "geometry": {"type": "Point", "coordinates": [-114.3178, 43.5804]}, "properties": {"NAME": "W7I/BL-131", "TITLE": "6702", "REGION": "ID - Blaine County", "ASSOCIATION": "USA - Idaho", "POINTS": "4", "BONUSPOINTS": "3"}}, {"type": "Feature", "geometry": {"type": "Point", "coordinates": [-113.7726, 43.4593]}, "properties": {"NAME": "W7I/BL-132", "TITLE": "6684", "REGION": "ID - Blaine County", "ASSOCIATION": "USA - Idaho", "POINTS": "4", "BONUSPOINTS": "3"}}, {"type": "Feature", "geometry": {"type": "Point", "coordinates": [-113.7726, 43.4028]}, "properties": {"NAME": "W7I/BL-133", "TITLE": "6667", "REGION": "ID - Blaine County", "ASSOCIATION": "USA - Idaho", "POINTS": "4", "BONUSPOINTS": "3"}}, {"type": "Feature", "geometry": {"type": "Point", "coordinates": [-114.3484, 43.683]}, "properties": {"NAME": "W7I/BL-134", "TITLE": "Dollar Mountain", "REGION": "ID - Blaine County", "ASSOCIATION": "USA - Idaho", "POINTS": "4", "BONUSPOINTS": "3"}}, {"type": "Feature", "geometry": {"type": "Point", "coordinates": [-114.3397, 43.4154]}, "properties": {"NAME": "W7I/BL-135", "TITLE": "6629", "REGION": "ID - Blaine County", "ASSOCIATION": "USA - Idaho", "POINTS": "4", "BONUSPOINTS": "3"}}, {"type": "Feature", "geometry": {"type": "Point", "coordinates": [-114.3369, 43.599]}, "properties": {"NAME": "W7I/BL-136", "TITLE": "Gimlet Benchmark", "REGION": "ID - Blaine County", "ASSOCIATION": "USA - Idaho", "POINTS": "4", "BONUSPOINTS": "3"}}, {"type": "Feature", "geometry": {"type": "Point", "coordinates": [-114.1548, 43.2804]}, "properties": {"NAME": "W7I/BL-137", "TITLE": "Picabo Hills", "REGION": "ID - Blaine County", "ASSOCIATION": "USA - Idaho", "POINTS": "4", "BONUSPOINTS": "3"}}, {"type": "Feature", "geometry": {"type": "Point", "coordinates": [-114.419, 43.4553]}, "properties": {"NAME": "W7I/BL-138", "TITLE": "6492", "REGION": "ID - Blaine County", "ASSOCIATION": "USA - Idaho", "POINTS": "4", "BONUSPOINTS": "3"}}, {"type": "Feature", "geometry": {"type": "Point", "coordinates": [-114.1932, 43.4073]}, "properties": {"NAME": "W7I/BL-139", "TITLE": "6442", "REGION": "ID - Blaine County", "ASSOCIATION": "USA - Idaho", "POINTS": "4", "BONUSPOINTS": "3"}}, {"type": "Feature", "geometry": {"type": "Point", "coordinates": [-113.9921, 43.4149]}, "properties": {"NAME": "W7I/BL-140", "TITLE": "6402", "REGION": "ID - Blaine County", "ASSOCIATION": "USA - Idaho", "POINTS": "4", "BONUSPOINTS": "3"}}, {"type": "Feature", "geometry": {"type": "Point", "coordinates": [-113.7376, 43.4028]}, "properties": {"NAME": "W7I/BL-141", "TITLE": "6368", "REGION": "ID - Blaine County", "ASSOCIATION": "USA - Idaho", "POINTS": "4", "BONUSPOINTS": "3"}}, {"type": "Feature", "geometry": {"type": "Point", "coordinates": [-114.3876, 43.4535]}, "properties": {"NAME": "W7I/BL-142", "TITLE": "6186", "REGION": "ID - Blaine County", "ASSOCIATION": "USA - Idaho", "POINTS": "4", "BONUSPOINTS": "3"}}, {"type": "Feature", "geometry": {"type": "Point", "coordinates": [-114.0347, 43.3292]}, "properties": {"NAME": "W7I/BL-143", "TITLE": "6180", "REGION": "ID - Blaine County", "ASSOCIATION": "USA - Idaho", "POINTS": "4", "BONUSPOINTS": "3"}}, {"type": "Feature", "geometry": {"type": "Point", "coordinates": [-114.2552, 43.313]}, "properties": {"NAME": "W7I/BL-144", "TITLE": "Timmerman Hills", "REGION": "ID - Blaine County", "ASSOCIATION": "USA - Idaho", "POINTS": "2", "BONUSPOINTS": "3"}}, {"type": "Feature", "geometry": {"type": "Point", "coordinates": [-114.2944, 43.2417]}, "properties": {"NAME": "W7I/BL-145", "TITLE": "Wedge Butte", "REGION": "ID - Blaine County", "ASSOCIATION": "USA - Idaho", "POINTS": "2", "BONUSPOINTS": "3"}}, {"type": "Feature", "geometry": {"type": "Point", "coordinates": [-113.9887, 43.2898]}, "properties": {"NAME": "W7I/BL-146", "TITLE": "Queens Crown", "REGION": "ID - Blaine County", "ASSOCIATION": "USA - Idaho", "POINTS": "2", "BONUSPOINTS": "3"}}, {"type": "Feature", "geometry": {"type": "Point", "coordinates": [-114.2975, 43.3853]}, "properties": {"NAME": "W7I/BL-147", "TITLE": "Mabelle Hill", "REGION": "ID - Blaine County", "ASSOCIATION": "USA - Idaho", "POINTS": "2", "BONUSPOINTS": "3"}}, {"type": "Feature", "geometry": {"type": "Point", "coordinates": [-114.5836, 43.8639]}, "properties": {"NAME": "W7I/BL-148", "TITLE": "Cerro Ciento", "REGION": "ID - Blaine County", "ASSOCIATION": "USA - Idaho", "POINTS": "10", "BONUSPOINTS": "3"}}, {"type": "Feature", "geometry": {"type": "Point", "coordinates": [-114.5385, 43.8455]}, "properties": {"NAME": "W7I/BL-149", "TITLE": "Silver Peak", "REGION": "ID - Blaine County", "ASSOCIATION": "USA - Idaho", "POINTS": "10", "BONUSPOINTS": "3"}}, {"type": "Feature", "geometry": {"type": "Point", "coordinates": [-114.2787, 43.8783]}, "properties": {"NAME": "W7I/BL-150", "TITLE": "10356", "REGION": "ID - Blaine County", "ASSOCIATION": "USA - Idaho", "POINTS": "8", "BONUSPOINTS": "3"}}, {"type": "Feature", "geometry": {"type": "Point", "coordinates": [-114.3845, 43.6022]}, "properties": {"NAME": "W7I/BL-151", "TITLE": "7422", "REGION": "ID - Blaine County", "ASSOCIATION": "USA - Idaho", "POINTS": "4", "BONUSPOINTS": "3"}}]}