{"type": "FeatureCollection", "name": "W7I/VC SUMMITS", "features": [{"type": "Feature", "geometry": {"type": "Point", "coordinates": [-115.219, 44.7824]}, "properties": {"NAME": "W7I/VC-001", "TITLE": "Big Baldy", "REGION": "ID - Valley County", "ASSOCIATION": "USA - Idaho", "POINTS": "8", "BONUSPOINTS": "3"}}, {"type": "Feature", "geometry": {"type": "Point", "coordinates": [-115.2079, 44.8673]}, "properties": {"NAME": "W7I/VC-002", "TITLE": "Red Peak Benchmark", "REGION": "ID - Valley County", "ASSOCIATION": "USA - Idaho", "POINTS": "8", "BONUSPOINTS": "3"}}, {"type": "Feature", "geometry": {"type": "Point", "coordinates": [-114.881, 45.0154]}, "properties": {"NAME": "W7I/VC-003", "TITLE": "Mormon Mountain", "REGION": "ID - Valley County", "ASSOCIATION": "USA - Idaho", "POINTS": "8", "BONUSPOINTS": "3"}}, {"type": "Feature", "geometry": {"type": "Point", "coordinates": [-115.1815, 44.8535]}, "properties": {"NAME": "W7I/VC-004", "TITLE": "9520", "REGION": "ID - Valley County", "ASSOCIATION": "USA - Idaho", "POINTS": "8", "BONUSPOINTS": "3"}}, {"type": "Feature", "geometry": {"type": "Point", "coordinates": [-115.1982, 44.8813]}, "properties": {"NAME": "W7I/VC-005", "TITLE": "9466", "REGION": "ID - Valley County", "ASSOCIATION": "USA - Idaho", "POINTS": "6", "BONUSPOINTS": "3"}}, {"type": "Feature", "geometry": {"type": "Point", "coordinates": [-114.9365, 44.9565]}, "properties": {"NAME": "W7I/VC-006", "TITLE": "Shellrock Peak", "REGION": "ID - Valley County", "ASSOCIATION": "USA - Idaho", "POINTS": "6", "BONUSPOINTS": "3"}}, {"type": "Feature", "geometry": {"type": "Point", "coordinates": [-114.9023, 44.9883]}, "properties": {"NAME": "W7I/VC-007", "TITLE": "Two Point Peak", "REGION": "ID - Valley County", "ASSOCIATION": "USA - Idaho", "POINTS": "6", "BONUSPOINTS": "3"}}, {"type": "Feature", "geometry": {"type": "Point", "coordinates": [-114.8688, 45.0244]}, "properties": {"NAME": "W7I/VC-008", "TITLE": "9340", "REGION": "ID - Valley County", "ASSOCIATION": "USA - Idaho", "POINTS": "6", "BONUSPOINTS": "3"}}, {"type": "Feature", "geometry": {"type": "Point", "coordinates": [-115.2279, 44.9623]}, "properties": {"NAME": "W7I/VC-009", "TITLE": "Rainbow Peak", "REGION": "ID - Valley County", "ASSOCIATION": "USA - Idaho", "POINTS": "6", "BONUSPOINTS": "3"}}, {"type": "Feature", "geometry": {"type": "Point", "coordinates": [-115.2238, 45.1011]}, "properties": {"NAME": "W7I/VC-010", "TITLE": "Center Mountain", "REGION": "ID - Valley County", "ASSOCIATION": "USA - Idaho", "POINTS": "6", "BONUSPOINTS": "3"}}, {"type": "Feature", "geometry": {"type": "Point", "coordinates": [-115.873, 45.1126]}, "properties": {"NAME": "W7I/VC-011", "TITLE": "North Loon Mountain", "REGION": "ID - Valley County", "ASSOCIATION": "USA - Idaho", "POINTS": "6", "BONUSPOINTS": "3"}}, {"type": "Feature", "geometry": {"type": "Point", "coordinates": [-115.1545, 44.8881]}, "properties": {"NAME": "W7I/VC-012", "TITLE": "Red Ridge", "REGION": "ID - Valley County", "ASSOCIATION": "USA - Idaho", "POINTS": "6", "BONUSPOINTS": "3"}}, {"type": "Feature", "geometry": {"type": "Point", "coordinates": [-115.2157, 44.6743]}, "properties": {"NAME": "W7I/VC-013", "TITLE": "Artillery Dome", "REGION": "ID - Valley County", "ASSOCIATION": "USA - Idaho", "POINTS": "6", "BONUSPOINTS": "3"}}, {"type": "Feature", "geometry": {"type": "Point", "coordinates": [-114.8154, 45.0571]}, "properties": {"NAME": "W7I/VC-014", "TITLE": "9300", "REGION": "ID - Valley County", "ASSOCIATION": "USA - Idaho", "POINTS": "6", "BONUSPOINTS": "3"}}, {"type": "Feature", "geometry": {"type": "Point", "coordinates": [-115.8812, 45.1001]}, "properties": {"NAME": "W7I/VC-015", "TITLE": "South Loon Mountain", "REGION": "ID - Valley County", "ASSOCIATION": "USA - Idaho", "POINTS": "6", "BONUSPOINTS": "3"}}, {"type": "Feature", "geometry": {"type": "Point", "coordinates": [-115.3456, 45.0305]}, "properties": {"NAME": "W7I/VC-016", "TITLE": "The Pinnacles", "REGION": "ID - Valley County", "ASSOCIATION": "USA - Idaho", "POINTS": "6", "BONUSPOINTS": "3"}}, {"type": "Feature", "geometry": {"type": "Point", "coordinates": [-115.1503, 44.8417]}, "properties": {"NAME": "W7I/VC-017", "TITLE": "Battleaxe Mountain", "REGION": "ID - Valley County", "ASSOCIATION": "USA - Idaho", "POINTS": "6", "BONUSPOINTS": "3"}}, {"type": "Feature", "geometry": {"type": "Point", "coordinates": [-115.2493, 44.8907]}, "properties": {"NAME": "W7I/VC-018", "TITLE": "Murphy Peak", "REGION": "ID - Valley County", "ASSOCIATION": "USA - Idaho", "POINTS": "6", "BONUSPOINTS": "3"}}, {"type": "Feature", "geometry": {"type": "Point", "coordinates": [-115.454, 45.1025]}, "properties": {"NAME": "W7I/VC-019", "TITLE": "Greeley Mountain", "REGION": "ID - Valley County", "ASSOCIATION": "USA - Idaho", "POINTS": "6", "BONUSPOINTS": "3"}}, {"type": "Feature", "geometry": {"type": "Point", "coordinates": [-115.3144, 44.6706]}, "properties": {"NAME": "W7I/VC-020", "TITLE": "9211", "REGION": "ID - Valley County", "ASSOCIATION": "USA - Idaho", "POINTS": "6", "BONUSPOINTS": "3"}}, {"type": "Feature", "geometry": {"type": "Point", "coordinates": [-115.4141, 45.1397]}, "properties": {"NAME": "W7I/VC-021", "TITLE": "Mount Eldridge", "REGION": "ID - Valley County", "ASSOCIATION": "USA - Idaho", "POINTS": "6", "BONUSPOINTS": "3"}}, {"type": "Feature", "geometry": {"type": "Point", "coordinates": [-115.6047, 44.8212]}, "properties": {"NAME": "W7I/VC-022", "TITLE": "Log Mountain", "REGION": "ID - Valley County", "ASSOCIATION": "USA - Idaho", "POINTS": "6", "BONUSPOINTS": "3"}}, {"type": "Feature", "geometry": {"type": "Point", "coordinates": [-115.3893, 44.7882]}, "properties": {"NAME": "W7I/VC-023", "TITLE": "Pistol Rock", "REGION": "ID - Valley County", "ASSOCIATION": "USA - Idaho", "POINTS": "6", "BONUSPOINTS": "3"}}, {"type": "Feature", "geometry": {"type": "Point", "coordinates": [-115.3761, 44.8116]}, "properties": {"NAME": "W7I/VC-024", "TITLE": "9160", "REGION": "ID - Valley County", "ASSOCIATION": "USA - Idaho", "POINTS": "6", "BONUSPOINTS": "3"}}, {"type": "Feature", "geometry": {"type": "Point", "coordinates": [-115.2729, 44.7848]}, "properties": {"NAME": "W7I/VC-025", "TITLE": "Big Baldy Ridge", "REGION": "ID - Valley County", "ASSOCIATION": "USA - Idaho", "POINTS": "6", "BONUSPOINTS": "3"}}, {"type": "Feature", "geometry": {"type": "Point", "coordinates": [-115.2914, 45.0987]}, "properties": {"NAME": "W7I/VC-026", "TITLE": "Marble Mountain", "REGION": "ID - Valley County", "ASSOCIATION": "USA - Idaho", "POINTS": "6", "BONUSPOINTS": "3"}}, {"type": "Feature", "geometry": {"type": "Point", "coordinates": [-115.2906, 45.0527]}, "properties": {"NAME": "W7I/VC-027", "TITLE": "Cougar Peak", "REGION": "ID - Valley County", "ASSOCIATION": "USA - Idaho", "POINTS": "6", "BONUSPOINTS": "3"}}, {"type": "Feature", "geometry": {"type": "Point", "coordinates": [-115.3523, 44.7322]}, "properties": {"NAME": "W7I/VC-028", "TITLE": "Chinook Mountain", "REGION": "ID - Valley County", "ASSOCIATION": "USA - Idaho", "POINTS": "6", "BONUSPOINTS": "3"}}, {"type": "Feature", "geometry": {"type": "Point", "coordinates": [-115.9189, 45.1321]}, "properties": {"NAME": "W7I/VC-029", "TITLE": "Storm Peak", "REGION": "ID - Valley County", "ASSOCIATION": "USA - Idaho", "POINTS": "6", "BONUSPOINTS": "3"}}, {"type": "Feature", "geometry": {"type": "Point", "coordinates": [-115.3528, 44.6575]}, "properties": {"NAME": "W7I/VC-030", "TITLE": "Walkers Peak", "REGION": "ID - Valley County", "ASSOCIATION": "USA - Idaho", "POINTS": "6", "BONUSPOINTS": "3"}}, {"type": "Feature", "geometry": {"type": "Point", "coordinates": [-115.4276, 45.1226]}, "properties": {"NAME": "W7I/VC-031", "TITLE": "Dixie Mountain", "REGION": "ID - Valley County", "ASSOCIATION": "USA - Idaho", "POINTS": "6", "BONUSPOINTS": "3"}}, {"type": "Feature", "geometry": {"type": "Point", "coordinates": [-115.2398, 44.663]}, "properties": {"NAME": "W7I/VC-032", "TITLE": "Grenade Benchmark", "REGION": "ID - Valley County", "ASSOCIATION": "USA - Idaho", "POINTS": "6", "BONUSPOINTS": "3"}}, {"type": "Feature", "geometry": {"type": "Point", "coordinates": [-115.8674, 44.9345]}, "properties": {"NAME": "W7I/VC-033", "TITLE": "Nick Peak", "REGION": "ID - Valley County", "ASSOCIATION": "USA - Idaho", "POINTS": "6", "BONUSPOINTS": "3"}}, {"type": "Feature", "geometry": {"type": "Point", "coordinates": [-115.2362, 44.8091]}, "properties": {"NAME": "W7I/VC-034", "TITLE": "9036", "REGION": "ID - Valley County", "ASSOCIATION": "USA - Idaho", "POINTS": "6", "BONUSPOINTS": "3"}}, {"type": "Feature", "geometry": {"type": "Point", "coordinates": [-115.8621, 45.0262]}, "properties": {"NAME": "W7I/VC-035", "TITLE": "McCabe Peak", "REGION": "ID - Valley County", "ASSOCIATION": "USA - Idaho", "POINTS": "6", "BONUSPOINTS": "3"}}, {"type": "Feature", "geometry": {"type": "Point", "coordinates": [-115.4165, 45.1741]}, "properties": {"NAME": "W7I/VC-036", "TITLE": "Wolf Fang Peak", "REGION": "ID - Valley County", "ASSOCIATION": "USA - Idaho", "POINTS": "6", "BONUSPOINTS": "3"}}, {"type": "Feature", "geometry": {"type": "Point", "coordinates": [-115.3562, 45.0326]}, "properties": {"NAME": "W7I/VC-037", "TITLE": "9004", "REGION": "ID - Valley County", "ASSOCIATION": "USA - Idaho", "POINTS": "6", "BONUSPOINTS": "3"}}, {"type": "Feature", "geometry": {"type": "Point", "coordinates": [-115.2067, 45.0361]}, "properties": {"NAME": "W7I/VC-038", "TITLE": "9004", "REGION": "ID - Valley County", "ASSOCIATION": "USA - Idaho", "POINTS": "6", "BONUSPOINTS": "3"}}, {"type": "Feature", "geometry": {"type": "Point", "coordinates": [-115.3732, 45.0951]}, "properties": {"NAME": "W7I/VC-039", "TITLE": "Logan Mountain", "REGION": "ID - Valley County", "ASSOCIATION": "USA - Idaho", "POINTS": "6", "BONUSPOINTS": "3"}}, {"type": "Feature", "geometry": {"type": "Point", "coordinates": [-115.4223, 44.7699]}, "properties": {"NAME": "W7I/VC-040", "TITLE": "Chilcoot Peak", "REGION": "ID - Valley County", "ASSOCIATION": "USA - Idaho", "POINTS": "6", "BONUSPOINTS": "3"}}, {"type": "Feature", "geometry": {"type": "Point", "coordinates": [-115.3934, 45.0488]}, "properties": {"NAME": "W7I/VC-041", "TITLE": "Coin Mountain", "REGION": "ID - Valley County", "ASSOCIATION": "USA - Idaho", "POINTS": "6", "BONUSPOINTS": "3"}}, {"type": "Feature", "geometry": {"type": "Point", "coordinates": [-115.457, 45.0855]}, "properties": {"NAME": "W7I/VC-042", "TITLE": "8980", "REGION": "ID - Valley County", "ASSOCIATION": "USA - Idaho", "POINTS": "6", "BONUSPOINTS": "3"}}, {"type": "Feature", "geometry": {"type": "Point", "coordinates": [-115.2335, 45.0221]}, "properties": {"NAME": "W7I/VC-043", "TITLE": "8980", "REGION": "ID - Valley County", "ASSOCIATION": "USA - Idaho", "POINTS": "6", "BONUSPOINTS": "3"}}, {"type": "Feature", "geometry": {"type": "Point", "coordinates": [-115.2854, 45.0056]}, "properties": {"NAME": "W7I/VC-044", "TITLE": "8979", "REGION": "ID - Valley County", "ASSOCIATION": "USA - Idaho", "POINTS": "6", "BONUSPOINTS": "3"}}, {"type": "Feature", "geometry": {"type": "Point", "coordinates": [-115.419, 45.0884]}, "properties": {"NAME": "W7I/VC-045", "TITLE": "Moore Point", "REGION": "ID - Valley County", "ASSOCIATION": "USA - Idaho", "POINTS": "6", "BONUSPOINTS": "3"}}, {"type": "Feature", "geometry": {"type": "Point", "coordinates": [-115.4684, 45.067]}, "properties": {"NAME": "W7I/VC-046", "TITLE": "Profile Peak", "REGION": "ID - Valley County", "ASSOCIATION": "USA - Idaho", "POINTS": "6", "BONUSPOINTS": "3"}}, {"type": "Feature", "geometry": {"type": "Point", "coordinates": [-115.5408, 44.8909]}, "properties": {"NAME": "W7I/VC-047", "TITLE": "8900", "REGION": "ID - Valley County", "ASSOCIATION": "USA - Idaho", "POINTS": "6", "BONUSPOINTS": "3"}}, {"type": "Feature", "geometry": {"type": "Point", "coordinates": [-114.9974, 44.8954]}, "properties": {"NAME": "W7I/VC-048", "TITLE": "8899", "REGION": "ID - Valley County", "ASSOCIATION": "USA - Idaho", "POINTS": "6", "BONUSPOINTS": "3"}}, {"type": "Feature", "geometry": {"type": "Point", "coordinates": [-115.3837, 44.7003]}, "properties": {"NAME": "W7I/VC-049", "TITLE": "8894", "REGION": "ID - Valley County", "ASSOCIATION": "USA - Idaho", "POINTS": "6", "BONUSPOINTS": "3"}}, {"type": "Feature", "geometry": {"type": "Point", "coordinates": [-115.1602, 44.9169]}, "properties": {"NAME": "W7I/VC-050", "TITLE": "8877", "REGION": "ID - Valley County", "ASSOCIATION": "USA - Idaho", "POINTS": "6", "BONUSPOINTS": "3"}}, {"type": "Feature", "geometry": {"type": "Point", "coordinates": [-115.9262, 44.9961]}, "properties": {"NAME": "W7I/VC-051", "TITLE": "Sawtooth Peak", "REGION": "ID - Valley County", "ASSOCIATION": "USA - Idaho", "POINTS": "6", "BONUSPOINTS": "3"}}, {"type": "Feature", "geometry": {"type": "Point", "coordinates": [-115.3517, 45.1696]}, "properties": {"NAME": "W7I/VC-052", "TITLE": "8868", "REGION": "ID - Valley County", "ASSOCIATION": "USA - Idaho", "POINTS": "6", "BONUSPOINTS": "3"}}, {"type": "Feature", "geometry": {"type": "Point", "coordinates": [-115.5321, 45.0538]}, "properties": {"NAME": "W7I/VC-053", "TITLE": "8848", "REGION": "ID - Valley County", "ASSOCIATION": "USA - Idaho", "POINTS": "6", "BONUSPOINTS": "3"}}, {"type": "Feature", "geometry": {"type": "Point", "coordinates": [-114.8947, 44.8988]}, "properties": {"NAME": "W7I/VC-054", "TITLE": "8847", "REGION": "ID - Valley County", "ASSOCIATION": "USA - Idaho", "POINTS": "6", "BONUSPOINTS": "3"}}, {"type": "Feature", "geometry": {"type": "Point", "coordinates": [-115.6013, 44.5438]}, "properties": {"NAME": "W7I/VC-055", "TITLE": "8846", "REGION": "ID - Valley County", "ASSOCIATION": "USA - Idaho", "POINTS": "6", "BONUSPOINTS": "3"}}, {"type": "Feature", "geometry": {"type": "Point", "coordinates": [-115.5194, 45.0344]}, "properties": {"NAME": "W7I/VC-056", "TITLE": "Parks Peak", "REGION": "ID - Valley County", "ASSOCIATION": "USA - Idaho", "POINTS": "6", "BONUSPOINTS": "3"}}, {"type": "Feature", "geometry": {"type": "Point", "coordinates": [-115.2307, 44.9447]}, "properties": {"NAME": "W7I/VC-057", "TITLE": "8821", "REGION": "ID - Valley County", "ASSOCIATION": "USA - Idaho", "POINTS": "6", "BONUSPOINTS": "3"}}, {"type": "Feature", "geometry": {"type": "Point", "coordinates": [-115.9173, 45.1175]}, "properties": {"NAME": "W7I/VC-058", "TITLE": "8808", "REGION": "ID - Valley County", "ASSOCIATION": "USA - Idaho", "POINTS": "6", "BONUSPOINTS": "3"}}, {"type": "Feature", "geometry": {"type": "Point", "coordinates": [-115.0665, 44.8298]}, "properties": {"NAME": "W7I/VC-059", "TITLE": "Grays Peak", "REGION": "ID - Valley County", "ASSOCIATION": "USA - Idaho", "POINTS": "6", "BONUSPOINTS": "3"}}, {"type": "Feature", "geometry": {"type": "Point", "coordinates": [-115.3141, 45.0281]}, "properties": {"NAME": "W7I/VC-060", "TITLE": "8803", "REGION": "ID - Valley County", "ASSOCIATION": "USA - Idaho", "POINTS": "6", "BONUSPOINTS": "3"}}, {"type": "Feature", "geometry": {"type": "Point", "coordinates": [-115.2175, 44.9874]}, "properties": {"NAME": "W7I/VC-061", "TITLE": "8801", "REGION": "ID - Valley County", "ASSOCIATION": "USA - Idaho", "POINTS": "6", "BONUSPOINTS": "3"}}, {"type": "Feature", "geometry": {"type": "Point", "coordinates": [-115.3173, 44.8602]}, "properties": {"NAME": "W7I/VC-062", "TITLE": "Indian Creek Point", "REGION": "ID - Valley County", "ASSOCIATION": "USA - Idaho", "POINTS": "6", "BONUSPOINTS": "3"}}, {"type": "Feature", "geometry": {"type": "Point", "coordinates": [-115.3157, 44.9718]}, "properties": {"NAME": "W7I/VC-063", "TITLE": "Sugar Mountain", "REGION": "ID - Valley County", "ASSOCIATION": "USA - Idaho", "POINTS": "6", "BONUSPOINTS": "3"}}, {"type": "Feature", "geometry": {"type": "Point", "coordinates": [-114.7726, 45.0563]}, "properties": {"NAME": "W7I/VC-064", "TITLE": "8777", "REGION": "ID - Valley County", "ASSOCIATION": "USA - Idaho", "POINTS": "6", "BONUSPOINTS": "3"}}, {"type": "Feature", "geometry": {"type": "Point", "coordinates": [-115.8988, 45.0116]}, "properties": {"NAME": "W7I/VC-065", "TITLE": "8744", "REGION": "ID - Valley County", "ASSOCIATION": "USA - Idaho", "POINTS": "6", "BONUSPOINTS": "3"}}, {"type": "Feature", "geometry": {"type": "Point", "coordinates": [-115.2752, 44.4783]}, "properties": {"NAME": "W7I/VC-066", "TITLE": "Blue Bunch Mountain", "REGION": "ID - Valley County", "ASSOCIATION": "USA - Idaho", "POINTS": "6", "BONUSPOINTS": "3"}}, {"type": "Feature", "geometry": {"type": "Point", "coordinates": [-115.8817, 44.9065]}, "properties": {"NAME": "W7I/VC-067", "TITLE": "8740", "REGION": "ID - Valley County", "ASSOCIATION": "USA - Idaho", "POINTS": "6", "BONUSPOINTS": "3"}}, {"type": "Feature", "geometry": {"type": "Point", "coordinates": [-115.8795, 44.9751]}, "properties": {"NAME": "W7I/VC-068", "TITLE": "8737", "REGION": "ID - Valley County", "ASSOCIATION": "USA - Idaho", "POINTS": "6", "BONUSPOINTS": "3"}}, {"type": "Feature", "geometry": {"type": "Point", "coordinates": [-115.9608, 45.0698]}, "properties": {"NAME": "W7I/VC-069", "TITLE": "Rain Benchmark", "REGION": "ID - Valley County", "ASSOCIATION": "USA - Idaho", "POINTS": "6", "BONUSPOINTS": "3"}}, {"type": "Feature", "geometry": {"type": "Point", "coordinates": [-115.8895, 44.8837]}, "properties": {"NAME": "W7I/VC-070", "TITLE": "8724", "REGION": "ID - Valley County", "ASSOCIATION": "USA - Idaho", "POINTS": "6", "BONUSPOINTS": "3"}}, {"type": "Feature", "geometry": {"type": "Point", "coordinates": [-115.7892, 44.8201]}, "properties": {"NAME": "W7I/VC-071", "TITLE": "Blackmare", "REGION": "ID - Valley County", "ASSOCIATION": "USA - Idaho", "POINTS": "6", "BONUSPOINTS": "3"}}, {"type": "Feature", "geometry": {"type": "Point", "coordinates": [-115.9052, 45.0001]}, "properties": {"NAME": "W7I/VC-072", "TITLE": "8708", "REGION": "ID - Valley County", "ASSOCIATION": "USA - Idaho", "POINTS": "6", "BONUSPOINTS": "3"}}, {"type": "Feature", "geometry": {"type": "Point", "coordinates": [-115.8593, 44.9846]}, "properties": {"NAME": "W7I/VC-073", "TITLE": "8695", "REGION": "ID - Valley County", "ASSOCIATION": "USA - Idaho", "POINTS": "6", "BONUSPOINTS": "3"}}, {"type": "Feature", "geometry": {"type": "Point", "coordinates": [-115.6278, 44.5068]}, "properties": {"NAME": "W7I/VC-074", "TITLE": "Rice Peak", "REGION": "ID - Valley County", "ASSOCIATION": "USA - Idaho", "POINTS": "6", "BONUSPOINTS": "3"}}, {"type": "Feature", "geometry": {"type": "Point", "coordinates": [-115.3793, 45.0802]}, "properties": {"NAME": "W7I/VC-075", "TITLE": "8690", "REGION": "ID - Valley County", "ASSOCIATION": "USA - Idaho", "POINTS": "6", "BONUSPOINTS": "3"}}, {"type": "Feature", "geometry": {"type": "Point", "coordinates": [-115.4065, 44.625]}, "properties": {"NAME": "W7I/VC-076", "TITLE": "8681", "REGION": "ID - Valley County", "ASSOCIATION": "USA - Idaho", "POINTS": "6", "BONUSPOINTS": "3"}}, {"type": "Feature", "geometry": {"type": "Point", "coordinates": [-114.8666, 44.943]}, "properties": {"NAME": "W7I/VC-077", "TITLE": "8681", "REGION": "ID - Valley County", "ASSOCIATION": "USA - Idaho", "POINTS": "6", "BONUSPOINTS": "3"}}, {"type": "Feature", "geometry": {"type": "Point", "coordinates": [-115.798, 44.7584]}, "properties": {"NAME": "W7I/VC-078", "TITLE": "Square Top", "REGION": "ID - Valley County", "ASSOCIATION": "USA - Idaho", "POINTS": "6", "BONUSPOINTS": "3"}}, {"type": "Feature", "geometry": {"type": "Point", "coordinates": [-115.0721, 45.033]}, "properties": {"NAME": "W7I/VC-079", "TITLE": "Lookout Mountain", "REGION": "ID - Valley County", "ASSOCIATION": "USA - Idaho", "POINTS": "6", "BONUSPOINTS": "3"}}, {"type": "Feature", "geometry": {"type": "Point", "coordinates": [-115.4136, 44.7847]}, "properties": {"NAME": "W7I/VC-080", "TITLE": "8671", "REGION": "ID - Valley County", "ASSOCIATION": "USA - Idaho", "POINTS": "6", "BONUSPOINTS": "3"}}, {"type": "Feature", "geometry": {"type": "Point", "coordinates": [-115.9254, 45.0909]}, "properties": {"NAME": "W7I/VC-081", "TITLE": "8662", "REGION": "ID - Valley County", "ASSOCIATION": "USA - Idaho", "POINTS": "6", "BONUSPOINTS": "3"}}, {"type": "Feature", "geometry": {"type": "Point", "coordinates": [-115.6398, 44.7327]}, "properties": {"NAME": "W7I/VC-082", "TITLE": "Thunderbolt Mountain", "REGION": "ID - Valley County", "ASSOCIATION": "USA - Idaho", "POINTS": "6", "BONUSPOINTS": "3"}}, {"type": "Feature", "geometry": {"type": "Point", "coordinates": [-115.9653, 45.0277]}, "properties": {"NAME": "W7I/VC-083", "TITLE": "Beaverdam Peak", "REGION": "ID - Valley County", "ASSOCIATION": "USA - Idaho", "POINTS": "6", "BONUSPOINTS": "3"}}, {"type": "Feature", "geometry": {"type": "Point", "coordinates": [-115.8647, 45.0766]}, "properties": {"NAME": "W7I/VC-084", "TITLE": "8620", "REGION": "ID - Valley County", "ASSOCIATION": "USA - Idaho", "POINTS": "6", "BONUSPOINTS": "3"}}, {"type": "Feature", "geometry": {"type": "Point", "coordinates": [-115.9221, 45.1644]}, "properties": {"NAME": "W7I/VC-085", "TITLE": "Diamond Ridge", "REGION": "ID - Valley County", "ASSOCIATION": "USA - Idaho", "POINTS": "6", "BONUSPOINTS": "3"}}, {"type": "Feature", "geometry": {"type": "Point", "coordinates": [-115.9639, 45.0905]}, "properties": {"NAME": "W7I/VC-086", "TITLE": "8610", "REGION": "ID - Valley County", "ASSOCIATION": "USA - Idaho", "POINTS": "6", "BONUSPOINTS": "3"}}, {"type": "Feature", "geometry": {"type": "Point", "coordinates": [-115.1443, 45.12]}, "properties": {"NAME": "W7I/VC-087", "TITLE": "Big Creek Ridge", "REGION": "ID - Valley County", "ASSOCIATION": "USA - Idaho", "POINTS": "6", "BONUSPOINTS": "3"}}, {"type": "Feature", "geometry": {"type": "Point", "coordinates": [-115.2956, 45.176]}, "properties": {"NAME": "W7I/VC-088", "TITLE": "8580", "REGION": "ID - Valley County", "ASSOCIATION": "USA - Idaho", "POINTS": "6", "BONUSPOINTS": "3"}}, {"type": "Feature", "geometry": {"type": "Point", "coordinates": [-115.5318, 45.0985]}, "properties": {"NAME": "W7I/VC-089", "TITLE": "8579", "REGION": "ID - Valley County", "ASSOCIATION": "USA - Idaho", "POINTS": "6", "BONUSPOINTS": "3"}}, {"type": "Feature", "geometry": {"type": "Point", "coordinates": [-115.1334, 44.9501]}, "properties": {"NAME": "W7I/VC-090", "TITLE": "Thunder Mountain", "REGION": "ID - Valley County", "ASSOCIATION": "USA - Idaho", "POINTS": "6", "BONUSPOINTS": "3"}}, {"type": "Feature", "geometry": {"type": "Point", "coordinates": [-115.922, 45.0719]}, "properties": {"NAME": "W7I/VC-091", "TITLE": "8573", "REGION": "ID - Valley County", "ASSOCIATION": "USA - Idaho", "POINTS": "6", "BONUSPOINTS": "3"}}, {"type": "Feature", "geometry": {"type": "Point", "coordinates": [-115.0666, 44.9537]}, "properties": {"NAME": "W7I/VC-092", "TITLE": "Black Pole", "REGION": "ID - Valley County", "ASSOCIATION": "USA - Idaho", "POINTS": "6", "BONUSPOINTS": "3"}}, {"type": "Feature", "geometry": {"type": "Point", "coordinates": [-115.4169, 44.8116]}, "properties": {"NAME": "W7I/VC-093", "TITLE": "8540", "REGION": "ID - Valley County", "ASSOCIATION": "USA - Idaho", "POINTS": "6", "BONUSPOINTS": "3"}}, {"type": "Feature", "geometry": {"type": "Point", "coordinates": [-115.4979, 45.0797]}, "properties": {"NAME": "W7I/VC-094", "TITLE": "8540", "REGION": "ID - Valley County", "ASSOCIATION": "USA - Idaho", "POINTS": "6", "BONUSPOINTS": "3"}}, {"type": "Feature", "geometry": {"type": "Point", "coordinates": [-115.414, 44.6048]}, "properties": {"NAME": "W7I/VC-095", "TITLE": "8539", "REGION": "ID - Valley County", "ASSOCIATION": "USA - Idaho", "POINTS": "6", "BONUSPOINTS": "3"}}, {"type": "Feature", "geometry": {"type": "Point", "coordinates": [-115.6198, 44.7507]}, "properties": {"NAME": "W7I/VC-096", "TITLE": "8522", "REGION": "ID - Valley County", "ASSOCIATION": "USA - Idaho", "POINTS": "6", "BONUSPOINTS": "3"}}, {"type": "Feature", "geometry": {"type": "Point", "coordinates": [-115.9326, 44.9768]}, "properties": {"NAME": "W7I/VC-097", "TITLE": "Snowslide Peak", "REGION": "ID - Valley County", "ASSOCIATION": "USA - Idaho", "POINTS": "6", "BONUSPOINTS": "3"}}, {"type": "Feature", "geometry": {"type": "Point", "coordinates": [-115.4286, 44.8266]}, "properties": {"NAME": "W7I/VC-098", "TITLE": "8520", "REGION": "ID - Valley County", "ASSOCIATION": "USA - Idaho", "POINTS": "6", "BONUSPOINTS": "3"}}, {"type": "Feature", "geometry": {"type": "Point", "coordinates": [-116.0815, 45.1528]}, "properties": {"NAME": "W7I/VC-099", "TITLE": "Black Tip Mountain", "REGION": "ID - Valley County", "ASSOCIATION": "USA - Idaho", "POINTS": "6", "BONUSPOINTS": "3"}}, {"type": "Feature", "geometry": {"type": "Point", "coordinates": [-115.8181, 44.7596]}, "properties": {"NAME": "W7I/VC-100", "TITLE": "8494", "REGION": "ID - Valley County", "ASSOCIATION": "USA - Idaho", "POINTS": "6", "BONUSPOINTS": "3"}}, {"type": "Feature", "geometry": {"type": "Point", "coordinates": [-115.7913, 44.7989]}, "properties": {"NAME": "W7I/VC-101", "TITLE": "8486", "REGION": "ID - Valley County", "ASSOCIATION": "USA - Idaho", "POINTS": "6", "BONUSPOINTS": "3"}}, {"type": "Feature", "geometry": {"type": "Point", "coordinates": [-114.8086, 44.9898]}, "properties": {"NAME": "W7I/VC-102", "TITLE": "8485", "REGION": "ID - Valley County", "ASSOCIATION": "USA - Idaho", "POINTS": "6", "BONUSPOINTS": "3"}}, {"type": "Feature", "geometry": {"type": "Point", "coordinates": [-115.5242, 44.5031]}, "properties": {"NAME": "W7I/VC-103", "TITLE": "8483", "REGION": "ID - Valley County", "ASSOCIATION": "USA - Idaho", "POINTS": "6", "BONUSPOINTS": "3"}}, {"type": "Feature", "geometry": {"type": "Point", "coordinates": [-115.5959, 44.619]}, "properties": {"NAME": "W7I/VC-104", "TITLE": "8450", "REGION": "ID - Valley County", "ASSOCIATION": "USA - Idaho", "POINTS": "6", "BONUSPOINTS": "3"}}, {"type": "Feature", "geometry": {"type": "Point", "coordinates": [-115.9719, 45.1115]}, "properties": {"NAME": "W7I/VC-105", "TITLE": "Pearl Benchmark", "REGION": "ID - Valley County", "ASSOCIATION": "USA - Idaho", "POINTS": "6", "BONUSPOINTS": "3"}}, {"type": "Feature", "geometry": {"type": "Point", "coordinates": [-115.5813, 44.599]}, "properties": {"NAME": "W7I/VC-106", "TITLE": "8411", "REGION": "ID - Valley County", "ASSOCIATION": "USA - Idaho", "POINTS": "6", "BONUSPOINTS": "3"}}, {"type": "Feature", "geometry": {"type": "Point", "coordinates": [-115.8061, 44.8584]}, "properties": {"NAME": "W7I/VC-107", "TITLE": "8401", "REGION": "ID - Valley County", "ASSOCIATION": "USA - Idaho", "POINTS": "6", "BONUSPOINTS": "3"}}, {"type": "Feature", "geometry": {"type": "Point", "coordinates": [-115.0193, 45.0812]}, "properties": {"NAME": "W7I/VC-108", "TITLE": "8385", "REGION": "ID - Valley County", "ASSOCIATION": "USA - Idaho", "POINTS": "6", "BONUSPOINTS": "3"}}, {"type": "Feature", "geometry": {"type": "Point", "coordinates": [-115.8825, 45.0691]}, "properties": {"NAME": "W7I/VC-109", "TITLE": "8380", "REGION": "ID - Valley County", "ASSOCIATION": "USA - Idaho", "POINTS": "6", "BONUSPOINTS": "3"}}, {"type": "Feature", "geometry": {"type": "Point", "coordinates": [-115.9382, 44.8812]}, "properties": {"NAME": "W7I/VC-110", "TITLE": "Boulder Mountain", "REGION": "ID - Valley County", "ASSOCIATION": "USA - Idaho", "POINTS": "6", "BONUSPOINTS": "3"}}, {"type": "Feature", "geometry": {"type": "Point", "coordinates": [-115.5309, 44.2874]}, "properties": {"NAME": "W7I/VC-111", "TITLE": "Whitehawk Mountain", "REGION": "ID - Valley County", "ASSOCIATION": "USA - Idaho", "POINTS": "6", "BONUSPOINTS": "3"}}, {"type": "Feature", "geometry": {"type": "Point", "coordinates": [-115.8925, 45.0321]}, "properties": {"NAME": "W7I/VC-112", "TITLE": "8356", "REGION": "ID - Valley County", "ASSOCIATION": "USA - Idaho", "POINTS": "6", "BONUSPOINTS": "3"}}, {"type": "Feature", "geometry": {"type": "Point", "coordinates": [-115.6836, 44.4203]}, "properties": {"NAME": "W7I/VC-113", "TITLE": "8348", "REGION": "ID - Valley County", "ASSOCIATION": "USA - Idaho", "POINTS": "6", "BONUSPOINTS": "3"}}, {"type": "Feature", "geometry": {"type": "Point", "coordinates": [-116.1369, 44.4426]}, "properties": {"NAME": "W7I/VC-114", "TITLE": "Snowbank Mountain", "REGION": "ID - Valley County", "ASSOCIATION": "USA - Idaho", "POINTS": "6", "BONUSPOINTS": "3"}}, {"type": "Feature", "geometry": {"type": "Point", "coordinates": [-115.6449, 44.4332]}, "properties": {"NAME": "W7I/VC-115", "TITLE": "8338", "REGION": "ID - Valley County", "ASSOCIATION": "USA - Idaho", "POINTS": "6", "BONUSPOINTS": "3"}}, {"type": "Feature", "geometry": {"type": "Point", "coordinates": [-115.9576, 44.8429]}, "properties": {"NAME": "W7I/VC-116", "TITLE": "Jughandle Mountain", "REGION": "ID - Valley County", "ASSOCIATION": "USA - Idaho", "POINTS": "6", "BONUSPOINTS": "3"}}, {"type": "Feature", "geometry": {"type": "Point", "coordinates": [-115.4883, 44.5203]}, "properties": {"NAME": "W7I/VC-117", "TITLE": "8300", "REGION": "ID - Valley County", "ASSOCIATION": "USA - Idaho", "POINTS": "6", "BONUSPOINTS": "3"}}, {"type": "Feature", "geometry": {"type": "Point", "coordinates": [-114.909, 44.8201]}, "properties": {"NAME": "W7I/VC-118", "TITLE": "8300", "REGION": "ID - Valley County", "ASSOCIATION": "USA - Idaho", "POINTS": "6", "BONUSPOINTS": "3"}}, {"type": "Feature", "geometry": {"type": "Point", "coordinates": [-115.0359, 44.7847]}, "properties": {"NAME": "W7I/VC-119", "TITLE": "Pungo Mountain", "REGION": "ID - Valley County", "ASSOCIATION": "USA - Idaho", "POINTS": "6", "BONUSPOINTS": "3"}}, {"type": "Feature", "geometry": {"type": "Point", "coordinates": [-115.3816, 44.458]}, "properties": {"NAME": "W7I/VC-120", "TITLE": "Bear Valley Mountain", "REGION": "ID - Valley County", "ASSOCIATION": "USA - Idaho", "POINTS": "6", "BONUSPOINTS": "3"}}, {"type": "Feature", "geometry": {"type": "Point", "coordinates": [-115.912, 45.0594]}, "properties": {"NAME": "W7I/VC-121", "TITLE": "8289", "REGION": "ID - Valley County", "ASSOCIATION": "USA - Idaho", "POINTS": "6", "BONUSPOINTS": "3"}}, {"type": "Feature", "geometry": {"type": "Point", "coordinates": [-115.2782, 44.7242]}, "properties": {"NAME": "W7I/VC-122", "TITLE": "8283", "REGION": "ID - Valley County", "ASSOCIATION": "USA - Idaho", "POINTS": "6", "BONUSPOINTS": "3"}}, {"type": "Feature", "geometry": {"type": "Point", "coordinates": [-115.9834, 44.9969]}, "properties": {"NAME": "W7I/VC-123", "TITLE": "8270", "REGION": "ID - Valley County", "ASSOCIATION": "USA - Idaho", "POINTS": "6", "BONUSPOINTS": "3"}}, {"type": "Feature", "geometry": {"type": "Point", "coordinates": [-114.9472, 44.7746]}, "properties": {"NAME": "W7I/VC-124", "TITLE": "8262", "REGION": "ID - Valley County", "ASSOCIATION": "USA - Idaho", "POINTS": "6", "BONUSPOINTS": "3"}}, {"type": "Feature", "geometry": {"type": "Point", "coordinates": [-115.6213, 44.7031]}, "properties": {"NAME": "W7I/VC-125", "TITLE": "8260", "REGION": "ID - Valley County", "ASSOCIATION": "USA - Idaho", "POINTS": "6", "BONUSPOINTS": "3"}}, {"type": "Feature", "geometry": {"type": "Point", "coordinates": [-116.1366, 45.1377]}, "properties": {"NAME": "W7I/VC-126", "TITLE": "8256", "REGION": "ID - Valley County", "ASSOCIATION": "USA - Idaho", "POINTS": "6", "BONUSPOINTS": "3"}}, {"type": "Feature", "geometry": {"type": "Point", "coordinates": [-114.9523, 45.0418]}, "properties": {"NAME": "W7I/VC-127", "TITLE": "Sheep Horn Mountain", "REGION": "ID - Valley County", "ASSOCIATION": "USA - Idaho", "POINTS": "6", "BONUSPOINTS": "3"}}, {"type": "Feature", "geometry": {"type": "Point", "coordinates": [-115.8684, 44.8557]}, "properties": {"NAME": "W7I/VC-128", "TITLE": "8253", "REGION": "ID - Valley County", "ASSOCIATION": "USA - Idaho", "POINTS": "6", "BONUSPOINTS": "3"}}, {"type": "Feature", "geometry": {"type": "Point", "coordinates": [-115.5352, 44.543]}, "properties": {"NAME": "W7I/VC-129", "TITLE": "Tyndall Ridge", "REGION": "ID - Valley County", "ASSOCIATION": "USA - Idaho", "POINTS": "6", "BONUSPOINTS": "3"}}, {"type": "Feature", "geometry": {"type": "Point", "coordinates": [-115.0311, 44.8146]}, "properties": {"NAME": "W7I/VC-130", "TITLE": "8241", "REGION": "ID - Valley County", "ASSOCIATION": "USA - Idaho", "POINTS": "6", "BONUSPOINTS": "3"}}, {"type": "Feature", "geometry": {"type": "Point", "coordinates": [-115.7341, 44.2823]}, "properties": {"NAME": "W7I/VC-131", "TITLE": "8235", "REGION": "ID - Valley County", "ASSOCIATION": "USA - Idaho", "POINTS": "6", "BONUSPOINTS": "3"}}, {"type": "Feature", "geometry": {"type": "Point", "coordinates": [-115.1907, 45.1523]}, "properties": {"NAME": "W7I/VC-132", "TITLE": "Diamond Point", "REGION": "ID - Valley County", "ASSOCIATION": "USA - Idaho", "POINTS": "6", "BONUSPOINTS": "3"}}, {"type": "Feature", "geometry": {"type": "Point", "coordinates": [-115.0919, 44.8906]}, "properties": {"NAME": "W7I/VC-133", "TITLE": "8222", "REGION": "ID - Valley County", "ASSOCIATION": "USA - Idaho", "POINTS": "6", "BONUSPOINTS": "3"}}, {"type": "Feature", "geometry": {"type": "Point", "coordinates": [-115.6879, 44.3904]}, "properties": {"NAME": "W7I/VC-134", "TITLE": "8220", "REGION": "ID - Valley County", "ASSOCIATION": "USA - Idaho", "POINTS": "6", "BONUSPOINTS": "3"}}, {"type": "Feature", "geometry": {"type": "Point", "coordinates": [-114.8807, 45.1297]}, "properties": {"NAME": "W7I/VC-135", "TITLE": "Horse Mountain", "REGION": "ID - Valley County", "ASSOCIATION": "USA - Idaho", "POINTS": "6", "BONUSPOINTS": "3"}}, {"type": "Feature", "geometry": {"type": "Point", "coordinates": [-115.5171, 44.2471]}, "properties": {"NAME": "W7I/VC-136", "TITLE": "8180", "REGION": "ID - Valley County", "ASSOCIATION": "USA - Idaho", "POINTS": "6", "BONUSPOINTS": "3"}}, {"type": "Feature", "geometry": {"type": "Point", "coordinates": [-115.7995, 44.67]}, "properties": {"NAME": "W7I/VC-137", "TITLE": "Gold Fork Rock", "REGION": "ID - Valley County", "ASSOCIATION": "USA - Idaho", "POINTS": "6", "BONUSPOINTS": "3"}}, {"type": "Feature", "geometry": {"type": "Point", "coordinates": [-115.7274, 44.248]}, "properties": {"NAME": "W7I/VC-138", "TITLE": "8154", "REGION": "ID - Valley County", "ASSOCIATION": "USA - Idaho", "POINTS": "6", "BONUSPOINTS": "3"}}, {"type": "Feature", "geometry": {"type": "Point", "coordinates": [-115.7639, 44.2626]}, "properties": {"NAME": "W7I/VC-139", "TITLE": "Lightning Ridge", "REGION": "ID - Valley County", "ASSOCIATION": "USA - Idaho", "POINTS": "6", "BONUSPOINTS": "3"}}, {"type": "Feature", "geometry": {"type": "Point", "coordinates": [-114.8671, 44.8306]}, "properties": {"NAME": "W7I/VC-140", "TITLE": "Ramey Hill", "REGION": "ID - Valley County", "ASSOCIATION": "USA - Idaho", "POINTS": "6", "BONUSPOINTS": "3"}}, {"type": "Feature", "geometry": {"type": "Point", "coordinates": [-115.6588, 45.1816]}, "properties": {"NAME": "W7I/VC-141", "TITLE": "8100", "REGION": "ID - Valley County", "ASSOCIATION": "USA - Idaho", "POINTS": "6", "BONUSPOINTS": "3"}}, {"type": "Feature", "geometry": {"type": "Point", "coordinates": [-114.7703, 45.1414]}, "properties": {"NAME": "W7I/VC-142", "TITLE": "Big Hill", "REGION": "ID - Valley County", "ASSOCIATION": "USA - Idaho", "POINTS": "6", "BONUSPOINTS": "3"}}, {"type": "Feature", "geometry": {"type": "Point", "coordinates": [-116.1282, 44.3839]}, "properties": {"NAME": "W7I/VC-143", "TITLE": "Tripod Peak", "REGION": "ID - Valley County", "ASSOCIATION": "USA - Idaho", "POINTS": "6", "BONUSPOINTS": "3"}}, {"type": "Feature", "geometry": {"type": "Point", "coordinates": [-115.8138, 44.575]}, "properties": {"NAME": "W7I/VC-144", "TITLE": "Alpine Benchmark", "REGION": "ID - Valley County", "ASSOCIATION": "USA - Idaho", "POINTS": "6", "BONUSPOINTS": "3"}}, {"type": "Feature", "geometry": {"type": "Point", "coordinates": [-115.0042, 45.0156]}, "properties": {"NAME": "W7I/VC-145", "TITLE": "8039", "REGION": "ID - Valley County", "ASSOCIATION": "USA - Idaho", "POINTS": "6", "BONUSPOINTS": "3"}}, {"type": "Feature", "geometry": {"type": "Point", "coordinates": [-115.7238, 44.5228]}, "properties": {"NAME": "W7I/VC-146", "TITLE": "8022", "REGION": "ID - Valley County", "ASSOCIATION": "USA - Idaho", "POINTS": "6", "BONUSPOINTS": "3"}}, {"type": "Feature", "geometry": {"type": "Point", "coordinates": [-115.5593, 44.5136]}, "properties": {"NAME": "W7I/VC-147", "TITLE": "8009", "REGION": "ID - Valley County", "ASSOCIATION": "USA - Idaho", "POINTS": "6", "BONUSPOINTS": "3"}}, {"type": "Feature", "geometry": {"type": "Point", "coordinates": [-115.6802, 45.1111]}, "properties": {"NAME": "W7I/VC-148", "TITLE": "8002", "REGION": "ID - Valley County", "ASSOCIATION": "USA - Idaho", "POINTS": "6", "BONUSPOINTS": "3"}}, {"type": "Feature", "geometry": {"type": "Point", "coordinates": [-115.8169, 44.6503]}, "properties": {"NAME": "W7I/VC-149", "TITLE": "7978", "REGION": "ID - Valley County", "ASSOCIATION": "USA - Idaho", "POINTS": "6", "BONUSPOINTS": "3"}}, {"type": "Feature", "geometry": {"type": "Point", "coordinates": [-115.7921, 44.2516]}, "properties": {"NAME": "W7I/VC-150", "TITLE": "7960", "REGION": "ID - Valley County", "ASSOCIATION": "USA - Idaho", "POINTS": "6", "BONUSPOINTS": "3"}}, {"type": "Feature", "geometry": {"type": "Point", "coordinates": [-115.4828, 44.559]}, "properties": {"NAME": "W7I/VC-151", "TITLE": "7936", "REGION": "ID - Valley County", "ASSOCIATION": "USA - Idaho", "POINTS": "6", "BONUSPOINTS": "3"}}, {"type": "Feature", "geometry": {"type": "Point", "coordinates": [-114.79, 45.0125]}, "properties": {"NAME": "W7I/VC-152", "TITLE": "7925", "REGION": "ID - Valley County", "ASSOCIATION": "USA - Idaho", "POINTS": "6", "BONUSPOINTS": "3"}}, {"type": "Feature", "geometry": {"type": "Point", "coordinates": [-115.0099, 45.0384]}, "properties": {"NAME": "W7I/VC-153", "TITLE": "7905", "REGION": "ID - Valley County", "ASSOCIATION": "USA - Idaho", "POINTS": "6", "BONUSPOINTS": "3"}}, {"type": "Feature", "geometry": {"type": "Point", "coordinates": [-115.7394, 44.7855]}, "properties": {"NAME": "W7I/VC-154", "TITLE": "7860", "REGION": "ID - Valley County", "ASSOCIATION": "USA - Idaho", "POINTS": "6", "BONUSPOINTS": "3"}}, {"type": "Feature", "geometry": {"type": "Point", "coordinates": [-115.4431, 44.5337]}, "properties": {"NAME": "W7I/VC-155", "TITLE": "7842", "REGION": "ID - Valley County", "ASSOCIATION": "USA - Idaho", "POINTS": "6", "BONUSPOINTS": "3"}}, {"type": "Feature", "geometry": {"type": "Point", "coordinates": [-115.5664, 44.6882]}, "properties": {"NAME": "W7I/VC-156", "TITLE": "Buck Mountain", "REGION": "ID - Valley County", "ASSOCIATION": "USA - Idaho", "POINTS": "6", "BONUSPOINTS": "3"}}, {"type": "Feature", "geometry": {"type": "Point", "coordinates": [-115.0749, 45.1793]}, "properties": {"NAME": "W7I/VC-157", "TITLE": "Acorn Butte", "REGION": "ID - Valley County", "ASSOCIATION": "USA - Idaho", "POINTS": "6", "BONUSPOINTS": "3"}}, {"type": "Feature", "geometry": {"type": "Point", "coordinates": [-115.8702, 44.442]}, "properties": {"NAME": "W7I/VC-158", "TITLE": "East Mountain", "REGION": "ID - Valley County", "ASSOCIATION": "USA - Idaho", "POINTS": "6", "BONUSPOINTS": "3"}}, {"type": "Feature", "geometry": {"type": "Point", "coordinates": [-114.9914, 45.0736]}, "properties": {"NAME": "W7I/VC-159", "TITLE": "7716", "REGION": "ID - Valley County", "ASSOCIATION": "USA - Idaho", "POINTS": "6", "BONUSPOINTS": "3"}}, {"type": "Feature", "geometry": {"type": "Point", "coordinates": [-115.4114, 44.3838]}, "properties": {"NAME": "W7I/VC-160", "TITLE": "7690", "REGION": "ID - Valley County", "ASSOCIATION": "USA - Idaho", "POINTS": "6", "BONUSPOINTS": "3"}}, {"type": "Feature", "geometry": {"type": "Point", "coordinates": [-115.1737, 44.987]}, "properties": {"NAME": "W7I/VC-161", "TITLE": "7665", "REGION": "ID - Valley County", "ASSOCIATION": "USA - Idaho", "POINTS": "6", "BONUSPOINTS": "3"}}, {"type": "Feature", "geometry": {"type": "Point", "coordinates": [-115.9419, 44.6074]}, "properties": {"NAME": "W7I/VC-162", "TITLE": "Eagle Nest", "REGION": "ID - Valley County", "ASSOCIATION": "USA - Idaho", "POINTS": "6", "BONUSPOINTS": "3"}}, {"type": "Feature", "geometry": {"type": "Point", "coordinates": [-115.5149, 44.6972]}, "properties": {"NAME": "W7I/VC-163", "TITLE": "7620", "REGION": "ID - Valley County", "ASSOCIATION": "USA - Idaho", "POINTS": "6", "BONUSPOINTS": "3"}}, {"type": "Feature", "geometry": {"type": "Point", "coordinates": [-115.6079, 44.9722]}, "properties": {"NAME": "W7I/VC-164", "TITLE": "7595", "REGION": "ID - Valley County", "ASSOCIATION": "USA - Idaho", "POINTS": "6", "BONUSPOINTS": "3"}}, {"type": "Feature", "geometry": {"type": "Point", "coordinates": [-115.7295, 44.5854]}, "properties": {"NAME": "W7I/VC-165", "TITLE": "Cougar Rock Benchmark", "REGION": "ID - Valley County", "ASSOCIATION": "USA - Idaho", "POINTS": "6", "BONUSPOINTS": "3"}}, {"type": "Feature", "geometry": {"type": "Point", "coordinates": [-115.4469, 44.4054]}, "properties": {"NAME": "W7I/VC-166", "TITLE": "7460", "REGION": "ID - Valley County", "ASSOCIATION": "USA - Idaho", "POINTS": "4", "BONUSPOINTS": "3"}}, {"type": "Feature", "geometry": {"type": "Point", "coordinates": [-115.8093, 44.5338]}, "properties": {"NAME": "W7I/VC-167", "TITLE": "7425", "REGION": "ID - Valley County", "ASSOCIATION": "USA - Idaho", "POINTS": "4", "BONUSPOINTS": "3"}}, {"type": "Feature", "geometry": {"type": "Point", "coordinates": [-115.4975, 44.7969]}, "properties": {"NAME": "W7I/VC-168", "TITLE": "7298", "REGION": "ID - Valley County", "ASSOCIATION": "USA - Idaho", "POINTS": "4", "BONUSPOINTS": "3"}}, {"type": "Feature", "geometry": {"type": "Point", "coordinates": [-114.9389, 45.1823]}, "properties": {"NAME": "W7I/VC-169", "TITLE": "7288", "REGION": "ID - Valley County", "ASSOCIATION": "USA - Idaho", "POINTS": "4", "BONUSPOINTS": "3"}}, {"type": "Feature", "geometry": {"type": "Point", "coordinates": [-115.6352, 44.66]}, "properties": {"NAME": "W7I/VC-170", "TITLE": "7260", "REGION": "ID - Valley County", "ASSOCIATION": "USA - Idaho", "POINTS": "4", "BONUSPOINTS": "3"}}, {"type": "Feature", "geometry": {"type": "Point", "coordinates": [-115.7989, 44.3019]}, "properties": {"NAME": "W7I/VC-171", "TITLE": "Rattlesnake Point", "REGION": "ID - Valley County", "ASSOCIATION": "USA - Idaho", "POINTS": "4", "BONUSPOINTS": "3"}}, {"type": "Feature", "geometry": {"type": "Point", "coordinates": [-115.0453, 45.1961]}, "properties": {"NAME": "W7I/VC-172", "TITLE": "7160", "REGION": "ID - Valley County", "ASSOCIATION": "USA - Idaho", "POINTS": "4", "BONUSPOINTS": "3"}}, {"type": "Feature", "geometry": {"type": "Point", "coordinates": [-115.0169, 45.1917]}, "properties": {"NAME": "W7I/VC-173", "TITLE": "7052", "REGION": "ID - Valley County", "ASSOCIATION": "USA - Idaho", "POINTS": "4", "BONUSPOINTS": "3"}}, {"type": "Feature", "geometry": {"type": "Point", "coordinates": [-115.7605, 44.4137]}, "properties": {"NAME": "W7I/VC-174", "TITLE": "6985", "REGION": "ID - Valley County", "ASSOCIATION": "USA - Idaho", "POINTS": "4", "BONUSPOINTS": "3"}}, {"type": "Feature", "geometry": {"type": "Point", "coordinates": [-115.8223, 44.4877]}, "properties": {"NAME": "W7I/VC-175", "TITLE": "6875", "REGION": "ID - Valley County", "ASSOCIATION": "USA - Idaho", "POINTS": "4", "BONUSPOINTS": "3"}}, {"type": "Feature", "geometry": {"type": "Point", "coordinates": [-115.0412, 45.1609]}, "properties": {"NAME": "W7I/VC-176", "TITLE": "6870", "REGION": "ID - Valley County", "ASSOCIATION": "USA - Idaho", "POINTS": "4", "BONUSPOINTS": "3"}}, {"type": "Feature", "geometry": {"type": "Point", "coordinates": [-115.781, 44.3941]}, "properties": {"NAME": "W7I/VC-177", "TITLE": "6812", "REGION": "ID - Valley County", "ASSOCIATION": "USA - Idaho", "POINTS": "4", "BONUSPOINTS": "3"}}, {"type": "Feature", "geometry": {"type": "Point", "coordinates": [-115.775, 45.1079]}, "properties": {"NAME": "W7I/VC-178", "TITLE": "Split Creek Point", "REGION": "ID - Valley County", "ASSOCIATION": "USA - Idaho", "POINTS": "4", "BONUSPOINTS": "3"}}, {"type": "Feature", "geometry": {"type": "Point", "coordinates": [-115.6442, 44.366]}, "properties": {"NAME": "W7I/VC-179", "TITLE": "6335", "REGION": "ID - Valley County", "ASSOCIATION": "USA - Idaho", "POINTS": "4", "BONUSPOINTS": "3"}}, {"type": "Feature", "geometry": {"type": "Point", "coordinates": [-115.6275, 44.3855]}, "properties": {"NAME": "W7I/VC-180", "TITLE": "6279", "REGION": "ID - Valley County", "ASSOCIATION": "USA - Idaho", "POINTS": "4", "BONUSPOINTS": "3"}}, {"type": "Feature", "geometry": {"type": "Point", "coordinates": [-116.0065, 44.6392]}, "properties": {"NAME": "W7I/VC-181", "TITLE": "6230", "REGION": "ID - Valley County", "ASSOCIATION": "USA - Idaho", "POINTS": "4", "BONUSPOINTS": "3"}}, {"type": "Feature", "geometry": {"type": "Point", "coordinates": [-115.966, 44.7368]}, "properties": {"NAME": "W7I/VC-182", "TITLE": "6062", "REGION": "ID - Valley County", "ASSOCIATION": "USA - Idaho", "POINTS": "4", "BONUSPOINTS": "3"}}, {"type": "Feature", "geometry": {"type": "Point", "coordinates": [-115.7404, 45.0151]}, "properties": {"NAME": "W7I/VC-183", "TITLE": "5998", "REGION": "ID - Valley County", "ASSOCIATION": "USA - Idaho", "POINTS": "2", "BONUSPOINTS": "3"}}, {"type": "Feature", "geometry": {"type": "Point", "coordinates": [-115.6893, 44.6501]}, "properties": {"NAME": "W7I/VC-184", "TITLE": "Kline Mountain", "REGION": "ID - Valley County", "ASSOCIATION": "USA - Idaho", "POINTS": "2", "BONUSPOINTS": "3"}}, {"type": "Feature", "geometry": {"type": "Point", "coordinates": [-115.9267, 44.2994]}, "properties": {"NAME": "W7I/VC-185", "TITLE": "5900", "REGION": "ID - Valley County", "ASSOCIATION": "USA - Idaho", "POINTS": "2", "BONUSPOINTS": "3"}}, {"type": "Feature", "geometry": {"type": "Point", "coordinates": [-116.0457, 44.3522]}, "properties": {"NAME": "W7I/VC-186", "TITLE": "5612", "REGION": "ID - Valley County", "ASSOCIATION": "USA - Idaho", "POINTS": "2", "BONUSPOINTS": "3"}}, {"type": "Feature", "geometry": {"type": "Point", "coordinates": [-115.7318, 44.9104]}, "properties": {"NAME": "W7I/VC-187", "TITLE": "Teapot Mountain", "REGION": "ID - Valley County", "ASSOCIATION": "USA - Idaho", "POINTS": "2", "BONUSPOINTS": "3"}}, {"type": "Feature", "geometry": {"type": "Point", "coordinates": [-115.3928, 45.1907]}, "properties": {"NAME": "W7I/VC-188", "TITLE": "8995", "REGION": "ID - Valley County", "ASSOCIATION": "USA - Idaho", "POINTS": "6", "BONUSPOINTS": "3"}}, {"type": "Feature", "geometry": {"type": "Point", "coordinates": [-115.3008, 44.9126]}, "properties": {"NAME": "W7I/VC-189", "TITLE": "8935", "REGION": "ID - Valley County", "ASSOCIATION": "USA - Idaho", "POINTS": "6", "BONUSPOINTS": "3"}}, {"type": "Feature", "geometry": {"type": "Point", "coordinates": [-115.6547, 44.7966]}, "properties": {"NAME": "W7I/VC-190", "TITLE": "8530", "REGION": "ID - Valley County", "ASSOCIATION": "USA - Idaho", "POINTS": "6", "BONUSPOINTS": "3"}}, {"type": "Feature", "geometry": {"type": "Point", "coordinates": [-115.6112, 44.5896]}, "properties": {"NAME": "W7I/VC-191", "TITLE": "8429", "REGION": "ID - Valley County", "ASSOCIATION": "USA - Idaho", "POINTS": "6", "BONUSPOINTS": "3"}}, {"type": "Feature", "geometry": {"type": "Point", "coordinates": [-115.5277, 44.3048]}, "properties": {"NAME": "W7I/VC-192", "TITLE": "8420", "REGION": "ID - Valley County", "ASSOCIATION": "USA - Idaho", "POINTS": "6", "BONUSPOINTS": "3"}}, {"type": "Feature", "geometry": {"type": "Point", "coordinates": [-116.1258, 44.44]}, "properties": {"NAME": "W7I/VC-193", "TITLE": "Snowbank Mountain", "REGION": "ID - Valley County", "ASSOCIATION": "USA - Idaho", "POINTS": "6", "BONUSPOINTS": "3"}}, {"type": "Feature", "geometry": {"type": "Point", "coordinates": [-115.6171, 44.9228]}, "properties": {"NAME": "W7I/VC-194", "TITLE": "Indian Ridge", "REGION": "ID - Valley County", "ASSOCIATION": "USA - Idaho", "POINTS": "6", "BONUSPOINTS": "3"}}]}