{"type": "FeatureCollection", "name": "W7I/LE SUMMITS", "features": [{"type": "Feature", "geometry": {"type": "Point", "coordinates": [-113.194, 44.2364]}, "properties": {"NAME": "W7I/LE-001", "TITLE": "Bell Mountain", "REGION": "ID - Lemhi County", "ASSOCIATION": "USA - Idaho", "POINTS": "10", "BONUSPOINTS": "3"}}, {"type": "Feature", "geometry": {"type": "Point", "coordinates": [-112.8212, 44.3538]}, "properties": {"NAME": "W7I/LE-002", "TITLE": "Scott Peak", "REGION": "ID - Lemhi County", "ASSOCIATION": "USA - Idaho", "POINTS": "10", "BONUSPOINTS": "3"}}, {"type": "Feature", "geometry": {"type": "Point", "coordinates": [-113.543, 44.4717]}, "properties": {"NAME": "W7I/LE-003", "TITLE": "Big Creek Peak", "REGION": "ID - Lemhi County", "ASSOCIATION": "USA - Idaho", "POINTS": "10", "BONUSPOINTS": "3"}}, {"type": "Feature", "geometry": {"type": "Point", "coordinates": [-112.9964, 44.4474]}, "properties": {"NAME": "W7I/LE-004", "TITLE": "Eighteenmile Peak", "REGION": "ID - Lemhi County", "ASSOCIATION": "USA - Idaho", "POINTS": "10", "BONUSPOINTS": "3"}}, {"type": "Feature", "geometry": {"type": "Point", "coordinates": [-113.5252, 44.4611]}, "properties": {"NAME": "W7I/LE-005", "TITLE": "Flatiron Mountain", "REGION": "ID - Lemhi County", "ASSOCIATION": "USA - Idaho", "POINTS": "10", "BONUSPOINTS": "3"}}, {"type": "Feature", "geometry": {"type": "Point", "coordinates": [-113.8666, 44.7806]}, "properties": {"NAME": "W7I/LE-006", "TITLE": "Lem Peak", "REGION": "ID - Lemhi County", "ASSOCIATION": "USA - Idaho", "POINTS": "8", "BONUSPOINTS": "3"}}, {"type": "Feature", "geometry": {"type": "Point", "coordinates": [-113.8324, 44.6867]}, "properties": {"NAME": "W7I/LE-007", "TITLE": "May Mountain", "REGION": "ID - Lemhi County", "ASSOCIATION": "USA - Idaho", "POINTS": "8", "BONUSPOINTS": "3"}}, {"type": "Feature", "geometry": {"type": "Point", "coordinates": [-113.5197, 44.5222]}, "properties": {"NAME": "W7I/LE-008", "TITLE": "Yellow Peak", "REGION": "ID - Lemhi County", "ASSOCIATION": "USA - Idaho", "POINTS": "8", "BONUSPOINTS": "3"}}, {"type": "Feature", "geometry": {"type": "Point", "coordinates": [-113.0148, 44.4394]}, "properties": {"NAME": "W7I/LE-009", "TITLE": "Jump Benchmark", "REGION": "ID - Lemhi County", "ASSOCIATION": "USA - Idaho", "POINTS": "8", "BONUSPOINTS": "3"}}, {"type": "Feature", "geometry": {"type": "Point", "coordinates": [-113.6173, 44.541]}, "properties": {"NAME": "W7I/LE-010", "TITLE": "Basin Peak", "REGION": "ID - Lemhi County", "ASSOCIATION": "USA - Idaho", "POINTS": "8", "BONUSPOINTS": "3"}}, {"type": "Feature", "geometry": {"type": "Point", "coordinates": [-113.2873, 44.3905]}, "properties": {"NAME": "W7I/LE-011", "TITLE": "Sheep Mountain", "REGION": "ID - Lemhi County", "ASSOCIATION": "USA - Idaho", "POINTS": "8", "BONUSPOINTS": "3"}}, {"type": "Feature", "geometry": {"type": "Point", "coordinates": [-113.5228, 44.5931]}, "properties": {"NAME": "W7I/LE-012", "TITLE": "Gunsight Peak", "REGION": "ID - Lemhi County", "ASSOCIATION": "USA - Idaho", "POINTS": "8", "BONUSPOINTS": "3"}}, {"type": "Feature", "geometry": {"type": "Point", "coordinates": [-113.3298, 44.4553]}, "properties": {"NAME": "W7I/LE-013", "TITLE": "Portland Mountain", "REGION": "ID - Lemhi County", "ASSOCIATION": "USA - Idaho", "POINTS": "8", "BONUSPOINTS": "3"}}, {"type": "Feature", "geometry": {"type": "Point", "coordinates": [-113.6581, 44.6834]}, "properties": {"NAME": "W7I/LE-014", "TITLE": "Mill Mountain", "REGION": "ID - Lemhi County", "ASSOCIATION": "USA - Idaho", "POINTS": "8", "BONUSPOINTS": "3"}}, {"type": "Feature", "geometry": {"type": "Point", "coordinates": [-113.0623, 44.5863]}, "properties": {"NAME": "W7I/LE-015", "TITLE": "10780", "REGION": "ID - Lemhi County", "ASSOCIATION": "USA - Idaho", "POINTS": "8", "BONUSPOINTS": "3"}}, {"type": "Feature", "geometry": {"type": "Point", "coordinates": [-113.8557, 44.7674]}, "properties": {"NAME": "W7I/LE-016", "TITLE": "Buck Lakes Peak", "REGION": "ID - Lemhi County", "ASSOCIATION": "USA - Idaho", "POINTS": "8", "BONUSPOINTS": "3"}}, {"type": "Feature", "geometry": {"type": "Point", "coordinates": [-113.3251, 44.4241]}, "properties": {"NAME": "W7I/LE-017", "TITLE": "Gilmore Peak", "REGION": "ID - Lemhi County", "ASSOCIATION": "USA - Idaho", "POINTS": "8", "BONUSPOINTS": "3"}}, {"type": "Feature", "geometry": {"type": "Point", "coordinates": [-113.8418, 44.7563]}, "properties": {"NAME": "W7I/LE-018", "TITLE": "10744", "REGION": "ID - Lemhi County", "ASSOCIATION": "USA - Idaho", "POINTS": "8", "BONUSPOINTS": "3"}}, {"type": "Feature", "geometry": {"type": "Point", "coordinates": [-113.689, 44.6565]}, "properties": {"NAME": "W7I/LE-019", "TITLE": "Buffalo Skull Peak", "REGION": "ID - Lemhi County", "ASSOCIATION": "USA - Idaho", "POINTS": "8", "BONUSPOINTS": "3"}}, {"type": "Feature", "geometry": {"type": "Point", "coordinates": [-113.82, 44.73]}, "properties": {"NAME": "W7I/LE-020", "TITLE": "Long Mountain", "REGION": "ID - Lemhi County", "ASSOCIATION": "USA - Idaho", "POINTS": "8", "BONUSPOINTS": "3"}}, {"type": "Feature", "geometry": {"type": "Point", "coordinates": [-113.5547, 44.5771]}, "properties": {"NAME": "W7I/LE-021", "TITLE": "Ray Lode Peak", "REGION": "ID - Lemhi County", "ASSOCIATION": "USA - Idaho", "POINTS": "8", "BONUSPOINTS": "3"}}, {"type": "Feature", "geometry": {"type": "Point", "coordinates": [-113.8822, 44.8073]}, "properties": {"NAME": "W7I/LE-022", "TITLE": "Tendoy Peak", "REGION": "ID - Lemhi County", "ASSOCIATION": "USA - Idaho", "POINTS": "8", "BONUSPOINTS": "3"}}, {"type": "Feature", "geometry": {"type": "Point", "coordinates": [-113.2529, 44.3105]}, "properties": {"NAME": "W7I/LE-023", "TITLE": "Mount Inspiration", "REGION": "ID - Lemhi County", "ASSOCIATION": "USA - Idaho", "POINTS": "8", "BONUSPOINTS": "3"}}, {"type": "Feature", "geometry": {"type": "Point", "coordinates": [-113.194, 44.2553]}, "properties": {"NAME": "W7I/LE-024", "TITLE": "Umpleby Peak", "REGION": "ID - Lemhi County", "ASSOCIATION": "USA - Idaho", "POINTS": "8", "BONUSPOINTS": "3"}}, {"type": "Feature", "geometry": {"type": "Point", "coordinates": [-113.6482, 44.6445]}, "properties": {"NAME": "W7I/LE-025", "TITLE": "The Wedge", "REGION": "ID - Lemhi County", "ASSOCIATION": "USA - Idaho", "POINTS": "8", "BONUSPOINTS": "3"}}, {"type": "Feature", "geometry": {"type": "Point", "coordinates": [-113.0466, 44.5455]}, "properties": {"NAME": "W7I/LE-026", "TITLE": "Mount Carpenter", "REGION": "ID - Lemhi County", "ASSOCIATION": "USA - Idaho", "POINTS": "8", "BONUSPOINTS": "3"}}, {"type": "Feature", "geometry": {"type": "Point", "coordinates": [-113.1517, 44.2528]}, "properties": {"NAME": "W7I/LE-027", "TITLE": "Meadow Peak", "REGION": "ID - Lemhi County", "ASSOCIATION": "USA - Idaho", "POINTS": "8", "BONUSPOINTS": "3"}}, {"type": "Feature", "geometry": {"type": "Point", "coordinates": [-113.6177, 44.5965]}, "properties": {"NAME": "W7I/LE-028", "TITLE": "Patterson Peak", "REGION": "ID - Lemhi County", "ASSOCIATION": "USA - Idaho", "POINTS": "8", "BONUSPOINTS": "3"}}, {"type": "Feature", "geometry": {"type": "Point", "coordinates": [-113.5704, 44.549]}, "properties": {"NAME": "W7I/LE-029", "TITLE": "Big Eightmile Peak", "REGION": "ID - Lemhi County", "ASSOCIATION": "USA - Idaho", "POINTS": "8", "BONUSPOINTS": "3"}}, {"type": "Feature", "geometry": {"type": "Point", "coordinates": [-113.3611, 44.4824]}, "properties": {"NAME": "W7I/LE-030", "TITLE": "Negro Peak", "REGION": "ID - Lemhi County", "ASSOCIATION": "USA - Idaho", "POINTS": "8", "BONUSPOINTS": "3"}}, {"type": "Feature", "geometry": {"type": "Point", "coordinates": [-113.7054, 44.6674]}, "properties": {"NAME": "W7I/LE-031", "TITLE": "Mogg Mountain", "REGION": "ID - Lemhi County", "ASSOCIATION": "USA - Idaho", "POINTS": "8", "BONUSPOINTS": "3"}}, {"type": "Feature", "geometry": {"type": "Point", "coordinates": [-113.5278, 44.4498]}, "properties": {"NAME": "W7I/LE-032", "TITLE": "10571", "REGION": "ID - Lemhi County", "ASSOCIATION": "USA - Idaho", "POINTS": "8", "BONUSPOINTS": "3"}}, {"type": "Feature", "geometry": {"type": "Point", "coordinates": [-113.6696, 44.6396]}, "properties": {"NAME": "W7I/LE-033", "TITLE": "The Ledge", "REGION": "ID - Lemhi County", "ASSOCIATION": "USA - Idaho", "POINTS": "8", "BONUSPOINTS": "3"}}, {"type": "Feature", "geometry": {"type": "Point", "coordinates": [-113.479, 44.5426]}, "properties": {"NAME": "W7I/LE-034", "TITLE": "Rocky Peak", "REGION": "ID - Lemhi County", "ASSOCIATION": "USA - Idaho", "POINTS": "8", "BONUSPOINTS": "3"}}, {"type": "Feature", "geometry": {"type": "Point", "coordinates": [-113.4059, 44.496]}, "properties": {"NAME": "W7I/LE-035", "TITLE": "Timber Creek Peak", "REGION": "ID - Lemhi County", "ASSOCIATION": "USA - Idaho", "POINTS": "8", "BONUSPOINTS": "3"}}, {"type": "Feature", "geometry": {"type": "Point", "coordinates": [-113.5387, 44.5628]}, "properties": {"NAME": "W7I/LE-036", "TITLE": "U Mountain", "REGION": "ID - Lemhi County", "ASSOCIATION": "USA - Idaho", "POINTS": "8", "BONUSPOINTS": "3"}}, {"type": "Feature", "geometry": {"type": "Point", "coordinates": [-113.6975, 44.5819]}, "properties": {"NAME": "W7I/LE-037", "TITLE": "10535", "REGION": "ID - Lemhi County", "ASSOCIATION": "USA - Idaho", "POINTS": "8", "BONUSPOINTS": "3"}}, {"type": "Feature", "geometry": {"type": "Point", "coordinates": [-113.2226, 44.2626]}, "properties": {"NAME": "W7I/LE-038", "TITLE": "Medusa", "REGION": "ID - Lemhi County", "ASSOCIATION": "USA - Idaho", "POINTS": "8", "BONUSPOINTS": "3"}}, {"type": "Feature", "geometry": {"type": "Point", "coordinates": [-113.2526, 44.3363]}, "properties": {"NAME": "W7I/LE-039", "TITLE": "Trail Peak", "REGION": "ID - Lemhi County", "ASSOCIATION": "USA - Idaho", "POINTS": "8", "BONUSPOINTS": "3"}}, {"type": "Feature", "geometry": {"type": "Point", "coordinates": [-113.5382, 44.5443]}, "properties": {"NAME": "W7I/LE-040", "TITLE": "Slate Roof Peak", "REGION": "ID - Lemhi County", "ASSOCIATION": "USA - Idaho", "POINTS": "8", "BONUSPOINTS": "3"}}, {"type": "Feature", "geometry": {"type": "Point", "coordinates": [-113.2048, 44.2618]}, "properties": {"NAME": "W7I/LE-041", "TITLE": "The Knoll", "REGION": "ID - Lemhi County", "ASSOCIATION": "USA - Idaho", "POINTS": "8", "BONUSPOINTS": "3"}}, {"type": "Feature", "geometry": {"type": "Point", "coordinates": [-113.8689, 44.7345]}, "properties": {"NAME": "W7I/LE-042", "TITLE": "10487", "REGION": "ID - Lemhi County", "ASSOCIATION": "USA - Idaho", "POINTS": "8", "BONUSPOINTS": "3"}}, {"type": "Feature", "geometry": {"type": "Point", "coordinates": [-113.8553, 44.6978]}, "properties": {"NAME": "W7I/LE-043", "TITLE": "10466", "REGION": "ID - Lemhi County", "ASSOCIATION": "USA - Idaho", "POINTS": "8", "BONUSPOINTS": "3"}}, {"type": "Feature", "geometry": {"type": "Point", "coordinates": [-112.9142, 44.4025]}, "properties": {"NAME": "W7I/LE-044", "TITLE": "Dianes Peak", "REGION": "ID - Lemhi County", "ASSOCIATION": "USA - Idaho", "POINTS": "8", "BONUSPOINTS": "3"}}, {"type": "Feature", "geometry": {"type": "Point", "coordinates": [-113.6801, 45.2507]}, "properties": {"NAME": "W7I/LE-045", "TITLE": "West Sacajawea Peaks", "REGION": "ID - Lemhi County", "ASSOCIATION": "USA - Idaho", "POINTS": "8", "BONUSPOINTS": "3"}}, {"type": "Feature", "geometry": {"type": "Point", "coordinates": [-113.2745, 44.3421]}, "properties": {"NAME": "W7I/LE-046", "TITLE": "Big Windy Peak", "REGION": "ID - Lemhi County", "ASSOCIATION": "USA - Idaho", "POINTS": "8", "BONUSPOINTS": "3"}}, {"type": "Feature", "geometry": {"type": "Point", "coordinates": [-113.648, 45.2289]}, "properties": {"NAME": "W7I/LE-047", "TITLE": "Center Mountain", "REGION": "ID - Lemhi County", "ASSOCIATION": "USA - Idaho", "POINTS": "8", "BONUSPOINTS": "3"}}, {"type": "Feature", "geometry": {"type": "Point", "coordinates": [-113.5072, 44.5436]}, "properties": {"NAME": "W7I/LE-048", "TITLE": "West Rocky Peak", "REGION": "ID - Lemhi County", "ASSOCIATION": "USA - Idaho", "POINTS": "8", "BONUSPOINTS": "3"}}, {"type": "Feature", "geometry": {"type": "Point", "coordinates": [-113.8631, 44.8266]}, "properties": {"NAME": "W7I/LE-049", "TITLE": "McNutt Peak", "REGION": "ID - Lemhi County", "ASSOCIATION": "USA - Idaho", "POINTS": "8", "BONUSPOINTS": "3"}}, {"type": "Feature", "geometry": {"type": "Point", "coordinates": [-113.6931, 45.2641]}, "properties": {"NAME": "W7I/LE-050", "TITLE": "Monument Peak", "REGION": "ID - Lemhi County", "ASSOCIATION": "USA - Idaho", "POINTS": "8", "BONUSPOINTS": "3"}}, {"type": "Feature", "geometry": {"type": "Point", "coordinates": [-113.7012, 45.2743]}, "properties": {"NAME": "W7I/LE-051", "TITLE": "Freeman Peak", "REGION": "ID - Lemhi County", "ASSOCIATION": "USA - Idaho", "POINTS": "8", "BONUSPOINTS": "3"}}, {"type": "Feature", "geometry": {"type": "Point", "coordinates": [-113.5403, 44.5184]}, "properties": {"NAME": "W7I/LE-052", "TITLE": "10268", "REGION": "ID - Lemhi County", "ASSOCIATION": "USA - Idaho", "POINTS": "8", "BONUSPOINTS": "3"}}, {"type": "Feature", "geometry": {"type": "Point", "coordinates": [-113.7844, 44.6786]}, "properties": {"NAME": "W7I/LE-053", "TITLE": "10263", "REGION": "ID - Lemhi County", "ASSOCIATION": "USA - Idaho", "POINTS": "8", "BONUSPOINTS": "3"}}, {"type": "Feature", "geometry": {"type": "Point", "coordinates": [-112.939, 44.3776]}, "properties": {"NAME": "W7I/LE-054", "TITLE": "Eidelman Peak", "REGION": "ID - Lemhi County", "ASSOCIATION": "USA - Idaho", "POINTS": "8", "BONUSPOINTS": "3"}}, {"type": "Feature", "geometry": {"type": "Point", "coordinates": [-113.1379, 44.7599]}, "properties": {"NAME": "W7I/LE-055", "TITLE": "Elk Mountain", "REGION": "ID - Lemhi County", "ASSOCIATION": "USA - Idaho", "POINTS": "8", "BONUSPOINTS": "3"}}, {"type": "Feature", "geometry": {"type": "Point", "coordinates": [-113.2114, 44.297]}, "properties": {"NAME": "W7I/LE-056", "TITLE": "Rainbow Mountain", "REGION": "ID - Lemhi County", "ASSOCIATION": "USA - Idaho", "POINTS": "8", "BONUSPOINTS": "3"}}, {"type": "Feature", "geometry": {"type": "Point", "coordinates": [-113.1422, 44.6256]}, "properties": {"NAME": "W7I/LE-057", "TITLE": "Conical Top Peak", "REGION": "ID - Lemhi County", "ASSOCIATION": "USA - Idaho", "POINTS": "8", "BONUSPOINTS": "3"}}, {"type": "Feature", "geometry": {"type": "Point", "coordinates": [-112.8525, 44.2836]}, "properties": {"NAME": "W7I/LE-058", "TITLE": "Dead Horse Summit", "REGION": "ID - Lemhi County", "ASSOCIATION": "USA - Idaho", "POINTS": "8", "BONUSPOINTS": "3"}}, {"type": "Feature", "geometry": {"type": "Point", "coordinates": [-114.6021, 45.1739]}, "properties": {"NAME": "W7I/LE-059", "TITLE": "Mount McGuire", "REGION": "ID - Lemhi County", "ASSOCIATION": "USA - Idaho", "POINTS": "8", "BONUSPOINTS": "3"}}, {"type": "Feature", "geometry": {"type": "Point", "coordinates": [-113.1615, 44.6447]}, "properties": {"NAME": "W7I/LE-060", "TITLE": "Bull Peak", "REGION": "ID - Lemhi County", "ASSOCIATION": "USA - Idaho", "POINTS": "8", "BONUSPOINTS": "3"}}, {"type": "Feature", "geometry": {"type": "Point", "coordinates": [-113.7288, 45.3038]}, "properties": {"NAME": "W7I/LE-061", "TITLE": "Copperhead Peak", "REGION": "ID - Lemhi County", "ASSOCIATION": "USA - Idaho", "POINTS": "8", "BONUSPOINTS": "3"}}, {"type": "Feature", "geometry": {"type": "Point", "coordinates": [-113.6227, 45.2051]}, "properties": {"NAME": "W7I/LE-062", "TITLE": "Skytop Peak", "REGION": "ID - Lemhi County", "ASSOCIATION": "USA - Idaho", "POINTS": "8", "BONUSPOINTS": "3"}}, {"type": "Feature", "geometry": {"type": "Point", "coordinates": [-113.7242, 45.3198]}, "properties": {"NAME": "W7I/LE-063", "TITLE": "10042", "REGION": "ID - Lemhi County", "ASSOCIATION": "USA - Idaho", "POINTS": "8", "BONUSPOINTS": "3"}}, {"type": "Feature", "geometry": {"type": "Point", "coordinates": [-113.7388, 45.3306]}, "properties": {"NAME": "W7I/LE-064", "TITLE": "Ajax Peak", "REGION": "ID - Lemhi County", "ASSOCIATION": "USA - Idaho", "POINTS": "8", "BONUSPOINTS": "3"}}, {"type": "Feature", "geometry": {"type": "Point", "coordinates": [-113.6791, 45.276]}, "properties": {"NAME": "W7I/LE-065", "TITLE": "9992", "REGION": "ID - Lemhi County", "ASSOCIATION": "USA - Idaho", "POINTS": "8", "BONUSPOINTS": "3"}}, {"type": "Feature", "geometry": {"type": "Point", "coordinates": [-114.2161, 44.885]}, "properties": {"NAME": "W7I/LE-066", "TITLE": "Taylor Mountain", "REGION": "ID - Lemhi County", "ASSOCIATION": "USA - Idaho", "POINTS": "8", "BONUSPOINTS": "3"}}, {"type": "Feature", "geometry": {"type": "Point", "coordinates": [-113.4389, 44.8234]}, "properties": {"NAME": "W7I/LE-067", "TITLE": "Goat Mountain", "REGION": "ID - Lemhi County", "ASSOCIATION": "USA - Idaho", "POINTS": "8", "BONUSPOINTS": "3"}}, {"type": "Feature", "geometry": {"type": "Point", "coordinates": [-114.6113, 45.1482]}, "properties": {"NAME": "W7I/LE-068", "TITLE": "Sheepeater Mountain", "REGION": "ID - Lemhi County", "ASSOCIATION": "USA - Idaho", "POINTS": "8", "BONUSPOINTS": "3"}}, {"type": "Feature", "geometry": {"type": "Point", "coordinates": [-114.6381, 45.1536]}, "properties": {"NAME": "W7I/LE-069", "TITLE": "Aggipah Mountain", "REGION": "ID - Lemhi County", "ASSOCIATION": "USA - Idaho", "POINTS": "8", "BONUSPOINTS": "3"}}, {"type": "Feature", "geometry": {"type": "Point", "coordinates": [-113.5763, 45.1188]}, "properties": {"NAME": "W7I/LE-070", "TITLE": "Goldstone Mountain", "REGION": "ID - Lemhi County", "ASSOCIATION": "USA - Idaho", "POINTS": "8", "BONUSPOINTS": "3"}}, {"type": "Feature", "geometry": {"type": "Point", "coordinates": [-114.6912, 44.7672]}, "properties": {"NAME": "W7I/LE-071", "TITLE": "Sleeping Deer Mountain", "REGION": "ID - Lemhi County", "ASSOCIATION": "USA - Idaho", "POINTS": "8", "BONUSPOINTS": "3"}}, {"type": "Feature", "geometry": {"type": "Point", "coordinates": [-113.7605, 45.4801]}, "properties": {"NAME": "W7I/LE-072", "TITLE": "Sheep Mountain", "REGION": "ID - Lemhi County", "ASSOCIATION": "USA - Idaho", "POINTS": "8", "BONUSPOINTS": "3"}}, {"type": "Feature", "geometry": {"type": "Point", "coordinates": [-113.7572, 44.6683]}, "properties": {"NAME": "W7I/LE-073", "TITLE": "9785", "REGION": "ID - Lemhi County", "ASSOCIATION": "USA - Idaho", "POINTS": "8", "BONUSPOINTS": "3"}}, {"type": "Feature", "geometry": {"type": "Point", "coordinates": [-112.8362, 44.2373]}, "properties": {"NAME": "W7I/LE-074", "TITLE": "9768", "REGION": "ID - Lemhi County", "ASSOCIATION": "USA - Idaho", "POINTS": "8", "BONUSPOINTS": "3"}}, {"type": "Feature", "geometry": {"type": "Point", "coordinates": [-114.6089, 44.8372]}, "properties": {"NAME": "W7I/LE-075", "TITLE": "Meyers Benchmark", "REGION": "ID - Lemhi County", "ASSOCIATION": "USA - Idaho", "POINTS": "8", "BONUSPOINTS": "3"}}, {"type": "Feature", "geometry": {"type": "Point", "coordinates": [-113.0056, 44.52]}, "properties": {"NAME": "W7I/LE-076", "TITLE": "9743", "REGION": "ID - Lemhi County", "ASSOCIATION": "USA - Idaho", "POINTS": "8", "BONUSPOINTS": "3"}}, {"type": "Feature", "geometry": {"type": "Point", "coordinates": [-114.4917, 44.6297]}, "properties": {"NAME": "W7I/LE-077", "TITLE": "9740", "REGION": "ID - Lemhi County", "ASSOCIATION": "USA - Idaho", "POINTS": "8", "BONUSPOINTS": "3"}}, {"type": "Feature", "geometry": {"type": "Point", "coordinates": [-113.7386, 45.3689]}, "properties": {"NAME": "W7I/LE-078", "TITLE": "9737", "REGION": "ID - Lemhi County", "ASSOCIATION": "USA - Idaho", "POINTS": "8", "BONUSPOINTS": "3"}}, {"type": "Feature", "geometry": {"type": "Point", "coordinates": [-113.5929, 45.1284]}, "properties": {"NAME": "W7I/LE-079", "TITLE": "9725", "REGION": "ID - Lemhi County", "ASSOCIATION": "USA - Idaho", "POINTS": "8", "BONUSPOINTS": "3"}}, {"type": "Feature", "geometry": {"type": "Point", "coordinates": [-112.8419, 44.2601]}, "properties": {"NAME": "W7I/LE-080", "TITLE": "9693", "REGION": "ID - Lemhi County", "ASSOCIATION": "USA - Idaho", "POINTS": "8", "BONUSPOINTS": "3"}}, {"type": "Feature", "geometry": {"type": "Point", "coordinates": [-114.6289, 45.1122]}, "properties": {"NAME": "W7I/LE-081", "TITLE": "Puddin Mountain", "REGION": "ID - Lemhi County", "ASSOCIATION": "USA - Idaho", "POINTS": "8", "BONUSPOINTS": "3"}}, {"type": "Feature", "geometry": {"type": "Point", "coordinates": [-113.7772, 45.4359]}, "properties": {"NAME": "W7I/LE-082", "TITLE": "9681", "REGION": "ID - Lemhi County", "ASSOCIATION": "USA - Idaho", "POINTS": "8", "BONUSPOINTS": "3"}}, {"type": "Feature", "geometry": {"type": "Point", "coordinates": [-114.601, 45.1251]}, "properties": {"NAME": "W7I/LE-083", "TITLE": "9676", "REGION": "ID - Lemhi County", "ASSOCIATION": "USA - Idaho", "POINTS": "8", "BONUSPOINTS": "3"}}, {"type": "Feature", "geometry": {"type": "Point", "coordinates": [-113.3937, 44.4564]}, "properties": {"NAME": "W7I/LE-084", "TITLE": "9660", "REGION": "ID - Lemhi County", "ASSOCIATION": "USA - Idaho", "POINTS": "8", "BONUSPOINTS": "3"}}, {"type": "Feature", "geometry": {"type": "Point", "coordinates": [-114.6614, 44.8093]}, "properties": {"NAME": "W7I/LE-085", "TITLE": "9639", "REGION": "ID - Lemhi County", "ASSOCIATION": "USA - Idaho", "POINTS": "8", "BONUSPOINTS": "3"}}, {"type": "Feature", "geometry": {"type": "Point", "coordinates": [-113.7845, 45.455]}, "properties": {"NAME": "W7I/LE-086", "TITLE": "Pyramid Peak", "REGION": "ID - Lemhi County", "ASSOCIATION": "USA - Idaho", "POINTS": "8", "BONUSPOINTS": "3"}}, {"type": "Feature", "geometry": {"type": "Point", "coordinates": [-114.5509, 45.2208]}, "properties": {"NAME": "W7I/LE-087", "TITLE": "Beehive", "REGION": "ID - Lemhi County", "ASSOCIATION": "USA - Idaho", "POINTS": "8", "BONUSPOINTS": "3"}}, {"type": "Feature", "geometry": {"type": "Point", "coordinates": [-114.6138, 45.2134]}, "properties": {"NAME": "W7I/LE-088", "TITLE": "Goat Mountain", "REGION": "ID - Lemhi County", "ASSOCIATION": "USA - Idaho", "POINTS": "8", "BONUSPOINTS": "3"}}, {"type": "Feature", "geometry": {"type": "Point", "coordinates": [-113.069, 44.6634]}, "properties": {"NAME": "W7I/LE-089", "TITLE": "Bear Benchmark", "REGION": "ID - Lemhi County", "ASSOCIATION": "USA - Idaho", "POINTS": "8", "BONUSPOINTS": "3"}}, {"type": "Feature", "geometry": {"type": "Point", "coordinates": [-113.8429, 45.0152]}, "properties": {"NAME": "W7I/LE-090", "TITLE": "Sal Mountain", "REGION": "ID - Lemhi County", "ASSOCIATION": "USA - Idaho", "POINTS": "8", "BONUSPOINTS": "3"}}, {"type": "Feature", "geometry": {"type": "Point", "coordinates": [-114.364, 44.7906]}, "properties": {"NAME": "W7I/LE-091", "TITLE": "9580", "REGION": "ID - Lemhi County", "ASSOCIATION": "USA - Idaho", "POINTS": "8", "BONUSPOINTS": "3"}}, {"type": "Feature", "geometry": {"type": "Point", "coordinates": [-114.4258, 44.7419]}, "properties": {"NAME": "W7I/LE-092", "TITLE": "9580", "REGION": "ID - Lemhi County", "ASSOCIATION": "USA - Idaho", "POINTS": "8", "BONUSPOINTS": "3"}}, {"type": "Feature", "geometry": {"type": "Point", "coordinates": [-114.6251, 45.088]}, "properties": {"NAME": "W7I/LE-093", "TITLE": "Wilson Mountain", "REGION": "ID - Lemhi County", "ASSOCIATION": "USA - Idaho", "POINTS": "8", "BONUSPOINTS": "3"}}, {"type": "Feature", "geometry": {"type": "Point", "coordinates": [-114.6014, 45.1334]}, "properties": {"NAME": "W7I/LE-094", "TITLE": "Heart Peak", "REGION": "ID - Lemhi County", "ASSOCIATION": "USA - Idaho", "POINTS": "8", "BONUSPOINTS": "3"}}, {"type": "Feature", "geometry": {"type": "Point", "coordinates": [-113.2211, 44.7138]}, "properties": {"NAME": "W7I/LE-095", "TITLE": "Pass Benchmark", "REGION": "ID - Lemhi County", "ASSOCIATION": "USA - Idaho", "POINTS": "8", "BONUSPOINTS": "3"}}, {"type": "Feature", "geometry": {"type": "Point", "coordinates": [-114.6867, 44.8189]}, "properties": {"NAME": "W7I/LE-096", "TITLE": "9553", "REGION": "ID - Lemhi County", "ASSOCIATION": "USA - Idaho", "POINTS": "8", "BONUSPOINTS": "3"}}, {"type": "Feature", "geometry": {"type": "Point", "coordinates": [-114.6166, 45.1033]}, "properties": {"NAME": "W7I/LE-097", "TITLE": "9545", "REGION": "ID - Lemhi County", "ASSOCIATION": "USA - Idaho", "POINTS": "8", "BONUSPOINTS": "3"}}, {"type": "Feature", "geometry": {"type": "Point", "coordinates": [-114.5724, 45.1471]}, "properties": {"NAME": "W7I/LE-098", "TITLE": "9540", "REGION": "ID - Lemhi County", "ASSOCIATION": "USA - Idaho", "POINTS": "8", "BONUSPOINTS": "3"}}, {"type": "Feature", "geometry": {"type": "Point", "coordinates": [-114.524, 44.6217]}, "properties": {"NAME": "W7I/LE-099", "TITLE": "9530", "REGION": "ID - Lemhi County", "ASSOCIATION": "USA - Idaho", "POINTS": "8", "BONUSPOINTS": "3"}}, {"type": "Feature", "geometry": {"type": "Point", "coordinates": [-113.7451, 44.6745]}, "properties": {"NAME": "W7I/LE-100", "TITLE": "9523", "REGION": "ID - Lemhi County", "ASSOCIATION": "USA - Idaho", "POINTS": "8", "BONUSPOINTS": "3"}}, {"type": "Feature", "geometry": {"type": "Point", "coordinates": [-114.3444, 44.8408]}, "properties": {"NAME": "W7I/LE-101", "TITLE": "Black Mountain", "REGION": "ID - Lemhi County", "ASSOCIATION": "USA - Idaho", "POINTS": "8", "BONUSPOINTS": "3"}}, {"type": "Feature", "geometry": {"type": "Point", "coordinates": [-113.1751, 44.725]}, "properties": {"NAME": "W7I/LE-102", "TITLE": "9501", "REGION": "ID - Lemhi County", "ASSOCIATION": "USA - Idaho", "POINTS": "8", "BONUSPOINTS": "3"}}, {"type": "Feature", "geometry": {"type": "Point", "coordinates": [-113.4578, 44.8762]}, "properties": {"NAME": "W7I/LE-103", "TITLE": "9500", "REGION": "ID - Lemhi County", "ASSOCIATION": "USA - Idaho", "POINTS": "8", "BONUSPOINTS": "3"}}, {"type": "Feature", "geometry": {"type": "Point", "coordinates": [-114.5374, 45.2085]}, "properties": {"NAME": "W7I/LE-104", "TITLE": "9499", "REGION": "ID - Lemhi County", "ASSOCIATION": "USA - Idaho", "POINTS": "6", "BONUSPOINTS": "3"}}, {"type": "Feature", "geometry": {"type": "Point", "coordinates": [-114.5304, 45.1468]}, "properties": {"NAME": "W7I/LE-105", "TITLE": "Gant Ridge", "REGION": "ID - Lemhi County", "ASSOCIATION": "USA - Idaho", "POINTS": "6", "BONUSPOINTS": "3"}}, {"type": "Feature", "geometry": {"type": "Point", "coordinates": [-114.5147, 45.1583]}, "properties": {"NAME": "W7I/LE-106", "TITLE": "L 11 Benchmark", "REGION": "ID - Lemhi County", "ASSOCIATION": "USA - Idaho", "POINTS": "6", "BONUSPOINTS": "3"}}, {"type": "Feature", "geometry": {"type": "Point", "coordinates": [-114.7631, 44.7489]}, "properties": {"NAME": "W7I/LE-107", "TITLE": "Falconberry Peak", "REGION": "ID - Lemhi County", "ASSOCIATION": "USA - Idaho", "POINTS": "6", "BONUSPOINTS": "3"}}, {"type": "Feature", "geometry": {"type": "Point", "coordinates": [-114.6162, 45.1915]}, "properties": {"NAME": "W7I/LE-108", "TITLE": "9460", "REGION": "ID - Lemhi County", "ASSOCIATION": "USA - Idaho", "POINTS": "6", "BONUSPOINTS": "3"}}, {"type": "Feature", "geometry": {"type": "Point", "coordinates": [-113.7759, 45.4079]}, "properties": {"NAME": "W7I/LE-109", "TITLE": "9450", "REGION": "ID - Lemhi County", "ASSOCIATION": "USA - Idaho", "POINTS": "6", "BONUSPOINTS": "3"}}, {"type": "Feature", "geometry": {"type": "Point", "coordinates": [-114.7054, 44.8012]}, "properties": {"NAME": "W7I/LE-110", "TITLE": "9446", "REGION": "ID - Lemhi County", "ASSOCIATION": "USA - Idaho", "POINTS": "6", "BONUSPOINTS": "3"}}, {"type": "Feature", "geometry": {"type": "Point", "coordinates": [-113.7444, 44.6314]}, "properties": {"NAME": "W7I/LE-111", "TITLE": "9442", "REGION": "ID - Lemhi County", "ASSOCIATION": "USA - Idaho", "POINTS": "6", "BONUSPOINTS": "3"}}, {"type": "Feature", "geometry": {"type": "Point", "coordinates": [-113.8218, 44.6364]}, "properties": {"NAME": "W7I/LE-112", "TITLE": "9381", "REGION": "ID - Lemhi County", "ASSOCIATION": "USA - Idaho", "POINTS": "6", "BONUSPOINTS": "3"}}, {"type": "Feature", "geometry": {"type": "Point", "coordinates": [-113.8555, 44.6527]}, "properties": {"NAME": "W7I/LE-113", "TITLE": "9366", "REGION": "ID - Lemhi County", "ASSOCIATION": "USA - Idaho", "POINTS": "6", "BONUSPOINTS": "3"}}, {"type": "Feature", "geometry": {"type": "Point", "coordinates": [-113.8709, 44.8916]}, "properties": {"NAME": "W7I/LE-114", "TITLE": "Poison Peak", "REGION": "ID - Lemhi County", "ASSOCIATION": "USA - Idaho", "POINTS": "6", "BONUSPOINTS": "3"}}, {"type": "Feature", "geometry": {"type": "Point", "coordinates": [-114.6496, 44.7273]}, "properties": {"NAME": "W7I/LE-115", "TITLE": "9304", "REGION": "ID - Lemhi County", "ASSOCIATION": "USA - Idaho", "POINTS": "6", "BONUSPOINTS": "3"}}, {"type": "Feature", "geometry": {"type": "Point", "coordinates": [-114.5336, 44.6368]}, "properties": {"NAME": "W7I/LE-116", "TITLE": "9300", "REGION": "ID - Lemhi County", "ASSOCIATION": "USA - Idaho", "POINTS": "6", "BONUSPOINTS": "3"}}, {"type": "Feature", "geometry": {"type": "Point", "coordinates": [-113.3536, 44.7961]}, "properties": {"NAME": "W7I/LE-117", "TITLE": "Grizzly Hill", "REGION": "ID - Lemhi County", "ASSOCIATION": "USA - Idaho", "POINTS": "6", "BONUSPOINTS": "3"}}, {"type": "Feature", "geometry": {"type": "Point", "coordinates": [-114.5619, 44.6994]}, "properties": {"NAME": "W7I/LE-118", "TITLE": "Sheldon Peak", "REGION": "ID - Lemhi County", "ASSOCIATION": "USA - Idaho", "POINTS": "6", "BONUSPOINTS": "3"}}, {"type": "Feature", "geometry": {"type": "Point", "coordinates": [-114.5413, 44.7616]}, "properties": {"NAME": "W7I/LE-119", "TITLE": "9263", "REGION": "ID - Lemhi County", "ASSOCIATION": "USA - Idaho", "POINTS": "6", "BONUSPOINTS": "3"}}, {"type": "Feature", "geometry": {"type": "Point", "coordinates": [-114.0838, 45.0211]}, "properties": {"NAME": "W7I/LE-120", "TITLE": "Lake Mountain", "REGION": "ID - Lemhi County", "ASSOCIATION": "USA - Idaho", "POINTS": "6", "BONUSPOINTS": "3"}}, {"type": "Feature", "geometry": {"type": "Point", "coordinates": [-114.5803, 44.7144]}, "properties": {"NAME": "W7I/LE-121", "TITLE": "9195", "REGION": "ID - Lemhi County", "ASSOCIATION": "USA - Idaho", "POINTS": "6", "BONUSPOINTS": "3"}}, {"type": "Feature", "geometry": {"type": "Point", "coordinates": [-114.6211, 45.0101]}, "properties": {"NAME": "W7I/LE-122", "TITLE": "Yellowjacket Mountains HP", "REGION": "ID - Lemhi County", "ASSOCIATION": "USA - Idaho", "POINTS": "6", "BONUSPOINTS": "3"}}, {"type": "Feature", "geometry": {"type": "Point", "coordinates": [-113.3854, 44.8377]}, "properties": {"NAME": "W7I/LE-123", "TITLE": "9180", "REGION": "ID - Lemhi County", "ASSOCIATION": "USA - Idaho", "POINTS": "6", "BONUSPOINTS": "3"}}, {"type": "Feature", "geometry": {"type": "Point", "coordinates": [-114.0553, 45.5949]}, "properties": {"NAME": "W7I/LE-124", "TITLE": "Allan Mountain", "REGION": "ID - Lemhi County", "ASSOCIATION": "USA - Idaho", "POINTS": "6", "BONUSPOINTS": "3"}}, {"type": "Feature", "geometry": {"type": "Point", "coordinates": [-114.5485, 44.6033]}, "properties": {"NAME": "W7I/LE-125", "TITLE": "Parker Mountain", "REGION": "ID - Lemhi County", "ASSOCIATION": "USA - Idaho", "POINTS": "6", "BONUSPOINTS": "3"}}, {"type": "Feature", "geometry": {"type": "Point", "coordinates": [-113.2132, 44.3162]}, "properties": {"NAME": "W7I/LE-126", "TITLE": "9149", "REGION": "ID - Lemhi County", "ASSOCIATION": "USA - Idaho", "POINTS": "6", "BONUSPOINTS": "3"}}, {"type": "Feature", "geometry": {"type": "Point", "coordinates": [-114.008, 45.1454]}, "properties": {"NAME": "W7I/LE-127", "TITLE": "Baldy", "REGION": "ID - Lemhi County", "ASSOCIATION": "USA - Idaho", "POINTS": "6", "BONUSPOINTS": "3"}}, {"type": "Feature", "geometry": {"type": "Point", "coordinates": [-114.4973, 44.9103]}, "properties": {"NAME": "W7I/LE-128", "TITLE": "Duck Creek Point", "REGION": "ID - Lemhi County", "ASSOCIATION": "USA - Idaho", "POINTS": "6", "BONUSPOINTS": "3"}}, {"type": "Feature", "geometry": {"type": "Point", "coordinates": [-114.6552, 44.9621]}, "properties": {"NAME": "W7I/LE-129", "TITLE": "Middle Fork Peak", "REGION": "ID - Lemhi County", "ASSOCIATION": "USA - Idaho", "POINTS": "6", "BONUSPOINTS": "3"}}, {"type": "Feature", "geometry": {"type": "Point", "coordinates": [-113.7661, 44.6099]}, "properties": {"NAME": "W7I/LE-130", "TITLE": "9122", "REGION": "ID - Lemhi County", "ASSOCIATION": "USA - Idaho", "POINTS": "6", "BONUSPOINTS": "3"}}, {"type": "Feature", "geometry": {"type": "Point", "coordinates": [-112.9845, 44.3955]}, "properties": {"NAME": "W7I/LE-131", "TITLE": "9100", "REGION": "ID - Lemhi County", "ASSOCIATION": "USA - Idaho", "POINTS": "6", "BONUSPOINTS": "3"}}, {"type": "Feature", "geometry": {"type": "Point", "coordinates": [-114.4742, 45.1179]}, "properties": {"NAME": "W7I/LE-132", "TITLE": "9094", "REGION": "ID - Lemhi County", "ASSOCIATION": "USA - Idaho", "POINTS": "6", "BONUSPOINTS": "3"}}, {"type": "Feature", "geometry": {"type": "Point", "coordinates": [-114.4164, 45.1186]}, "properties": {"NAME": "W7I/LE-133", "TITLE": "Blackbird Mountain", "REGION": "ID - Lemhi County", "ASSOCIATION": "USA - Idaho", "POINTS": "6", "BONUSPOINTS": "3"}}, {"type": "Feature", "geometry": {"type": "Point", "coordinates": [-114.5667, 45.0694]}, "properties": {"NAME": "W7I/LE-134", "TITLE": "Sugar Loaf", "REGION": "ID - Lemhi County", "ASSOCIATION": "USA - Idaho", "POINTS": "6", "BONUSPOINTS": "3"}}, {"type": "Feature", "geometry": {"type": "Point", "coordinates": [-113.8943, 44.9604]}, "properties": {"NAME": "W7I/LE-135", "TITLE": "Goldbug Ridge", "REGION": "ID - Lemhi County", "ASSOCIATION": "USA - Idaho", "POINTS": "6", "BONUSPOINTS": "3"}}, {"type": "Feature", "geometry": {"type": "Point", "coordinates": [-114.0294, 45.5989]}, "properties": {"NAME": "W7I/LE-136", "TITLE": "9007", "REGION": "ID - Lemhi County", "ASSOCIATION": "USA - Idaho", "POINTS": "6", "BONUSPOINTS": "3"}}, {"type": "Feature", "geometry": {"type": "Point", "coordinates": [-114.5351, 45.0548]}, "properties": {"NAME": "W7I/LE-137", "TITLE": "8962", "REGION": "ID - Lemhi County", "ASSOCIATION": "USA - Idaho", "POINTS": "6", "BONUSPOINTS": "3"}}, {"type": "Feature", "geometry": {"type": "Point", "coordinates": [-113.8179, 44.9525]}, "properties": {"NAME": "W7I/LE-138", "TITLE": "8933", "REGION": "ID - Lemhi County", "ASSOCIATION": "USA - Idaho", "POINTS": "6", "BONUSPOINTS": "3"}}, {"type": "Feature", "geometry": {"type": "Point", "coordinates": [-113.8096, 45.4376]}, "properties": {"NAME": "W7I/LE-139", "TITLE": "8910", "REGION": "ID - Lemhi County", "ASSOCIATION": "USA - Idaho", "POINTS": "6", "BONUSPOINTS": "3"}}, {"type": "Feature", "geometry": {"type": "Point", "coordinates": [-114.0718, 45.1364]}, "properties": {"NAME": "W7I/LE-140", "TITLE": "Phelan Mountain", "REGION": "ID - Lemhi County", "ASSOCIATION": "USA - Idaho", "POINTS": "6", "BONUSPOINTS": "3"}}, {"type": "Feature", "geometry": {"type": "Point", "coordinates": [-113.8639, 45.4429]}, "properties": {"NAME": "W7I/LE-141", "TITLE": "N Mountain", "REGION": "ID - Lemhi County", "ASSOCIATION": "USA - Idaho", "POINTS": "6", "BONUSPOINTS": "3"}}, {"type": "Feature", "geometry": {"type": "Point", "coordinates": [-114.6469, 45.1852]}, "properties": {"NAME": "W7I/LE-142", "TITLE": "Litner Peak", "REGION": "ID - Lemhi County", "ASSOCIATION": "USA - Idaho", "POINTS": "6", "BONUSPOINTS": "3"}}, {"type": "Feature", "geometry": {"type": "Point", "coordinates": [-114.5015, 45.0757]}, "properties": {"NAME": "W7I/LE-143", "TITLE": "8817", "REGION": "ID - Lemhi County", "ASSOCIATION": "USA - Idaho", "POINTS": "6", "BONUSPOINTS": "3"}}, {"type": "Feature", "geometry": {"type": "Point", "coordinates": [-114.6146, 44.7612]}, "properties": {"NAME": "W7I/LE-144", "TITLE": "8801", "REGION": "ID - Lemhi County", "ASSOCIATION": "USA - Idaho", "POINTS": "6", "BONUSPOINTS": "3"}}, {"type": "Feature", "geometry": {"type": "Point", "coordinates": [-114.1535, 45.2845]}, "properties": {"NAME": "W7I/LE-145", "TITLE": "Haystack Mountain", "REGION": "ID - Lemhi County", "ASSOCIATION": "USA - Idaho", "POINTS": "6", "BONUSPOINTS": "3"}}, {"type": "Feature", "geometry": {"type": "Point", "coordinates": [-113.499, 45.0382]}, "properties": {"NAME": "W7I/LE-146", "TITLE": "8750", "REGION": "ID - Lemhi County", "ASSOCIATION": "USA - Idaho", "POINTS": "6", "BONUSPOINTS": "3"}}, {"type": "Feature", "geometry": {"type": "Point", "coordinates": [-113.8464, 44.8765]}, "properties": {"NAME": "W7I/LE-147", "TITLE": "8740", "REGION": "ID - Lemhi County", "ASSOCIATION": "USA - Idaho", "POINTS": "6", "BONUSPOINTS": "3"}}, {"type": "Feature", "geometry": {"type": "Point", "coordinates": [-114.4467, 45.06]}, "properties": {"NAME": "W7I/LE-148", "TITLE": "Quartzite Mountain", "REGION": "ID - Lemhi County", "ASSOCIATION": "USA - Idaho", "POINTS": "6", "BONUSPOINTS": "3"}}, {"type": "Feature", "geometry": {"type": "Point", "coordinates": [-114.3003, 45.4752]}, "properties": {"NAME": "W7I/LE-149", "TITLE": "Johnson Benchmark", "REGION": "ID - Lemhi County", "ASSOCIATION": "USA - Idaho", "POINTS": "6", "BONUSPOINTS": "3"}}, {"type": "Feature", "geometry": {"type": "Point", "coordinates": [-114.3585, 45.4726]}, "properties": {"NAME": "W7I/LE-150", "TITLE": "Blue Nose", "REGION": "ID - Lemhi County", "ASSOCIATION": "USA - Idaho", "POINTS": "6", "BONUSPOINTS": "3"}}, {"type": "Feature", "geometry": {"type": "Point", "coordinates": [-114.6618, 44.6875]}, "properties": {"NAME": "W7I/LE-151", "TITLE": "8660", "REGION": "ID - Lemhi County", "ASSOCIATION": "USA - Idaho", "POINTS": "6", "BONUSPOINTS": "3"}}, {"type": "Feature", "geometry": {"type": "Point", "coordinates": [-114.3241, 45.466]}, "properties": {"NAME": "W7I/LE-152", "TITLE": "8586", "REGION": "ID - Lemhi County", "ASSOCIATION": "USA - Idaho", "POINTS": "6", "BONUSPOINTS": "3"}}, {"type": "Feature", "geometry": {"type": "Point", "coordinates": [-114.1074, 45.0863]}, "properties": {"NAME": "W7I/LE-153", "TITLE": "Deep Creek Ridge", "REGION": "ID - Lemhi County", "ASSOCIATION": "USA - Idaho", "POINTS": "6", "BONUSPOINTS": "3"}}, {"type": "Feature", "geometry": {"type": "Point", "coordinates": [-114.6112, 44.6852]}, "properties": {"NAME": "W7I/LE-154", "TITLE": "8531", "REGION": "ID - Lemhi County", "ASSOCIATION": "USA - Idaho", "POINTS": "6", "BONUSPOINTS": "3"}}, {"type": "Feature", "geometry": {"type": "Point", "coordinates": [-113.1451, 44.6791]}, "properties": {"NAME": "W7I/LE-155", "TITLE": "8531", "REGION": "ID - Lemhi County", "ASSOCIATION": "USA - Idaho", "POINTS": "6", "BONUSPOINTS": "3"}}, {"type": "Feature", "geometry": {"type": "Point", "coordinates": [-114.4457, 44.9222]}, "properties": {"NAME": "W7I/LE-156", "TITLE": "8490", "REGION": "ID - Lemhi County", "ASSOCIATION": "USA - Idaho", "POINTS": "6", "BONUSPOINTS": "3"}}, {"type": "Feature", "geometry": {"type": "Point", "coordinates": [-114.392, 45.2123]}, "properties": {"NAME": "W7I/LE-157", "TITLE": "Indian Point", "REGION": "ID - Lemhi County", "ASSOCIATION": "USA - Idaho", "POINTS": "6", "BONUSPOINTS": "3"}}, {"type": "Feature", "geometry": {"type": "Point", "coordinates": [-113.3801, 44.5885]}, "properties": {"NAME": "W7I/LE-158", "TITLE": "Leadore Hill", "REGION": "ID - Lemhi County", "ASSOCIATION": "USA - Idaho", "POINTS": "6", "BONUSPOINTS": "3"}}, {"type": "Feature", "geometry": {"type": "Point", "coordinates": [-113.2015, 44.678]}, "properties": {"NAME": "W7I/LE-159", "TITLE": "8441", "REGION": "ID - Lemhi County", "ASSOCIATION": "USA - Idaho", "POINTS": "6", "BONUSPOINTS": "3"}}, {"type": "Feature", "geometry": {"type": "Point", "coordinates": [-113.9718, 44.7079]}, "properties": {"NAME": "W7I/LE-160", "TITLE": "8420", "REGION": "ID - Lemhi County", "ASSOCIATION": "USA - Idaho", "POINTS": "6", "BONUSPOINTS": "3"}}, {"type": "Feature", "geometry": {"type": "Point", "coordinates": [-114.1793, 45.3251]}, "properties": {"NAME": "W7I/LE-161", "TITLE": "Pine Creek Ridge", "REGION": "ID - Lemhi County", "ASSOCIATION": "USA - Idaho", "POINTS": "6", "BONUSPOINTS": "3"}}, {"type": "Feature", "geometry": {"type": "Point", "coordinates": [-114.5044, 45.4296]}, "properties": {"NAME": "W7I/LE-162", "TITLE": "Horse Creek Butte", "REGION": "ID - Lemhi County", "ASSOCIATION": "USA - Idaho", "POINTS": "6", "BONUSPOINTS": "3"}}, {"type": "Feature", "geometry": {"type": "Point", "coordinates": [-114.2429, 45.204]}, "properties": {"NAME": "W7I/LE-163", "TITLE": "Jureano Mountain", "REGION": "ID - Lemhi County", "ASSOCIATION": "USA - Idaho", "POINTS": "6", "BONUSPOINTS": "3"}}, {"type": "Feature", "geometry": {"type": "Point", "coordinates": [-113.8348, 45.5207]}, "properties": {"NAME": "W7I/LE-164", "TITLE": "Morgan Mountain", "REGION": "ID - Lemhi County", "ASSOCIATION": "USA - Idaho", "POINTS": "6", "BONUSPOINTS": "3"}}, {"type": "Feature", "geometry": {"type": "Point", "coordinates": [-113.8334, 45.6105]}, "properties": {"NAME": "W7I/LE-165", "TITLE": "Perce Peak", "REGION": "ID - Lemhi County", "ASSOCIATION": "USA - Idaho", "POINTS": "6", "BONUSPOINTS": "3"}}, {"type": "Feature", "geometry": {"type": "Point", "coordinates": [-113.8451, 45.4983]}, "properties": {"NAME": "W7I/LE-166", "TITLE": "Eagle Mountain", "REGION": "ID - Lemhi County", "ASSOCIATION": "USA - Idaho", "POINTS": "6", "BONUSPOINTS": "3"}}, {"type": "Feature", "geometry": {"type": "Point", "coordinates": [-114.578, 45.3481]}, "properties": {"NAME": "W7I/LE-167", "TITLE": "Long Tom Mountain", "REGION": "ID - Lemhi County", "ASSOCIATION": "USA - Idaho", "POINTS": "6", "BONUSPOINTS": "3"}}, {"type": "Feature", "geometry": {"type": "Point", "coordinates": [-113.7637, 44.9788]}, "properties": {"NAME": "W7I/LE-168", "TITLE": "8250", "REGION": "ID - Lemhi County", "ASSOCIATION": "USA - Idaho", "POINTS": "6", "BONUSPOINTS": "3"}}, {"type": "Feature", "geometry": {"type": "Point", "coordinates": [-114.5101, 45.0058]}, "properties": {"NAME": "W7I/LE-169", "TITLE": "8248", "REGION": "ID - Lemhi County", "ASSOCIATION": "USA - Idaho", "POINTS": "6", "BONUSPOINTS": "3"}}, {"type": "Feature", "geometry": {"type": "Point", "coordinates": [-113.7311, 44.9447]}, "properties": {"NAME": "W7I/LE-170", "TITLE": "8241", "REGION": "ID - Lemhi County", "ASSOCIATION": "USA - Idaho", "POINTS": "6", "BONUSPOINTS": "3"}}, {"type": "Feature", "geometry": {"type": "Point", "coordinates": [-114.4139, 45.4726]}, "properties": {"NAME": "W7I/LE-171", "TITLE": "Tincup Hill", "REGION": "ID - Lemhi County", "ASSOCIATION": "USA - Idaho", "POINTS": "6", "BONUSPOINTS": "3"}}, {"type": "Feature", "geometry": {"type": "Point", "coordinates": [-113.5784, 44.8724]}, "properties": {"NAME": "W7I/LE-172", "TITLE": "Ramsey Mountain", "REGION": "ID - Lemhi County", "ASSOCIATION": "USA - Idaho", "POINTS": "6", "BONUSPOINTS": "3"}}, {"type": "Feature", "geometry": {"type": "Point", "coordinates": [-114.6204, 45.3982]}, "properties": {"NAME": "W7I/LE-173", "TITLE": "8173", "REGION": "ID - Lemhi County", "ASSOCIATION": "USA - Idaho", "POINTS": "6", "BONUSPOINTS": "3"}}, {"type": "Feature", "geometry": {"type": "Point", "coordinates": [-114.0913, 44.8824]}, "properties": {"NAME": "W7I/LE-174", "TITLE": "Sheephorn Mountain", "REGION": "ID - Lemhi County", "ASSOCIATION": "USA - Idaho", "POINTS": "6", "BONUSPOINTS": "3"}}, {"type": "Feature", "geometry": {"type": "Point", "coordinates": [-114.5664, 44.9105]}, "properties": {"NAME": "W7I/LE-175", "TITLE": "8140", "REGION": "ID - Lemhi County", "ASSOCIATION": "USA - Idaho", "POINTS": "6", "BONUSPOINTS": "3"}}, {"type": "Feature", "geometry": {"type": "Point", "coordinates": [-114.4438, 45.3915]}, "properties": {"NAME": "W7I/LE-176", "TITLE": "Beartrap Ridge", "REGION": "ID - Lemhi County", "ASSOCIATION": "USA - Idaho", "POINTS": "6", "BONUSPOINTS": "3"}}, {"type": "Feature", "geometry": {"type": "Point", "coordinates": [-114.4721, 45.479]}, "properties": {"NAME": "W7I/LE-177", "TITLE": "Oreana Ridge", "REGION": "ID - Lemhi County", "ASSOCIATION": "USA - Idaho", "POINTS": "6", "BONUSPOINTS": "3"}}, {"type": "Feature", "geometry": {"type": "Point", "coordinates": [-113.8061, 45.5994]}, "properties": {"NAME": "W7I/LE-178", "TITLE": "8066", "REGION": "ID - Lemhi County", "ASSOCIATION": "USA - Idaho", "POINTS": "6", "BONUSPOINTS": "3"}}, {"type": "Feature", "geometry": {"type": "Point", "coordinates": [-113.9095, 45.6147]}, "properties": {"NAME": "W7I/LE-179", "TITLE": "Anderson Mountain", "REGION": "ID - Lemhi County", "ASSOCIATION": "USA - Idaho", "POINTS": "6", "BONUSPOINTS": "3"}}, {"type": "Feature", "geometry": {"type": "Point", "coordinates": [-114.0467, 45.1005]}, "properties": {"NAME": "W7I/LE-180", "TITLE": "7980", "REGION": "ID - Lemhi County", "ASSOCIATION": "USA - Idaho", "POINTS": "6", "BONUSPOINTS": "3"}}, {"type": "Feature", "geometry": {"type": "Point", "coordinates": [-114.0492, 44.8311]}, "properties": {"NAME": "W7I/LE-181", "TITLE": "King Mountain", "REGION": "ID - Lemhi County", "ASSOCIATION": "USA - Idaho", "POINTS": "6", "BONUSPOINTS": "3"}}, {"type": "Feature", "geometry": {"type": "Point", "coordinates": [-114.4195, 45.5093]}, "properties": {"NAME": "W7I/LE-182", "TITLE": "7940", "REGION": "ID - Lemhi County", "ASSOCIATION": "USA - Idaho", "POINTS": "6", "BONUSPOINTS": "3"}}, {"type": "Feature", "geometry": {"type": "Point", "coordinates": [-114.4428, 44.8279]}, "properties": {"NAME": "W7I/LE-183", "TITLE": "Meyers Cove Point", "REGION": "ID - Lemhi County", "ASSOCIATION": "USA - Idaho", "POINTS": "6", "BONUSPOINTS": "3"}}, {"type": "Feature", "geometry": {"type": "Point", "coordinates": [-114.5091, 45.5612]}, "properties": {"NAME": "W7I/LE-184", "TITLE": "7860", "REGION": "ID - Lemhi County", "ASSOCIATION": "USA - Idaho", "POINTS": "6", "BONUSPOINTS": "3"}}, {"type": "Feature", "geometry": {"type": "Point", "coordinates": [-114.5724, 44.9377]}, "properties": {"NAME": "W7I/LE-185", "TITLE": "7820", "REGION": "ID - Lemhi County", "ASSOCIATION": "USA - Idaho", "POINTS": "6", "BONUSPOINTS": "3"}}, {"type": "Feature", "geometry": {"type": "Point", "coordinates": [-114.1211, 44.8449]}, "properties": {"NAME": "W7I/LE-186", "TITLE": "Iron Mountain", "REGION": "ID - Lemhi County", "ASSOCIATION": "USA - Idaho", "POINTS": "6", "BONUSPOINTS": "3"}}, {"type": "Feature", "geometry": {"type": "Point", "coordinates": [-114.1074, 45.4907]}, "properties": {"NAME": "W7I/LE-187", "TITLE": "Indian Peak", "REGION": "ID - Lemhi County", "ASSOCIATION": "USA - Idaho", "POINTS": "6", "BONUSPOINTS": "3"}}, {"type": "Feature", "geometry": {"type": "Point", "coordinates": [-114.1859, 45.5462]}, "properties": {"NAME": "W7I/LE-188", "TITLE": "7697", "REGION": "ID - Lemhi County", "ASSOCIATION": "USA - Idaho", "POINTS": "6", "BONUSPOINTS": "3"}}, {"type": "Feature", "geometry": {"type": "Point", "coordinates": [-114.1104, 45.4294]}, "properties": {"NAME": "W7I/LE-189", "TITLE": "Ulysses Mountain", "REGION": "ID - Lemhi County", "ASSOCIATION": "USA - Idaho", "POINTS": "6", "BONUSPOINTS": "3"}}, {"type": "Feature", "geometry": {"type": "Point", "coordinates": [-114.7252, 45.4492]}, "properties": {"NAME": "W7I/LE-190", "TITLE": "7580", "REGION": "ID - Lemhi County", "ASSOCIATION": "USA - Idaho", "POINTS": "6", "BONUSPOINTS": "3"}}, {"type": "Feature", "geometry": {"type": "Point", "coordinates": [-114.4232, 44.8525]}, "properties": {"NAME": "W7I/LE-191", "TITLE": "7573", "REGION": "ID - Lemhi County", "ASSOCIATION": "USA - Idaho", "POINTS": "6", "BONUSPOINTS": "3"}}, {"type": "Feature", "geometry": {"type": "Point", "coordinates": [-113.9023, 44.6652]}, "properties": {"NAME": "W7I/LE-192", "TITLE": "7542", "REGION": "ID - Lemhi County", "ASSOCIATION": "USA - Idaho", "POINTS": "6", "BONUSPOINTS": "3"}}, {"type": "Feature", "geometry": {"type": "Point", "coordinates": [-114.5612, 44.9692]}, "properties": {"NAME": "W7I/LE-193", "TITLE": "7511", "REGION": "ID - Lemhi County", "ASSOCIATION": "USA - Idaho", "POINTS": "6", "BONUSPOINTS": "3"}}, {"type": "Feature", "geometry": {"type": "Point", "coordinates": [-113.5586, 44.9764]}, "properties": {"NAME": "W7I/LE-194", "TITLE": "Pattee Benchmark", "REGION": "ID - Lemhi County", "ASSOCIATION": "USA - Idaho", "POINTS": "4", "BONUSPOINTS": "3"}}, {"type": "Feature", "geometry": {"type": "Point", "coordinates": [-113.7088, 44.8189]}, "properties": {"NAME": "W7I/LE-195", "TITLE": "7286", "REGION": "ID - Lemhi County", "ASSOCIATION": "USA - Idaho", "POINTS": "4", "BONUSPOINTS": "3"}}, {"type": "Feature", "geometry": {"type": "Point", "coordinates": [-114.3439, 45.0229]}, "properties": {"NAME": "W7I/LE-196", "TITLE": "7220", "REGION": "ID - Lemhi County", "ASSOCIATION": "USA - Idaho", "POINTS": "4", "BONUSPOINTS": "3"}}, {"type": "Feature", "geometry": {"type": "Point", "coordinates": [-114.2408, 45.4426]}, "properties": {"NAME": "W7I/LE-197", "TITLE": "Dutchler Mountain", "REGION": "ID - Lemhi County", "ASSOCIATION": "USA - Idaho", "POINTS": "4", "BONUSPOINTS": "3"}}, {"type": "Feature", "geometry": {"type": "Point", "coordinates": [-113.815, 45.0534]}, "properties": {"NAME": "W7I/LE-198", "TITLE": "7100", "REGION": "ID - Lemhi County", "ASSOCIATION": "USA - Idaho", "POINTS": "4", "BONUSPOINTS": "3"}}, {"type": "Feature", "geometry": {"type": "Point", "coordinates": [-114.0311, 44.7671]}, "properties": {"NAME": "W7I/LE-199", "TITLE": "Nipple Benchmark", "REGION": "ID - Lemhi County", "ASSOCIATION": "USA - Idaho", "POINTS": "4", "BONUSPOINTS": "3"}}, {"type": "Feature", "geometry": {"type": "Point", "coordinates": [-113.857, 45.3889]}, "properties": {"NAME": "W7I/LE-200", "TITLE": "6970", "REGION": "ID - Lemhi County", "ASSOCIATION": "USA - Idaho", "POINTS": "4", "BONUSPOINTS": "3"}}, {"type": "Feature", "geometry": {"type": "Point", "coordinates": [-114.0577, 45.5002]}, "properties": {"NAME": "W7I/LE-201", "TITLE": "6958", "REGION": "ID - Lemhi County", "ASSOCIATION": "USA - Idaho", "POINTS": "4", "BONUSPOINTS": "3"}}, {"type": "Feature", "geometry": {"type": "Point", "coordinates": [-113.9776, 45.0898]}, "properties": {"NAME": "W7I/LE-202", "TITLE": "6921", "REGION": "ID - Lemhi County", "ASSOCIATION": "USA - Idaho", "POINTS": "4", "BONUSPOINTS": "3"}}, {"type": "Feature", "geometry": {"type": "Point", "coordinates": [-113.7682, 45.2513]}, "properties": {"NAME": "W7I/LE-203", "TITLE": "Golway Benchmark", "REGION": "ID - Lemhi County", "ASSOCIATION": "USA - Idaho", "POINTS": "4", "BONUSPOINTS": "3"}}, {"type": "Feature", "geometry": {"type": "Point", "coordinates": [-114.0176, 44.7274]}, "properties": {"NAME": "W7I/LE-204", "TITLE": "6631", "REGION": "ID - Lemhi County", "ASSOCIATION": "USA - Idaho", "POINTS": "4", "BONUSPOINTS": "3"}}, {"type": "Feature", "geometry": {"type": "Point", "coordinates": [-114.7415, 45.4637]}, "properties": {"NAME": "W7I/LE-205", "TITLE": "6622", "REGION": "ID - Lemhi County", "ASSOCIATION": "USA - Idaho", "POINTS": "4", "BONUSPOINTS": "3"}}, {"type": "Feature", "geometry": {"type": "Point", "coordinates": [-113.9618, 45.4567]}, "properties": {"NAME": "W7I/LE-206", "TITLE": "6612", "REGION": "ID - Lemhi County", "ASSOCIATION": "USA - Idaho", "POINTS": "4", "BONUSPOINTS": "3"}}, {"type": "Feature", "geometry": {"type": "Point", "coordinates": [-113.6413, 44.9084]}, "properties": {"NAME": "W7I/LE-207", "TITLE": "6063", "REGION": "ID - Lemhi County", "ASSOCIATION": "USA - Idaho", "POINTS": "4", "BONUSPOINTS": "3"}}, {"type": "Feature", "geometry": {"type": "Point", "coordinates": [-113.9747, 45.4323]}, "properties": {"NAME": "W7I/LE-208", "TITLE": "5812", "REGION": "ID - Lemhi County", "ASSOCIATION": "USA - Idaho", "POINTS": "2", "BONUSPOINTS": "3"}}, {"type": "Feature", "geometry": {"type": "Point", "coordinates": [-113.9651, 45.4167]}, "properties": {"NAME": "W7I/LE-209", "TITLE": "5641", "REGION": "ID - Lemhi County", "ASSOCIATION": "USA - Idaho", "POINTS": "2", "BONUSPOINTS": "3"}}, {"type": "Feature", "geometry": {"type": "Point", "coordinates": [-113.922, 45.4002]}, "properties": {"NAME": "W7I/LE-210", "TITLE": "5602", "REGION": "ID - Lemhi County", "ASSOCIATION": "USA - Idaho", "POINTS": "2", "BONUSPOINTS": "3"}}, {"type": "Feature", "geometry": {"type": "Point", "coordinates": [-113.9496, 45.4048]}, "properties": {"NAME": "W7I/LE-211", "TITLE": "5362", "REGION": "ID - Lemhi County", "ASSOCIATION": "USA - Idaho", "POINTS": "2", "BONUSPOINTS": "3"}}, {"type": "Feature", "geometry": {"type": "Point", "coordinates": [-113.5998, 45.151]}, "properties": {"NAME": "W7I/LE-212", "TITLE": "9755", "REGION": "ID - Lemhi County", "ASSOCIATION": "USA - Idaho", "POINTS": "8", "BONUSPOINTS": "3"}}, {"type": "Feature", "geometry": {"type": "Point", "coordinates": [-114.7158, 44.7991]}, "properties": {"NAME": "W7I/LE-213", "TITLE": "9505", "REGION": "ID - Lemhi County", "ASSOCIATION": "USA - Idaho", "POINTS": "8", "BONUSPOINTS": "3"}}, {"type": "Feature", "geometry": {"type": "Point", "coordinates": [-113.7591, 44.684]}, "properties": {"NAME": "W7I/LE-214", "TITLE": "9319", "REGION": "ID - Lemhi County", "ASSOCIATION": "USA - Idaho", "POINTS": "6", "BONUSPOINTS": "3"}}, {"type": "Feature", "geometry": {"type": "Point", "coordinates": [-114.6502, 44.7649]}, "properties": {"NAME": "W7I/LE-215", "TITLE": "9161", "REGION": "ID - Lemhi County", "ASSOCIATION": "USA - Idaho", "POINTS": "6", "BONUSPOINTS": "3"}}, {"type": "Feature", "geometry": {"type": "Point", "coordinates": [-113.1012, 44.7094]}, "properties": {"NAME": "W7I/LE-216", "TITLE": "9140", "REGION": "ID - Lemhi County", "ASSOCIATION": "USA - Idaho", "POINTS": "6", "BONUSPOINTS": "3"}}, {"type": "Feature", "geometry": {"type": "Point", "coordinates": [-113.9453, 44.8887]}, "properties": {"NAME": "W7I/LE-217", "TITLE": "6033", "REGION": "ID - Lemhi County", "ASSOCIATION": "USA - Idaho", "POINTS": "4", "BONUSPOINTS": "3"}}, {"type": "Feature", "geometry": {"type": "Point", "coordinates": [-114.1785, 45.3983]}, "properties": {"NAME": "W7I/LE-218", "TITLE": "Indianola Benchmark", "REGION": "ID - Lemhi County", "ASSOCIATION": "USA - Idaho", "POINTS": "1", "BONUSPOINTS": "0"}}]}