{"type": "FeatureCollection", "name": "W7I/ER SUMMITS", "features": [{"type": "Feature", "geometry": {"type": "Point", "coordinates": [-112.9598, 43.9797]}, "properties": {"NAME": "W7I/ER-001", "TITLE": "Mount Hoopes", "REGION": "ID - Eastern Region", "ASSOCIATION": "USA - Idaho", "POINTS": "8", "BONUSPOINTS": "3"}}, {"type": "Feature", "geometry": {"type": "Point", "coordinates": [-112.9652, 43.9884]}, "properties": {"NAME": "W7I/ER-002", "TITLE": "Tyler Peak", "REGION": "ID - Eastern Region", "ASSOCIATION": "USA - Idaho", "POINTS": "8", "BONUSPOINTS": "3"}}, {"type": "Feature", "geometry": {"type": "Point", "coordinates": [-112.9917, 44.0165]}, "properties": {"NAME": "W7I/ER-003", "TITLE": "Shril Benchmark", "REGION": "ID - Eastern Region", "ASSOCIATION": "USA - Idaho", "POINTS": "8", "BONUSPOINTS": "3"}}, {"type": "Feature", "geometry": {"type": "Point", "coordinates": [-112.75, 44.3199]}, "properties": {"NAME": "W7I/ER-004", "TITLE": "Heart Mountain", "REGION": "ID - Eastern Region", "ASSOCIATION": "USA - Idaho", "POINTS": "8", "BONUSPOINTS": "3"}}, {"type": "Feature", "geometry": {"type": "Point", "coordinates": [-111.3954, 44.7391]}, "properties": {"NAME": "W7I/ER-005", "TITLE": "North Targhee Peak", "REGION": "ID - Eastern Region", "ASSOCIATION": "USA - Idaho", "POINTS": "8", "BONUSPOINTS": "3"}}, {"type": "Feature", "geometry": {"type": "Point", "coordinates": [-112.8313, 44.1736]}, "properties": {"NAME": "W7I/ER-006", "TITLE": "Copper Mountain", "REGION": "ID - Eastern Region", "ASSOCIATION": "USA - Idaho", "POINTS": "8", "BONUSPOINTS": "3"}}, {"type": "Feature", "geometry": {"type": "Point", "coordinates": [-112.5999, 44.4848]}, "properties": {"NAME": "W7I/ER-007", "TITLE": "South Red Conglomerate Peaks", "REGION": "ID - Eastern Region", "ASSOCIATION": "USA - Idaho", "POINTS": "8", "BONUSPOINTS": "3"}}, {"type": "Feature", "geometry": {"type": "Point", "coordinates": [-111.4146, 44.7108]}, "properties": {"NAME": "W7I/ER-008", "TITLE": "Black Mountain", "REGION": "ID - Eastern Region", "ASSOCIATION": "USA - Idaho", "POINTS": "8", "BONUSPOINTS": "3"}}, {"type": "Feature", "geometry": {"type": "Point", "coordinates": [-111.505, 44.5621]}, "properties": {"NAME": "W7I/ER-009", "TITLE": "Mount Jefferson", "REGION": "ID - Eastern Region", "ASSOCIATION": "USA - Idaho", "POINTS": "8", "BONUSPOINTS": "3"}}, {"type": "Feature", "geometry": {"type": "Point", "coordinates": [-111.3477, 44.7243]}, "properties": {"NAME": "W7I/ER-010", "TITLE": "Bald Peak", "REGION": "ID - Eastern Region", "ASSOCIATION": "USA - Idaho", "POINTS": "8", "BONUSPOINTS": "3"}}, {"type": "Feature", "geometry": {"type": "Point", "coordinates": [-111.0948, 43.363]}, "properties": {"NAME": "W7I/ER-011", "TITLE": "Mount Baird", "REGION": "ID - Eastern Region", "ASSOCIATION": "USA - Idaho", "POINTS": "8", "BONUSPOINTS": "3"}}, {"type": "Feature", "geometry": {"type": "Point", "coordinates": [-112.5768, 44.4759]}, "properties": {"NAME": "W7I/ER-012", "TITLE": "Cobble Mountain", "REGION": "ID - Eastern Region", "ASSOCIATION": "USA - Idaho", "POINTS": "8", "BONUSPOINTS": "3"}}, {"type": "Feature", "geometry": {"type": "Point", "coordinates": [-111.1283, 43.3688]}, "properties": {"NAME": "W7I/ER-013", "TITLE": "Sheep Creek Peak", "REGION": "ID - Eastern Region", "ASSOCIATION": "USA - Idaho", "POINTS": "8", "BONUSPOINTS": "3"}}, {"type": "Feature", "geometry": {"type": "Point", "coordinates": [-111.0664, 43.415]}, "properties": {"NAME": "W7I/ER-014", "TITLE": "9900", "REGION": "ID - Eastern Region", "ASSOCIATION": "USA - Idaho", "POINTS": "8", "BONUSPOINTS": "3"}}, {"type": "Feature", "geometry": {"type": "Point", "coordinates": [-112.5409, 44.483]}, "properties": {"NAME": "W7I/ER-015", "TITLE": "9900", "REGION": "ID - Eastern Region", "ASSOCIATION": "USA - Idaho", "POINTS": "8", "BONUSPOINTS": "3"}}, {"type": "Feature", "geometry": {"type": "Point", "coordinates": [-111.8693, 44.5666]}, "properties": {"NAME": "W7I/ER-016", "TITLE": "Baldy Mountain", "REGION": "ID - Eastern Region", "ASSOCIATION": "USA - Idaho", "POINTS": "8", "BONUSPOINTS": "3"}}, {"type": "Feature", "geometry": {"type": "Point", "coordinates": [-111.4451, 44.5617]}, "properties": {"NAME": "W7I/ER-017", "TITLE": "Sawtell Peak", "REGION": "ID - Eastern Region", "ASSOCIATION": "USA - Idaho", "POINTS": "8", "BONUSPOINTS": "3"}}, {"type": "Feature", "geometry": {"type": "Point", "coordinates": [-112.8019, 44.169]}, "properties": {"NAME": "W7I/ER-018", "TITLE": "9877", "REGION": "ID - Eastern Region", "ASSOCIATION": "USA - Idaho", "POINTS": "8", "BONUSPOINTS": "3"}}, {"type": "Feature", "geometry": {"type": "Point", "coordinates": [-111.683, 44.5615]}, "properties": {"NAME": "W7I/ER-019", "TITLE": "Taylor Mountain", "REGION": "ID - Eastern Region", "ASSOCIATION": "USA - Idaho", "POINTS": "8", "BONUSPOINTS": "3"}}, {"type": "Feature", "geometry": {"type": "Point", "coordinates": [-112.7767, 44.3741]}, "properties": {"NAME": "W7I/ER-020", "TITLE": "9855", "REGION": "ID - Eastern Region", "ASSOCIATION": "USA - Idaho", "POINTS": "8", "BONUSPOINTS": "3"}}, {"type": "Feature", "geometry": {"type": "Point", "coordinates": [-111.2068, 43.4304]}, "properties": {"NAME": "W7I/ER-021", "TITLE": "Baldy Mountain", "REGION": "ID - Eastern Region", "ASSOCIATION": "USA - Idaho", "POINTS": "8", "BONUSPOINTS": "3"}}, {"type": "Feature", "geometry": {"type": "Point", "coordinates": [-111.0843, 43.3887]}, "properties": {"NAME": "W7I/ER-022", "TITLE": "9811", "REGION": "ID - Eastern Region", "ASSOCIATION": "USA - Idaho", "POINTS": "8", "BONUSPOINTS": "3"}}, {"type": "Feature", "geometry": {"type": "Point", "coordinates": [-111.3115, 43.0934]}, "properties": {"NAME": "W7I/ER-023", "TITLE": "Caribou Mountain", "REGION": "ID - Eastern Region", "ASSOCIATION": "USA - Idaho", "POINTS": "8", "BONUSPOINTS": "3"}}, {"type": "Feature", "geometry": {"type": "Point", "coordinates": [-112.8292, 44.4143]}, "properties": {"NAME": "W7I/ER-024", "TITLE": "9768", "REGION": "ID - Eastern Region", "ASSOCIATION": "USA - Idaho", "POINTS": "8", "BONUSPOINTS": "3"}}, {"type": "Feature", "geometry": {"type": "Point", "coordinates": [-112.747, 44.3808]}, "properties": {"NAME": "W7I/ER-025", "TITLE": "Fritz Peak", "REGION": "ID - Eastern Region", "ASSOCIATION": "USA - Idaho", "POINTS": "8", "BONUSPOINTS": "3"}}, {"type": "Feature", "geometry": {"type": "Point", "coordinates": [-112.6647, 44.4866]}, "properties": {"NAME": "W7I/ER-026", "TITLE": "9660", "REGION": "ID - Eastern Region", "ASSOCIATION": "USA - Idaho", "POINTS": "8", "BONUSPOINTS": "3"}}, {"type": "Feature", "geometry": {"type": "Point", "coordinates": [-111.4837, 44.5758]}, "properties": {"NAME": "W7I/ER-027", "TITLE": "9584", "REGION": "ID - Eastern Region", "ASSOCIATION": "USA - Idaho", "POINTS": "8", "BONUSPOINTS": "3"}}, {"type": "Feature", "geometry": {"type": "Point", "coordinates": [-112.6511, 44.473]}, "properties": {"NAME": "W7I/ER-028", "TITLE": "9521", "REGION": "ID - Eastern Region", "ASSOCIATION": "USA - Idaho", "POINTS": "8", "BONUSPOINTS": "3"}}, {"type": "Feature", "geometry": {"type": "Point", "coordinates": [-112.7091, 44.3315]}, "properties": {"NAME": "W7I/ER-029", "TITLE": "9499", "REGION": "ID - Eastern Region", "ASSOCIATION": "USA - Idaho", "POINTS": "6", "BONUSPOINTS": "3"}}, {"type": "Feature", "geometry": {"type": "Point", "coordinates": [-111.1443, 43.4737]}, "properties": {"NAME": "W7I/ER-030", "TITLE": "Thompson Peak", "REGION": "ID - Eastern Region", "ASSOCIATION": "USA - Idaho", "POINTS": "6", "BONUSPOINTS": "3"}}, {"type": "Feature", "geometry": {"type": "Point", "coordinates": [-111.2749, 43.2358]}, "properties": {"NAME": "W7I/ER-031", "TITLE": "Big Elk Mountain", "REGION": "ID - Eastern Region", "ASSOCIATION": "USA - Idaho", "POINTS": "6", "BONUSPOINTS": "3"}}, {"type": "Feature", "geometry": {"type": "Point", "coordinates": [-111.0591, 43.3154]}, "properties": {"NAME": "W7I/ER-032", "TITLE": "Needle Peak", "REGION": "ID - Eastern Region", "ASSOCIATION": "USA - Idaho", "POINTS": "6", "BONUSPOINTS": "3"}}, {"type": "Feature", "geometry": {"type": "Point", "coordinates": [-111.1742, 43.4615]}, "properties": {"NAME": "W7I/ER-033", "TITLE": "Atkinson Peak", "REGION": "ID - Eastern Region", "ASSOCIATION": "USA - Idaho", "POINTS": "6", "BONUSPOINTS": "3"}}, {"type": "Feature", "geometry": {"type": "Point", "coordinates": [-112.7582, 44.1264]}, "properties": {"NAME": "W7I/ER-034", "TITLE": "9300", "REGION": "ID - Eastern Region", "ASSOCIATION": "USA - Idaho", "POINTS": "6", "BONUSPOINTS": "3"}}, {"type": "Feature", "geometry": {"type": "Point", "coordinates": [-111.2582, 43.2184]}, "properties": {"NAME": "W7I/ER-035", "TITLE": "9285", "REGION": "ID - Eastern Region", "ASSOCIATION": "USA - Idaho", "POINTS": "6", "BONUSPOINTS": "3"}}, {"type": "Feature", "geometry": {"type": "Point", "coordinates": [-112.7873, 44.2928]}, "properties": {"NAME": "W7I/ER-036", "TITLE": "9281", "REGION": "ID - Eastern Region", "ASSOCIATION": "USA - Idaho", "POINTS": "6", "BONUSPOINTS": "3"}}, {"type": "Feature", "geometry": {"type": "Point", "coordinates": [-111.982, 44.5367]}, "properties": {"NAME": "W7I/ER-037", "TITLE": "9220", "REGION": "ID - Eastern Region", "ASSOCIATION": "USA - Idaho", "POINTS": "6", "BONUSPOINTS": "3"}}, {"type": "Feature", "geometry": {"type": "Point", "coordinates": [-112.7968, 44.1983]}, "properties": {"NAME": "W7I/ER-038", "TITLE": "9195", "REGION": "ID - Eastern Region", "ASSOCIATION": "USA - Idaho", "POINTS": "6", "BONUSPOINTS": "3"}}, {"type": "Feature", "geometry": {"type": "Point", "coordinates": [-112.9908, 44.0799]}, "properties": {"NAME": "W7I/ER-039", "TITLE": "9125", "REGION": "ID - Eastern Region", "ASSOCIATION": "USA - Idaho", "POINTS": "6", "BONUSPOINTS": "3"}}, {"type": "Feature", "geometry": {"type": "Point", "coordinates": [-112.8162, 44.1462]}, "properties": {"NAME": "W7I/ER-040", "TITLE": "9085", "REGION": "ID - Eastern Region", "ASSOCIATION": "USA - Idaho", "POINTS": "6", "BONUSPOINTS": "3"}}, {"type": "Feature", "geometry": {"type": "Point", "coordinates": [-111.3586, 43.63]}, "properties": {"NAME": "W7I/ER-041", "TITLE": "Piney Peak", "REGION": "ID - Eastern Region", "ASSOCIATION": "USA - Idaho", "POINTS": "6", "BONUSPOINTS": "3"}}, {"type": "Feature", "geometry": {"type": "Point", "coordinates": [-111.3328, 43.6633]}, "properties": {"NAME": "W7I/ER-042", "TITLE": "Garns Mountain", "REGION": "ID - Eastern Region", "ASSOCIATION": "USA - Idaho", "POINTS": "6", "BONUSPOINTS": "3"}}, {"type": "Feature", "geometry": {"type": "Point", "coordinates": [-111.1276, 43.1137]}, "properties": {"NAME": "W7I/ER-043", "TITLE": "Black Mountain", "REGION": "ID - Eastern Region", "ASSOCIATION": "USA - Idaho", "POINTS": "6", "BONUSPOINTS": "3"}}, {"type": "Feature", "geometry": {"type": "Point", "coordinates": [-111.2908, 43.3214]}, "properties": {"NAME": "W7I/ER-044", "TITLE": "Red Ridge", "REGION": "ID - Eastern Region", "ASSOCIATION": "USA - Idaho", "POINTS": "6", "BONUSPOINTS": "3"}}, {"type": "Feature", "geometry": {"type": "Point", "coordinates": [-111.1174, 43.5088]}, "properties": {"NAME": "W7I/ER-045", "TITLE": "Fogg Hill", "REGION": "ID - Eastern Region", "ASSOCIATION": "USA - Idaho", "POINTS": "6", "BONUSPOINTS": "3"}}, {"type": "Feature", "geometry": {"type": "Point", "coordinates": [-112.3914, 44.4356]}, "properties": {"NAME": "W7I/ER-046", "TITLE": "8871", "REGION": "ID - Eastern Region", "ASSOCIATION": "USA - Idaho", "POINTS": "6", "BONUSPOINTS": "3"}}, {"type": "Feature", "geometry": {"type": "Point", "coordinates": [-111.3447, 43.7069]}, "properties": {"NAME": "W7I/ER-047", "TITLE": "Ryan Peak", "REGION": "ID - Eastern Region", "ASSOCIATION": "USA - Idaho", "POINTS": "6", "BONUSPOINTS": "3"}}, {"type": "Feature", "geometry": {"type": "Point", "coordinates": [-111.3694, 43.594]}, "properties": {"NAME": "W7I/ER-048", "TITLE": "Black Mountain", "REGION": "ID - Eastern Region", "ASSOCIATION": "USA - Idaho", "POINTS": "6", "BONUSPOINTS": "3"}}, {"type": "Feature", "geometry": {"type": "Point", "coordinates": [-111.5773, 44.559]}, "properties": {"NAME": "W7I/ER-049", "TITLE": "8787", "REGION": "ID - Eastern Region", "ASSOCIATION": "USA - Idaho", "POINTS": "6", "BONUSPOINTS": "3"}}, {"type": "Feature", "geometry": {"type": "Point", "coordinates": [-111.3219, 43.2144]}, "properties": {"NAME": "W7I/ER-050", "TITLE": "Little Elk Mountain", "REGION": "ID - Eastern Region", "ASSOCIATION": "USA - Idaho", "POINTS": "6", "BONUSPOINTS": "3"}}, {"type": "Feature", "geometry": {"type": "Point", "coordinates": [-112.0473, 44.4372]}, "properties": {"NAME": "W7I/ER-051", "TITLE": "Lookout Point", "REGION": "ID - Eastern Region", "ASSOCIATION": "USA - Idaho", "POINTS": "6", "BONUSPOINTS": "3"}}, {"type": "Feature", "geometry": {"type": "Point", "coordinates": [-111.0911, 43.5225]}, "properties": {"NAME": "W7I/ER-052", "TITLE": "8710", "REGION": "ID - Eastern Region", "ASSOCIATION": "USA - Idaho", "POINTS": "6", "BONUSPOINTS": "3"}}, {"type": "Feature", "geometry": {"type": "Point", "coordinates": [-111.2595, 44.6249]}, "properties": {"NAME": "W7I/ER-053", "TITLE": "Mount Two Top", "REGION": "ID - Eastern Region", "ASSOCIATION": "USA - Idaho", "POINTS": "6", "BONUSPOINTS": "3"}}, {"type": "Feature", "geometry": {"type": "Point", "coordinates": [-111.2725, 43.6297]}, "properties": {"NAME": "W7I/ER-054", "TITLE": "Red Mountain", "REGION": "ID - Eastern Region", "ASSOCIATION": "USA - Idaho", "POINTS": "6", "BONUSPOINTS": "3"}}, {"type": "Feature", "geometry": {"type": "Point", "coordinates": [-112.1085, 44.5237]}, "properties": {"NAME": "W7I/ER-055", "TITLE": "Little Table Mountain", "REGION": "ID - Eastern Region", "ASSOCIATION": "USA - Idaho", "POINTS": "6", "BONUSPOINTS": "3"}}, {"type": "Feature", "geometry": {"type": "Point", "coordinates": [-111.3491, 43.5475]}, "properties": {"NAME": "W7I/ER-056", "TITLE": "Stouts Mountain", "REGION": "ID - Eastern Region", "ASSOCIATION": "USA - Idaho", "POINTS": "6", "BONUSPOINTS": "3"}}, {"type": "Feature", "geometry": {"type": "Point", "coordinates": [-111.5165, 44.6441]}, "properties": {"NAME": "W7I/ER-057", "TITLE": "Pup Peak", "REGION": "ID - Eastern Region", "ASSOCIATION": "USA - Idaho", "POINTS": "6", "BONUSPOINTS": "3"}}, {"type": "Feature", "geometry": {"type": "Point", "coordinates": [-112.1125, 44.4395]}, "properties": {"NAME": "W7I/ER-058", "TITLE": "Signal Peak", "REGION": "ID - Eastern Region", "ASSOCIATION": "USA - Idaho", "POINTS": "6", "BONUSPOINTS": "3"}}, {"type": "Feature", "geometry": {"type": "Point", "coordinates": [-111.1981, 43.0902]}, "properties": {"NAME": "W7I/ER-059", "TITLE": "Bald Mountain", "REGION": "ID - Eastern Region", "ASSOCIATION": "USA - Idaho", "POINTS": "6", "BONUSPOINTS": "3"}}, {"type": "Feature", "geometry": {"type": "Point", "coordinates": [-112.164, 44.5088]}, "properties": {"NAME": "W7I/ER-060", "TITLE": "8450", "REGION": "ID - Eastern Region", "ASSOCIATION": "USA - Idaho", "POINTS": "6", "BONUSPOINTS": "3"}}, {"type": "Feature", "geometry": {"type": "Point", "coordinates": [-111.2528, 43.5118]}, "properties": {"NAME": "W7I/ER-061", "TITLE": "8440", "REGION": "ID - Eastern Region", "ASSOCIATION": "USA - Idaho", "POINTS": "6", "BONUSPOINTS": "3"}}, {"type": "Feature", "geometry": {"type": "Point", "coordinates": [-111.1933, 43.243]}, "properties": {"NAME": "W7I/ER-062", "TITLE": "Poker Peak", "REGION": "ID - Eastern Region", "ASSOCIATION": "USA - Idaho", "POINTS": "6", "BONUSPOINTS": "3"}}, {"type": "Feature", "geometry": {"type": "Point", "coordinates": [-111.3849, 43.3036]}, "properties": {"NAME": "W7I/ER-063", "TITLE": "8393", "REGION": "ID - Eastern Region", "ASSOCIATION": "USA - Idaho", "POINTS": "6", "BONUSPOINTS": "3"}}, {"type": "Feature", "geometry": {"type": "Point", "coordinates": [-111.2806, 44.6551]}, "properties": {"NAME": "W7I/ER-064", "TITLE": "8386", "REGION": "ID - Eastern Region", "ASSOCIATION": "USA - Idaho", "POINTS": "6", "BONUSPOINTS": "3"}}, {"type": "Feature", "geometry": {"type": "Point", "coordinates": [-111.4793, 44.6587]}, "properties": {"NAME": "W7I/ER-065", "TITLE": "8377", "REGION": "ID - Eastern Region", "ASSOCIATION": "USA - Idaho", "POINTS": "6", "BONUSPOINTS": "3"}}, {"type": "Feature", "geometry": {"type": "Point", "coordinates": [-111.255, 43.6536]}, "properties": {"NAME": "W7I/ER-066", "TITLE": "Henderson Peak", "REGION": "ID - Eastern Region", "ASSOCIATION": "USA - Idaho", "POINTS": "6", "BONUSPOINTS": "3"}}, {"type": "Feature", "geometry": {"type": "Point", "coordinates": [-111.0914, 43.4905]}, "properties": {"NAME": "W7I/ER-067", "TITLE": "8287", "REGION": "ID - Eastern Region", "ASSOCIATION": "USA - Idaho", "POINTS": "6", "BONUSPOINTS": "3"}}, {"type": "Feature", "geometry": {"type": "Point", "coordinates": [-111.8072, 44.5083]}, "properties": {"NAME": "W7I/ER-068", "TITLE": "Dry Creek Peak", "REGION": "ID - Eastern Region", "ASSOCIATION": "USA - Idaho", "POINTS": "6", "BONUSPOINTS": "3"}}, {"type": "Feature", "geometry": {"type": "Point", "coordinates": [-111.3942, 43.6506]}, "properties": {"NAME": "W7I/ER-069", "TITLE": "Temple Peak", "REGION": "ID - Eastern Region", "ASSOCIATION": "USA - Idaho", "POINTS": "6", "BONUSPOINTS": "3"}}, {"type": "Feature", "geometry": {"type": "Point", "coordinates": [-111.2805, 43.4957]}, "properties": {"NAME": "W7I/ER-070", "TITLE": "8191", "REGION": "ID - Eastern Region", "ASSOCIATION": "USA - Idaho", "POINTS": "6", "BONUSPOINTS": "3"}}, {"type": "Feature", "geometry": {"type": "Point", "coordinates": [-112.7599, 44.231]}, "properties": {"NAME": "W7I/ER-071", "TITLE": "Horse Ridge", "REGION": "ID - Eastern Region", "ASSOCIATION": "USA - Idaho", "POINTS": "6", "BONUSPOINTS": "3"}}, {"type": "Feature", "geometry": {"type": "Point", "coordinates": [-111.4141, 43.6598]}, "properties": {"NAME": "W7I/ER-072", "TITLE": "Red Butte", "REGION": "ID - Eastern Region", "ASSOCIATION": "USA - Idaho", "POINTS": "6", "BONUSPOINTS": "3"}}, {"type": "Feature", "geometry": {"type": "Point", "coordinates": [-111.4491, 43.6562]}, "properties": {"NAME": "W7I/ER-073", "TITLE": "Argument Ridge", "REGION": "ID - Eastern Region", "ASSOCIATION": "USA - Idaho", "POINTS": "6", "BONUSPOINTS": "3"}}, {"type": "Feature", "geometry": {"type": "Point", "coordinates": [-111.1968, 43.2737]}, "properties": {"NAME": "W7I/ER-074", "TITLE": "7940", "REGION": "ID - Eastern Region", "ASSOCIATION": "USA - Idaho", "POINTS": "6", "BONUSPOINTS": "3"}}, {"type": "Feature", "geometry": {"type": "Point", "coordinates": [-111.2728, 43.0243]}, "properties": {"NAME": "W7I/ER-075", "TITLE": "7932", "REGION": "ID - Eastern Region", "ASSOCIATION": "USA - Idaho", "POINTS": "6", "BONUSPOINTS": "3"}}, {"type": "Feature", "geometry": {"type": "Point", "coordinates": [-111.2426, 43.6051]}, "properties": {"NAME": "W7I/ER-076", "TITLE": "7906", "REGION": "ID - Eastern Region", "ASSOCIATION": "USA - Idaho", "POINTS": "6", "BONUSPOINTS": "3"}}, {"type": "Feature", "geometry": {"type": "Point", "coordinates": [-111.1754, 43.5069]}, "properties": {"NAME": "W7I/ER-077", "TITLE": "7847", "REGION": "ID - Eastern Region", "ASSOCIATION": "USA - Idaho", "POINTS": "6", "BONUSPOINTS": "3"}}, {"type": "Feature", "geometry": {"type": "Point", "coordinates": [-112.9014, 44.1795]}, "properties": {"NAME": "W7I/ER-078", "TITLE": "7830", "REGION": "ID - Eastern Region", "ASSOCIATION": "USA - Idaho", "POINTS": "6", "BONUSPOINTS": "3"}}, {"type": "Feature", "geometry": {"type": "Point", "coordinates": [-111.5534, 44.3334]}, "properties": {"NAME": "W7I/ER-079", "TITLE": "Bishop Mountain", "REGION": "ID - Eastern Region", "ASSOCIATION": "USA - Idaho", "POINTS": "6", "BONUSPOINTS": "3"}}, {"type": "Feature", "geometry": {"type": "Point", "coordinates": [-111.8818, 44.5033]}, "properties": {"NAME": "W7I/ER-080", "TITLE": "7766", "REGION": "ID - Eastern Region", "ASSOCIATION": "USA - Idaho", "POINTS": "6", "BONUSPOINTS": "3"}}, {"type": "Feature", "geometry": {"type": "Point", "coordinates": [-111.4767, 43.6325]}, "properties": {"NAME": "W7I/ER-081", "TITLE": "West Twin Peaks", "REGION": "ID - Eastern Region", "ASSOCIATION": "USA - Idaho", "POINTS": "6", "BONUSPOINTS": "3"}}, {"type": "Feature", "geometry": {"type": "Point", "coordinates": [-111.483, 43.2821]}, "properties": {"NAME": "W7I/ER-082", "TITLE": "Flag Knoll", "REGION": "ID - Eastern Region", "ASSOCIATION": "USA - Idaho", "POINTS": "6", "BONUSPOINTS": "3"}}, {"type": "Feature", "geometry": {"type": "Point", "coordinates": [-111.5393, 43.4329]}, "properties": {"NAME": "W7I/ER-083", "TITLE": "7704", "REGION": "ID - Eastern Region", "ASSOCIATION": "USA - Idaho", "POINTS": "6", "BONUSPOINTS": "3"}}, {"type": "Feature", "geometry": {"type": "Point", "coordinates": [-111.5261, 43.4544]}, "properties": {"NAME": "W7I/ER-084", "TITLE": "7541", "REGION": "ID - Eastern Region", "ASSOCIATION": "USA - Idaho", "POINTS": "6", "BONUSPOINTS": "3"}}, {"type": "Feature", "geometry": {"type": "Point", "coordinates": [-111.9148, 44.4902]}, "properties": {"NAME": "W7I/ER-085", "TITLE": "7496", "REGION": "ID - Eastern Region", "ASSOCIATION": "USA - Idaho", "POINTS": "4", "BONUSPOINTS": "3"}}, {"type": "Feature", "geometry": {"type": "Point", "coordinates": [-111.5513, 43.0594]}, "properties": {"NAME": "W7I/ER-086", "TITLE": "White Mountain", "REGION": "ID - Eastern Region", "ASSOCIATION": "USA - Idaho", "POINTS": "4", "BONUSPOINTS": "3"}}, {"type": "Feature", "geometry": {"type": "Point", "coordinates": [-111.4131, 43.2318]}, "properties": {"NAME": "W7I/ER-087", "TITLE": "Brock Benchmark", "REGION": "ID - Eastern Region", "ASSOCIATION": "USA - Idaho", "POINTS": "4", "BONUSPOINTS": "3"}}, {"type": "Feature", "geometry": {"type": "Point", "coordinates": [-112.1582, 44.4002]}, "properties": {"NAME": "W7I/ER-088", "TITLE": "7340", "REGION": "ID - Eastern Region", "ASSOCIATION": "USA - Idaho", "POINTS": "4", "BONUSPOINTS": "3"}}, {"type": "Feature", "geometry": {"type": "Point", "coordinates": [-111.5918, 43.4058]}, "properties": {"NAME": "W7I/ER-089", "TITLE": "7283", "REGION": "ID - Eastern Region", "ASSOCIATION": "USA - Idaho", "POINTS": "4", "BONUSPOINTS": "3"}}, {"type": "Feature", "geometry": {"type": "Point", "coordinates": [-111.4417, 43.4298]}, "properties": {"NAME": "W7I/ER-090", "TITLE": "7100", "REGION": "ID - Eastern Region", "ASSOCIATION": "USA - Idaho", "POINTS": "4", "BONUSPOINTS": "3"}}, {"type": "Feature", "geometry": {"type": "Point", "coordinates": [-111.4603, 43.4183]}, "properties": {"NAME": "W7I/ER-091", "TITLE": "7034", "REGION": "ID - Eastern Region", "ASSOCIATION": "USA - Idaho", "POINTS": "4", "BONUSPOINTS": "3"}}, {"type": "Feature", "geometry": {"type": "Point", "coordinates": [-111.6055, 43.6235]}, "properties": {"NAME": "W7I/ER-092", "TITLE": "Kelly Mountain", "REGION": "ID - Eastern Region", "ASSOCIATION": "USA - Idaho", "POINTS": "4", "BONUSPOINTS": "3"}}, {"type": "Feature", "geometry": {"type": "Point", "coordinates": [-111.2354, 44.1705]}, "properties": {"NAME": "W7I/ER-093", "TITLE": "Warm River Butte", "REGION": "ID - Eastern Region", "ASSOCIATION": "USA - Idaho", "POINTS": "4", "BONUSPOINTS": "3"}}, {"type": "Feature", "geometry": {"type": "Point", "coordinates": [-111.3278, 44.1423]}, "properties": {"NAME": "W7I/ER-094", "TITLE": "Snake River Butte", "REGION": "ID - Eastern Region", "ASSOCIATION": "USA - Idaho", "POINTS": "4", "BONUSPOINTS": "3"}}, {"type": "Feature", "geometry": {"type": "Point", "coordinates": [-111.2119, 43.3338]}, "properties": {"NAME": "W7I/ER-095", "TITLE": "Calamity Point", "REGION": "ID - Eastern Region", "ASSOCIATION": "USA - Idaho", "POINTS": "4", "BONUSPOINTS": "3"}}, {"type": "Feature", "geometry": {"type": "Point", "coordinates": [-111.8786, 44.0518]}, "properties": {"NAME": "W7I/ER-096", "TITLE": "North Junipers HP", "REGION": "ID - Eastern Region", "ASSOCIATION": "USA - Idaho", "POINTS": "4", "BONUSPOINTS": "3"}}, {"type": "Feature", "geometry": {"type": "Point", "coordinates": [-111.8769, 44.0119]}, "properties": {"NAME": "W7I/ER-097", "TITLE": "South Junipers HP", "REGION": "ID - Eastern Region", "ASSOCIATION": "USA - Idaho", "POINTS": "4", "BONUSPOINTS": "3"}}, {"type": "Feature", "geometry": {"type": "Point", "coordinates": [-111.9704, 43.7899]}, "properties": {"NAME": "W7I/ER-098", "TITLE": "North Menan Buttes", "REGION": "ID - Eastern Region", "ASSOCIATION": "USA - Idaho", "POINTS": "2", "BONUSPOINTS": "3"}}, {"type": "Feature", "geometry": {"type": "Point", "coordinates": [-111.5131, 44.5363]}, "properties": {"NAME": "W7I/ER-099", "TITLE": "Reas Peak", "REGION": "ID - Eastern Region", "ASSOCIATION": "USA - Idaho", "POINTS": "6", "BONUSPOINTS": "3"}}, {"type": "Feature", "geometry": {"type": "Point", "coordinates": [-112.7802, 44.4209]}, "properties": {"NAME": "W7I/ER-100", "TITLE": "9161", "REGION": "ID - Eastern Region", "ASSOCIATION": "USA - Idaho", "POINTS": "6", "BONUSPOINTS": "3"}}, {"type": "Feature", "geometry": {"type": "Point", "coordinates": [-111.4267, 43.3499]}, "properties": {"NAME": "W7I/ER-101", "TITLE": "Mahogany Ridge", "REGION": "ID - Eastern Region", "ASSOCIATION": "USA - Idaho", "POINTS": "4", "BONUSPOINTS": "3"}}]}