{"type": "FeatureCollection", "name": "W0D/NW SUMMITS", "features": [{"type": "Feature", "geometry": {"type": "Point", "coordinates": [-103.9185, 44.156]}, "properties": {"NAME": "W0D/NW-001", "TITLE": "Crooks Tower", "REGION": "Custer Region", "ASSOCIATION": "USA - Dakotas", "POINTS": "10", "BONUSPOINTS": "3"}}, {"type": "Feature", "geometry": {"type": "Point", "coordinates": [-103.8357, 44.3278]}, "properties": {"NAME": "W0D/NW-002", "TITLE": "Terry Peak", "REGION": "Custer Region", "ASSOCIATION": "USA - Dakotas", "POINTS": "10", "BONUSPOINTS": "3"}}, {"type": "Feature", "geometry": {"type": "Point", "coordinates": [-103.7351, 44.2443]}, "properties": {"NAME": "W0D/NW-003", "TITLE": "Custer Peak", "REGION": "Custer Region", "ASSOCIATION": "USA - Dakotas", "POINTS": "8", "BONUSPOINTS": "3"}}, {"type": "Feature", "geometry": {"type": "Point", "coordinates": [-103.9631, 44.4705]}, "properties": {"NAME": "W0D/NW-004", "TITLE": "Crow Peak", "REGION": "Custer Region", "ASSOCIATION": "USA - Dakotas", "POINTS": "6", "BONUSPOINTS": "3"}}, {"type": "Feature", "geometry": {"type": "Point", "coordinates": [-103.5637, 44.3186]}, "properties": {"NAME": "W0D/NW-005", "TITLE": "5438", "REGION": "Custer Region", "ASSOCIATION": "USA - Dakotas", "POINTS": "6", "BONUSPOINTS": "3"}}, {"type": "Feature", "geometry": {"type": "Point", "coordinates": [-103.7577, 44.4146]}, "properties": {"NAME": "W0D/NW-006", "TITLE": "Polo Peak", "REGION": "Custer Region", "ASSOCIATION": "USA - Dakotas", "POINTS": "6", "BONUSPOINTS": "3"}}, {"type": "Feature", "geometry": {"type": "Point", "coordinates": [-103.6346, 44.4218]}, "properties": {"NAME": "W0D/NW-007", "TITLE": "Crook Mountain", "REGION": "Custer Region", "ASSOCIATION": "USA - Dakotas", "POINTS": "4", "BONUSPOINTS": "3"}}, {"type": "Feature", "geometry": {"type": "Point", "coordinates": [-103.7024, 44.475]}, "properties": {"NAME": "W0D/NW-008", "TITLE": "Elkhorn Peak", "REGION": "Custer Region", "ASSOCIATION": "USA - Dakotas", "POINTS": "4", "BONUSPOINTS": "3"}}, {"type": "Feature", "geometry": {"type": "Point", "coordinates": [-103.8353, 44.4928]}, "properties": {"NAME": "W0D/NW-009", "TITLE": "Lookout Peak", "REGION": "Custer Region", "ASSOCIATION": "USA - Dakotas", "POINTS": "4", "BONUSPOINTS": "3"}}, {"type": "Feature", "geometry": {"type": "Point", "coordinates": [-103.8079, 44.5137]}, "properties": {"NAME": "W0D/NW-010", "TITLE": "4433", "REGION": "Custer Region", "ASSOCIATION": "USA - Dakotas", "POINTS": "4", "BONUSPOINTS": "3"}}, {"type": "Feature", "geometry": {"type": "Point", "coordinates": [-103.4269, 44.4759]}, "properties": {"NAME": "W0D/NW-011", "TITLE": "Bear Butte", "REGION": "Custer Region", "ASSOCIATION": "USA - Dakotas", "POINTS": "4", "BONUSPOINTS": "3"}}, {"type": "Feature", "geometry": {"type": "Point", "coordinates": [-103.4056, 44.2902]}, "properties": {"NAME": "W0D/NW-012", "TITLE": "4110", "REGION": "Custer Region", "ASSOCIATION": "USA - Dakotas", "POINTS": "4", "BONUSPOINTS": "3"}}, {"type": "Feature", "geometry": {"type": "Point", "coordinates": [-103.8866, 45.3703]}, "properties": {"NAME": "W0D/NW-013", "TITLE": "Harding Peak", "REGION": "Custer Region", "ASSOCIATION": "USA - Dakotas", "POINTS": "4", "BONUSPOINTS": "3"}}, {"type": "Feature", "geometry": {"type": "Point", "coordinates": [-103.7083, 45.3757]}, "properties": {"NAME": "W0D/NW-014", "TITLE": "East Short Pine Hills", "REGION": "Custer Region", "ASSOCIATION": "USA - Dakotas", "POINTS": "4", "BONUSPOINTS": "3"}}, {"type": "Feature", "geometry": {"type": "Point", "coordinates": [-103.4546, 45.0101]}, "properties": {"NAME": "W0D/NW-015", "TITLE": "Castle Rock Butte", "REGION": "Custer Region", "ASSOCIATION": "USA - Dakotas", "POINTS": "2", "BONUSPOINTS": "3"}}, {"type": "Feature", "geometry": {"type": "Point", "coordinates": [-103.4515, 45.063]}, "properties": {"NAME": "W0D/NW-016", "TITLE": "Haystack Butte", "REGION": "Custer Region", "ASSOCIATION": "USA - Dakotas", "POINTS": "2", "BONUSPOINTS": "3"}}, {"type": "Feature", "geometry": {"type": "Point", "coordinates": [-103.1928, 45.3718]}, "properties": {"NAME": "W0D/NW-017", "TITLE": "Slim Buttes HP", "REGION": "Custer Region", "ASSOCIATION": "USA - Dakotas", "POINTS": "2", "BONUSPOINTS": "3"}}, {"type": "Feature", "geometry": {"type": "Point", "coordinates": [-103.8212, 44.342]}, "properties": {"NAME": "W0D/NW-018", "TITLE": "Bald Mountain", "REGION": "Custer Region", "ASSOCIATION": "USA - Dakotas", "POINTS": "8", "BONUSPOINTS": "3"}}, {"type": "Feature", "geometry": {"type": "Point", "coordinates": [-103.7882, 44.2527]}, "properties": {"NAME": "W0D/NW-019", "TITLE": "6500", "REGION": "Custer Region", "ASSOCIATION": "USA - Dakotas", "POINTS": "8", "BONUSPOINTS": "3"}}, {"type": "Feature", "geometry": {"type": "Point", "coordinates": [-103.8844, 44.35]}, "properties": {"NAME": "W0D/NW-020", "TITLE": "Elk Mountain", "REGION": "Custer Region", "ASSOCIATION": "USA - Dakotas", "POINTS": "8", "BONUSPOINTS": "3"}}, {"type": "Feature", "geometry": {"type": "Point", "coordinates": [-103.8943, 44.3602]}, "properties": {"NAME": "W0D/NW-021", "TITLE": "Ragged Top Mountain", "REGION": "Custer Region", "ASSOCIATION": "USA - Dakotas", "POINTS": "8", "BONUSPOINTS": "3"}}, {"type": "Feature", "geometry": {"type": "Point", "coordinates": [-103.8554, 44.4312]}, "properties": {"NAME": "W0D/NW-022", "TITLE": "Spearfish Peak", "REGION": "Custer Region", "ASSOCIATION": "USA - Dakotas", "POINTS": "6", "BONUSPOINTS": "3"}}, {"type": "Feature", "geometry": {"type": "Point", "coordinates": [-103.7593, 44.3983]}, "properties": {"NAME": "W0D/NW-023", "TITLE": "Theodore Roosevelt, Mount", "REGION": "Custer Region", "ASSOCIATION": "USA - Dakotas", "POINTS": "6", "BONUSPOINTS": "3"}}, {"type": "Feature", "geometry": {"type": "Point", "coordinates": [-103.5856, 44.203]}, "properties": {"NAME": "W0D/NW-024", "TITLE": "Crystal Mountain", "REGION": "Custer Region", "ASSOCIATION": "USA - Dakotas", "POINTS": "6", "BONUSPOINTS": "3"}}, {"type": "Feature", "geometry": {"type": "Point", "coordinates": [-103.76, 44.3606]}, "properties": {"NAME": "W0D/NW-025", "TITLE": "5660", "REGION": "Custer Region", "ASSOCIATION": "USA - Dakotas", "POINTS": "6", "BONUSPOINTS": "3"}}, {"type": "Feature", "geometry": {"type": "Point", "coordinates": [-103.6408, 44.3464]}, "properties": {"NAME": "W0D/NW-026", "TITLE": "Bear Den Mountain", "REGION": "Custer Region", "ASSOCIATION": "USA - Dakotas", "POINTS": "6", "BONUSPOINTS": "3"}}, {"type": "Feature", "geometry": {"type": "Point", "coordinates": [-103.8088, 44.4103]}, "properties": {"NAME": "W0D/NW-027", "TITLE": "Tetro Rock", "REGION": "Custer Region", "ASSOCIATION": "USA - Dakotas", "POINTS": "6", "BONUSPOINTS": "3"}}, {"type": "Feature", "geometry": {"type": "Point", "coordinates": [-103.6107, 44.3045]}, "properties": {"NAME": "W0D/NW-028", "TITLE": "5510A", "REGION": "Custer Region", "ASSOCIATION": "USA - Dakotas", "POINTS": "6", "BONUSPOINTS": "3"}}, {"type": "Feature", "geometry": {"type": "Point", "coordinates": [-103.584, 44.2886]}, "properties": {"NAME": "W0D/NW-029", "TITLE": "5470", "REGION": "Custer Region", "ASSOCIATION": "USA - Dakotas", "POINTS": "6", "BONUSPOINTS": "3"}}, {"type": "Feature", "geometry": {"type": "Point", "coordinates": [-103.6747, 44.37]}, "properties": {"NAME": "W0D/NW-030", "TITLE": "5452", "REGION": "Custer Region", "ASSOCIATION": "USA - Dakotas", "POINTS": "6", "BONUSPOINTS": "3"}}, {"type": "Feature", "geometry": {"type": "Point", "coordinates": [-103.5432, 44.1785]}, "properties": {"NAME": "W0D/NW-031", "TITLE": "5450", "REGION": "Custer Region", "ASSOCIATION": "USA - Dakotas", "POINTS": "6", "BONUSPOINTS": "3"}}, {"type": "Feature", "geometry": {"type": "Point", "coordinates": [-103.6348, 44.3674]}, "properties": {"NAME": "W0D/NW-032", "TITLE": "5420", "REGION": "Custer Region", "ASSOCIATION": "USA - Dakotas", "POINTS": "6", "BONUSPOINTS": "3"}}, {"type": "Feature", "geometry": {"type": "Point", "coordinates": [-103.5295, 44.2237]}, "properties": {"NAME": "W0D/NW-033", "TITLE": "Green Top", "REGION": "Custer Region", "ASSOCIATION": "USA - Dakotas", "POINTS": "6", "BONUSPOINTS": "3"}}, {"type": "Feature", "geometry": {"type": "Point", "coordinates": [-103.52, 44.2294]}, "properties": {"NAME": "W0D/NW-034", "TITLE": "White Mansion", "REGION": "Custer Region", "ASSOCIATION": "USA - Dakotas", "POINTS": "6", "BONUSPOINTS": "3"}}, {"type": "Feature", "geometry": {"type": "Point", "coordinates": [-103.5392, 44.333]}, "properties": {"NAME": "W0D/NW-035", "TITLE": "Veterans' Peak", "REGION": "Custer Region", "ASSOCIATION": "USA - Dakotas", "POINTS": "6", "BONUSPOINTS": "3"}}, {"type": "Feature", "geometry": {"type": "Point", "coordinates": [-103.4933, 44.1923]}, "properties": {"NAME": "W0D/NW-036", "TITLE": "5321", "REGION": "Custer Region", "ASSOCIATION": "USA - Dakotas", "POINTS": "6", "BONUSPOINTS": "3"}}, {"type": "Feature", "geometry": {"type": "Point", "coordinates": [-103.6944, 44.3992]}, "properties": {"NAME": "W0D/NW-037", "TITLE": "5180", "REGION": "Custer Region", "ASSOCIATION": "USA - Dakotas", "POINTS": "6", "BONUSPOINTS": "3"}}, {"type": "Feature", "geometry": {"type": "Point", "coordinates": [-103.5614, 44.3515]}, "properties": {"NAME": "W0D/NW-038", "TITLE": "5110", "REGION": "Custer Region", "ASSOCIATION": "USA - Dakotas", "POINTS": "6", "BONUSPOINTS": "3"}}, {"type": "Feature", "geometry": {"type": "Point", "coordinates": [-103.5362, 44.3687]}, "properties": {"NAME": "W0D/NW-039", "TITLE": "Deadman Mountain", "REGION": "Custer Region", "ASSOCIATION": "USA - Dakotas", "POINTS": "4", "BONUSPOINTS": "3"}}, {"type": "Feature", "geometry": {"type": "Point", "coordinates": [-103.4842, 44.3453]}, "properties": {"NAME": "W0D/NW-040", "TITLE": "4770", "REGION": "Custer Region", "ASSOCIATION": "USA - Dakotas", "POINTS": "4", "BONUSPOINTS": "3"}}, {"type": "Feature", "geometry": {"type": "Point", "coordinates": [-103.4661, 44.3187]}, "properties": {"NAME": "W0D/NW-041", "TITLE": "4741", "REGION": "Custer Region", "ASSOCIATION": "USA - Dakotas", "POINTS": "4", "BONUSPOINTS": "3"}}, {"type": "Feature", "geometry": {"type": "Point", "coordinates": [-103.6616, 44.4488]}, "properties": {"NAME": "W0D/NW-042", "TITLE": "4420", "REGION": "Custer Region", "ASSOCIATION": "USA - Dakotas", "POINTS": "4", "BONUSPOINTS": "3"}}, {"type": "Feature", "geometry": {"type": "Point", "coordinates": [-103.751, 44.4851]}, "properties": {"NAME": "W0D/NW-043", "TITLE": "4340", "REGION": "Custer Region", "ASSOCIATION": "USA - Dakotas", "POINTS": "4", "BONUSPOINTS": "3"}}, {"type": "Feature", "geometry": {"type": "Point", "coordinates": [-103.7734, 44.5086]}, "properties": {"NAME": "W0D/NW-044", "TITLE": "4330", "REGION": "Custer Region", "ASSOCIATION": "USA - Dakotas", "POINTS": "4", "BONUSPOINTS": "3"}}, {"type": "Feature", "geometry": {"type": "Point", "coordinates": [-103.6011, 44.4684]}, "properties": {"NAME": "W0D/NW-045", "TITLE": "4061", "REGION": "Custer Region", "ASSOCIATION": "USA - Dakotas", "POINTS": "4", "BONUSPOINTS": "3"}}, {"type": "Feature", "geometry": {"type": "Point", "coordinates": [-103.5634, 44.4356]}, "properties": {"NAME": "W0D/NW-046", "TITLE": "Oyster Mountain", "REGION": "Custer Region", "ASSOCIATION": "USA - Dakotas", "POINTS": "4", "BONUSPOINTS": "3"}}, {"type": "Feature", "geometry": {"type": "Point", "coordinates": [-103.4269, 44.3211]}, "properties": {"NAME": "W0D/NW-047", "TITLE": "4042", "REGION": "Custer Region", "ASSOCIATION": "USA - Dakotas", "POINTS": "4", "BONUSPOINTS": "3"}}, {"type": "Feature", "geometry": {"type": "Point", "coordinates": [-103.4771, 44.3817]}, "properties": {"NAME": "W0D/NW-048", "TITLE": "4027", "REGION": "Custer Region", "ASSOCIATION": "USA - Dakotas", "POINTS": "4", "BONUSPOINTS": "3"}}, {"type": "Feature", "geometry": {"type": "Point", "coordinates": [-103.6392, 44.4937]}, "properties": {"NAME": "W0D/NW-049", "TITLE": "4020", "REGION": "Custer Region", "ASSOCIATION": "USA - Dakotas", "POINTS": "4", "BONUSPOINTS": "3"}}, {"type": "Feature", "geometry": {"type": "Point", "coordinates": [-103.323, 44.1881]}, "properties": {"NAME": "W0D/NW-050", "TITLE": "3970", "REGION": "Custer Region", "ASSOCIATION": "USA - Dakotas", "POINTS": "2", "BONUSPOINTS": "3"}}, {"type": "Feature", "geometry": {"type": "Point", "coordinates": [-103.4951, 44.4035]}, "properties": {"NAME": "W0D/NW-051", "TITLE": "3955", "REGION": "Custer Region", "ASSOCIATION": "USA - Dakotas", "POINTS": "2", "BONUSPOINTS": "3"}}, {"type": "Feature", "geometry": {"type": "Point", "coordinates": [-103.3682, 44.2316]}, "properties": {"NAME": "W0D/NW-052", "TITLE": "Piedmont Butte", "REGION": "Custer Region", "ASSOCIATION": "USA - Dakotas", "POINTS": "2", "BONUSPOINTS": "3"}}, {"type": "Feature", "geometry": {"type": "Point", "coordinates": [-103.6616, 45.3606]}, "properties": {"NAME": "W0D/NW-053", "TITLE": "Lone Mountain", "REGION": "Custer Region", "ASSOCIATION": "USA - Dakotas", "POINTS": "2", "BONUSPOINTS": "3"}}, {"type": "Feature", "geometry": {"type": "Point", "coordinates": [-103.623, 44.9691]}, "properties": {"NAME": "W0D/NW-054", "TITLE": "Two Top Butte", "REGION": "Custer Region", "ASSOCIATION": "USA - Dakotas", "POINTS": "2", "BONUSPOINTS": "3"}}, {"type": "Feature", "geometry": {"type": "Point", "coordinates": [-103.6742, 45.8883]}, "properties": {"NAME": "W0D/NW-055", "TITLE": "Table Mountain", "REGION": "Custer Region", "ASSOCIATION": "USA - Dakotas", "POINTS": "2", "BONUSPOINTS": "3"}}, {"type": "Feature", "geometry": {"type": "Point", "coordinates": [-103.213, 45.5806]}, "properties": {"NAME": "W0D/NW-056", "TITLE": "Government Hill", "REGION": "Custer Region", "ASSOCIATION": "USA - Dakotas", "POINTS": "2", "BONUSPOINTS": "3"}}, {"type": "Feature", "geometry": {"type": "Point", "coordinates": [-103.613, 45.6632]}, "properties": {"NAME": "W0D/NW-057", "TITLE": "Sheep Mountain", "REGION": "Custer Region", "ASSOCIATION": "USA - Dakotas", "POINTS": "2", "BONUSPOINTS": "3"}}, {"type": "Feature", "geometry": {"type": "Point", "coordinates": [-103.6532, 45.8642]}, "properties": {"NAME": "W0D/NW-058", "TITLE": "McKinley, Mount", "REGION": "Custer Region", "ASSOCIATION": "USA - Dakotas", "POINTS": "2", "BONUSPOINTS": "3"}}, {"type": "Feature", "geometry": {"type": "Point", "coordinates": [-103.6317, 45.673]}, "properties": {"NAME": "W0D/NW-059", "TITLE": "Lahti Butte", "REGION": "Custer Region", "ASSOCIATION": "USA - Dakotas", "POINTS": "2", "BONUSPOINTS": "3"}}, {"type": "Feature", "geometry": {"type": "Point", "coordinates": [-103.5611, 45.6872]}, "properties": {"NAME": "W0D/NW-060", "TITLE": "Juhala Hill", "REGION": "Custer Region", "ASSOCIATION": "USA - Dakotas", "POINTS": "2", "BONUSPOINTS": "3"}}, {"type": "Feature", "geometry": {"type": "Point", "coordinates": [-103.1854, 44.9986]}, "properties": {"NAME": "W0D/NW-061", "TITLE": "Deers Ears Butte", "REGION": "Custer Region", "ASSOCIATION": "USA - Dakotas", "POINTS": "2", "BONUSPOINTS": "3"}}, {"type": "Feature", "geometry": {"type": "Point", "coordinates": [-103.0557, 45.2822]}, "properties": {"NAME": "W0D/NW-062", "TITLE": "Sheep MountainA", "REGION": "Custer Region", "ASSOCIATION": "USA - Dakotas", "POINTS": "2", "BONUSPOINTS": "3"}}, {"type": "Feature", "geometry": {"type": "Point", "coordinates": [-102.6566, 44.6123]}, "properties": {"NAME": "W0D/NW-063", "TITLE": "3235", "REGION": "Custer Region", "ASSOCIATION": "USA - Dakotas", "POINTS": "2", "BONUSPOINTS": "3"}}]}