{"type": "FeatureCollection", "name": "W0D/ND SUMMITS", "features": [{"type": "Feature", "geometry": {"type": "Point", "coordinates": [-103.7966, 46.9508]}, "properties": {"NAME": "W0D/ND-001", "TITLE": "Camels Hump Butte", "REGION": "North Dakota", "ASSOCIATION": "USA - Dakotas", "POINTS": "2", "BONUSPOINTS": "3"}}, {"type": "Feature", "geometry": {"type": "Point", "coordinates": [-103.6032, 46.6875]}, "properties": {"NAME": "W0D/ND-002", "TITLE": "Bullion Butte", "REGION": "North Dakota", "ASSOCIATION": "USA - Dakotas", "POINTS": "2", "BONUSPOINTS": "3"}}, {"type": "Feature", "geometry": {"type": "Point", "coordinates": [-103.8355, 46.8711]}, "properties": {"NAME": "W0D/ND-003", "TITLE": "Sentinel Butte", "REGION": "North Dakota", "ASSOCIATION": "USA - Dakotas", "POINTS": "2", "BONUSPOINTS": "3"}}, {"type": "Feature", "geometry": {"type": "Point", "coordinates": [-103.6971, 46.867]}, "properties": {"NAME": "W0D/ND-004", "TITLE": "Square Butte", "REGION": "North Dakota", "ASSOCIATION": "USA - Dakotas", "POINTS": "2", "BONUSPOINTS": "3"}}, {"type": "Feature", "geometry": {"type": "Point", "coordinates": [-103.4482, 46.3981]}, "properties": {"NAME": "W0D/ND-005", "TITLE": "Black Butte", "REGION": "North Dakota", "ASSOCIATION": "USA - Dakotas", "POINTS": "2", "BONUSPOINTS": "3"}}, {"type": "Feature", "geometry": {"type": "Point", "coordinates": [-103.3027, 46.387]}, "properties": {"NAME": "W0D/ND-006", "TITLE": "White Butte", "REGION": "North Dakota", "ASSOCIATION": "USA - Dakotas", "POINTS": "2", "BONUSPOINTS": "3"}}, {"type": "Feature", "geometry": {"type": "Point", "coordinates": [-103.8176, 46.87]}, "properties": {"NAME": "W0D/ND-007", "TITLE": "3361", "REGION": "North Dakota", "ASSOCIATION": "USA - Dakotas", "POINTS": "2", "BONUSPOINTS": "3"}}, {"type": "Feature", "geometry": {"type": "Point", "coordinates": [-103.0529, 46.4947]}, "properties": {"NAME": "W0D/ND-008", "TITLE": "West Rainy Butte", "REGION": "North Dakota", "ASSOCIATION": "USA - Dakotas", "POINTS": "2", "BONUSPOINTS": "3"}}, {"type": "Feature", "geometry": {"type": "Point", "coordinates": [-102.9876, 46.4561]}, "properties": {"NAME": "W0D/ND-009", "TITLE": "East Rainy Butte", "REGION": "North Dakota", "ASSOCIATION": "USA - Dakotas", "POINTS": "2", "BONUSPOINTS": "3"}}, {"type": "Feature", "geometry": {"type": "Point", "coordinates": [-103.3923, 46.2041]}, "properties": {"NAME": "W0D/ND-010", "TITLE": "Twin Buttes South", "REGION": "North Dakota", "ASSOCIATION": "USA - Dakotas", "POINTS": "2", "BONUSPOINTS": "3"}}, {"type": "Feature", "geometry": {"type": "Point", "coordinates": [-103.7123, 46.8634]}, "properties": {"NAME": "W0D/ND-011", "TITLE": "3305", "REGION": "North Dakota", "ASSOCIATION": "USA - Dakotas", "POINTS": "2", "BONUSPOINTS": "3"}}, {"type": "Feature", "geometry": {"type": "Point", "coordinates": [-103.9194, 46.8099]}, "properties": {"NAME": "W0D/ND-012", "TITLE": "Rocky Butte", "REGION": "North Dakota", "ASSOCIATION": "USA - Dakotas", "POINTS": "2", "BONUSPOINTS": "3"}}, {"type": "Feature", "geometry": {"type": "Point", "coordinates": [-102.9249, 47.4434]}, "properties": {"NAME": "W0D/ND-013", "TITLE": "Killdeer Mountains HP", "REGION": "North Dakota", "ASSOCIATION": "USA - Dakotas", "POINTS": "2", "BONUSPOINTS": "3"}}, {"type": "Feature", "geometry": {"type": "Point", "coordinates": [-102.8772, 47.509]}, "properties": {"NAME": "W0D/ND-014", "TITLE": "North Killdeer Mountain", "REGION": "North Dakota", "ASSOCIATION": "USA - Dakotas", "POINTS": "2", "BONUSPOINTS": "3"}}, {"type": "Feature", "geometry": {"type": "Point", "coordinates": [-102.9572, 46.6743]}, "properties": {"NAME": "W0D/ND-015", "TITLE": "Brown Benchmark", "REGION": "North Dakota", "ASSOCIATION": "USA - Dakotas", "POINTS": "2", "BONUSPOINTS": "3"}}, {"type": "Feature", "geometry": {"type": "Point", "coordinates": [-102.5704, 46.5712]}, "properties": {"NAME": "W0D/ND-016", "TITLE": "Black Butte", "REGION": "North Dakota", "ASSOCIATION": "USA - Dakotas", "POINTS": "2", "BONUSPOINTS": "3"}}, {"type": "Feature", "geometry": {"type": "Point", "coordinates": [-101.8053, 46.1323]}, "properties": {"NAME": "W0D/ND-017", "TITLE": "Pretty Rock Butte", "REGION": "North Dakota", "ASSOCIATION": "USA - Dakotas", "POINTS": "1", "BONUSPOINTS": "0"}}, {"type": "Feature", "geometry": {"type": "Point", "coordinates": [-102.8923, 47.8591]}, "properties": {"NAME": "W0D/ND-018", "TITLE": "Saddle Butte", "REGION": "North Dakota", "ASSOCIATION": "USA - Dakotas", "POINTS": "1", "BONUSPOINTS": "0"}}, {"type": "Feature", "geometry": {"type": "Point", "coordinates": [-102.115, 46.4827]}, "properties": {"NAME": "W0D/ND-019", "TITLE": "North Star Butte", "REGION": "North Dakota", "ASSOCIATION": "USA - Dakotas", "POINTS": "1", "BONUSPOINTS": "0"}}, {"type": "Feature", "geometry": {"type": "Point", "coordinates": [-102.826, 47.8967]}, "properties": {"NAME": "W0D/ND-020", "TITLE": "2790", "REGION": "North Dakota", "ASSOCIATION": "USA - Dakotas", "POINTS": "1", "BONUSPOINTS": "0"}}, {"type": "Feature", "geometry": {"type": "Point", "coordinates": [-102.7247, 47.8592]}, "properties": {"NAME": "W0D/ND-021", "TITLE": "Blue Butte", "REGION": "North Dakota", "ASSOCIATION": "USA - Dakotas", "POINTS": "1", "BONUSPOINTS": "0"}}, {"type": "Feature", "geometry": {"type": "Point", "coordinates": [-102.7555, 47.6656]}, "properties": {"NAME": "W0D/ND-022", "TITLE": "2710", "REGION": "North Dakota", "ASSOCIATION": "USA - Dakotas", "POINTS": "1", "BONUSPOINTS": "0"}}, {"type": "Feature", "geometry": {"type": "Point", "coordinates": [-103.7949, 47.6305]}, "properties": {"NAME": "W0D/ND-023", "TITLE": "Sheep Butte", "REGION": "North Dakota", "ASSOCIATION": "USA - Dakotas", "POINTS": "1", "BONUSPOINTS": "0"}}, {"type": "Feature", "geometry": {"type": "Point", "coordinates": [-102.9052, 47.7786]}, "properties": {"NAME": "W0D/ND-024", "TITLE": "Kummer Ridge", "REGION": "North Dakota", "ASSOCIATION": "USA - Dakotas", "POINTS": "1", "BONUSPOINTS": "0"}}, {"type": "Feature", "geometry": {"type": "Point", "coordinates": [-103.132, 47.6437]}, "properties": {"NAME": "W0D/ND-025", "TITLE": "Olson Benchmark", "REGION": "North Dakota", "ASSOCIATION": "USA - Dakotas", "POINTS": "1", "BONUSPOINTS": "0"}}, {"type": "Feature", "geometry": {"type": "Point", "coordinates": [-103.487, 47.5517]}, "properties": {"NAME": "W0D/ND-026", "TITLE": "2590", "REGION": "North Dakota", "ASSOCIATION": "USA - Dakotas", "POINTS": "1", "BONUSPOINTS": "0"}}, {"type": "Feature", "geometry": {"type": "Point", "coordinates": [-102.6221, 48.3938]}, "properties": {"NAME": "W0D/ND-027", "TITLE": "Mountrail County HP", "REGION": "North Dakota", "ASSOCIATION": "USA - Dakotas", "POINTS": "1", "BONUSPOINTS": "0"}}, {"type": "Feature", "geometry": {"type": "Point", "coordinates": [-101.0625, 46.077]}, "properties": {"NAME": "W0D/ND-028", "TITLE": "Pamplin Hills", "REGION": "North Dakota", "ASSOCIATION": "USA - Dakotas", "POINTS": "1", "BONUSPOINTS": "0"}}, {"type": "Feature", "geometry": {"type": "Point", "coordinates": [-100.4297, 48.9994]}, "properties": {"NAME": "W0D/ND-029", "TITLE": "Boundary Butte", "REGION": "North Dakota", "ASSOCIATION": "USA - Dakotas", "POINTS": "1", "BONUSPOINTS": "0"}}, {"type": "Feature", "geometry": {"type": "Point", "coordinates": [-102.4442, 48.073]}, "properties": {"NAME": "W0D/ND-030", "TITLE": "Little Benchmark", "REGION": "North Dakota", "ASSOCIATION": "USA - Dakotas", "POINTS": "1", "BONUSPOINTS": "0"}}, {"type": "Feature", "geometry": {"type": "Point", "coordinates": [-101.6752, 46.9131]}, "properties": {"NAME": "W0D/ND-031", "TITLE": "Hailstone Butte", "REGION": "North Dakota", "ASSOCIATION": "USA - Dakotas", "POINTS": "1", "BONUSPOINTS": "0"}}, {"type": "Feature", "geometry": {"type": "Point", "coordinates": [-102.4022, 47.6537]}, "properties": {"NAME": "W0D/ND-032", "TITLE": "Heart Butte", "REGION": "North Dakota", "ASSOCIATION": "USA - Dakotas", "POINTS": "1", "BONUSPOINTS": "0"}}, {"type": "Feature", "geometry": {"type": "Point", "coordinates": [-102.2742, 47.5132]}, "properties": {"NAME": "W0D/ND-033", "TITLE": "2415", "REGION": "North Dakota", "ASSOCIATION": "USA - Dakotas", "POINTS": "1", "BONUSPOINTS": "0"}}, {"type": "Feature", "geometry": {"type": "Point", "coordinates": [-101.1948, 46.6607]}, "properties": {"NAME": "W0D/ND-034", "TITLE": "2410", "REGION": "North Dakota", "ASSOCIATION": "USA - Dakotas", "POINTS": "1", "BONUSPOINTS": "0"}}, {"type": "Feature", "geometry": {"type": "Point", "coordinates": [-100.7284, 46.5992]}, "properties": {"NAME": "W0D/ND-035", "TITLE": "2330", "REGION": "North Dakota", "ASSOCIATION": "USA - Dakotas", "POINTS": "1", "BONUSPOINTS": "0"}}, {"type": "Feature", "geometry": {"type": "Point", "coordinates": [-99.8816, 47.3129]}, "properties": {"NAME": "W0D/ND-036", "TITLE": "Kidder County HP", "REGION": "North Dakota", "ASSOCIATION": "USA - Dakotas", "POINTS": "1", "BONUSPOINTS": "0"}}, {"type": "Feature", "geometry": {"type": "Point", "coordinates": [-102.8888, 48.1674]}, "properties": {"NAME": "W0D/ND-037", "TITLE": "2322", "REGION": "North Dakota", "ASSOCIATION": "USA - Dakotas", "POINTS": "1", "BONUSPOINTS": "0"}}, {"type": "Feature", "geometry": {"type": "Point", "coordinates": [-102.5437, 47.8246]}, "properties": {"NAME": "W0D/ND-038", "TITLE": "2290", "REGION": "North Dakota", "ASSOCIATION": "USA - Dakotas", "POINTS": "1", "BONUSPOINTS": "0"}}, {"type": "Feature", "geometry": {"type": "Point", "coordinates": [-99.3079, 46.5002]}, "properties": {"NAME": "W0D/ND-039", "TITLE": "Streeter Moraine", "REGION": "North Dakota", "ASSOCIATION": "USA - Dakotas", "POINTS": "1", "BONUSPOINTS": "0"}}, {"type": "Feature", "geometry": {"type": "Point", "coordinates": [-100.3599, 46.0666]}, "properties": {"NAME": "W0D/ND-040", "TITLE": "2171", "REGION": "North Dakota", "ASSOCIATION": "USA - Dakotas", "POINTS": "1", "BONUSPOINTS": "0"}}, {"type": "Feature", "geometry": {"type": "Point", "coordinates": [-100.4367, 46.6704]}, "properties": {"NAME": "W0D/ND-041", "TITLE": "2163", "REGION": "North Dakota", "ASSOCIATION": "USA - Dakotas", "POINTS": "1", "BONUSPOINTS": "0"}}]}