{"type": "FeatureCollection", "name": "W1/MV SUMMITS", "features": [{"type": "Feature", "geometry": {"type": "Point", "coordinates": [-71.5467, 43.3967]}, "properties": {"NAME": "W1/MV-001", "TITLE": "Bean Hill", "REGION": "Merrimack Valley", "ASSOCIATION": "USA - CT / ME / MA / NH / RI / VT", "POINTS": "1", "BONUSPOINTS": "0"}}, {"type": "Feature", "geometry": {"type": "Point", "coordinates": [-71.3197, 43.1844]}, "properties": {"NAME": "W1/MV-002", "TITLE": "Fort Mountain", "REGION": "Merrimack Valley", "ASSOCIATION": "USA - CT / ME / MA / NH / RI / VT", "POINTS": "1", "BONUSPOINTS": "0"}}, {"type": "Feature", "geometry": {"type": "Point", "coordinates": [-71.605, 42.9911]}, "properties": {"NAME": "W1/MV-003", "TITLE": "North Mountain on Uncanoonuc", "REGION": "Merrimack Valley", "ASSOCIATION": "USA - CT / ME / MA / NH / RI / VT", "POINTS": "1", "BONUSPOINTS": "0"}}, {"type": "Feature", "geometry": {"type": "Point", "coordinates": [-71.6622, 42.9483]}, "properties": {"NAME": "W1/MV-004", "TITLE": "Joe English Hill", "REGION": "Merrimack Valley", "ASSOCIATION": "USA - CT / ME / MA / NH / RI / VT", "POINTS": "1", "BONUSPOINTS": "0"}}, {"type": "Feature", "geometry": {"type": "Point", "coordinates": [-71.4333, 43.22]}, "properties": {"NAME": "W1/MV-005", "TITLE": "Pt. 1010+, 0.3 mi. SW of Garvin Hill", "REGION": "Merrimack Valley", "ASSOCIATION": "USA - CT / ME / MA / NH / RI / VT", "POINTS": "1", "BONUSPOINTS": "0"}}, {"type": "Feature", "geometry": {"type": "Point", "coordinates": [-71.5056, 43.2792]}, "properties": {"NAME": "W1/MV-006", "TITLE": "Oak Hill", "REGION": "Merrimack Valley", "ASSOCIATION": "USA - CT / ME / MA / NH / RI / VT", "POINTS": "1", "BONUSPOINTS": "0"}}, {"type": "Feature", "geometry": {"type": "Point", "coordinates": [-71.6181, 43.1156]}, "properties": {"NAME": "W1/MV-007", "TITLE": "Pt. 920+", "REGION": "Merrimack Valley", "ASSOCIATION": "USA - CT / ME / MA / NH / RI / VT", "POINTS": "1", "BONUSPOINTS": "0"}}, {"type": "Feature", "geometry": {"type": "Point", "coordinates": [-71.2011, 43.1794]}, "properties": {"NAME": "W1/MV-008", "TITLE": "Saddleback Mountain", "REGION": "Merrimack Valley", "ASSOCIATION": "USA - CT / ME / MA / NH / RI / VT", "POINTS": "1", "BONUSPOINTS": "0"}}]}