{"type": "FeatureCollection", "name": "W7N/HU SUMMITS", "features": [{"type": "Feature", "geometry": {"type": "Point", "coordinates": [-117.5888, 41.668]}, "properties": {"NAME": "W7N/HU-001", "TITLE": "Granite Peak", "REGION": "NV-Humboldt", "ASSOCIATION": "USA - Nevada", "POINTS": "10", "BONUSPOINTS": "3"}}, {"type": "Feature", "geometry": {"type": "Point", "coordinates": [-117.6715, 41.5681]}, "properties": {"NAME": "W7N/HU-002", "TITLE": "Santa Rosa Peak", "REGION": "NV-Humboldt", "ASSOCIATION": "USA - Nevada", "POINTS": "10", "BONUSPOINTS": "3"}}, {"type": "Feature", "geometry": {"type": "Point", "coordinates": [-117.6669, 41.4976]}, "properties": {"NAME": "W7N/HU-003", "TITLE": "Paradise Peak", "REGION": "NV-Humboldt", "ASSOCIATION": "USA - Nevada", "POINTS": "8", "BONUSPOINTS": "3"}}, {"type": "Feature", "geometry": {"type": "Point", "coordinates": [-118.7323, 41.6574]}, "properties": {"NAME": "W7N/HU-004", "TITLE": "Pine Forest Range HP", "REGION": "NV-Humboldt", "ASSOCIATION": "USA - Nevada", "POINTS": "8", "BONUSPOINTS": "3"}}, {"type": "Feature", "geometry": {"type": "Point", "coordinates": [-117.669, 41.481]}, "properties": {"NAME": "W7N/HU-005", "TITLE": "9420", "REGION": "NV-Humboldt", "ASSOCIATION": "USA - Nevada", "POINTS": "8", "BONUSPOINTS": "3"}}, {"type": "Feature", "geometry": {"type": "Point", "coordinates": [-117.6073, 40.8605]}, "properties": {"NAME": "W7N/HU-006", "TITLE": "Sonoma Peak", "REGION": "NV-Humboldt", "ASSOCIATION": "USA - Nevada", "POINTS": "8", "BONUSPOINTS": "3"}}, {"type": "Feature", "geometry": {"type": "Point", "coordinates": [-117.6237, 40.8723]}, "properties": {"NAME": "W7N/HU-007", "TITLE": "9192", "REGION": "NV-Humboldt", "ASSOCIATION": "USA - Nevada", "POINTS": "8", "BONUSPOINTS": "3"}}, {"type": "Feature", "geometry": {"type": "Point", "coordinates": [-117.6586, 41.541]}, "properties": {"NAME": "W7N/HU-008", "TITLE": "9153", "REGION": "NV-Humboldt", "ASSOCIATION": "USA - Nevada", "POINTS": "8", "BONUSPOINTS": "3"}}, {"type": "Feature", "geometry": {"type": "Point", "coordinates": [-118.4161, 41.3033]}, "properties": {"NAME": "W7N/HU-009", "TITLE": "Quinn Peak", "REGION": "NV-Humboldt", "ASSOCIATION": "USA - Nevada", "POINTS": "8", "BONUSPOINTS": "3"}}, {"type": "Feature", "geometry": {"type": "Point", "coordinates": [-118.4018, 41.2763]}, "properties": {"NAME": "W7N/HU-010", "TITLE": "8995", "REGION": "NV-Humboldt", "ASSOCIATION": "USA - Nevada", "POINTS": "8", "BONUSPOINTS": "3"}}, {"type": "Feature", "geometry": {"type": "Point", "coordinates": [-118.5547, 41.2022]}, "properties": {"NAME": "W7N/HU-011", "TITLE": "King Lear Peak", "REGION": "NV-Humboldt", "ASSOCIATION": "USA - Nevada", "POINTS": "8", "BONUSPOINTS": "3"}}, {"type": "Feature", "geometry": {"type": "Point", "coordinates": [-117.7075, 41.4438]}, "properties": {"NAME": "W7N/HU-012", "TITLE": "8837", "REGION": "NV-Humboldt", "ASSOCIATION": "USA - Nevada", "POINTS": "8", "BONUSPOINTS": "3"}}, {"type": "Feature", "geometry": {"type": "Point", "coordinates": [-118.3884, 41.3007]}, "properties": {"NAME": "W7N/HU-013", "TITLE": "8806", "REGION": "NV-Humboldt", "ASSOCIATION": "USA - Nevada", "POINTS": "8", "BONUSPOINTS": "3"}}, {"type": "Feature", "geometry": {"type": "Point", "coordinates": [-118.9441, 41.4865]}, "properties": {"NAME": "W7N/HU-014", "TITLE": "Stewart Benchmark", "REGION": "NV-Humboldt", "ASSOCIATION": "USA - Nevada", "POINTS": "8", "BONUSPOINTS": "3"}}, {"type": "Feature", "geometry": {"type": "Point", "coordinates": [-117.5526, 41.7896]}, "properties": {"NAME": "W7N/HU-015", "TITLE": "Buckskin Mountain", "REGION": "NV-Humboldt", "ASSOCIATION": "USA - Nevada", "POINTS": "8", "BONUSPOINTS": "3"}}, {"type": "Feature", "geometry": {"type": "Point", "coordinates": [-117.6531, 41.6053]}, "properties": {"NAME": "W7N/HU-016", "TITLE": "8700", "REGION": "NV-Humboldt", "ASSOCIATION": "USA - Nevada", "POINTS": "8", "BONUSPOINTS": "3"}}, {"type": "Feature", "geometry": {"type": "Point", "coordinates": [-117.3056, 41.1606]}, "properties": {"NAME": "W7N/HU-017", "TITLE": "Adam Peak", "REGION": "NV-Humboldt", "ASSOCIATION": "USA - Nevada", "POINTS": "8", "BONUSPOINTS": "3"}}, {"type": "Feature", "geometry": {"type": "Point", "coordinates": [-117.6989, 41.3916]}, "properties": {"NAME": "W7N/HU-018", "TITLE": "View Benchmark", "REGION": "NV-Humboldt", "ASSOCIATION": "USA - Nevada", "POINTS": "8", "BONUSPOINTS": "3"}}, {"type": "Feature", "geometry": {"type": "Point", "coordinates": [-119.0599, 41.2799]}, "properties": {"NAME": "W7N/HU-019", "TITLE": "Big Mountain", "REGION": "NV-Humboldt", "ASSOCIATION": "USA - Nevada", "POINTS": "8", "BONUSPOINTS": "3"}}, {"type": "Feature", "geometry": {"type": "Point", "coordinates": [-117.5332, 41.6652]}, "properties": {"NAME": "W7N/HU-020", "TITLE": "8580", "REGION": "NV-Humboldt", "ASSOCIATION": "USA - Nevada", "POINTS": "8", "BONUSPOINTS": "3"}}, {"type": "Feature", "geometry": {"type": "Point", "coordinates": [-117.1325, 40.675]}, "properties": {"NAME": "W7N/HU-021", "TITLE": "North Peak", "REGION": "NV-Humboldt", "ASSOCIATION": "USA - Nevada", "POINTS": "8", "BONUSPOINTS": "3"}}, {"type": "Feature", "geometry": {"type": "Point", "coordinates": [-119.2621, 41.0977]}, "properties": {"NAME": "W7N/HU-022", "TITLE": "Donnelly Peak", "REGION": "NV-Humboldt", "ASSOCIATION": "USA - Nevada", "POINTS": "8", "BONUSPOINTS": "3"}}, {"type": "Feature", "geometry": {"type": "Point", "coordinates": [-118.2231, 41.9795]}, "properties": {"NAME": "W7N/HU-023", "TITLE": "Orevada View Benchmark", "REGION": "NV-Humboldt", "ASSOCIATION": "USA - Nevada", "POINTS": "8", "BONUSPOINTS": "3"}}, {"type": "Feature", "geometry": {"type": "Point", "coordinates": [-118.4101, 41.8867]}, "properties": {"NAME": "W7N/HU-024", "TITLE": "Engeler Peak", "REGION": "NV-Humboldt", "ASSOCIATION": "USA - Nevada", "POINTS": "6", "BONUSPOINTS": "3"}}, {"type": "Feature", "geometry": {"type": "Point", "coordinates": [-118.4714, 41.3663]}, "properties": {"NAME": "W7N/HU-025", "TITLE": "Parrot Peak", "REGION": "NV-Humboldt", "ASSOCIATION": "USA - Nevada", "POINTS": "6", "BONUSPOINTS": "3"}}, {"type": "Feature", "geometry": {"type": "Point", "coordinates": [-118.418, 41.9026]}, "properties": {"NAME": "W7N/HU-026", "TITLE": "Trident Peak", "REGION": "NV-Humboldt", "ASSOCIATION": "USA - Nevada", "POINTS": "6", "BONUSPOINTS": "3"}}, {"type": "Feature", "geometry": {"type": "Point", "coordinates": [-117.3088, 41.8379]}, "properties": {"NAME": "W7N/HU-027", "TITLE": "Capitol Peak", "REGION": "NV-Humboldt", "ASSOCIATION": "USA - Nevada", "POINTS": "6", "BONUSPOINTS": "3"}}, {"type": "Feature", "geometry": {"type": "Point", "coordinates": [-118.4656, 41.3318]}, "properties": {"NAME": "W7N/HU-028", "TITLE": "8261", "REGION": "NV-Humboldt", "ASSOCIATION": "USA - Nevada", "POINTS": "6", "BONUSPOINTS": "3"}}, {"type": "Feature", "geometry": {"type": "Point", "coordinates": [-118.9728, 41.4398]}, "properties": {"NAME": "W7N/HU-029", "TITLE": "8174", "REGION": "NV-Humboldt", "ASSOCIATION": "USA - Nevada", "POINTS": "6", "BONUSPOINTS": "3"}}, {"type": "Feature", "geometry": {"type": "Point", "coordinates": [-118.9965, 41.4192]}, "properties": {"NAME": "W7N/HU-030", "TITLE": "8135", "REGION": "NV-Humboldt", "ASSOCIATION": "USA - Nevada", "POINTS": "6", "BONUSPOINTS": "3"}}, {"type": "Feature", "geometry": {"type": "Point", "coordinates": [-117.446, 41.6213]}, "properties": {"NAME": "W7N/HU-031", "TITLE": "Coal Pit Peak", "REGION": "NV-Humboldt", "ASSOCIATION": "USA - Nevada", "POINTS": "6", "BONUSPOINTS": "3"}}, {"type": "Feature", "geometry": {"type": "Point", "coordinates": [-118.6684, 41.7131]}, "properties": {"NAME": "W7N/HU-032", "TITLE": "8086", "REGION": "NV-Humboldt", "ASSOCIATION": "USA - Nevada", "POINTS": "6", "BONUSPOINTS": "3"}}, {"type": "Feature", "geometry": {"type": "Point", "coordinates": [-117.5816, 40.7658]}, "properties": {"NAME": "W7N/HU-033", "TITLE": "8051", "REGION": "NV-Humboldt", "ASSOCIATION": "USA - Nevada", "POINTS": "6", "BONUSPOINTS": "3"}}, {"type": "Feature", "geometry": {"type": "Point", "coordinates": [-117.345, 41.1219]}, "properties": {"NAME": "W7N/HU-034", "TITLE": "8030", "REGION": "NV-Humboldt", "ASSOCIATION": "USA - Nevada", "POINTS": "6", "BONUSPOINTS": "3"}}, {"type": "Feature", "geometry": {"type": "Point", "coordinates": [-117.3547, 40.749]}, "properties": {"NAME": "W7N/HU-035", "TITLE": "Buffalo Mountain", "REGION": "NV-Humboldt", "ASSOCIATION": "USA - Nevada", "POINTS": "6", "BONUSPOINTS": "3"}}, {"type": "Feature", "geometry": {"type": "Point", "coordinates": [-118.5366, 41.2288]}, "properties": {"NAME": "W7N/HU-036", "TITLE": "7940", "REGION": "NV-Humboldt", "ASSOCIATION": "USA - Nevada", "POINTS": "6", "BONUSPOINTS": "3"}}, {"type": "Feature", "geometry": {"type": "Point", "coordinates": [-118.6527, 41.8121]}, "properties": {"NAME": "W7N/HU-037", "TITLE": "Mahogany Mountain", "REGION": "NV-Humboldt", "ASSOCIATION": "USA - Nevada", "POINTS": "6", "BONUSPOINTS": "3"}}, {"type": "Feature", "geometry": {"type": "Point", "coordinates": [-117.7668, 41.1715]}, "properties": {"NAME": "W7N/HU-038", "TITLE": "Bloody Run Peak", "REGION": "NV-Humboldt", "ASSOCIATION": "USA - Nevada", "POINTS": "6", "BONUSPOINTS": "3"}}, {"type": "Feature", "geometry": {"type": "Point", "coordinates": [-118.3975, 41.9128]}, "properties": {"NAME": "W7N/HU-039", "TITLE": "Black Diamond Peak", "REGION": "NV-Humboldt", "ASSOCIATION": "USA - Nevada", "POINTS": "6", "BONUSPOINTS": "3"}}, {"type": "Feature", "geometry": {"type": "Point", "coordinates": [-118.7622, 41.5861]}, "properties": {"NAME": "W7N/HU-040", "TITLE": "New York Peak", "REGION": "NV-Humboldt", "ASSOCIATION": "USA - Nevada", "POINTS": "6", "BONUSPOINTS": "3"}}, {"type": "Feature", "geometry": {"type": "Point", "coordinates": [-117.1363, 40.6549]}, "properties": {"NAME": "W7N/HU-041", "TITLE": "7895", "REGION": "NV-Humboldt", "ASSOCIATION": "USA - Nevada", "POINTS": "6", "BONUSPOINTS": "3"}}, {"type": "Feature", "geometry": {"type": "Point", "coordinates": [-117.5296, 41.8646]}, "properties": {"NAME": "W7N/HU-042", "TITLE": "Eightmile Mountain", "REGION": "NV-Humboldt", "ASSOCIATION": "USA - Nevada", "POINTS": "6", "BONUSPOINTS": "3"}}, {"type": "Feature", "geometry": {"type": "Point", "coordinates": [-118.5648, 41.1762]}, "properties": {"NAME": "W7N/HU-043", "TITLE": "7851", "REGION": "NV-Humboldt", "ASSOCIATION": "USA - Nevada", "POINTS": "6", "BONUSPOINTS": "3"}}, {"type": "Feature", "geometry": {"type": "Point", "coordinates": [-118.6439, 41.7413]}, "properties": {"NAME": "W7N/HU-044", "TITLE": "Steves Benchmark", "REGION": "NV-Humboldt", "ASSOCIATION": "USA - Nevada", "POINTS": "6", "BONUSPOINTS": "3"}}, {"type": "Feature", "geometry": {"type": "Point", "coordinates": [-119.1016, 41.3309]}, "properties": {"NAME": "W7N/HU-045", "TITLE": "7819", "REGION": "NV-Humboldt", "ASSOCIATION": "USA - Nevada", "POINTS": "6", "BONUSPOINTS": "3"}}, {"type": "Feature", "geometry": {"type": "Point", "coordinates": [-118.9592, 41.378]}, "properties": {"NAME": "W7N/HU-046", "TITLE": "7788", "REGION": "NV-Humboldt", "ASSOCIATION": "USA - Nevada", "POINTS": "6", "BONUSPOINTS": "3"}}, {"type": "Feature", "geometry": {"type": "Point", "coordinates": [-118.1951, 41.9587]}, "properties": {"NAME": "W7N/HU-047", "TITLE": "Disaster Peak", "REGION": "NV-Humboldt", "ASSOCIATION": "USA - Nevada", "POINTS": "6", "BONUSPOINTS": "3"}}, {"type": "Feature", "geometry": {"type": "Point", "coordinates": [-118.5677, 41.1502]}, "properties": {"NAME": "W7N/HU-048", "TITLE": "Navajo Peak", "REGION": "NV-Humboldt", "ASSOCIATION": "USA - Nevada", "POINTS": "6", "BONUSPOINTS": "3"}}, {"type": "Feature", "geometry": {"type": "Point", "coordinates": [-119.226, 41.0335]}, "properties": {"NAME": "W7N/HU-049", "TITLE": "South Donnelly Peak", "REGION": "NV-Humboldt", "ASSOCIATION": "USA - Nevada", "POINTS": "6", "BONUSPOINTS": "3"}}, {"type": "Feature", "geometry": {"type": "Point", "coordinates": [-119.0212, 41.4238]}, "properties": {"NAME": "W7N/HU-050", "TITLE": "7717", "REGION": "NV-Humboldt", "ASSOCIATION": "USA - Nevada", "POINTS": "6", "BONUSPOINTS": "3"}}, {"type": "Feature", "geometry": {"type": "Point", "coordinates": [-117.5949, 40.7084]}, "properties": {"NAME": "W7N/HU-051", "TITLE": "7667", "REGION": "NV-Humboldt", "ASSOCIATION": "USA - Nevada", "POINTS": "6", "BONUSPOINTS": "3"}}, {"type": "Feature", "geometry": {"type": "Point", "coordinates": [-118.412, 41.9787]}, "properties": {"NAME": "W7N/HU-052", "TITLE": "Granite Mountain", "REGION": "NV-Humboldt", "ASSOCIATION": "USA - Nevada", "POINTS": "6", "BONUSPOINTS": "3"}}, {"type": "Feature", "geometry": {"type": "Point", "coordinates": [-119.2335, 41.1772]}, "properties": {"NAME": "W7N/HU-053", "TITLE": "High Rock Lake Wilderness HP", "REGION": "NV-Humboldt", "ASSOCIATION": "USA - Nevada", "POINTS": "6", "BONUSPOINTS": "3"}}, {"type": "Feature", "geometry": {"type": "Point", "coordinates": [-118.3448, 41.9716]}, "properties": {"NAME": "W7N/HU-054", "TITLE": "Holloway Mountain", "REGION": "NV-Humboldt", "ASSOCIATION": "USA - Nevada", "POINTS": "6", "BONUSPOINTS": "3"}}, {"type": "Feature", "geometry": {"type": "Point", "coordinates": [-119.1064, 41.3482]}, "properties": {"NAME": "W7N/HU-055", "TITLE": "7590", "REGION": "NV-Humboldt", "ASSOCIATION": "USA - Nevada", "POINTS": "6", "BONUSPOINTS": "3"}}, {"type": "Feature", "geometry": {"type": "Point", "coordinates": [-118.5175, 41.253]}, "properties": {"NAME": "W7N/HU-056", "TITLE": "7587", "REGION": "NV-Humboldt", "ASSOCIATION": "USA - Nevada", "POINTS": "6", "BONUSPOINTS": "3"}}, {"type": "Feature", "geometry": {"type": "Point", "coordinates": [-117.7578, 41.2201]}, "properties": {"NAME": "W7N/HU-057", "TITLE": "Bloody Benchmark", "REGION": "NV-Humboldt", "ASSOCIATION": "USA - Nevada", "POINTS": "6", "BONUSPOINTS": "3"}}, {"type": "Feature", "geometry": {"type": "Point", "coordinates": [-119.2354, 41.1473]}, "properties": {"NAME": "W7N/HU-058", "TITLE": "7550", "REGION": "NV-Humboldt", "ASSOCIATION": "USA - Nevada", "POINTS": "6", "BONUSPOINTS": "3"}}, {"type": "Feature", "geometry": {"type": "Point", "coordinates": [-117.5683, 41.8831]}, "properties": {"NAME": "W7N/HU-059", "TITLE": "McConnell Peak", "REGION": "NV-Humboldt", "ASSOCIATION": "USA - Nevada", "POINTS": "6", "BONUSPOINTS": "3"}}, {"type": "Feature", "geometry": {"type": "Point", "coordinates": [-118.4347, 41.8228]}, "properties": {"NAME": "W7N/HU-060", "TITLE": "Split Peak", "REGION": "NV-Humboldt", "ASSOCIATION": "USA - Nevada", "POINTS": "4", "BONUSPOINTS": "3"}}, {"type": "Feature", "geometry": {"type": "Point", "coordinates": [-118.6397, 41.612]}, "properties": {"NAME": "W7N/HU-061", "TITLE": "Bishop Peak", "REGION": "NV-Humboldt", "ASSOCIATION": "USA - Nevada", "POINTS": "4", "BONUSPOINTS": "3"}}, {"type": "Feature", "geometry": {"type": "Point", "coordinates": [-118.4354, 41.3812]}, "properties": {"NAME": "W7N/HU-062", "TITLE": "7463", "REGION": "NV-Humboldt", "ASSOCIATION": "USA - Nevada", "POINTS": "4", "BONUSPOINTS": "3"}}, {"type": "Feature", "geometry": {"type": "Point", "coordinates": [-118.3664, 41.3664]}, "properties": {"NAME": "W7N/HU-063", "TITLE": "Buff Peak", "REGION": "NV-Humboldt", "ASSOCIATION": "USA - Nevada", "POINTS": "4", "BONUSPOINTS": "3"}}, {"type": "Feature", "geometry": {"type": "Point", "coordinates": [-117.7416, 41.5734]}, "properties": {"NAME": "W7N/HU-064", "TITLE": "Sawtooth Mountain", "REGION": "NV-Humboldt", "ASSOCIATION": "USA - Nevada", "POINTS": "4", "BONUSPOINTS": "3"}}, {"type": "Feature", "geometry": {"type": "Point", "coordinates": [-117.6235, 40.7213]}, "properties": {"NAME": "W7N/HU-065", "TITLE": "7413", "REGION": "NV-Humboldt", "ASSOCIATION": "USA - Nevada", "POINTS": "4", "BONUSPOINTS": "3"}}, {"type": "Feature", "geometry": {"type": "Point", "coordinates": [-118.0831, 40.9871]}, "properties": {"NAME": "W7N/HU-066", "TITLE": "Blue Mountain", "REGION": "NV-Humboldt", "ASSOCIATION": "USA - Nevada", "POINTS": "4", "BONUSPOINTS": "3"}}, {"type": "Feature", "geometry": {"type": "Point", "coordinates": [-117.3874, 41.6768]}, "properties": {"NAME": "W7N/HU-067", "TITLE": "Cloister", "REGION": "NV-Humboldt", "ASSOCIATION": "USA - Nevada", "POINTS": "4", "BONUSPOINTS": "3"}}, {"type": "Feature", "geometry": {"type": "Point", "coordinates": [-118.8577, 41.5267]}, "properties": {"NAME": "W7N/HU-068", "TITLE": "Bartlett Peak", "REGION": "NV-Humboldt", "ASSOCIATION": "USA - Nevada", "POINTS": "4", "BONUSPOINTS": "3"}}, {"type": "Feature", "geometry": {"type": "Point", "coordinates": [-118.8138, 41.6441]}, "properties": {"NAME": "W7N/HU-069", "TITLE": "7307", "REGION": "NV-Humboldt", "ASSOCIATION": "USA - Nevada", "POINTS": "4", "BONUSPOINTS": "3"}}, {"type": "Feature", "geometry": {"type": "Point", "coordinates": [-119.3272, 41.1022]}, "properties": {"NAME": "W7N/HU-070", "TITLE": "Division Peak", "REGION": "NV-Humboldt", "ASSOCIATION": "USA - Nevada", "POINTS": "4", "BONUSPOINTS": "3"}}, {"type": "Feature", "geometry": {"type": "Point", "coordinates": [-119.145, 41.6779]}, "properties": {"NAME": "W7N/HU-071", "TITLE": "Alkali Peak", "REGION": "NV-Humboldt", "ASSOCIATION": "USA - Nevada", "POINTS": "4", "BONUSPOINTS": "3"}}, {"type": "Feature", "geometry": {"type": "Point", "coordinates": [-118.6156, 41.5706]}, "properties": {"NAME": "W7N/HU-072", "TITLE": "7146", "REGION": "NV-Humboldt", "ASSOCIATION": "USA - Nevada", "POINTS": "4", "BONUSPOINTS": "3"}}, {"type": "Feature", "geometry": {"type": "Point", "coordinates": [-118.1539, 41.8172]}, "properties": {"NAME": "W7N/HU-073", "TITLE": "Montana Mountains HP", "REGION": "NV-Humboldt", "ASSOCIATION": "USA - Nevada", "POINTS": "4", "BONUSPOINTS": "3"}}, {"type": "Feature", "geometry": {"type": "Point", "coordinates": [-119.2688, 41.7283]}, "properties": {"NAME": "W7N/HU-074", "TITLE": "Blowout Mountain", "REGION": "NV-Humboldt", "ASSOCIATION": "USA - Nevada", "POINTS": "4", "BONUSPOINTS": "3"}}, {"type": "Feature", "geometry": {"type": "Point", "coordinates": [-117.3379, 41.6885]}, "properties": {"NAME": "W7N/HU-075", "TITLE": "Coyote Mountain", "REGION": "NV-Humboldt", "ASSOCIATION": "USA - Nevada", "POINTS": "4", "BONUSPOINTS": "3"}}, {"type": "Feature", "geometry": {"type": "Point", "coordinates": [-118.4472, 41.3945]}, "properties": {"NAME": "W7N/HU-076", "TITLE": "Deer Creek Peak", "REGION": "NV-Humboldt", "ASSOCIATION": "USA - Nevada", "POINTS": "4", "BONUSPOINTS": "3"}}, {"type": "Feature", "geometry": {"type": "Point", "coordinates": [-119.1553, 41.5057]}, "properties": {"NAME": "W7N/HU-077", "TITLE": "Trough Mountain", "REGION": "NV-Humboldt", "ASSOCIATION": "USA - Nevada", "POINTS": "4", "BONUSPOINTS": "3"}}, {"type": "Feature", "geometry": {"type": "Point", "coordinates": [-119.3294, 41.116]}, "properties": {"NAME": "W7N/HU-078", "TITLE": "Ladden Cone", "REGION": "NV-Humboldt", "ASSOCIATION": "USA - Nevada", "POINTS": "4", "BONUSPOINTS": "3"}}, {"type": "Feature", "geometry": {"type": "Point", "coordinates": [-119.1718, 41.6805]}, "properties": {"NAME": "W7N/HU-079", "TITLE": "6978", "REGION": "NV-Humboldt", "ASSOCIATION": "USA - Nevada", "POINTS": "4", "BONUSPOINTS": "3"}}, {"type": "Feature", "geometry": {"type": "Point", "coordinates": [-118.9906, 41.7199]}, "properties": {"NAME": "W7N/HU-080", "TITLE": "Big Mountain", "REGION": "NV-Humboldt", "ASSOCIATION": "USA - Nevada", "POINTS": "4", "BONUSPOINTS": "3"}}, {"type": "Feature", "geometry": {"type": "Point", "coordinates": [-117.4463, 41.2119]}, "properties": {"NAME": "W7N/HU-081", "TITLE": "Hot Springs Range HP", "REGION": "NV-Humboldt", "ASSOCIATION": "USA - Nevada", "POINTS": "4", "BONUSPOINTS": "3"}}, {"type": "Feature", "geometry": {"type": "Point", "coordinates": [-117.5377, 41.8919]}, "properties": {"NAME": "W7N/HU-082", "TITLE": "6904", "REGION": "NV-Humboldt", "ASSOCIATION": "USA - Nevada", "POINTS": "4", "BONUSPOINTS": "3"}}, {"type": "Feature", "geometry": {"type": "Point", "coordinates": [-118.6303, 41.5427]}, "properties": {"NAME": "W7N/HU-083", "TITLE": "6886", "REGION": "NV-Humboldt", "ASSOCIATION": "USA - Nevada", "POINTS": "4", "BONUSPOINTS": "3"}}, {"type": "Feature", "geometry": {"type": "Point", "coordinates": [-119.2151, 41.6158]}, "properties": {"NAME": "W7N/HU-084", "TITLE": "Mahogany Mountain", "REGION": "NV-Humboldt", "ASSOCIATION": "USA - Nevada", "POINTS": "4", "BONUSPOINTS": "3"}}, {"type": "Feature", "geometry": {"type": "Point", "coordinates": [-118.1615, 41.876]}, "properties": {"NAME": "W7N/HU-085", "TITLE": "6835", "REGION": "NV-Humboldt", "ASSOCIATION": "USA - Nevada", "POINTS": "4", "BONUSPOINTS": "3"}}, {"type": "Feature", "geometry": {"type": "Point", "coordinates": [-119.0681, 41.6255]}, "properties": {"NAME": "W7N/HU-086", "TITLE": "Rock Spring Table", "REGION": "NV-Humboldt", "ASSOCIATION": "USA - Nevada", "POINTS": "4", "BONUSPOINTS": "3"}}, {"type": "Feature", "geometry": {"type": "Point", "coordinates": [-119.25, 41.4269]}, "properties": {"NAME": "W7N/HU-087", "TITLE": "6787", "REGION": "NV-Humboldt", "ASSOCIATION": "USA - Nevada", "POINTS": "4", "BONUSPOINTS": "3"}}, {"type": "Feature", "geometry": {"type": "Point", "coordinates": [-119.0173, 41.3317]}, "properties": {"NAME": "W7N/HU-088", "TITLE": "6780", "REGION": "NV-Humboldt", "ASSOCIATION": "USA - Nevada", "POINTS": "4", "BONUSPOINTS": "3"}}, {"type": "Feature", "geometry": {"type": "Point", "coordinates": [-117.7675, 41.0112]}, "properties": {"NAME": "W7N/HU-089", "TITLE": "Winnemucca Mountain", "REGION": "NV-Humboldt", "ASSOCIATION": "USA - Nevada", "POINTS": "4", "BONUSPOINTS": "3"}}, {"type": "Feature", "geometry": {"type": "Point", "coordinates": [-118.3353, 41.7497]}, "properties": {"NAME": "W7N/HU-090", "TITLE": "Agate Point", "REGION": "NV-Humboldt", "ASSOCIATION": "USA - Nevada", "POINTS": "4", "BONUSPOINTS": "3"}}, {"type": "Feature", "geometry": {"type": "Point", "coordinates": [-117.2653, 41.562]}, "properties": {"NAME": "W7N/HU-091", "TITLE": "Goat Corral Mountain", "REGION": "NV-Humboldt", "ASSOCIATION": "USA - Nevada", "POINTS": "4", "BONUSPOINTS": "3"}}, {"type": "Feature", "geometry": {"type": "Point", "coordinates": [-118.9311, 41.7892]}, "properties": {"NAME": "W7N/HU-092", "TITLE": "McGee Mountain", "REGION": "NV-Humboldt", "ASSOCIATION": "USA - Nevada", "POINTS": "4", "BONUSPOINTS": "3"}}, {"type": "Feature", "geometry": {"type": "Point", "coordinates": [-117.4425, 40.6946]}, "properties": {"NAME": "W7N/HU-093", "TITLE": "Smelser Benchmark", "REGION": "NV-Humboldt", "ASSOCIATION": "USA - Nevada", "POINTS": "4", "BONUSPOINTS": "3"}}, {"type": "Feature", "geometry": {"type": "Point", "coordinates": [-119.1689, 41.7625]}, "properties": {"NAME": "W7N/HU-094", "TITLE": "6670", "REGION": "NV-Humboldt", "ASSOCIATION": "USA - Nevada", "POINTS": "4", "BONUSPOINTS": "3"}}, {"type": "Feature", "geometry": {"type": "Point", "coordinates": [-117.5922, 41.5996]}, "properties": {"NAME": "W7N/HU-095", "TITLE": "6655", "REGION": "NV-Humboldt", "ASSOCIATION": "USA - Nevada", "POINTS": "4", "BONUSPOINTS": "3"}}, {"type": "Feature", "geometry": {"type": "Point", "coordinates": [-119.1203, 41.5219]}, "properties": {"NAME": "W7N/HU-096", "TITLE": "6632", "REGION": "NV-Humboldt", "ASSOCIATION": "USA - Nevada", "POINTS": "4", "BONUSPOINTS": "3"}}, {"type": "Feature", "geometry": {"type": "Point", "coordinates": [-118.4503, 41.4703]}, "properties": {"NAME": "W7N/HU-097", "TITLE": "Jackson Benchmark", "REGION": "NV-Humboldt", "ASSOCIATION": "USA - Nevada", "POINTS": "4", "BONUSPOINTS": "3"}}, {"type": "Feature", "geometry": {"type": "Point", "coordinates": [-117.5702, 40.9263]}, "properties": {"NAME": "W7N/HU-098", "TITLE": "6578", "REGION": "NV-Humboldt", "ASSOCIATION": "USA - Nevada", "POINTS": "4", "BONUSPOINTS": "3"}}, {"type": "Feature", "geometry": {"type": "Point", "coordinates": [-119.1491, 41.9469]}, "properties": {"NAME": "W7N/HU-099", "TITLE": "Big Spring Butte", "REGION": "NV-Humboldt", "ASSOCIATION": "USA - Nevada", "POINTS": "4", "BONUSPOINTS": "3"}}, {"type": "Feature", "geometry": {"type": "Point", "coordinates": [-118.0012, 41.1879]}, "properties": {"NAME": "W7N/HU-100", "TITLE": "Slumbering Hills", "REGION": "NV-Humboldt", "ASSOCIATION": "USA - Nevada", "POINTS": "4", "BONUSPOINTS": "3"}}, {"type": "Feature", "geometry": {"type": "Point", "coordinates": [-119.2107, 40.9936]}, "properties": {"NAME": "W7N/HU-101", "TITLE": "6476", "REGION": "NV-Humboldt", "ASSOCIATION": "USA - Nevada", "POINTS": "2", "BONUSPOINTS": "3"}}, {"type": "Feature", "geometry": {"type": "Point", "coordinates": [-118.0614, 41.6513]}, "properties": {"NAME": "W7N/HU-102", "TITLE": "Double H Mountains HP", "REGION": "NV-Humboldt", "ASSOCIATION": "USA - Nevada", "POINTS": "2", "BONUSPOINTS": "3"}}, {"type": "Feature", "geometry": {"type": "Point", "coordinates": [-117.4328, 41.3683]}, "properties": {"NAME": "W7N/HU-103", "TITLE": "Hot Springs Peak", "REGION": "NV-Humboldt", "ASSOCIATION": "USA - Nevada", "POINTS": "2", "BONUSPOINTS": "3"}}, {"type": "Feature", "geometry": {"type": "Point", "coordinates": [-118.6158, 41.656]}, "properties": {"NAME": "W7N/HU-104", "TITLE": "Baldy, Mount", "REGION": "NV-Humboldt", "ASSOCIATION": "USA - Nevada", "POINTS": "2", "BONUSPOINTS": "3"}}, {"type": "Feature", "geometry": {"type": "Point", "coordinates": [-117.9935, 41.289]}, "properties": {"NAME": "W7N/HU-105", "TITLE": "Awakening Peak", "REGION": "NV-Humboldt", "ASSOCIATION": "USA - Nevada", "POINTS": "2", "BONUSPOINTS": "3"}}, {"type": "Feature", "geometry": {"type": "Point", "coordinates": [-118.5158, 41.0459]}, "properties": {"NAME": "W7N/HU-106", "TITLE": "Shaw Benchmark", "REGION": "NV-Humboldt", "ASSOCIATION": "USA - Nevada", "POINTS": "2", "BONUSPOINTS": "3"}}, {"type": "Feature", "geometry": {"type": "Point", "coordinates": [-117.4143, 41.3375]}, "properties": {"NAME": "W7N/HU-107", "TITLE": "6339", "REGION": "NV-Humboldt", "ASSOCIATION": "USA - Nevada", "POINTS": "2", "BONUSPOINTS": "3"}}, {"type": "Feature", "geometry": {"type": "Point", "coordinates": [-117.778, 41.3142]}, "properties": {"NAME": "W7N/HU-108", "TITLE": "6338", "REGION": "NV-Humboldt", "ASSOCIATION": "USA - Nevada", "POINTS": "2", "BONUSPOINTS": "3"}}, {"type": "Feature", "geometry": {"type": "Point", "coordinates": [-117.2745, 41.503]}, "properties": {"NAME": "W7N/HU-109", "TITLE": "6330", "REGION": "NV-Humboldt", "ASSOCIATION": "USA - Nevada", "POINTS": "2", "BONUSPOINTS": "3"}}, {"type": "Feature", "geometry": {"type": "Point", "coordinates": [-118.6955, 41.9738]}, "properties": {"NAME": "W7N/HU-110", "TITLE": "Strawberry Butte", "REGION": "NV-Humboldt", "ASSOCIATION": "USA - Nevada", "POINTS": "2", "BONUSPOINTS": "3"}}, {"type": "Feature", "geometry": {"type": "Point", "coordinates": [-117.7792, 41.2833]}, "properties": {"NAME": "W7N/HU-111", "TITLE": "6315", "REGION": "NV-Humboldt", "ASSOCIATION": "USA - Nevada", "POINTS": "2", "BONUSPOINTS": "3"}}, {"type": "Feature", "geometry": {"type": "Point", "coordinates": [-117.4309, 41.0411]}, "properties": {"NAME": "W7N/HU-112", "TITLE": "6266", "REGION": "NV-Humboldt", "ASSOCIATION": "USA - Nevada", "POINTS": "2", "BONUSPOINTS": "3"}}, {"type": "Feature", "geometry": {"type": "Point", "coordinates": [-117.4302, 40.8399]}, "properties": {"NAME": "W7N/HU-113", "TITLE": "Edna Mountain", "REGION": "NV-Humboldt", "ASSOCIATION": "USA - Nevada", "POINTS": "2", "BONUSPOINTS": "3"}}, {"type": "Feature", "geometry": {"type": "Point", "coordinates": [-118.6091, 40.9963]}, "properties": {"NAME": "W7N/HU-114", "TITLE": "Sugarloaf Knob", "REGION": "NV-Humboldt", "ASSOCIATION": "USA - Nevada", "POINTS": "2", "BONUSPOINTS": "3"}}, {"type": "Feature", "geometry": {"type": "Point", "coordinates": [-117.815, 41.8497]}, "properties": {"NAME": "W7N/HU-115", "TITLE": "Hoppin Peaks South", "REGION": "NV-Humboldt", "ASSOCIATION": "USA - Nevada", "POINTS": "2", "BONUSPOINTS": "3"}}, {"type": "Feature", "geometry": {"type": "Point", "coordinates": [-117.4144, 40.8909]}, "properties": {"NAME": "W7N/HU-116", "TITLE": "6130", "REGION": "NV-Humboldt", "ASSOCIATION": "USA - Nevada", "POINTS": "2", "BONUSPOINTS": "3"}}, {"type": "Feature", "geometry": {"type": "Point", "coordinates": [-117.4593, 40.8034]}, "properties": {"NAME": "W7N/HU-117", "TITLE": "6108", "REGION": "NV-Humboldt", "ASSOCIATION": "USA - Nevada", "POINTS": "2", "BONUSPOINTS": "3"}}, {"type": "Feature", "geometry": {"type": "Point", "coordinates": [-117.1926, 41.2896]}, "properties": {"NAME": "W7N/HU-118", "TITLE": "Dry Hills", "REGION": "NV-Humboldt", "ASSOCIATION": "USA - Nevada", "POINTS": "2", "BONUSPOINTS": "3"}}, {"type": "Feature", "geometry": {"type": "Point", "coordinates": [-117.8676, 41.8739]}, "properties": {"NAME": "W7N/HU-119", "TITLE": "5980", "REGION": "NV-Humboldt", "ASSOCIATION": "USA - Nevada", "POINTS": "2", "BONUSPOINTS": "3"}}, {"type": "Feature", "geometry": {"type": "Point", "coordinates": [-118.905, 41.267]}, "properties": {"NAME": "W7N/HU-120", "TITLE": "Elephant Mountain", "REGION": "NV-Humboldt", "ASSOCIATION": "USA - Nevada", "POINTS": "2", "BONUSPOINTS": "3"}}, {"type": "Feature", "geometry": {"type": "Point", "coordinates": [-118.6602, 41.9261]}, "properties": {"NAME": "W7N/HU-121", "TITLE": "Black Mountain", "REGION": "NV-Humboldt", "ASSOCIATION": "USA - Nevada", "POINTS": "2", "BONUSPOINTS": "3"}}, {"type": "Feature", "geometry": {"type": "Point", "coordinates": [-117.2284, 40.7658]}, "properties": {"NAME": "W7N/HU-122", "TITLE": "5892", "REGION": "NV-Humboldt", "ASSOCIATION": "USA - Nevada", "POINTS": "2", "BONUSPOINTS": "3"}}, {"type": "Feature", "geometry": {"type": "Point", "coordinates": [-118.2801, 41.5917]}, "properties": {"NAME": "W7N/HU-123", "TITLE": "Black Mountain", "REGION": "NV-Humboldt", "ASSOCIATION": "USA - Nevada", "POINTS": "2", "BONUSPOINTS": "3"}}, {"type": "Feature", "geometry": {"type": "Point", "coordinates": [-118.6079, 41.0914]}, "properties": {"NAME": "W7N/HU-124", "TITLE": "Red Butte", "REGION": "NV-Humboldt", "ASSOCIATION": "USA - Nevada", "POINTS": "2", "BONUSPOINTS": "3"}}, {"type": "Feature", "geometry": {"type": "Point", "coordinates": [-118.5496, 41.923]}, "properties": {"NAME": "W7N/HU-125", "TITLE": "Lone Mountain", "REGION": "NV-Humboldt", "ASSOCIATION": "USA - Nevada", "POINTS": "2", "BONUSPOINTS": "3"}}, {"type": "Feature", "geometry": {"type": "Point", "coordinates": [-119.3222, 41.0305]}, "properties": {"NAME": "W7N/HU-126", "TITLE": "5780", "REGION": "NV-Humboldt", "ASSOCIATION": "USA - Nevada", "POINTS": "2", "BONUSPOINTS": "3"}}, {"type": "Feature", "geometry": {"type": "Point", "coordinates": [-118.4337, 40.978]}, "properties": {"NAME": "W7N/HU-127", "TITLE": "Antelope Benchmark", "REGION": "NV-Humboldt", "ASSOCIATION": "USA - Nevada", "POINTS": "2", "BONUSPOINTS": "3"}}, {"type": "Feature", "geometry": {"type": "Point", "coordinates": [-118.0241, 41.3101]}, "properties": {"NAME": "W7N/HU-128", "TITLE": "5748", "REGION": "NV-Humboldt", "ASSOCIATION": "USA - Nevada", "POINTS": "2", "BONUSPOINTS": "3"}}, {"type": "Feature", "geometry": {"type": "Point", "coordinates": [-118.668, 41.8963]}, "properties": {"NAME": "W7N/HU-129", "TITLE": "5718", "REGION": "NV-Humboldt", "ASSOCIATION": "USA - Nevada", "POINTS": "2", "BONUSPOINTS": "3"}}, {"type": "Feature", "geometry": {"type": "Point", "coordinates": [-119.2685, 41.2828]}, "properties": {"NAME": "W7N/HU-130", "TITLE": "5707", "REGION": "NV-Humboldt", "ASSOCIATION": "USA - Nevada", "POINTS": "2", "BONUSPOINTS": "3"}}, {"type": "Feature", "geometry": {"type": "Point", "coordinates": [-118.3084, 41.5718]}, "properties": {"NAME": "W7N/HU-131", "TITLE": "5627", "REGION": "NV-Humboldt", "ASSOCIATION": "USA - Nevada", "POINTS": "2", "BONUSPOINTS": "3"}}, {"type": "Feature", "geometry": {"type": "Point", "coordinates": [-117.4959, 40.8838]}, "properties": {"NAME": "W7N/HU-132", "TITLE": "5596", "REGION": "NV-Humboldt", "ASSOCIATION": "USA - Nevada", "POINTS": "2", "BONUSPOINTS": "3"}}, {"type": "Feature", "geometry": {"type": "Point", "coordinates": [-118.9589, 41.03]}, "properties": {"NAME": "W7N/HU-133", "TITLE": "5542", "REGION": "NV-Humboldt", "ASSOCIATION": "USA - Nevada", "POINTS": "2", "BONUSPOINTS": "3"}}, {"type": "Feature", "geometry": {"type": "Point", "coordinates": [-117.8238, 41.0246]}, "properties": {"NAME": "W7N/HU-134", "TITLE": "Black Butte", "REGION": "NV-Humboldt", "ASSOCIATION": "USA - Nevada", "POINTS": "2", "BONUSPOINTS": "3"}}, {"type": "Feature", "geometry": {"type": "Point", "coordinates": [-117.8672, 41.8093]}, "properties": {"NAME": "W7N/HU-135", "TITLE": "5495", "REGION": "NV-Humboldt", "ASSOCIATION": "USA - Nevada", "POINTS": "2", "BONUSPOINTS": "3"}}, {"type": "Feature", "geometry": {"type": "Point", "coordinates": [-117.4993, 40.928]}, "properties": {"NAME": "W7N/HU-136", "TITLE": "Kramer Hill", "REGION": "NV-Humboldt", "ASSOCIATION": "USA - Nevada", "POINTS": "2", "BONUSPOINTS": "3"}}, {"type": "Feature", "geometry": {"type": "Point", "coordinates": [-118.3271, 41.0329]}, "properties": {"NAME": "W7N/HU-137", "TITLE": "Donna Schee Peak", "REGION": "NV-Humboldt", "ASSOCIATION": "USA - Nevada", "POINTS": "2", "BONUSPOINTS": "3"}}, {"type": "Feature", "geometry": {"type": "Point", "coordinates": [-118.9742, 41.1396]}, "properties": {"NAME": "W7N/HU-138", "TITLE": "5361", "REGION": "NV-Humboldt", "ASSOCIATION": "USA - Nevada", "POINTS": "2", "BONUSPOINTS": "3"}}, {"type": "Feature", "geometry": {"type": "Point", "coordinates": [-118.982, 41.008]}, "properties": {"NAME": "W7N/HU-139", "TITLE": "Burnt Rock Peak", "REGION": "NV-Humboldt", "ASSOCIATION": "USA - Nevada", "POINTS": "2", "BONUSPOINTS": "3"}}, {"type": "Feature", "geometry": {"type": "Point", "coordinates": [-118.9579, 41.0618]}, "properties": {"NAME": "W7N/HU-140", "TITLE": "5258", "REGION": "NV-Humboldt", "ASSOCIATION": "USA - Nevada", "POINTS": "2", "BONUSPOINTS": "3"}}, {"type": "Feature", "geometry": {"type": "Point", "coordinates": [-118.7897, 41.34]}, "properties": {"NAME": "W7N/HU-141", "TITLE": "Pinto Mountain", "REGION": "NV-Humboldt", "ASSOCIATION": "USA - Nevada", "POINTS": "2", "BONUSPOINTS": "3"}}, {"type": "Feature", "geometry": {"type": "Point", "coordinates": [-117.9287, 41.0076]}, "properties": {"NAME": "W7N/HU-142", "TITLE": "Tenmile Hills", "REGION": "NV-Humboldt", "ASSOCIATION": "USA - Nevada", "POINTS": "2", "BONUSPOINTS": "3"}}, {"type": "Feature", "geometry": {"type": "Point", "coordinates": [-118.9166, 41.0887]}, "properties": {"NAME": "W7N/HU-143", "TITLE": "Desert Benchmark", "REGION": "NV-Humboldt", "ASSOCIATION": "USA - Nevada", "POINTS": "2", "BONUSPOINTS": "3"}}, {"type": "Feature", "geometry": {"type": "Point", "coordinates": [-118.7937, 41.3815]}, "properties": {"NAME": "W7N/HU-144", "TITLE": "5145", "REGION": "NV-Humboldt", "ASSOCIATION": "USA - Nevada", "POINTS": "2", "BONUSPOINTS": "3"}}, {"type": "Feature", "geometry": {"type": "Point", "coordinates": [-117.901, 40.9363]}, "properties": {"NAME": "W7N/HU-145", "TITLE": "Little Tabletop Mountain", "REGION": "NV-Humboldt", "ASSOCIATION": "USA - Nevada", "POINTS": "2", "BONUSPOINTS": "3"}}, {"type": "Feature", "geometry": {"type": "Point", "coordinates": [-118.9412, 40.9804]}, "properties": {"NAME": "W7N/HU-146", "TITLE": "4944", "REGION": "NV-Humboldt", "ASSOCIATION": "USA - Nevada", "POINTS": "1", "BONUSPOINTS": "3"}}, {"type": "Feature", "geometry": {"type": "Point", "coordinates": [-118.4029, 40.9396]}, "properties": {"NAME": "W7N/HU-147", "TITLE": "4930", "REGION": "NV-Humboldt", "ASSOCIATION": "USA - Nevada", "POINTS": "1", "BONUSPOINTS": "3"}}, {"type": "Feature", "geometry": {"type": "Point", "coordinates": [-118.9853, 40.9711]}, "properties": {"NAME": "W7N/HU-148", "TITLE": "4872", "REGION": "NV-Humboldt", "ASSOCIATION": "USA - Nevada", "POINTS": "1", "BONUSPOINTS": "3"}}, {"type": "Feature", "geometry": {"type": "Point", "coordinates": [-118.1727, 41.5957]}, "properties": {"NAME": "W7N/HU-149", "TITLE": "Coyote Hills", "REGION": "NV-Humboldt", "ASSOCIATION": "USA - Nevada", "POINTS": "1", "BONUSPOINTS": "3"}}, {"type": "Feature", "geometry": {"type": "Point", "coordinates": [-118.3574, 41.0157]}, "properties": {"NAME": "W7N/HU-150", "TITLE": "4816", "REGION": "NV-Humboldt", "ASSOCIATION": "USA - Nevada", "POINTS": "1", "BONUSPOINTS": "3"}}, {"type": "Feature", "geometry": {"type": "Point", "coordinates": [-117.5711, 40.8703]}, "properties": {"NAME": "W7N/HU-151", "TITLE": "7355", "REGION": "NV-Humboldt", "ASSOCIATION": "USA - Nevada", "POINTS": "4", "BONUSPOINTS": "3"}}, {"type": "Feature", "geometry": {"type": "Point", "coordinates": [-118.8109, 41.6485]}, "properties": {"NAME": "W7N/HU-152", "TITLE": "Knot Benchmark", "REGION": "NV-Humboldt", "ASSOCIATION": "USA - Nevada", "POINTS": "4", "BONUSPOINTS": "3"}}, {"type": "Feature", "geometry": {"type": "Point", "coordinates": [-118.4502, 41.3947]}, "properties": {"NAME": "W7N/HU-153", "TITLE": "Deer Creek Peak", "REGION": "NV-Humboldt", "ASSOCIATION": "USA - Nevada", "POINTS": "4", "BONUSPOINTS": "3"}}, {"type": "Feature", "geometry": {"type": "Point", "coordinates": [-118.1715, 41.946]}, "properties": {"NAME": "W7N/HU-154", "TITLE": "Little Peak", "REGION": "NV-Humboldt", "ASSOCIATION": "USA - Nevada", "POINTS": "4", "BONUSPOINTS": "3"}}, {"type": "Feature", "geometry": {"type": "Point", "coordinates": [-117.9704, 41.1991]}, "properties": {"NAME": "W7N/HU-155", "TITLE": "6252", "REGION": "NV-Humboldt", "ASSOCIATION": "USA - Nevada", "POINTS": "2", "BONUSPOINTS": "3"}}, {"type": "Feature", "geometry": {"type": "Point", "coordinates": [-118.0066, 41.3721]}, "properties": {"NAME": "W7N/HU-156", "TITLE": "5134", "REGION": "NV-Humboldt", "ASSOCIATION": "USA - Nevada", "POINTS": "2", "BONUSPOINTS": "3"}}]}