{"type": "FeatureCollection", "name": "W7N/LN SUMMITS", "features": [{"type": "Feature", "geometry": {"type": "Point", "coordinates": [-114.7306, 38.6186]}, "properties": {"NAME": "W7N/LN-001", "TITLE": "Patterson Benchmark", "REGION": "NV-Lincoln", "ASSOCIATION": "USA - Nevada", "POINTS": "10", "BONUSPOINTS": "3"}}, {"type": "Feature", "geometry": {"type": "Point", "coordinates": [-114.9278, 38.5083]}, "properties": {"NAME": "W7N/LN-002", "TITLE": "Shingle Peak", "REGION": "NV-Lincoln", "ASSOCIATION": "USA - Nevada", "POINTS": "10", "BONUSPOINTS": "3"}}, {"type": "Feature", "geometry": {"type": "Point", "coordinates": [-114.9615, 38.6663]}, "properties": {"NAME": "W7N/LN-003", "TITLE": "Adams Benchmark", "REGION": "NV-Lincoln", "ASSOCIATION": "USA - Nevada", "POINTS": "10", "BONUSPOINTS": "3"}}, {"type": "Feature", "geometry": {"type": "Point", "coordinates": [-114.9814, 38.6475]}, "properties": {"NAME": "W7N/LN-004", "TITLE": "9471", "REGION": "NV-Lincoln", "ASSOCIATION": "USA - Nevada", "POINTS": "8", "BONUSPOINTS": "3"}}, {"type": "Feature", "geometry": {"type": "Point", "coordinates": [-114.5788, 37.8939]}, "properties": {"NAME": "W7N/LN-005", "TITLE": "Highland Peak", "REGION": "NV-Lincoln", "ASSOCIATION": "USA - Nevada", "POINTS": "8", "BONUSPOINTS": "3"}}, {"type": "Feature", "geometry": {"type": "Point", "coordinates": [-115.7337, 37.4495]}, "properties": {"NAME": "W7N/LN-006", "TITLE": "Bald Mountain", "REGION": "NV-Lincoln", "ASSOCIATION": "USA - Nevada", "POINTS": "8", "BONUSPOINTS": "3"}}, {"type": "Feature", "geometry": {"type": "Point", "coordinates": [-114.3942, 38.25]}, "properties": {"NAME": "W7N/LN-007", "TITLE": "Wilson, Mount", "REGION": "NV-Lincoln", "ASSOCIATION": "USA - Nevada", "POINTS": "8", "BONUSPOINTS": "3"}}, {"type": "Feature", "geometry": {"type": "Point", "coordinates": [-115.7607, 38.0464]}, "properties": {"NAME": "W7N/LN-008", "TITLE": "9220", "REGION": "NV-Lincoln", "ASSOCIATION": "USA - Nevada", "POINTS": "8", "BONUSPOINTS": "3"}}, {"type": "Feature", "geometry": {"type": "Point", "coordinates": [-114.9594, 38.6348]}, "properties": {"NAME": "W7N/LN-009", "TITLE": "9202", "REGION": "NV-Lincoln", "ASSOCIATION": "USA - Nevada", "POINTS": "8", "BONUSPOINTS": "3"}}, {"type": "Feature", "geometry": {"type": "Point", "coordinates": [-114.1026, 38.2487]}, "properties": {"NAME": "W7N/LN-010", "TITLE": "White Rock Peak", "REGION": "NV-Lincoln", "ASSOCIATION": "USA - Nevada", "POINTS": "8", "BONUSPOINTS": "3"}}, {"type": "Feature", "geometry": {"type": "Point", "coordinates": [-114.7311, 38.5819]}, "properties": {"NAME": "W7N/LN-011", "TITLE": "Montezuma, Mount", "REGION": "NV-Lincoln", "ASSOCIATION": "USA - Nevada", "POINTS": "8", "BONUSPOINTS": "3"}}, {"type": "Feature", "geometry": {"type": "Point", "coordinates": [-115.7692, 38.0222]}, "properties": {"NAME": "W7N/LN-012", "TITLE": "9081", "REGION": "NV-Lincoln", "ASSOCIATION": "USA - Nevada", "POINTS": "8", "BONUSPOINTS": "3"}}, {"type": "Feature", "geometry": {"type": "Point", "coordinates": [-115.755, 38.0323]}, "properties": {"NAME": "W7N/LN-013", "TITLE": "9015", "REGION": "NV-Lincoln", "ASSOCIATION": "USA - Nevada", "POINTS": "8", "BONUSPOINTS": "3"}}, {"type": "Feature", "geometry": {"type": "Point", "coordinates": [-115.6116, 37.9176]}, "properties": {"NAME": "W7N/LN-014", "TITLE": "Worthington Peak", "REGION": "NV-Lincoln", "ASSOCIATION": "USA - Nevada", "POINTS": "8", "BONUSPOINTS": "3"}}, {"type": "Feature", "geometry": {"type": "Point", "coordinates": [-114.9059, 38.5195]}, "properties": {"NAME": "W7N/LN-015", "TITLE": "8964", "REGION": "NV-Lincoln", "ASSOCIATION": "USA - Nevada", "POINTS": "8", "BONUSPOINTS": "3"}}, {"type": "Feature", "geometry": {"type": "Point", "coordinates": [-114.6014, 38.0347]}, "properties": {"NAME": "W7N/LN-016", "TITLE": "Roe Peak", "REGION": "NV-Lincoln", "ASSOCIATION": "USA - Nevada", "POINTS": "8", "BONUSPOINTS": "3"}}, {"type": "Feature", "geometry": {"type": "Point", "coordinates": [-114.3256, 38.1462]}, "properties": {"NAME": "W7N/LN-017", "TITLE": "Parsnip Peak", "REGION": "NV-Lincoln", "ASSOCIATION": "USA - Nevada", "POINTS": "8", "BONUSPOINTS": "3"}}, {"type": "Feature", "geometry": {"type": "Point", "coordinates": [-114.6695, 38.4476]}, "properties": {"NAME": "W7N/LN-018", "TITLE": "Dutch John Mountain", "REGION": "NV-Lincoln", "ASSOCIATION": "USA - Nevada", "POINTS": "8", "BONUSPOINTS": "3"}}, {"type": "Feature", "geometry": {"type": "Point", "coordinates": [-114.9764, 38.4166]}, "properties": {"NAME": "W7N/LN-019", "TITLE": "Whipple Peak", "REGION": "NV-Lincoln", "ASSOCIATION": "USA - Nevada", "POINTS": "8", "BONUSPOINTS": "3"}}, {"type": "Feature", "geometry": {"type": "Point", "coordinates": [-114.3387, 38.3089]}, "properties": {"NAME": "W7N/LN-020", "TITLE": "8816", "REGION": "NV-Lincoln", "ASSOCIATION": "USA - Nevada", "POINTS": "8", "BONUSPOINTS": "3"}}, {"type": "Feature", "geometry": {"type": "Point", "coordinates": [-114.0519, 37.986]}, "properties": {"NAME": "W7N/LN-021", "TITLE": "Government Peak", "REGION": "NV-Lincoln", "ASSOCIATION": "USA - Nevada", "POINTS": "8", "BONUSPOINTS": "3"}}, {"type": "Feature", "geometry": {"type": "Point", "coordinates": [-115.5999, 37.8241]}, "properties": {"NAME": "W7N/LN-022", "TITLE": "Meeker Peak", "REGION": "NV-Lincoln", "ASSOCIATION": "USA - Nevada", "POINTS": "8", "BONUSPOINTS": "3"}}, {"type": "Feature", "geometry": {"type": "Point", "coordinates": [-114.2674, 38.3517]}, "properties": {"NAME": "W7N/LN-023", "TITLE": "8758", "REGION": "NV-Lincoln", "ASSOCIATION": "USA - Nevada", "POINTS": "8", "BONUSPOINTS": "3"}}, {"type": "Feature", "geometry": {"type": "Point", "coordinates": [-115.4014, 37.6447]}, "properties": {"NAME": "W7N/LN-024", "TITLE": "Irish, Mount", "REGION": "NV-Lincoln", "ASSOCIATION": "USA - Nevada", "POINTS": "8", "BONUSPOINTS": "3"}}, {"type": "Feature", "geometry": {"type": "Point", "coordinates": [-114.0591, 37.9651]}, "properties": {"NAME": "W7N/LN-025", "TITLE": "8733", "REGION": "NV-Lincoln", "ASSOCIATION": "USA - Nevada", "POINTS": "8", "BONUSPOINTS": "3"}}, {"type": "Feature", "geometry": {"type": "Point", "coordinates": [-114.9436, 38.6559]}, "properties": {"NAME": "W7N/LN-026", "TITLE": "8701", "REGION": "NV-Lincoln", "ASSOCIATION": "USA - Nevada", "POINTS": "8", "BONUSPOINTS": "3"}}, {"type": "Feature", "geometry": {"type": "Point", "coordinates": [-114.077, 37.9656]}, "properties": {"NAME": "W7N/LN-027", "TITLE": "Mahogany Peak", "REGION": "NV-Lincoln", "ASSOCIATION": "USA - Nevada", "POINTS": "8", "BONUSPOINTS": "3"}}, {"type": "Feature", "geometry": {"type": "Point", "coordinates": [-114.3133, 38.4044]}, "properties": {"NAME": "W7N/LN-028", "TITLE": "Rosencrans Peak", "REGION": "NV-Lincoln", "ASSOCIATION": "USA - Nevada", "POINTS": "8", "BONUSPOINTS": "3"}}, {"type": "Feature", "geometry": {"type": "Point", "coordinates": [-114.6727, 38.3483]}, "properties": {"NAME": "W7N/LN-029", "TITLE": "Grassy Mountain", "REGION": "NV-Lincoln", "ASSOCIATION": "USA - Nevada", "POINTS": "8", "BONUSPOINTS": "3"}}, {"type": "Feature", "geometry": {"type": "Point", "coordinates": [-115.1016, 37.9807]}, "properties": {"NAME": "W7N/LN-030", "TITLE": "Seaman Range HP", "REGION": "NV-Lincoln", "ASSOCIATION": "USA - Nevada", "POINTS": "8", "BONUSPOINTS": "3"}}, {"type": "Feature", "geometry": {"type": "Point", "coordinates": [-114.8626, 38.5403]}, "properties": {"NAME": "W7N/LN-031", "TITLE": "8575", "REGION": "NV-Lincoln", "ASSOCIATION": "USA - Nevada", "POINTS": "8", "BONUSPOINTS": "3"}}, {"type": "Feature", "geometry": {"type": "Point", "coordinates": [-114.7385, 38.549]}, "properties": {"NAME": "W7N/LN-032", "TITLE": "8567", "REGION": "NV-Lincoln", "ASSOCIATION": "USA - Nevada", "POINTS": "8", "BONUSPOINTS": "3"}}, {"type": "Feature", "geometry": {"type": "Point", "coordinates": [-114.0694, 38.1718]}, "properties": {"NAME": "W7N/LN-033", "TITLE": "8468", "REGION": "NV-Lincoln", "ASSOCIATION": "USA - Nevada", "POINTS": "6", "BONUSPOINTS": "3"}}, {"type": "Feature", "geometry": {"type": "Point", "coordinates": [-115.0854, 38.0013]}, "properties": {"NAME": "W7N/LN-034", "TITLE": "Timber Mountain", "REGION": "NV-Lincoln", "ASSOCIATION": "USA - Nevada", "POINTS": "6", "BONUSPOINTS": "3"}}, {"type": "Feature", "geometry": {"type": "Point", "coordinates": [-114.0568, 38.0601]}, "properties": {"NAME": "W7N/LN-035", "TITLE": "8455", "REGION": "NV-Lincoln", "ASSOCIATION": "USA - Nevada", "POINTS": "6", "BONUSPOINTS": "3"}}, {"type": "Feature", "geometry": {"type": "Point", "coordinates": [-114.4545, 38.5468]}, "properties": {"NAME": "W7N/LN-036", "TITLE": "Fortification Range HP", "REGION": "NV-Lincoln", "ASSOCIATION": "USA - Nevada", "POINTS": "6", "BONUSPOINTS": "3"}}, {"type": "Feature", "geometry": {"type": "Point", "coordinates": [-114.0508, 38.111]}, "properties": {"NAME": "W7N/LN-037", "TITLE": "8350", "REGION": "NV-Lincoln", "ASSOCIATION": "USA - Nevada", "POINTS": "6", "BONUSPOINTS": "3"}}, {"type": "Feature", "geometry": {"type": "Point", "coordinates": [-114.2007, 38.3028]}, "properties": {"NAME": "W7N/LN-038", "TITLE": "8335", "REGION": "NV-Lincoln", "ASSOCIATION": "USA - Nevada", "POINTS": "6", "BONUSPOINTS": "3"}}, {"type": "Feature", "geometry": {"type": "Point", "coordinates": [-114.2918, 38.0922]}, "properties": {"NAME": "W7N/LN-039", "TITLE": "8292", "REGION": "NV-Lincoln", "ASSOCIATION": "USA - Nevada", "POINTS": "6", "BONUSPOINTS": "3"}}, {"type": "Feature", "geometry": {"type": "Point", "coordinates": [-114.7452, 38.491]}, "properties": {"NAME": "W7N/LN-040", "TITLE": "8269", "REGION": "NV-Lincoln", "ASSOCIATION": "USA - Nevada", "POINTS": "6", "BONUSPOINTS": "3"}}, {"type": "Feature", "geometry": {"type": "Point", "coordinates": [-114.4581, 38.5953]}, "properties": {"NAME": "W7N/LN-041", "TITLE": "Fortification Benchmark", "REGION": "NV-Lincoln", "ASSOCIATION": "USA - Nevada", "POINTS": "6", "BONUSPOINTS": "3"}}, {"type": "Feature", "geometry": {"type": "Point", "coordinates": [-115.7539, 37.4886]}, "properties": {"NAME": "W7N/LN-042", "TITLE": "8219", "REGION": "NV-Lincoln", "ASSOCIATION": "USA - Nevada", "POINTS": "6", "BONUSPOINTS": "3"}}, {"type": "Feature", "geometry": {"type": "Point", "coordinates": [-114.3854, 38.4147]}, "properties": {"NAME": "W7N/LN-043", "TITLE": "Tub Peak", "REGION": "NV-Lincoln", "ASSOCIATION": "USA - Nevada", "POINTS": "6", "BONUSPOINTS": "3"}}, {"type": "Feature", "geometry": {"type": "Point", "coordinates": [-114.2272, 38.2871]}, "properties": {"NAME": "W7N/LN-044", "TITLE": "8189", "REGION": "NV-Lincoln", "ASSOCIATION": "USA - Nevada", "POINTS": "6", "BONUSPOINTS": "3"}}, {"type": "Feature", "geometry": {"type": "Point", "coordinates": [-115.4418, 37.8581]}, "properties": {"NAME": "W7N/LN-045", "TITLE": "Golden Gate Range HP", "REGION": "NV-Lincoln", "ASSOCIATION": "USA - Nevada", "POINTS": "6", "BONUSPOINTS": "3"}}, {"type": "Feature", "geometry": {"type": "Point", "coordinates": [-114.2325, 38.3007]}, "properties": {"NAME": "W7N/LN-046", "TITLE": "8180", "REGION": "NV-Lincoln", "ASSOCIATION": "USA - Nevada", "POINTS": "6", "BONUSPOINTS": "3"}}, {"type": "Feature", "geometry": {"type": "Point", "coordinates": [-114.8288, 38.3248]}, "properties": {"NAME": "W7N/LN-047", "TITLE": "Silver Benchmark", "REGION": "NV-Lincoln", "ASSOCIATION": "USA - Nevada", "POINTS": "6", "BONUSPOINTS": "3"}}, {"type": "Feature", "geometry": {"type": "Point", "coordinates": [-115.0718, 37.9786]}, "properties": {"NAME": "W7N/LN-048", "TITLE": "8105", "REGION": "NV-Lincoln", "ASSOCIATION": "USA - Nevada", "POINTS": "6", "BONUSPOINTS": "3"}}, {"type": "Feature", "geometry": {"type": "Point", "coordinates": [-114.9853, 38.3658]}, "properties": {"NAME": "W7N/LN-049", "TITLE": "8067", "REGION": "NV-Lincoln", "ASSOCIATION": "USA - Nevada", "POINTS": "6", "BONUSPOINTS": "3"}}, {"type": "Feature", "geometry": {"type": "Point", "coordinates": [-114.9424, 38.588]}, "properties": {"NAME": "W7N/LN-050", "TITLE": "Shingle Benchmark", "REGION": "NV-Lincoln", "ASSOCIATION": "USA - Nevada", "POINTS": "6", "BONUSPOINTS": "3"}}, {"type": "Feature", "geometry": {"type": "Point", "coordinates": [-114.4674, 38.5424]}, "properties": {"NAME": "W7N/LN-051", "TITLE": "8060", "REGION": "NV-Lincoln", "ASSOCIATION": "USA - Nevada", "POINTS": "6", "BONUSPOINTS": "3"}}, {"type": "Feature", "geometry": {"type": "Point", "coordinates": [-114.734, 37.5345]}, "properties": {"NAME": "W7N/LN-052", "TITLE": "Chokecherry Mountain", "REGION": "NV-Lincoln", "ASSOCIATION": "USA - Nevada", "POINTS": "6", "BONUSPOINTS": "3"}}, {"type": "Feature", "geometry": {"type": "Point", "coordinates": [-115.8613, 38.0307]}, "properties": {"NAME": "W7N/LN-053", "TITLE": "7990", "REGION": "NV-Lincoln", "ASSOCIATION": "USA - Nevada", "POINTS": "6", "BONUSPOINTS": "3"}}, {"type": "Feature", "geometry": {"type": "Point", "coordinates": [-115.8839, 37.9234]}, "properties": {"NAME": "W7N/LN-054", "TITLE": "7980", "REGION": "NV-Lincoln", "ASSOCIATION": "USA - Nevada", "POINTS": "6", "BONUSPOINTS": "3"}}, {"type": "Feature", "geometry": {"type": "Point", "coordinates": [-115.3261, 37.3517]}, "properties": {"NAME": "W7N/LN-055", "TITLE": "Badger Mountain", "REGION": "NV-Lincoln", "ASSOCIATION": "USA - Nevada", "POINTS": "6", "BONUSPOINTS": "3"}}, {"type": "Feature", "geometry": {"type": "Point", "coordinates": [-115.5116, 37.6407]}, "properties": {"NAME": "W7N/LN-056", "TITLE": "Monte Mountain", "REGION": "NV-Lincoln", "ASSOCIATION": "USA - Nevada", "POINTS": "6", "BONUSPOINTS": "3"}}, {"type": "Feature", "geometry": {"type": "Point", "coordinates": [-115.0304, 37.4834]}, "properties": {"NAME": "W7N/LN-057", "TITLE": "Hyko Benchmark", "REGION": "NV-Lincoln", "ASSOCIATION": "USA - Nevada", "POINTS": "6", "BONUSPOINTS": "3"}}, {"type": "Feature", "geometry": {"type": "Point", "coordinates": [-115.359, 37.3443]}, "properties": {"NAME": "W7N/LN-058", "TITLE": "Tikaboo Benchmark", "REGION": "NV-Lincoln", "ASSOCIATION": "USA - Nevada", "POINTS": "6", "BONUSPOINTS": "3"}}, {"type": "Feature", "geometry": {"type": "Point", "coordinates": [-115.6345, 37.6252]}, "properties": {"NAME": "W7N/LN-059", "TITLE": "Tempiute Mountain", "REGION": "NV-Lincoln", "ASSOCIATION": "USA - Nevada", "POINTS": "6", "BONUSPOINTS": "3"}}, {"type": "Feature", "geometry": {"type": "Point", "coordinates": [-115.73, 37.3758]}, "properties": {"NAME": "W7N/LN-060", "TITLE": "Wandell, Mount", "REGION": "NV-Lincoln", "ASSOCIATION": "USA - Nevada", "POINTS": "6", "BONUSPOINTS": "3"}}, {"type": "Feature", "geometry": {"type": "Point", "coordinates": [-114.5563, 37.9431]}, "properties": {"NAME": "W7N/LN-061", "TITLE": "Arizona Peak", "REGION": "NV-Lincoln", "ASSOCIATION": "USA - Nevada", "POINTS": "6", "BONUSPOINTS": "3"}}, {"type": "Feature", "geometry": {"type": "Point", "coordinates": [-114.71, 37.4883]}, "properties": {"NAME": "W7N/LN-062", "TITLE": "Slidy Mountain", "REGION": "NV-Lincoln", "ASSOCIATION": "USA - Nevada", "POINTS": "6", "BONUSPOINTS": "3"}}, {"type": "Feature", "geometry": {"type": "Point", "coordinates": [-114.6333, 38.2984]}, "properties": {"NAME": "W7N/LN-063", "TITLE": "Horseshoe Benchmark", "REGION": "NV-Lincoln", "ASSOCIATION": "USA - Nevada", "POINTS": "6", "BONUSPOINTS": "3"}}, {"type": "Feature", "geometry": {"type": "Point", "coordinates": [-114.241, 38.4724]}, "properties": {"NAME": "W7N/LN-064", "TITLE": "Limestone Hills", "REGION": "NV-Lincoln", "ASSOCIATION": "USA - Nevada", "POINTS": "6", "BONUSPOINTS": "3"}}, {"type": "Feature", "geometry": {"type": "Point", "coordinates": [-115.8513, 37.9726]}, "properties": {"NAME": "W7N/LN-065", "TITLE": "7860", "REGION": "NV-Lincoln", "ASSOCIATION": "USA - Nevada", "POINTS": "6", "BONUSPOINTS": "3"}}, {"type": "Feature", "geometry": {"type": "Point", "coordinates": [-114.8886, 38.2125]}, "properties": {"NAME": "W7N/LN-066", "TITLE": "Silver King Mountain", "REGION": "NV-Lincoln", "ASSOCIATION": "USA - Nevada", "POINTS": "6", "BONUSPOINTS": "3"}}, {"type": "Feature", "geometry": {"type": "Point", "coordinates": [-114.7256, 37.3429]}, "properties": {"NAME": "W7N/LN-067", "TITLE": "7820", "REGION": "NV-Lincoln", "ASSOCIATION": "USA - Nevada", "POINTS": "6", "BONUSPOINTS": "3"}}, {"type": "Feature", "geometry": {"type": "Point", "coordinates": [-114.4798, 38.5424]}, "properties": {"NAME": "W7N/LN-068", "TITLE": "7820", "REGION": "NV-Lincoln", "ASSOCIATION": "USA - Nevada", "POINTS": "6", "BONUSPOINTS": "3"}}, {"type": "Feature", "geometry": {"type": "Point", "coordinates": [-114.3201, 38.4552]}, "properties": {"NAME": "W7N/LN-069", "TITLE": "Atlanta Peak", "REGION": "NV-Lincoln", "ASSOCIATION": "USA - Nevada", "POINTS": "6", "BONUSPOINTS": "3"}}, {"type": "Feature", "geometry": {"type": "Point", "coordinates": [-115.3665, 37.3696]}, "properties": {"NAME": "W7N/LN-070", "TITLE": "7795", "REGION": "NV-Lincoln", "ASSOCIATION": "USA - Nevada", "POINTS": "6", "BONUSPOINTS": "3"}}, {"type": "Feature", "geometry": {"type": "Point", "coordinates": [-114.7524, 38.4436]}, "properties": {"NAME": "W7N/LN-071", "TITLE": "7784", "REGION": "NV-Lincoln", "ASSOCIATION": "USA - Nevada", "POINTS": "6", "BONUSPOINTS": "3"}}, {"type": "Feature", "geometry": {"type": "Point", "coordinates": [-114.1263, 37.8137]}, "properties": {"NAME": "W7N/LN-072", "TITLE": "Lodge Benchmark", "REGION": "NV-Lincoln", "ASSOCIATION": "USA - Nevada", "POINTS": "6", "BONUSPOINTS": "3"}}, {"type": "Feature", "geometry": {"type": "Point", "coordinates": [-114.8597, 38.3009]}, "properties": {"NAME": "W7N/LN-073", "TITLE": "7745", "REGION": "NV-Lincoln", "ASSOCIATION": "USA - Nevada", "POINTS": "6", "BONUSPOINTS": "3"}}, {"type": "Feature", "geometry": {"type": "Point", "coordinates": [-115.1039, 36.8901]}, "properties": {"NAME": "W7N/LN-074", "TITLE": "7740", "REGION": "NV-Lincoln", "ASSOCIATION": "USA - Nevada", "POINTS": "6", "BONUSPOINTS": "3"}}, {"type": "Feature", "geometry": {"type": "Point", "coordinates": [-114.7303, 37.4721]}, "properties": {"NAME": "W7N/LN-075", "TITLE": "7724", "REGION": "NV-Lincoln", "ASSOCIATION": "USA - Nevada", "POINTS": "6", "BONUSPOINTS": "3"}}, {"type": "Feature", "geometry": {"type": "Point", "coordinates": [-115.3622, 37.6682]}, "properties": {"NAME": "W7N/LN-076", "TITLE": "7716", "REGION": "NV-Lincoln", "ASSOCIATION": "USA - Nevada", "POINTS": "6", "BONUSPOINTS": "3"}}, {"type": "Feature", "geometry": {"type": "Point", "coordinates": [-115.347, 37.3239]}, "properties": {"NAME": "W7N/LN-077", "TITLE": "7706", "REGION": "NV-Lincoln", "ASSOCIATION": "USA - Nevada", "POINTS": "6", "BONUSPOINTS": "3"}}, {"type": "Feature", "geometry": {"type": "Point", "coordinates": [-115.1191, 36.9736]}, "properties": {"NAME": "W7N/LN-078", "TITLE": "7674", "REGION": "NV-Lincoln", "ASSOCIATION": "USA - Nevada", "POINTS": "6", "BONUSPOINTS": "3"}}, {"type": "Feature", "geometry": {"type": "Point", "coordinates": [-114.2467, 38.0406]}, "properties": {"NAME": "W7N/LN-079", "TITLE": "Horsethief Mountain", "REGION": "NV-Lincoln", "ASSOCIATION": "USA - Nevada", "POINTS": "6", "BONUSPOINTS": "3"}}, {"type": "Feature", "geometry": {"type": "Point", "coordinates": [-114.8648, 38.2776]}, "properties": {"NAME": "W7N/LN-080", "TITLE": "7667", "REGION": "NV-Lincoln", "ASSOCIATION": "USA - Nevada", "POINTS": "6", "BONUSPOINTS": "3"}}, {"type": "Feature", "geometry": {"type": "Point", "coordinates": [-115.1062, 36.8663]}, "properties": {"NAME": "W7N/LN-081", "TITLE": "7660", "REGION": "NV-Lincoln", "ASSOCIATION": "USA - Nevada", "POINTS": "6", "BONUSPOINTS": "3"}}, {"type": "Feature", "geometry": {"type": "Point", "coordinates": [-114.2405, 37.3581]}, "properties": {"NAME": "W7N/LN-082", "TITLE": "Sawmill Mountain", "REGION": "NV-Lincoln", "ASSOCIATION": "USA - Nevada", "POINTS": "6", "BONUSPOINTS": "3"}}, {"type": "Feature", "geometry": {"type": "Point", "coordinates": [-115.4977, 37.686]}, "properties": {"NAME": "W7N/LN-083", "TITLE": "7614", "REGION": "NV-Lincoln", "ASSOCIATION": "USA - Nevada", "POINTS": "6", "BONUSPOINTS": "3"}}, {"type": "Feature", "geometry": {"type": "Point", "coordinates": [-114.1422, 37.7984]}, "properties": {"NAME": "W7N/LN-084", "TITLE": "7595", "REGION": "NV-Lincoln", "ASSOCIATION": "USA - Nevada", "POINTS": "6", "BONUSPOINTS": "3"}}, {"type": "Feature", "geometry": {"type": "Point", "coordinates": [-115.5868, 37.6294]}, "properties": {"NAME": "W7N/LN-085", "TITLE": "7587", "REGION": "NV-Lincoln", "ASSOCIATION": "USA - Nevada", "POINTS": "6", "BONUSPOINTS": "3"}}, {"type": "Feature", "geometry": {"type": "Point", "coordinates": [-115.8744, 38.0479]}, "properties": {"NAME": "W7N/LN-086", "TITLE": "7582", "REGION": "NV-Lincoln", "ASSOCIATION": "USA - Nevada", "POINTS": "6", "BONUSPOINTS": "3"}}, {"type": "Feature", "geometry": {"type": "Point", "coordinates": [-115.4215, 37.5663]}, "properties": {"NAME": "W7N/LN-087", "TITLE": "Mount Irish Wilderness HP", "REGION": "NV-Lincoln", "ASSOCIATION": "USA - Nevada", "POINTS": "6", "BONUSPOINTS": "3"}}, {"type": "Feature", "geometry": {"type": "Point", "coordinates": [-114.643, 38.2409]}, "properties": {"NAME": "W7N/LN-088", "TITLE": "7545", "REGION": "NV-Lincoln", "ASSOCIATION": "USA - Nevada", "POINTS": "6", "BONUSPOINTS": "3"}}, {"type": "Feature", "geometry": {"type": "Point", "coordinates": [-114.1901, 37.7889]}, "properties": {"NAME": "W7N/LN-089", "TITLE": "7545", "REGION": "NV-Lincoln", "ASSOCIATION": "USA - Nevada", "POINTS": "6", "BONUSPOINTS": "3"}}, {"type": "Feature", "geometry": {"type": "Point", "coordinates": [-115.1258, 37.0035]}, "properties": {"NAME": "W7N/LN-090", "TITLE": "Thunder Benchmark", "REGION": "NV-Lincoln", "ASSOCIATION": "USA - Nevada", "POINTS": "6", "BONUSPOINTS": "3"}}, {"type": "Feature", "geometry": {"type": "Point", "coordinates": [-114.9663, 38.3484]}, "properties": {"NAME": "W7N/LN-091", "TITLE": "7510", "REGION": "NV-Lincoln", "ASSOCIATION": "USA - Nevada", "POINTS": "6", "BONUSPOINTS": "3"}}, {"type": "Feature", "geometry": {"type": "Point", "coordinates": [-114.7178, 37.3919]}, "properties": {"NAME": "W7N/LN-092", "TITLE": "7502", "REGION": "NV-Lincoln", "ASSOCIATION": "USA - Nevada", "POINTS": "6", "BONUSPOINTS": "3"}}, {"type": "Feature", "geometry": {"type": "Point", "coordinates": [-115.4132, 37.5971]}, "properties": {"NAME": "W7N/LN-093", "TITLE": "7500", "REGION": "NV-Lincoln", "ASSOCIATION": "USA - Nevada", "POINTS": "6", "BONUSPOINTS": "3"}}, {"type": "Feature", "geometry": {"type": "Point", "coordinates": [-114.7486, 37.4663]}, "properties": {"NAME": "W7N/LN-094", "TITLE": "7500", "REGION": "NV-Lincoln", "ASSOCIATION": "USA - Nevada", "POINTS": "6", "BONUSPOINTS": "3"}}, {"type": "Feature", "geometry": {"type": "Point", "coordinates": [-114.4673, 37.459]}, "properties": {"NAME": "W7N/LN-095", "TITLE": "Ella Mountain", "REGION": "NV-Lincoln", "ASSOCIATION": "USA - Nevada", "POINTS": "4", "BONUSPOINTS": "3"}}, {"type": "Feature", "geometry": {"type": "Point", "coordinates": [-114.5571, 37.7236]}, "properties": {"NAME": "W7N/LN-096", "TITLE": "Chief Mountain", "REGION": "NV-Lincoln", "ASSOCIATION": "USA - Nevada", "POINTS": "4", "BONUSPOINTS": "3"}}, {"type": "Feature", "geometry": {"type": "Point", "coordinates": [-115.114, 36.9156]}, "properties": {"NAME": "W7N/LN-097", "TITLE": "7460", "REGION": "NV-Lincoln", "ASSOCIATION": "USA - Nevada", "POINTS": "4", "BONUSPOINTS": "3"}}, {"type": "Feature", "geometry": {"type": "Point", "coordinates": [-114.2022, 37.3717]}, "properties": {"NAME": "W7N/LN-098", "TITLE": "Jacks Mountain", "REGION": "NV-Lincoln", "ASSOCIATION": "USA - Nevada", "POINTS": "4", "BONUSPOINTS": "3"}}, {"type": "Feature", "geometry": {"type": "Point", "coordinates": [-114.7554, 37.3258]}, "properties": {"NAME": "W7N/LN-099", "TITLE": "7420", "REGION": "NV-Lincoln", "ASSOCIATION": "USA - Nevada", "POINTS": "4", "BONUSPOINTS": "3"}}, {"type": "Feature", "geometry": {"type": "Point", "coordinates": [-114.5005, 36.9741]}, "properties": {"NAME": "W7N/LN-100", "TITLE": "Mormon Peak", "REGION": "NV-Lincoln", "ASSOCIATION": "USA - Nevada", "POINTS": "4", "BONUSPOINTS": "3"}}, {"type": "Feature", "geometry": {"type": "Point", "coordinates": [-114.811, 38.3788]}, "properties": {"NAME": "W7N/LN-101", "TITLE": "7406", "REGION": "NV-Lincoln", "ASSOCIATION": "USA - Nevada", "POINTS": "4", "BONUSPOINTS": "3"}}, {"type": "Feature", "geometry": {"type": "Point", "coordinates": [-114.9421, 38.4077]}, "properties": {"NAME": "W7N/LN-102", "TITLE": "7397", "REGION": "NV-Lincoln", "ASSOCIATION": "USA - Nevada", "POINTS": "4", "BONUSPOINTS": "3"}}, {"type": "Feature", "geometry": {"type": "Point", "coordinates": [-114.9443, 38.3608]}, "properties": {"NAME": "W7N/LN-103", "TITLE": "7396", "REGION": "NV-Lincoln", "ASSOCIATION": "USA - Nevada", "POINTS": "4", "BONUSPOINTS": "3"}}, {"type": "Feature", "geometry": {"type": "Point", "coordinates": [-114.465, 36.9528]}, "properties": {"NAME": "W7N/LN-104", "TITLE": "7378", "REGION": "NV-Lincoln", "ASSOCIATION": "USA - Nevada", "POINTS": "4", "BONUSPOINTS": "3"}}, {"type": "Feature", "geometry": {"type": "Point", "coordinates": [-114.6263, 38.2259]}, "properties": {"NAME": "W7N/LN-105", "TITLE": "7376", "REGION": "NV-Lincoln", "ASSOCIATION": "USA - Nevada", "POINTS": "4", "BONUSPOINTS": "3"}}, {"type": "Feature", "geometry": {"type": "Point", "coordinates": [-114.467, 36.9748]}, "properties": {"NAME": "W7N/LN-106", "TITLE": "7365", "REGION": "NV-Lincoln", "ASSOCIATION": "USA - Nevada", "POINTS": "4", "BONUSPOINTS": "3"}}, {"type": "Feature", "geometry": {"type": "Point", "coordinates": [-114.7693, 37.2742]}, "properties": {"NAME": "W7N/LN-107", "TITLE": "Dela Benchmark", "REGION": "NV-Lincoln", "ASSOCIATION": "USA - Nevada", "POINTS": "4", "BONUSPOINTS": "3"}}, {"type": "Feature", "geometry": {"type": "Point", "coordinates": [-114.2673, 38.5475]}, "properties": {"NAME": "W7N/LN-108", "TITLE": "Atlanta Benchmark", "REGION": "NV-Lincoln", "ASSOCIATION": "USA - Nevada", "POINTS": "4", "BONUSPOINTS": "3"}}, {"type": "Feature", "geometry": {"type": "Point", "coordinates": [-114.2667, 37.64]}, "properties": {"NAME": "W7N/LN-109", "TITLE": "Mosey Mountain", "REGION": "NV-Lincoln", "ASSOCIATION": "USA - Nevada", "POINTS": "4", "BONUSPOINTS": "3"}}, {"type": "Feature", "geometry": {"type": "Point", "coordinates": [-114.4822, 37.9336]}, "properties": {"NAME": "W7N/LN-110", "TITLE": "Ely, Mount", "REGION": "NV-Lincoln", "ASSOCIATION": "USA - Nevada", "POINTS": "4", "BONUSPOINTS": "3"}}, {"type": "Feature", "geometry": {"type": "Point", "coordinates": [-114.1389, 37.9077]}, "properties": {"NAME": "W7N/LN-111", "TITLE": "Knob Benchmark", "REGION": "NV-Lincoln", "ASSOCIATION": "USA - Nevada", "POINTS": "4", "BONUSPOINTS": "3"}}, {"type": "Feature", "geometry": {"type": "Point", "coordinates": [-115.5165, 37.7385]}, "properties": {"NAME": "W7N/LN-112", "TITLE": "7290", "REGION": "NV-Lincoln", "ASSOCIATION": "USA - Nevada", "POINTS": "4", "BONUSPOINTS": "3"}}, {"type": "Feature", "geometry": {"type": "Point", "coordinates": [-114.6893, 37.4292]}, "properties": {"NAME": "W7N/LN-113", "TITLE": "7290", "REGION": "NV-Lincoln", "ASSOCIATION": "USA - Nevada", "POINTS": "4", "BONUSPOINTS": "3"}}, {"type": "Feature", "geometry": {"type": "Point", "coordinates": [-115.5174, 37.7859]}, "properties": {"NAME": "W7N/LN-114", "TITLE": "7260", "REGION": "NV-Lincoln", "ASSOCIATION": "USA - Nevada", "POINTS": "4", "BONUSPOINTS": "3"}}, {"type": "Feature", "geometry": {"type": "Point", "coordinates": [-114.6857, 38.2021]}, "properties": {"NAME": "W7N/LN-115", "TITLE": "Fairview Peak", "REGION": "NV-Lincoln", "ASSOCIATION": "USA - Nevada", "POINTS": "4", "BONUSPOINTS": "3"}}, {"type": "Feature", "geometry": {"type": "Point", "coordinates": [-114.8242, 38.6049]}, "properties": {"NAME": "W7N/LN-116", "TITLE": "7229", "REGION": "NV-Lincoln", "ASSOCIATION": "USA - Nevada", "POINTS": "4", "BONUSPOINTS": "3"}}, {"type": "Feature", "geometry": {"type": "Point", "coordinates": [-115.0474, 38.0283]}, "properties": {"NAME": "W7N/LN-117", "TITLE": "7225", "REGION": "NV-Lincoln", "ASSOCIATION": "USA - Nevada", "POINTS": "4", "BONUSPOINTS": "3"}}, {"type": "Feature", "geometry": {"type": "Point", "coordinates": [-114.9446, 38.1919]}, "properties": {"NAME": "W7N/LN-118", "TITLE": "7221", "REGION": "NV-Lincoln", "ASSOCIATION": "USA - Nevada", "POINTS": "4", "BONUSPOINTS": "3"}}, {"type": "Feature", "geometry": {"type": "Point", "coordinates": [-115.4352, 37.5128]}, "properties": {"NAME": "W7N/LN-119", "TITLE": "7201", "REGION": "NV-Lincoln", "ASSOCIATION": "USA - Nevada", "POINTS": "4", "BONUSPOINTS": "3"}}, {"type": "Feature", "geometry": {"type": "Point", "coordinates": [-114.9145, 38.1682]}, "properties": {"NAME": "W7N/LN-120", "TITLE": "Burnt Peak", "REGION": "NV-Lincoln", "ASSOCIATION": "USA - Nevada", "POINTS": "4", "BONUSPOINTS": "3"}}, {"type": "Feature", "geometry": {"type": "Point", "coordinates": [-115.6695, 38.0378]}, "properties": {"NAME": "W7N/LN-121", "TITLE": "7179", "REGION": "NV-Lincoln", "ASSOCIATION": "USA - Nevada", "POINTS": "4", "BONUSPOINTS": "3"}}, {"type": "Feature", "geometry": {"type": "Point", "coordinates": [-114.1518, 38.0061]}, "properties": {"NAME": "W7N/LN-122", "TITLE": "7162", "REGION": "NV-Lincoln", "ASSOCIATION": "USA - Nevada", "POINTS": "4", "BONUSPOINTS": "3"}}, {"type": "Feature", "geometry": {"type": "Point", "coordinates": [-114.2578, 38.6607]}, "properties": {"NAME": "W7N/LN-123", "TITLE": "7153", "REGION": "NV-Lincoln", "ASSOCIATION": "USA - Nevada", "POINTS": "4", "BONUSPOINTS": "3"}}, {"type": "Feature", "geometry": {"type": "Point", "coordinates": [-115.5298, 37.6084]}, "properties": {"NAME": "W7N/LN-124", "TITLE": "7150", "REGION": "NV-Lincoln", "ASSOCIATION": "USA - Nevada", "POINTS": "4", "BONUSPOINTS": "3"}}, {"type": "Feature", "geometry": {"type": "Point", "coordinates": [-114.6702, 37.5014]}, "properties": {"NAME": "W7N/LN-125", "TITLE": "7140", "REGION": "NV-Lincoln", "ASSOCIATION": "USA - Nevada", "POINTS": "4", "BONUSPOINTS": "3"}}, {"type": "Feature", "geometry": {"type": "Point", "coordinates": [-114.7657, 37.298]}, "properties": {"NAME": "W7N/LN-126", "TITLE": "7140", "REGION": "NV-Lincoln", "ASSOCIATION": "USA - Nevada", "POINTS": "4", "BONUSPOINTS": "3"}}, {"type": "Feature", "geometry": {"type": "Point", "coordinates": [-114.3619, 38.4941]}, "properties": {"NAME": "W7N/LN-127", "TITLE": "7136", "REGION": "NV-Lincoln", "ASSOCIATION": "USA - Nevada", "POINTS": "4", "BONUSPOINTS": "3"}}, {"type": "Feature", "geometry": {"type": "Point", "coordinates": [-115.137, 37.0407]}, "properties": {"NAME": "W7N/LN-128", "TITLE": "7124", "REGION": "NV-Lincoln", "ASSOCIATION": "USA - Nevada", "POINTS": "4", "BONUSPOINTS": "3"}}, {"type": "Feature", "geometry": {"type": "Point", "coordinates": [-115.7571, 37.5617]}, "properties": {"NAME": "W7N/LN-129", "TITLE": "7100", "REGION": "NV-Lincoln", "ASSOCIATION": "USA - Nevada", "POINTS": "4", "BONUSPOINTS": "3"}}, {"type": "Feature", "geometry": {"type": "Point", "coordinates": [-115.4264, 37.7487]}, "properties": {"NAME": "W7N/LN-130", "TITLE": "7100", "REGION": "NV-Lincoln", "ASSOCIATION": "USA - Nevada", "POINTS": "4", "BONUSPOINTS": "3"}}, {"type": "Feature", "geometry": {"type": "Point", "coordinates": [-115.7604, 37.9716]}, "properties": {"NAME": "W7N/LN-131", "TITLE": "7100", "REGION": "NV-Lincoln", "ASSOCIATION": "USA - Nevada", "POINTS": "4", "BONUSPOINTS": "3"}}, {"type": "Feature", "geometry": {"type": "Point", "coordinates": [-114.4349, 36.9305]}, "properties": {"NAME": "W7N/LN-132", "TITLE": "7083", "REGION": "NV-Lincoln", "ASSOCIATION": "USA - Nevada", "POINTS": "4", "BONUSPOINTS": "3"}}, {"type": "Feature", "geometry": {"type": "Point", "coordinates": [-114.5097, 38.5998]}, "properties": {"NAME": "W7N/LN-133", "TITLE": "7079", "REGION": "NV-Lincoln", "ASSOCIATION": "USA - Nevada", "POINTS": "4", "BONUSPOINTS": "3"}}, {"type": "Feature", "geometry": {"type": "Point", "coordinates": [-114.4551, 38.6645]}, "properties": {"NAME": "W7N/LN-134", "TITLE": "7070", "REGION": "NV-Lincoln", "ASSOCIATION": "USA - Nevada", "POINTS": "4", "BONUSPOINTS": "3"}}, {"type": "Feature", "geometry": {"type": "Point", "coordinates": [-115.651, 38.0299]}, "properties": {"NAME": "W7N/LN-135", "TITLE": "7050", "REGION": "NV-Lincoln", "ASSOCIATION": "USA - Nevada", "POINTS": "4", "BONUSPOINTS": "3"}}, {"type": "Feature", "geometry": {"type": "Point", "coordinates": [-115.6669, 38.0149]}, "properties": {"NAME": "W7N/LN-136", "TITLE": "7020", "REGION": "NV-Lincoln", "ASSOCIATION": "USA - Nevada", "POINTS": "4", "BONUSPOINTS": "3"}}, {"type": "Feature", "geometry": {"type": "Point", "coordinates": [-114.9515, 37.689]}, "properties": {"NAME": "W7N/LN-137", "TITLE": "Big Rocks Wilderness HP", "REGION": "NV-Lincoln", "ASSOCIATION": "USA - Nevada", "POINTS": "4", "BONUSPOINTS": "3"}}, {"type": "Feature", "geometry": {"type": "Point", "coordinates": [-114.7711, 37.5258]}, "properties": {"NAME": "W7N/LN-138", "TITLE": "7012", "REGION": "NV-Lincoln", "ASSOCIATION": "USA - Nevada", "POINTS": "4", "BONUSPOINTS": "3"}}, {"type": "Feature", "geometry": {"type": "Point", "coordinates": [-115.5816, 37.0798]}, "properties": {"NAME": "W7N/LN-139", "TITLE": "Pintwater Range HP", "REGION": "NV-Lincoln", "ASSOCIATION": "USA - Nevada", "POINTS": "4", "BONUSPOINTS": "3"}}, {"type": "Feature", "geometry": {"type": "Point", "coordinates": [-114.6686, 37.4216]}, "properties": {"NAME": "W7N/LN-140", "TITLE": "Delamar Benchmark", "REGION": "NV-Lincoln", "ASSOCIATION": "USA - Nevada", "POINTS": "4", "BONUSPOINTS": "3"}}, {"type": "Feature", "geometry": {"type": "Point", "coordinates": [-115.4204, 37.5021]}, "properties": {"NAME": "W7N/LN-141", "TITLE": "6980", "REGION": "NV-Lincoln", "ASSOCIATION": "USA - Nevada", "POINTS": "4", "BONUSPOINTS": "3"}}, {"type": "Feature", "geometry": {"type": "Point", "coordinates": [-115.1448, 37.905]}, "properties": {"NAME": "W7N/LN-142", "TITLE": "6963", "REGION": "NV-Lincoln", "ASSOCIATION": "USA - Nevada", "POINTS": "4", "BONUSPOINTS": "3"}}, {"type": "Feature", "geometry": {"type": "Point", "coordinates": [-115.5561, 37.1353]}, "properties": {"NAME": "W7N/LN-143", "TITLE": "6952", "REGION": "NV-Lincoln", "ASSOCIATION": "USA - Nevada", "POINTS": "4", "BONUSPOINTS": "3"}}, {"type": "Feature", "geometry": {"type": "Point", "coordinates": [-114.9338, 37.8693]}, "properties": {"NAME": "W7N/LN-144", "TITLE": "6917", "REGION": "NV-Lincoln", "ASSOCIATION": "USA - Nevada", "POINTS": "4", "BONUSPOINTS": "3"}}, {"type": "Feature", "geometry": {"type": "Point", "coordinates": [-115.5465, 37.684]}, "properties": {"NAME": "W7N/LN-145", "TITLE": "6913", "REGION": "NV-Lincoln", "ASSOCIATION": "USA - Nevada", "POINTS": "4", "BONUSPOINTS": "3"}}, {"type": "Feature", "geometry": {"type": "Point", "coordinates": [-114.6701, 37.6527]}, "properties": {"NAME": "W7N/LN-146", "TITLE": "Sugarloaf", "REGION": "NV-Lincoln", "ASSOCIATION": "USA - Nevada", "POINTS": "4", "BONUSPOINTS": "3"}}, {"type": "Feature", "geometry": {"type": "Point", "coordinates": [-114.9259, 37.7907]}, "properties": {"NAME": "W7N/LN-147", "TITLE": "6877", "REGION": "NV-Lincoln", "ASSOCIATION": "USA - Nevada", "POINTS": "4", "BONUSPOINTS": "3"}}, {"type": "Feature", "geometry": {"type": "Point", "coordinates": [-114.7464, 37.4089]}, "properties": {"NAME": "W7N/LN-148", "TITLE": "6876", "REGION": "NV-Lincoln", "ASSOCIATION": "USA - Nevada", "POINTS": "4", "BONUSPOINTS": "3"}}, {"type": "Feature", "geometry": {"type": "Point", "coordinates": [-115.1735, 37.8929]}, "properties": {"NAME": "W7N/LN-149", "TITLE": "6851", "REGION": "NV-Lincoln", "ASSOCIATION": "USA - Nevada", "POINTS": "4", "BONUSPOINTS": "3"}}, {"type": "Feature", "geometry": {"type": "Point", "coordinates": [-114.1048, 37.436]}, "properties": {"NAME": "W7N/LN-150", "TITLE": "Black Mountain", "REGION": "NV-Lincoln", "ASSOCIATION": "USA - Nevada", "POINTS": "4", "BONUSPOINTS": "3"}}, {"type": "Feature", "geometry": {"type": "Point", "coordinates": [-114.671, 37.9441]}, "properties": {"NAME": "W7N/LN-151", "TITLE": "Ely Springs Range HP", "REGION": "NV-Lincoln", "ASSOCIATION": "USA - Nevada", "POINTS": "4", "BONUSPOINTS": "3"}}, {"type": "Feature", "geometry": {"type": "Point", "coordinates": [-115.5278, 37.1133]}, "properties": {"NAME": "W7N/LN-152", "TITLE": "6811", "REGION": "NV-Lincoln", "ASSOCIATION": "USA - Nevada", "POINTS": "4", "BONUSPOINTS": "3"}}, {"type": "Feature", "geometry": {"type": "Point", "coordinates": [-114.3293, 37.6565]}, "properties": {"NAME": "W7N/LN-153", "TITLE": "Empy Mountain", "REGION": "NV-Lincoln", "ASSOCIATION": "USA - Nevada", "POINTS": "4", "BONUSPOINTS": "3"}}, {"type": "Feature", "geometry": {"type": "Point", "coordinates": [-115.3797, 37.7167]}, "properties": {"NAME": "W7N/LN-154", "TITLE": "6805", "REGION": "NV-Lincoln", "ASSOCIATION": "USA - Nevada", "POINTS": "4", "BONUSPOINTS": "3"}}, {"type": "Feature", "geometry": {"type": "Point", "coordinates": [-115.1368, 37.9192]}, "properties": {"NAME": "W7N/LN-155", "TITLE": "6797", "REGION": "NV-Lincoln", "ASSOCIATION": "USA - Nevada", "POINTS": "4", "BONUSPOINTS": "3"}}, {"type": "Feature", "geometry": {"type": "Point", "coordinates": [-114.1998, 38.4252]}, "properties": {"NAME": "W7N/LN-156", "TITLE": "Rosencrans Knolls North", "REGION": "NV-Lincoln", "ASSOCIATION": "USA - Nevada", "POINTS": "4", "BONUSPOINTS": "3"}}, {"type": "Feature", "geometry": {"type": "Point", "coordinates": [-114.9484, 37.7817]}, "properties": {"NAME": "W7N/LN-157", "TITLE": "6765", "REGION": "NV-Lincoln", "ASSOCIATION": "USA - Nevada", "POINTS": "4", "BONUSPOINTS": "3"}}, {"type": "Feature", "geometry": {"type": "Point", "coordinates": [-115.148, 37.9409]}, "properties": {"NAME": "W7N/LN-158", "TITLE": "6761", "REGION": "NV-Lincoln", "ASSOCIATION": "USA - Nevada", "POINTS": "4", "BONUSPOINTS": "3"}}, {"type": "Feature", "geometry": {"type": "Point", "coordinates": [-114.0925, 37.4685]}, "properties": {"NAME": "W7N/LN-159", "TITLE": "Pine Mountain", "REGION": "NV-Lincoln", "ASSOCIATION": "USA - Nevada", "POINTS": "4", "BONUSPOINTS": "3"}}, {"type": "Feature", "geometry": {"type": "Point", "coordinates": [-114.9331, 37.723]}, "properties": {"NAME": "W7N/LN-160", "TITLE": "6740", "REGION": "NV-Lincoln", "ASSOCIATION": "USA - Nevada", "POINTS": "4", "BONUSPOINTS": "3"}}, {"type": "Feature", "geometry": {"type": "Point", "coordinates": [-115.7158, 37.3483]}, "properties": {"NAME": "W7N/LN-161", "TITLE": "6707", "REGION": "NV-Lincoln", "ASSOCIATION": "USA - Nevada", "POINTS": "4", "BONUSPOINTS": "3"}}, {"type": "Feature", "geometry": {"type": "Point", "coordinates": [-114.0642, 37.655]}, "properties": {"NAME": "W7N/LN-162", "TITLE": "6697", "REGION": "NV-Lincoln", "ASSOCIATION": "USA - Nevada", "POINTS": "4", "BONUSPOINTS": "3"}}, {"type": "Feature", "geometry": {"type": "Point", "coordinates": [-115.7935, 37.393]}, "properties": {"NAME": "W7N/LN-163", "TITLE": "6681", "REGION": "NV-Lincoln", "ASSOCIATION": "USA - Nevada", "POINTS": "4", "BONUSPOINTS": "3"}}, {"type": "Feature", "geometry": {"type": "Point", "coordinates": [-114.9986, 37.6738]}, "properties": {"NAME": "W7N/LN-164", "TITLE": "6652", "REGION": "NV-Lincoln", "ASSOCIATION": "USA - Nevada", "POINTS": "4", "BONUSPOINTS": "3"}}, {"type": "Feature", "geometry": {"type": "Point", "coordinates": [-114.714, 37.623]}, "properties": {"NAME": "W7N/LN-165", "TITLE": "6652", "REGION": "NV-Lincoln", "ASSOCIATION": "USA - Nevada", "POINTS": "4", "BONUSPOINTS": "3"}}, {"type": "Feature", "geometry": {"type": "Point", "coordinates": [-114.8986, 37.9605]}, "properties": {"NAME": "W7N/LN-166", "TITLE": "Red Top Benchmark", "REGION": "NV-Lincoln", "ASSOCIATION": "USA - Nevada", "POINTS": "4", "BONUSPOINTS": "3"}}, {"type": "Feature", "geometry": {"type": "Point", "coordinates": [-114.7812, 37.4108]}, "properties": {"NAME": "W7N/LN-167", "TITLE": "Big Lime Mountain", "REGION": "NV-Lincoln", "ASSOCIATION": "USA - Nevada", "POINTS": "4", "BONUSPOINTS": "3"}}, {"type": "Feature", "geometry": {"type": "Point", "coordinates": [-115.654, 37.4249]}, "properties": {"NAME": "W7N/LN-168", "TITLE": "6620", "REGION": "NV-Lincoln", "ASSOCIATION": "USA - Nevada", "POINTS": "4", "BONUSPOINTS": "3"}}, {"type": "Feature", "geometry": {"type": "Point", "coordinates": [-115.3113, 37.661]}, "properties": {"NAME": "W7N/LN-169", "TITLE": "6587", "REGION": "NV-Lincoln", "ASSOCIATION": "USA - Nevada", "POINTS": "4", "BONUSPOINTS": "3"}}, {"type": "Feature", "geometry": {"type": "Point", "coordinates": [-115.0106, 37.4253]}, "properties": {"NAME": "W7N/LN-170", "TITLE": "6570", "REGION": "NV-Lincoln", "ASSOCIATION": "USA - Nevada", "POINTS": "4", "BONUSPOINTS": "3"}}, {"type": "Feature", "geometry": {"type": "Point", "coordinates": [-114.9446, 37.763]}, "properties": {"NAME": "W7N/LN-171", "TITLE": "6568", "REGION": "NV-Lincoln", "ASSOCIATION": "USA - Nevada", "POINTS": "4", "BONUSPOINTS": "3"}}, {"type": "Feature", "geometry": {"type": "Point", "coordinates": [-115.5042, 37.0976]}, "properties": {"NAME": "W7N/LN-172", "TITLE": "6564", "REGION": "NV-Lincoln", "ASSOCIATION": "USA - Nevada", "POINTS": "4", "BONUSPOINTS": "3"}}, {"type": "Feature", "geometry": {"type": "Point", "coordinates": [-115.782, 37.3623]}, "properties": {"NAME": "W7N/LN-173", "TITLE": "6549", "REGION": "NV-Lincoln", "ASSOCIATION": "USA - Nevada", "POINTS": "4", "BONUSPOINTS": "3"}}, {"type": "Feature", "geometry": {"type": "Point", "coordinates": [-115.1792, 37.926]}, "properties": {"NAME": "W7N/LN-174", "TITLE": "6530", "REGION": "NV-Lincoln", "ASSOCIATION": "USA - Nevada", "POINTS": "4", "BONUSPOINTS": "3"}}, {"type": "Feature", "geometry": {"type": "Point", "coordinates": [-114.8311, 37.2356]}, "properties": {"NAME": "W7N/LN-175", "TITLE": "Delamar Mountains Wilderness HP", "REGION": "NV-Lincoln", "ASSOCIATION": "USA - Nevada", "POINTS": "2", "BONUSPOINTS": "3"}}, {"type": "Feature", "geometry": {"type": "Point", "coordinates": [-115.1843, 37.7234]}, "properties": {"NAME": "W7N/LN-176", "TITLE": "Fossil Peak", "REGION": "NV-Lincoln", "ASSOCIATION": "USA - Nevada", "POINTS": "2", "BONUSPOINTS": "3"}}, {"type": "Feature", "geometry": {"type": "Point", "coordinates": [-114.4516, 36.8585]}, "properties": {"NAME": "W7N/LN-177", "TITLE": "Moapa Peak", "REGION": "NV-Lincoln", "ASSOCIATION": "USA - Nevada", "POINTS": "2", "BONUSPOINTS": "3"}}, {"type": "Feature", "geometry": {"type": "Point", "coordinates": [-115.653, 37.3936]}, "properties": {"NAME": "W7N/LN-178", "TITLE": "6460", "REGION": "NV-Lincoln", "ASSOCIATION": "USA - Nevada", "POINTS": "2", "BONUSPOINTS": "3"}}, {"type": "Feature", "geometry": {"type": "Point", "coordinates": [-114.4656, 37.393]}, "properties": {"NAME": "W7N/LN-179", "TITLE": "6460", "REGION": "NV-Lincoln", "ASSOCIATION": "USA - Nevada", "POINTS": "2", "BONUSPOINTS": "3"}}, {"type": "Feature", "geometry": {"type": "Point", "coordinates": [-115.628, 37.2084]}, "properties": {"NAME": "W7N/LN-180", "TITLE": "6450", "REGION": "NV-Lincoln", "ASSOCIATION": "USA - Nevada", "POINTS": "2", "BONUSPOINTS": "3"}}, {"type": "Feature", "geometry": {"type": "Point", "coordinates": [-115.368, 38.0048]}, "properties": {"NAME": "W7N/LN-181", "TITLE": "6407", "REGION": "NV-Lincoln", "ASSOCIATION": "USA - Nevada", "POINTS": "2", "BONUSPOINTS": "3"}}, {"type": "Feature", "geometry": {"type": "Point", "coordinates": [-115.3755, 37.4061]}, "properties": {"NAME": "W7N/LN-182", "TITLE": "6404", "REGION": "NV-Lincoln", "ASSOCIATION": "USA - Nevada", "POINTS": "2", "BONUSPOINTS": "3"}}, {"type": "Feature", "geometry": {"type": "Point", "coordinates": [-115.5587, 36.929]}, "properties": {"NAME": "W7N/LN-183", "TITLE": "Quartz Peak", "REGION": "NV-Lincoln", "ASSOCIATION": "USA - Nevada", "POINTS": "2", "BONUSPOINTS": "3"}}, {"type": "Feature", "geometry": {"type": "Point", "coordinates": [-115.692, 37.5564]}, "properties": {"NAME": "W7N/LN-184", "TITLE": "6390", "REGION": "NV-Lincoln", "ASSOCIATION": "USA - Nevada", "POINTS": "2", "BONUSPOINTS": "3"}}, {"type": "Feature", "geometry": {"type": "Point", "coordinates": [-114.8995, 37.2759]}, "properties": {"NAME": "W7N/LN-185", "TITLE": "Double Benchmark", "REGION": "NV-Lincoln", "ASSOCIATION": "USA - Nevada", "POINTS": "2", "BONUSPOINTS": "3"}}, {"type": "Feature", "geometry": {"type": "Point", "coordinates": [-114.6389, 37.7997]}, "properties": {"NAME": "W7N/LN-186", "TITLE": "Bluffs, The", "REGION": "NV-Lincoln", "ASSOCIATION": "USA - Nevada", "POINTS": "2", "BONUSPOINTS": "3"}}, {"type": "Feature", "geometry": {"type": "Point", "coordinates": [-114.5622, 37.7667]}, "properties": {"NAME": "W7N/LN-187", "TITLE": "6368", "REGION": "NV-Lincoln", "ASSOCIATION": "USA - Nevada", "POINTS": "2", "BONUSPOINTS": "3"}}, {"type": "Feature", "geometry": {"type": "Point", "coordinates": [-114.5113, 36.9247]}, "properties": {"NAME": "W7N/LN-188", "TITLE": "6365", "REGION": "NV-Lincoln", "ASSOCIATION": "USA - Nevada", "POINTS": "2", "BONUSPOINTS": "3"}}, {"type": "Feature", "geometry": {"type": "Point", "coordinates": [-114.276, 37.484]}, "properties": {"NAME": "W7N/LN-189", "TITLE": "Gum Hill", "REGION": "NV-Lincoln", "ASSOCIATION": "USA - Nevada", "POINTS": "2", "BONUSPOINTS": "3"}}, {"type": "Feature", "geometry": {"type": "Point", "coordinates": [-114.6926, 38.0517]}, "properties": {"NAME": "W7N/LN-190", "TITLE": "West Range HP", "REGION": "NV-Lincoln", "ASSOCIATION": "USA - Nevada", "POINTS": "2", "BONUSPOINTS": "3"}}, {"type": "Feature", "geometry": {"type": "Point", "coordinates": [-114.7704, 37.5996]}, "properties": {"NAME": "W7N/LN-191", "TITLE": "6330", "REGION": "NV-Lincoln", "ASSOCIATION": "USA - Nevada", "POINTS": "2", "BONUSPOINTS": "3"}}, {"type": "Feature", "geometry": {"type": "Point", "coordinates": [-114.3168, 37.2553]}, "properties": {"NAME": "W7N/LN-192", "TITLE": "Garden Mountain", "REGION": "NV-Lincoln", "ASSOCIATION": "USA - Nevada", "POINTS": "2", "BONUSPOINTS": "3"}}, {"type": "Feature", "geometry": {"type": "Point", "coordinates": [-114.8543, 37.2608]}, "properties": {"NAME": "W7N/LN-193", "TITLE": "6300", "REGION": "NV-Lincoln", "ASSOCIATION": "USA - Nevada", "POINTS": "2", "BONUSPOINTS": "3"}}, {"type": "Feature", "geometry": {"type": "Point", "coordinates": [-115.2878, 37.7325]}, "properties": {"NAME": "W7N/LN-194", "TITLE": "6294", "REGION": "NV-Lincoln", "ASSOCIATION": "USA - Nevada", "POINTS": "2", "BONUSPOINTS": "3"}}, {"type": "Feature", "geometry": {"type": "Point", "coordinates": [-115.8428, 37.1813]}, "properties": {"NAME": "W7N/LN-195", "TITLE": "Papoose Mountain", "REGION": "NV-Lincoln", "ASSOCIATION": "USA - Nevada", "POINTS": "2", "BONUSPOINTS": "3"}}, {"type": "Feature", "geometry": {"type": "Point", "coordinates": [-115.2314, 37.2996]}, "properties": {"NAME": "W7N/LN-196", "TITLE": "6291", "REGION": "NV-Lincoln", "ASSOCIATION": "USA - Nevada", "POINTS": "2", "BONUSPOINTS": "3"}}, {"type": "Feature", "geometry": {"type": "Point", "coordinates": [-114.8306, 37.1915]}, "properties": {"NAME": "W7N/LN-197", "TITLE": "6287", "REGION": "NV-Lincoln", "ASSOCIATION": "USA - Nevada", "POINTS": "2", "BONUSPOINTS": "3"}}, {"type": "Feature", "geometry": {"type": "Point", "coordinates": [-115.7942, 36.8922]}, "properties": {"NAME": "W7N/LN-198", "TITLE": "Aysees Peak", "REGION": "NV-Lincoln", "ASSOCIATION": "USA - Nevada", "POINTS": "2", "BONUSPOINTS": "3"}}, {"type": "Feature", "geometry": {"type": "Point", "coordinates": [-114.4464, 37.0133]}, "properties": {"NAME": "W7N/LN-199", "TITLE": "6235", "REGION": "NV-Lincoln", "ASSOCIATION": "USA - Nevada", "POINTS": "2", "BONUSPOINTS": "3"}}, {"type": "Feature", "geometry": {"type": "Point", "coordinates": [-115.1668, 37.6588]}, "properties": {"NAME": "W7N/LN-200", "TITLE": "White River Benchmark", "REGION": "NV-Lincoln", "ASSOCIATION": "USA - Nevada", "POINTS": "2", "BONUSPOINTS": "3"}}, {"type": "Feature", "geometry": {"type": "Point", "coordinates": [-115.2728, 37.6953]}, "properties": {"NAME": "W7N/LN-201", "TITLE": "6221", "REGION": "NV-Lincoln", "ASSOCIATION": "USA - Nevada", "POINTS": "2", "BONUSPOINTS": "3"}}, {"type": "Feature", "geometry": {"type": "Point", "coordinates": [-114.6991, 37.7465]}, "properties": {"NAME": "W7N/LN-202", "TITLE": "6217", "REGION": "NV-Lincoln", "ASSOCIATION": "USA - Nevada", "POINTS": "2", "BONUSPOINTS": "3"}}, {"type": "Feature", "geometry": {"type": "Point", "coordinates": [-114.9352, 37.1872]}, "properties": {"NAME": "W7N/LN-203", "TITLE": "6197", "REGION": "NV-Lincoln", "ASSOCIATION": "USA - Nevada", "POINTS": "2", "BONUSPOINTS": "3"}}, {"type": "Feature", "geometry": {"type": "Point", "coordinates": [-114.4824, 37.374]}, "properties": {"NAME": "W7N/LN-204", "TITLE": "6180", "REGION": "NV-Lincoln", "ASSOCIATION": "USA - Nevada", "POINTS": "2", "BONUSPOINTS": "3"}}, {"type": "Feature", "geometry": {"type": "Point", "coordinates": [-115.7327, 37.0657]}, "properties": {"NAME": "W7N/LN-205", "TITLE": "Chert Ridge", "REGION": "NV-Lincoln", "ASSOCIATION": "USA - Nevada", "POINTS": "2", "BONUSPOINTS": "3"}}, {"type": "Feature", "geometry": {"type": "Point", "coordinates": [-115.2714, 37.783]}, "properties": {"NAME": "W7N/LN-206", "TITLE": "6130", "REGION": "NV-Lincoln", "ASSOCIATION": "USA - Nevada", "POINTS": "2", "BONUSPOINTS": "3"}}, {"type": "Feature", "geometry": {"type": "Point", "coordinates": [-115.3402, 37.2126]}, "properties": {"NAME": "W7N/LN-207", "TITLE": "Tika Benchmark", "REGION": "NV-Lincoln", "ASSOCIATION": "USA - Nevada", "POINTS": "2", "BONUSPOINTS": "3"}}, {"type": "Feature", "geometry": {"type": "Point", "coordinates": [-115.2465, 36.8718]}, "properties": {"NAME": "W7N/LN-208", "TITLE": "6088", "REGION": "NV-Lincoln", "ASSOCIATION": "USA - Nevada", "POINTS": "2", "BONUSPOINTS": "3"}}, {"type": "Feature", "geometry": {"type": "Point", "coordinates": [-114.8978, 37.8824]}, "properties": {"NAME": "W7N/LN-209", "TITLE": "6061", "REGION": "NV-Lincoln", "ASSOCIATION": "USA - Nevada", "POINTS": "2", "BONUSPOINTS": "3"}}, {"type": "Feature", "geometry": {"type": "Point", "coordinates": [-115.4137, 37.0073]}, "properties": {"NAME": "W7N/LN-210", "TITLE": "6040", "REGION": "NV-Lincoln", "ASSOCIATION": "USA - Nevada", "POINTS": "2", "BONUSPOINTS": "3"}}, {"type": "Feature", "geometry": {"type": "Point", "coordinates": [-115.6282, 37.3685]}, "properties": {"NAME": "W7N/LN-211", "TITLE": "White Sides Benchmark", "REGION": "NV-Lincoln", "ASSOCIATION": "USA - Nevada", "POINTS": "2", "BONUSPOINTS": "3"}}, {"type": "Feature", "geometry": {"type": "Point", "coordinates": [-115.868, 37.7555]}, "properties": {"NAME": "W7N/LN-212", "TITLE": "6027", "REGION": "NV-Lincoln", "ASSOCIATION": "USA - Nevada", "POINTS": "2", "BONUSPOINTS": "3"}}, {"type": "Feature", "geometry": {"type": "Point", "coordinates": [-115.1458, 37.684]}, "properties": {"NAME": "W7N/LN-213", "TITLE": "6020", "REGION": "NV-Lincoln", "ASSOCIATION": "USA - Nevada", "POINTS": "2", "BONUSPOINTS": "3"}}, {"type": "Feature", "geometry": {"type": "Point", "coordinates": [-114.9101, 37.7544]}, "properties": {"NAME": "W7N/LN-214", "TITLE": "6020", "REGION": "NV-Lincoln", "ASSOCIATION": "USA - Nevada", "POINTS": "2", "BONUSPOINTS": "3"}}, {"type": "Feature", "geometry": {"type": "Point", "coordinates": [-115.3805, 36.9418]}, "properties": {"NAME": "W7N/LN-215", "TITLE": "Dog Benchmark", "REGION": "NV-Lincoln", "ASSOCIATION": "USA - Nevada", "POINTS": "2", "BONUSPOINTS": "3"}}, {"type": "Feature", "geometry": {"type": "Point", "coordinates": [-115.514, 37.1409]}, "properties": {"NAME": "W7N/LN-216", "TITLE": "5987", "REGION": "NV-Lincoln", "ASSOCIATION": "USA - Nevada", "POINTS": "2", "BONUSPOINTS": "3"}}, {"type": "Feature", "geometry": {"type": "Point", "coordinates": [-115.1676, 37.6471]}, "properties": {"NAME": "W7N/LN-217", "TITLE": "5968", "REGION": "NV-Lincoln", "ASSOCIATION": "USA - Nevada", "POINTS": "2", "BONUSPOINTS": "3"}}, {"type": "Feature", "geometry": {"type": "Point", "coordinates": [-114.9999, 37.2532]}, "properties": {"NAME": "W7N/LN-218", "TITLE": "5940", "REGION": "NV-Lincoln", "ASSOCIATION": "USA - Nevada", "POINTS": "2", "BONUSPOINTS": "3"}}, {"type": "Feature", "geometry": {"type": "Point", "coordinates": [-115.8188, 36.9074]}, "properties": {"NAME": "W7N/LN-219", "TITLE": "5940", "REGION": "NV-Lincoln", "ASSOCIATION": "USA - Nevada", "POINTS": "2", "BONUSPOINTS": "3"}}, {"type": "Feature", "geometry": {"type": "Point", "coordinates": [-114.7379, 37.6479]}, "properties": {"NAME": "W7N/LN-220", "TITLE": "5928", "REGION": "NV-Lincoln", "ASSOCIATION": "USA - Nevada", "POINTS": "2", "BONUSPOINTS": "3"}}, {"type": "Feature", "geometry": {"type": "Point", "coordinates": [-115.6587, 37.2983]}, "properties": {"NAME": "W7N/LN-221", "TITLE": "5927", "REGION": "NV-Lincoln", "ASSOCIATION": "USA - Nevada", "POINTS": "2", "BONUSPOINTS": "3"}}, {"type": "Feature", "geometry": {"type": "Point", "coordinates": [-115.7413, 36.8594]}, "properties": {"NAME": "W7N/LN-222", "TITLE": "5897", "REGION": "NV-Lincoln", "ASSOCIATION": "USA - Nevada", "POINTS": "2", "BONUSPOINTS": "3"}}, {"type": "Feature", "geometry": {"type": "Point", "coordinates": [-114.7208, 37.7148]}, "properties": {"NAME": "W7N/LN-223", "TITLE": "5879", "REGION": "NV-Lincoln", "ASSOCIATION": "USA - Nevada", "POINTS": "2", "BONUSPOINTS": "3"}}, {"type": "Feature", "geometry": {"type": "Point", "coordinates": [-115.3587, 36.8747]}, "properties": {"NAME": "W7N/LN-224", "TITLE": "5860", "REGION": "NV-Lincoln", "ASSOCIATION": "USA - Nevada", "POINTS": "2", "BONUSPOINTS": "3"}}, {"type": "Feature", "geometry": {"type": "Point", "coordinates": [-114.8759, 37.6698]}, "properties": {"NAME": "W7N/LN-225", "TITLE": "5860", "REGION": "NV-Lincoln", "ASSOCIATION": "USA - Nevada", "POINTS": "2", "BONUSPOINTS": "3"}}, {"type": "Feature", "geometry": {"type": "Point", "coordinates": [-115.7848, 36.9756]}, "properties": {"NAME": "W7N/LN-226", "TITLE": "5856", "REGION": "NV-Lincoln", "ASSOCIATION": "USA - Nevada", "POINTS": "2", "BONUSPOINTS": "3"}}, {"type": "Feature", "geometry": {"type": "Point", "coordinates": [-115.3196, 37.2453]}, "properties": {"NAME": "W7N/LN-227", "TITLE": "5846", "REGION": "NV-Lincoln", "ASSOCIATION": "USA - Nevada", "POINTS": "2", "BONUSPOINTS": "3"}}, {"type": "Feature", "geometry": {"type": "Point", "coordinates": [-114.8481, 37.9366]}, "properties": {"NAME": "W7N/LN-228", "TITLE": "5812", "REGION": "NV-Lincoln", "ASSOCIATION": "USA - Nevada", "POINTS": "2", "BONUSPOINTS": "3"}}, {"type": "Feature", "geometry": {"type": "Point", "coordinates": [-114.3821, 36.9532]}, "properties": {"NAME": "W7N/LN-229", "TITLE": "5804", "REGION": "NV-Lincoln", "ASSOCIATION": "USA - Nevada", "POINTS": "2", "BONUSPOINTS": "3"}}, {"type": "Feature", "geometry": {"type": "Point", "coordinates": [-115.3362, 37.5721]}, "properties": {"NAME": "W7N/LN-230", "TITLE": "5794", "REGION": "NV-Lincoln", "ASSOCIATION": "USA - Nevada", "POINTS": "2", "BONUSPOINTS": "3"}}, {"type": "Feature", "geometry": {"type": "Point", "coordinates": [-115.2612, 37.6635]}, "properties": {"NAME": "W7N/LN-231", "TITLE": "5780", "REGION": "NV-Lincoln", "ASSOCIATION": "USA - Nevada", "POINTS": "2", "BONUSPOINTS": "3"}}, {"type": "Feature", "geometry": {"type": "Point", "coordinates": [-114.7928, 37.0311]}, "properties": {"NAME": "W7N/LN-232", "TITLE": "Meadow Valley Mountains HP", "REGION": "NV-Lincoln", "ASSOCIATION": "USA - Nevada", "POINTS": "2", "BONUSPOINTS": "3"}}, {"type": "Feature", "geometry": {"type": "Point", "coordinates": [-114.547, 37.298]}, "properties": {"NAME": "W7N/LN-233", "TITLE": "5762", "REGION": "NV-Lincoln", "ASSOCIATION": "USA - Nevada", "POINTS": "2", "BONUSPOINTS": "3"}}, {"type": "Feature", "geometry": {"type": "Point", "coordinates": [-115.2597, 37.3729]}, "properties": {"NAME": "W7N/LN-234", "TITLE": "5748", "REGION": "NV-Lincoln", "ASSOCIATION": "USA - Nevada", "POINTS": "2", "BONUSPOINTS": "3"}}, {"type": "Feature", "geometry": {"type": "Point", "coordinates": [-115.6554, 37.1934]}, "properties": {"NAME": "W7N/LN-235", "TITLE": "5740", "REGION": "NV-Lincoln", "ASSOCIATION": "USA - Nevada", "POINTS": "2", "BONUSPOINTS": "3"}}, {"type": "Feature", "geometry": {"type": "Point", "coordinates": [-115.3941, 37.3997]}, "properties": {"NAME": "W7N/LN-236", "TITLE": "5725", "REGION": "NV-Lincoln", "ASSOCIATION": "USA - Nevada", "POINTS": "2", "BONUSPOINTS": "3"}}, {"type": "Feature", "geometry": {"type": "Point", "coordinates": [-115.2756, 37.3813]}, "properties": {"NAME": "W7N/LN-237", "TITLE": "5718", "REGION": "NV-Lincoln", "ASSOCIATION": "USA - Nevada", "POINTS": "2", "BONUSPOINTS": "3"}}, {"type": "Feature", "geometry": {"type": "Point", "coordinates": [-114.1128, 37.3482]}, "properties": {"NAME": "W7N/LN-238", "TITLE": "5689", "REGION": "NV-Lincoln", "ASSOCIATION": "USA - Nevada", "POINTS": "2", "BONUSPOINTS": "3"}}, {"type": "Feature", "geometry": {"type": "Point", "coordinates": [-114.5851, 37.2556]}, "properties": {"NAME": "W7N/LN-239", "TITLE": "Meadow Benchmark", "REGION": "NV-Lincoln", "ASSOCIATION": "USA - Nevada", "POINTS": "2", "BONUSPOINTS": "3"}}, {"type": "Feature", "geometry": {"type": "Point", "coordinates": [-114.5968, 37.515]}, "properties": {"NAME": "W7N/LN-240", "TITLE": "Baldy Mountain", "REGION": "NV-Lincoln", "ASSOCIATION": "USA - Nevada", "POINTS": "2", "BONUSPOINTS": "3"}}, {"type": "Feature", "geometry": {"type": "Point", "coordinates": [-115.3612, 37.0464]}, "properties": {"NAME": "W7N/LN-241", "TITLE": "East Benchmark", "REGION": "NV-Lincoln", "ASSOCIATION": "USA - Nevada", "POINTS": "2", "BONUSPOINTS": "3"}}, {"type": "Feature", "geometry": {"type": "Point", "coordinates": [-115.1937, 37.5652]}, "properties": {"NAME": "W7N/LN-242", "TITLE": "5590", "REGION": "NV-Lincoln", "ASSOCIATION": "USA - Nevada", "POINTS": "2", "BONUSPOINTS": "3"}}, {"type": "Feature", "geometry": {"type": "Point", "coordinates": [-115.1792, 37.5118]}, "properties": {"NAME": "W7N/LN-243", "TITLE": "5583", "REGION": "NV-Lincoln", "ASSOCIATION": "USA - Nevada", "POINTS": "2", "BONUSPOINTS": "3"}}, {"type": "Feature", "geometry": {"type": "Point", "coordinates": [-115.2804, 37.4438]}, "properties": {"NAME": "W7N/LN-244", "TITLE": "5551", "REGION": "NV-Lincoln", "ASSOCIATION": "USA - Nevada", "POINTS": "2", "BONUSPOINTS": "3"}}, {"type": "Feature", "geometry": {"type": "Point", "coordinates": [-114.5055, 37.0091]}, "properties": {"NAME": "W7N/LN-245", "TITLE": "5550", "REGION": "NV-Lincoln", "ASSOCIATION": "USA - Nevada", "POINTS": "2", "BONUSPOINTS": "3"}}, {"type": "Feature", "geometry": {"type": "Point", "coordinates": [-114.9585, 37.3758]}, "properties": {"NAME": "W7N/LN-246", "TITLE": "5547", "REGION": "NV-Lincoln", "ASSOCIATION": "USA - Nevada", "POINTS": "2", "BONUSPOINTS": "3"}}, {"type": "Feature", "geometry": {"type": "Point", "coordinates": [-114.3994, 37.3823]}, "properties": {"NAME": "W7N/LN-247", "TITLE": "5523", "REGION": "NV-Lincoln", "ASSOCIATION": "USA - Nevada", "POINTS": "2", "BONUSPOINTS": "3"}}, {"type": "Feature", "geometry": {"type": "Point", "coordinates": [-114.1433, 37.2374]}, "properties": {"NAME": "W7N/LN-248", "TITLE": "Lime Mountain", "REGION": "NV-Lincoln", "ASSOCIATION": "USA - Nevada", "POINTS": "2", "BONUSPOINTS": "3"}}, {"type": "Feature", "geometry": {"type": "Point", "coordinates": [-114.3925, 36.9221]}, "properties": {"NAME": "W7N/LN-249", "TITLE": "5439", "REGION": "NV-Lincoln", "ASSOCIATION": "USA - Nevada", "POINTS": "2", "BONUSPOINTS": "3"}}, {"type": "Feature", "geometry": {"type": "Point", "coordinates": [-114.7065, 37.1084]}, "properties": {"NAME": "W7N/LN-250", "TITLE": "Kane Benchmark", "REGION": "NV-Lincoln", "ASSOCIATION": "USA - Nevada", "POINTS": "2", "BONUSPOINTS": "3"}}, {"type": "Feature", "geometry": {"type": "Point", "coordinates": [-114.9876, 37.3008]}, "properties": {"NAME": "W7N/LN-251", "TITLE": "5420", "REGION": "NV-Lincoln", "ASSOCIATION": "USA - Nevada", "POINTS": "2", "BONUSPOINTS": "3"}}, {"type": "Feature", "geometry": {"type": "Point", "coordinates": [-115.3695, 37.0889]}, "properties": {"NAME": "W7N/LN-252", "TITLE": "5390", "REGION": "NV-Lincoln", "ASSOCIATION": "USA - Nevada", "POINTS": "2", "BONUSPOINTS": "3"}}, {"type": "Feature", "geometry": {"type": "Point", "coordinates": [-114.6381, 37.1863]}, "properties": {"NAME": "W7N/LN-253", "TITLE": "5386", "REGION": "NV-Lincoln", "ASSOCIATION": "USA - Nevada", "POINTS": "2", "BONUSPOINTS": "3"}}, {"type": "Feature", "geometry": {"type": "Point", "coordinates": [-114.3246, 36.8963]}, "properties": {"NAME": "W7N/LN-254", "TITLE": "Davidson Peak", "REGION": "NV-Lincoln", "ASSOCIATION": "USA - Nevada", "POINTS": "2", "BONUSPOINTS": "3"}}, {"type": "Feature", "geometry": {"type": "Point", "coordinates": [-115.2233, 37.7139]}, "properties": {"NAME": "W7N/LN-255", "TITLE": "5316", "REGION": "NV-Lincoln", "ASSOCIATION": "USA - Nevada", "POINTS": "2", "BONUSPOINTS": "3"}}, {"type": "Feature", "geometry": {"type": "Point", "coordinates": [-114.4449, 37.042]}, "properties": {"NAME": "W7N/LN-256", "TITLE": "5306", "REGION": "NV-Lincoln", "ASSOCIATION": "USA - Nevada", "POINTS": "2", "BONUSPOINTS": "3"}}, {"type": "Feature", "geometry": {"type": "Point", "coordinates": [-115.873, 37.0209]}, "properties": {"NAME": "W7N/LN-257", "TITLE": "5300", "REGION": "NV-Lincoln", "ASSOCIATION": "USA - Nevada", "POINTS": "2", "BONUSPOINTS": "3"}}, {"type": "Feature", "geometry": {"type": "Point", "coordinates": [-115.3635, 36.9055]}, "properties": {"NAME": "W7N/LN-258", "TITLE": "5287", "REGION": "NV-Lincoln", "ASSOCIATION": "USA - Nevada", "POINTS": "2", "BONUSPOINTS": "3"}}, {"type": "Feature", "geometry": {"type": "Point", "coordinates": [-114.3644, 37.207]}, "properties": {"NAME": "W7N/LN-259", "TITLE": "Leith Benchmark", "REGION": "NV-Lincoln", "ASSOCIATION": "USA - Nevada", "POINTS": "2", "BONUSPOINTS": "3"}}, {"type": "Feature", "geometry": {"type": "Point", "coordinates": [-115.1815, 37.2474]}, "properties": {"NAME": "W7N/LN-260", "TITLE": "5218", "REGION": "NV-Lincoln", "ASSOCIATION": "USA - Nevada", "POINTS": "2", "BONUSPOINTS": "3"}}, {"type": "Feature", "geometry": {"type": "Point", "coordinates": [-115.2722, 37.0996]}, "properties": {"NAME": "W7N/LN-261", "TITLE": "5196", "REGION": "NV-Lincoln", "ASSOCIATION": "USA - Nevada", "POINTS": "2", "BONUSPOINTS": "3"}}, {"type": "Feature", "geometry": {"type": "Point", "coordinates": [-115.2652, 37.6313]}, "properties": {"NAME": "W7N/LN-262", "TITLE": "5180", "REGION": "NV-Lincoln", "ASSOCIATION": "USA - Nevada", "POINTS": "2", "BONUSPOINTS": "3"}}, {"type": "Feature", "geometry": {"type": "Point", "coordinates": [-115.0228, 37.2407]}, "properties": {"NAME": "W7N/LN-263", "TITLE": "5136", "REGION": "NV-Lincoln", "ASSOCIATION": "USA - Nevada", "POINTS": "2", "BONUSPOINTS": "3"}}, {"type": "Feature", "geometry": {"type": "Point", "coordinates": [-115.119, 37.3646]}, "properties": {"NAME": "W7N/LN-264", "TITLE": "Alamo Benchmark", "REGION": "NV-Lincoln", "ASSOCIATION": "USA - Nevada", "POINTS": "2", "BONUSPOINTS": "3"}}, {"type": "Feature", "geometry": {"type": "Point", "coordinates": [-115.2692, 37.1459]}, "properties": {"NAME": "W7N/LN-265", "TITLE": "5101", "REGION": "NV-Lincoln", "ASSOCIATION": "USA - Nevada", "POINTS": "2", "BONUSPOINTS": "3"}}, {"type": "Feature", "geometry": {"type": "Point", "coordinates": [-115.0709, 37.1332]}, "properties": {"NAME": "W7N/LN-266", "TITLE": "5092", "REGION": "NV-Lincoln", "ASSOCIATION": "USA - Nevada", "POINTS": "2", "BONUSPOINTS": "3"}}, {"type": "Feature", "geometry": {"type": "Point", "coordinates": [-114.5306, 36.9114]}, "properties": {"NAME": "W7N/LN-267", "TITLE": "5070", "REGION": "NV-Lincoln", "ASSOCIATION": "USA - Nevada", "POINTS": "2", "BONUSPOINTS": "3"}}, {"type": "Feature", "geometry": {"type": "Point", "coordinates": [-115.066, 37.146]}, "properties": {"NAME": "W7N/LN-268", "TITLE": "5069", "REGION": "NV-Lincoln", "ASSOCIATION": "USA - Nevada", "POINTS": "2", "BONUSPOINTS": "3"}}, {"type": "Feature", "geometry": {"type": "Point", "coordinates": [-115.3292, 36.9143]}, "properties": {"NAME": "W7N/LN-269", "TITLE": "5051", "REGION": "NV-Lincoln", "ASSOCIATION": "USA - Nevada", "POINTS": "2", "BONUSPOINTS": "3"}}, {"type": "Feature", "geometry": {"type": "Point", "coordinates": [-115.3804, 37.1115]}, "properties": {"NAME": "W7N/LN-270", "TITLE": "5045", "REGION": "NV-Lincoln", "ASSOCIATION": "USA - Nevada", "POINTS": "2", "BONUSPOINTS": "3"}}, {"type": "Feature", "geometry": {"type": "Point", "coordinates": [-114.7408, 37.0722]}, "properties": {"NAME": "W7N/LN-271", "TITLE": "Sunflower Mountain", "REGION": "NV-Lincoln", "ASSOCIATION": "USA - Nevada", "POINTS": "2", "BONUSPOINTS": "3"}}, {"type": "Feature", "geometry": {"type": "Point", "coordinates": [-114.3717, 36.9259]}, "properties": {"NAME": "W7N/LN-272", "TITLE": "5010", "REGION": "NV-Lincoln", "ASSOCIATION": "USA - Nevada", "POINTS": "2", "BONUSPOINTS": "3"}}, {"type": "Feature", "geometry": {"type": "Point", "coordinates": [-114.5429, 37.0]}, "properties": {"NAME": "W7N/LN-273", "TITLE": "4940", "REGION": "NV-Lincoln", "ASSOCIATION": "USA - Nevada", "POINTS": "1", "BONUSPOINTS": "3"}}, {"type": "Feature", "geometry": {"type": "Point", "coordinates": [-115.0516, 37.2875]}, "properties": {"NAME": "W7N/LN-274", "TITLE": "4882", "REGION": "NV-Lincoln", "ASSOCIATION": "USA - Nevada", "POINTS": "1", "BONUSPOINTS": "3"}}, {"type": "Feature", "geometry": {"type": "Point", "coordinates": [-115.1003, 37.3237]}, "properties": {"NAME": "W7N/LN-275", "TITLE": "4845", "REGION": "NV-Lincoln", "ASSOCIATION": "USA - Nevada", "POINTS": "1", "BONUSPOINTS": "3"}}, {"type": "Feature", "geometry": {"type": "Point", "coordinates": [-114.8832, 37.0784]}, "properties": {"NAME": "W7N/LN-276", "TITLE": "4818", "REGION": "NV-Lincoln", "ASSOCIATION": "USA - Nevada", "POINTS": "1", "BONUSPOINTS": "3"}}, {"type": "Feature", "geometry": {"type": "Point", "coordinates": [-115.153, 37.1835]}, "properties": {"NAME": "W7N/LN-277", "TITLE": "4782", "REGION": "NV-Lincoln", "ASSOCIATION": "USA - Nevada", "POINTS": "1", "BONUSPOINTS": "3"}}, {"type": "Feature", "geometry": {"type": "Point", "coordinates": [-114.8528, 36.9126]}, "properties": {"NAME": "W7N/LN-278", "TITLE": "4757", "REGION": "NV-Lincoln", "ASSOCIATION": "USA - Nevada", "POINTS": "1", "BONUSPOINTS": "3"}}, {"type": "Feature", "geometry": {"type": "Point", "coordinates": [-115.238, 37.0966]}, "properties": {"NAME": "W7N/LN-279", "TITLE": "4730", "REGION": "NV-Lincoln", "ASSOCIATION": "USA - Nevada", "POINTS": "1", "BONUSPOINTS": "3"}}, {"type": "Feature", "geometry": {"type": "Point", "coordinates": [-115.1218, 37.2079]}, "properties": {"NAME": "W7N/LN-280", "TITLE": "4574", "REGION": "NV-Lincoln", "ASSOCIATION": "USA - Nevada", "POINTS": "1", "BONUSPOINTS": "3"}}, {"type": "Feature", "geometry": {"type": "Point", "coordinates": [-114.1737, 37.1787]}, "properties": {"NAME": "W7N/LN-281", "TITLE": "Joshua Benchmark", "REGION": "NV-Lincoln", "ASSOCIATION": "USA - Nevada", "POINTS": "1", "BONUSPOINTS": "3"}}, {"type": "Feature", "geometry": {"type": "Point", "coordinates": [-114.1167, 37.1255]}, "properties": {"NAME": "W7N/LN-282", "TITLE": "Rough Benchmark", "REGION": "NV-Lincoln", "ASSOCIATION": "USA - Nevada", "POINTS": "1", "BONUSPOINTS": "3"}}, {"type": "Feature", "geometry": {"type": "Point", "coordinates": [-114.1849, 37.1444]}, "properties": {"NAME": "W7N/LN-283", "TITLE": "4483", "REGION": "NV-Lincoln", "ASSOCIATION": "USA - Nevada", "POINTS": "1", "BONUSPOINTS": "3"}}, {"type": "Feature", "geometry": {"type": "Point", "coordinates": [-114.1528, 37.1139]}, "properties": {"NAME": "W7N/LN-284", "TITLE": "4477", "REGION": "NV-Lincoln", "ASSOCIATION": "USA - Nevada", "POINTS": "1", "BONUSPOINTS": "3"}}, {"type": "Feature", "geometry": {"type": "Point", "coordinates": [-115.0412, 37.1784]}, "properties": {"NAME": "W7N/LN-285", "TITLE": "4437", "REGION": "NV-Lincoln", "ASSOCIATION": "USA - Nevada", "POINTS": "1", "BONUSPOINTS": "3"}}, {"type": "Feature", "geometry": {"type": "Point", "coordinates": [-114.6128, 37.1219]}, "properties": {"NAME": "W7N/LN-286", "TITLE": "4420", "REGION": "NV-Lincoln", "ASSOCIATION": "USA - Nevada", "POINTS": "1", "BONUSPOINTS": "3"}}, {"type": "Feature", "geometry": {"type": "Point", "coordinates": [-114.8101, 36.8669]}, "properties": {"NAME": "W7N/LN-287", "TITLE": "4310", "REGION": "NV-Lincoln", "ASSOCIATION": "USA - Nevada", "POINTS": "1", "BONUSPOINTS": "3"}}, {"type": "Feature", "geometry": {"type": "Point", "coordinates": [-114.2119, 37.1024]}, "properties": {"NAME": "W7N/LN-288", "TITLE": "4260", "REGION": "NV-Lincoln", "ASSOCIATION": "USA - Nevada", "POINTS": "1", "BONUSPOINTS": "3"}}, {"type": "Feature", "geometry": {"type": "Point", "coordinates": [-114.3984, 37.1247]}, "properties": {"NAME": "W7N/LN-289", "TITLE": "4180", "REGION": "NV-Lincoln", "ASSOCIATION": "USA - Nevada", "POINTS": "1", "BONUSPOINTS": "3"}}, {"type": "Feature", "geometry": {"type": "Point", "coordinates": [-114.7421, 36.8813]}, "properties": {"NAME": "W7N/LN-290", "TITLE": "Bunker Benchmark", "REGION": "NV-Lincoln", "ASSOCIATION": "USA - Nevada", "POINTS": "1", "BONUSPOINTS": "3"}}, {"type": "Feature", "geometry": {"type": "Point", "coordinates": [-114.8548, 36.865]}, "properties": {"NAME": "W7N/LN-291", "TITLE": "4060", "REGION": "NV-Lincoln", "ASSOCIATION": "USA - Nevada", "POINTS": "1", "BONUSPOINTS": "3"}}, {"type": "Feature", "geometry": {"type": "Point", "coordinates": [-114.2478, 37.0679]}, "properties": {"NAME": "W7N/LN-292", "TITLE": "Jumbled Mountain", "REGION": "NV-Lincoln", "ASSOCIATION": "USA - Nevada", "POINTS": "1", "BONUSPOINTS": "3"}}, {"type": "Feature", "geometry": {"type": "Point", "coordinates": [-114.3003, 37.0045]}, "properties": {"NAME": "W7N/LN-293", "TITLE": "Gap Benchmark", "REGION": "NV-Lincoln", "ASSOCIATION": "USA - Nevada", "POINTS": "1", "BONUSPOINTS": "3"}}, {"type": "Feature", "geometry": {"type": "Point", "coordinates": [-114.2714, 37.0697]}, "properties": {"NAME": "W7N/LN-294", "TITLE": "3912", "REGION": "NV-Lincoln", "ASSOCIATION": "USA - Nevada", "POINTS": "1", "BONUSPOINTS": "3"}}, {"type": "Feature", "geometry": {"type": "Point", "coordinates": [-114.2886, 36.8987]}, "properties": {"NAME": "W7N/LN-295", "TITLE": "Little Davidson Peak", "REGION": "NV-Lincoln", "ASSOCIATION": "USA - Nevada", "POINTS": "1", "BONUSPOINTS": "3"}}, {"type": "Feature", "geometry": {"type": "Point", "coordinates": [-114.3, 36.8564]}, "properties": {"NAME": "W7N/LN-296", "TITLE": "Beacon Peak", "REGION": "NV-Lincoln", "ASSOCIATION": "USA - Nevada", "POINTS": "1", "BONUSPOINTS": "3"}}, {"type": "Feature", "geometry": {"type": "Point", "coordinates": [-114.6571, 38.226]}, "properties": {"NAME": "W7N/LN-297", "TITLE": "7508", "REGION": "NV-Lincoln", "ASSOCIATION": "USA - Nevada", "POINTS": "6", "BONUSPOINTS": "3"}}, {"type": "Feature", "geometry": {"type": "Point", "coordinates": [-114.2006, 38.411]}, "properties": {"NAME": "W7N/LN-298", "TITLE": "Rosencrans Knolls, South", "REGION": "NV-Lincoln", "ASSOCIATION": "USA - Nevada", "POINTS": "4", "BONUSPOINTS": "3"}}, {"type": "Feature", "geometry": {"type": "Point", "coordinates": [-115.6096, 37.0813]}, "properties": {"NAME": "W7N/LN-299", "TITLE": "6811", "REGION": "NV-Lincoln", "ASSOCIATION": "USA - Nevada", "POINTS": "4", "BONUSPOINTS": "3"}}, {"type": "Feature", "geometry": {"type": "Point", "coordinates": [-114.6234, 37.8351]}, "properties": {"NAME": "W7N/LN-300", "TITLE": "Black Canyon Range (HP)", "REGION": "NV-Lincoln", "ASSOCIATION": "USA - Nevada", "POINTS": "4", "BONUSPOINTS": "3"}}, {"type": "Feature", "geometry": {"type": "Point", "coordinates": [-115.1509, 37.9769]}, "properties": {"NAME": "W7N/LN-301", "TITLE": "6584", "REGION": "NV-Lincoln", "ASSOCIATION": "USA - Nevada", "POINTS": "4", "BONUSPOINTS": "3"}}, {"type": "Feature", "geometry": {"type": "Point", "coordinates": [-114.6368, 37.4715]}, "properties": {"NAME": "W7N/LN-302", "TITLE": "6437", "REGION": "NV-Lincoln", "ASSOCIATION": "USA - Nevada", "POINTS": "2", "BONUSPOINTS": "3"}}, {"type": "Feature", "geometry": {"type": "Point", "coordinates": [-114.5117, 37.4327]}, "properties": {"NAME": "W7N/LN-303", "TITLE": "6355", "REGION": "NV-Lincoln", "ASSOCIATION": "USA - Nevada", "POINTS": "2", "BONUSPOINTS": "3"}}, {"type": "Feature", "geometry": {"type": "Point", "coordinates": [-115.8682, 37.7364]}, "properties": {"NAME": "W7N/LN-304", "TITLE": "6010", "REGION": "NV-Lincoln", "ASSOCIATION": "USA - Nevada", "POINTS": "2", "BONUSPOINTS": "3"}}, {"type": "Feature", "geometry": {"type": "Point", "coordinates": [-114.7964, 37.0248]}, "properties": {"NAME": "W7N/LN-305", "TITLE": "5678", "REGION": "NV-Lincoln", "ASSOCIATION": "USA - Nevada", "POINTS": "2", "BONUSPOINTS": "3"}}, {"type": "Feature", "geometry": {"type": "Point", "coordinates": [-114.8263, 37.1454]}, "properties": {"NAME": "W7N/LN-306", "TITLE": "5638", "REGION": "NV-Lincoln", "ASSOCIATION": "USA - Nevada", "POINTS": "2", "BONUSPOINTS": "3"}}, {"type": "Feature", "geometry": {"type": "Point", "coordinates": [-114.9965, 37.6246]}, "properties": {"NAME": "W7N/LN-307", "TITLE": "\"\"Pahroc Summit Peak\"\"", "REGION": "NV-Lincoln", "ASSOCIATION": "USA - Nevada", "POINTS": "2", "BONUSPOINTS": "3"}}, {"type": "Feature", "geometry": {"type": "Point", "coordinates": [-114.4736, 37.3299]}, "properties": {"NAME": "W7N/LN-308", "TITLE": "5358", "REGION": "NV-Lincoln", "ASSOCIATION": "USA - Nevada", "POINTS": "2", "BONUSPOINTS": "3"}}, {"type": "Feature", "geometry": {"type": "Point", "coordinates": [-114.4474, 36.8814]}, "properties": {"NAME": "W7N/LN-309", "TITLE": "5331", "REGION": "NV-Lincoln", "ASSOCIATION": "USA - Nevada", "POINTS": "2", "BONUSPOINTS": "3"}}]}