{"type": "FeatureCollection", "name": "W7N/EM SUMMITS", "features": [{"type": "Feature", "geometry": {"type": "Point", "coordinates": [-118.3513, 37.8461]}, "properties": {"NAME": "W7N/EM-001", "TITLE": "Boundary Peak", "REGION": "NV-Esme-Mineral", "ASSOCIATION": "USA - Nevada", "POINTS": "10", "BONUSPOINTS": "3"}}, {"type": "Feature", "geometry": {"type": "Point", "coordinates": [-118.3456, 37.867]}, "properties": {"NAME": "W7N/EM-002", "TITLE": "Trail Canyon Peak", "REGION": "NV-Esme-Mineral", "ASSOCIATION": "USA - Nevada", "POINTS": "10", "BONUSPOINTS": "3"}}, {"type": "Feature", "geometry": {"type": "Point", "coordinates": [-118.7912, 38.5684]}, "properties": {"NAME": "W7N/EM-003", "TITLE": "Grant, Mount", "REGION": "NV-Esme-Mineral", "ASSOCIATION": "USA - Nevada", "POINTS": "10", "BONUSPOINTS": "3"}}, {"type": "Feature", "geometry": {"type": "Point", "coordinates": [-118.7824, 38.4483]}, "properties": {"NAME": "W7N/EM-004", "TITLE": "Cory Peak", "REGION": "NV-Esme-Mineral", "ASSOCIATION": "USA - Nevada", "POINTS": "10", "BONUSPOINTS": "3"}}, {"type": "Feature", "geometry": {"type": "Point", "coordinates": [-118.3089, 37.8927]}, "properties": {"NAME": "W7N/EM-005", "TITLE": "Mustang Mountain", "REGION": "NV-Esme-Mineral", "ASSOCIATION": "USA - Nevada", "POINTS": "10", "BONUSPOINTS": "3"}}, {"type": "Feature", "geometry": {"type": "Point", "coordinates": [-118.7989, 38.4882]}, "properties": {"NAME": "W7N/EM-006", "TITLE": "Big Indian Mountain", "REGION": "NV-Esme-Mineral", "ASSOCIATION": "USA - Nevada", "POINTS": "10", "BONUSPOINTS": "3"}}, {"type": "Feature", "geometry": {"type": "Point", "coordinates": [-118.8308, 38.5163]}, "properties": {"NAME": "W7N/EM-007", "TITLE": "9900", "REGION": "NV-Esme-Mineral", "ASSOCIATION": "USA - Nevada", "POINTS": "10", "BONUSPOINTS": "3"}}, {"type": "Feature", "geometry": {"type": "Point", "coordinates": [-118.2661, 37.7939]}, "properties": {"NAME": "W7N/EM-008", "TITLE": "9820", "REGION": "NV-Esme-Mineral", "ASSOCIATION": "USA - Nevada", "POINTS": "10", "BONUSPOINTS": "3"}}, {"type": "Feature", "geometry": {"type": "Point", "coordinates": [-118.7961, 38.5273]}, "properties": {"NAME": "W7N/EM-009", "TITLE": "9740", "REGION": "NV-Esme-Mineral", "ASSOCIATION": "USA - Nevada", "POINTS": "10", "BONUSPOINTS": "3"}}, {"type": "Feature", "geometry": {"type": "Point", "coordinates": [-118.7692, 38.4979]}, "properties": {"NAME": "W7N/EM-010", "TITLE": "9704", "REGION": "NV-Esme-Mineral", "ASSOCIATION": "USA - Nevada", "POINTS": "10", "BONUSPOINTS": "3"}}, {"type": "Feature", "geometry": {"type": "Point", "coordinates": [-118.921, 38.2514]}, "properties": {"NAME": "W7N/EM-011", "TITLE": "West Braly Peak", "REGION": "NV-Esme-Mineral", "ASSOCIATION": "USA - Nevada", "POINTS": "10", "BONUSPOINTS": "3"}}, {"type": "Feature", "geometry": {"type": "Point", "coordinates": [-118.6999, 38.3277]}, "properties": {"NAME": "W7N/EM-012", "TITLE": "Powell Mountain", "REGION": "NV-Esme-Mineral", "ASSOCIATION": "USA - Nevada", "POINTS": "10", "BONUSPOINTS": "3"}}, {"type": "Feature", "geometry": {"type": "Point", "coordinates": [-117.9088, 37.7043]}, "properties": {"NAME": "W7N/EM-013", "TITLE": "Piper Peak", "REGION": "NV-Esme-Mineral", "ASSOCIATION": "USA - Nevada", "POINTS": "8", "BONUSPOINTS": "3"}}, {"type": "Feature", "geometry": {"type": "Point", "coordinates": [-118.6878, 38.3812]}, "properties": {"NAME": "W7N/EM-014", "TITLE": "Buller Mountain", "REGION": "NV-Esme-Mineral", "ASSOCIATION": "USA - Nevada", "POINTS": "8", "BONUSPOINTS": "3"}}, {"type": "Feature", "geometry": {"type": "Point", "coordinates": [-118.2374, 37.7817]}, "properties": {"NAME": "W7N/EM-015", "TITLE": "Davis Mountain", "REGION": "NV-Esme-Mineral", "ASSOCIATION": "USA - Nevada", "POINTS": "8", "BONUSPOINTS": "3"}}, {"type": "Feature", "geometry": {"type": "Point", "coordinates": [-118.8178, 38.2797]}, "properties": {"NAME": "W7N/EM-016", "TITLE": "Hicks, Mount", "REGION": "NV-Esme-Mineral", "ASSOCIATION": "USA - Nevada", "POINTS": "8", "BONUSPOINTS": "3"}}, {"type": "Feature", "geometry": {"type": "Point", "coordinates": [-117.7923, 37.7402]}, "properties": {"NAME": "W7N/EM-017", "TITLE": "Silver Peak", "REGION": "NV-Esme-Mineral", "ASSOCIATION": "USA - Nevada", "POINTS": "8", "BONUSPOINTS": "3"}}, {"type": "Feature", "geometry": {"type": "Point", "coordinates": [-118.6789, 38.3117]}, "properties": {"NAME": "W7N/EM-018", "TITLE": "9312", "REGION": "NV-Esme-Mineral", "ASSOCIATION": "USA - Nevada", "POINTS": "8", "BONUSPOINTS": "3"}}, {"type": "Feature", "geometry": {"type": "Point", "coordinates": [-117.5911, 37.5062]}, "properties": {"NAME": "W7N/EM-019", "TITLE": "Harvey Peak", "REGION": "NV-Esme-Mineral", "ASSOCIATION": "USA - Nevada", "POINTS": "8", "BONUSPOINTS": "3"}}, {"type": "Feature", "geometry": {"type": "Point", "coordinates": [-118.6637, 38.2905]}, "properties": {"NAME": "W7N/EM-020", "TITLE": "Table Mountain", "REGION": "NV-Esme-Mineral", "ASSOCIATION": "USA - Nevada", "POINTS": "8", "BONUSPOINTS": "3"}}, {"type": "Feature", "geometry": {"type": "Point", "coordinates": [-118.8343, 38.7841]}, "properties": {"NAME": "W7N/EM-021", "TITLE": "Bald Mountain", "REGION": "NV-Esme-Mineral", "ASSOCIATION": "USA - Nevada", "POINTS": "8", "BONUSPOINTS": "3"}}, {"type": "Feature", "geometry": {"type": "Point", "coordinates": [-117.974, 38.343]}, "properties": {"NAME": "W7N/EM-022", "TITLE": "Pilot Peak", "REGION": "NV-Esme-Mineral", "ASSOCIATION": "USA - Nevada", "POINTS": "8", "BONUSPOINTS": "3"}}, {"type": "Feature", "geometry": {"type": "Point", "coordinates": [-117.8059, 37.7097]}, "properties": {"NAME": "W7N/EM-023", "TITLE": "9149", "REGION": "NV-Esme-Mineral", "ASSOCIATION": "USA - Nevada", "POINTS": "8", "BONUSPOINTS": "3"}}, {"type": "Feature", "geometry": {"type": "Point", "coordinates": [-118.6733, 38.264]}, "properties": {"NAME": "W7N/EM-024", "TITLE": "9147", "REGION": "NV-Esme-Mineral", "ASSOCIATION": "USA - Nevada", "POINTS": "8", "BONUSPOINTS": "3"}}, {"type": "Feature", "geometry": {"type": "Point", "coordinates": [-117.4944, 38.0243]}, "properties": {"NAME": "W7N/EM-025", "TITLE": "Lone Mountain", "REGION": "NV-Esme-Mineral", "ASSOCIATION": "USA - Nevada", "POINTS": "8", "BONUSPOINTS": "3"}}, {"type": "Feature", "geometry": {"type": "Point", "coordinates": [-118.6831, 38.2377]}, "properties": {"NAME": "W7N/EM-026", "TITLE": "Anchor Benchmark", "REGION": "NV-Esme-Mineral", "ASSOCIATION": "USA - Nevada", "POINTS": "8", "BONUSPOINTS": "3"}}, {"type": "Feature", "geometry": {"type": "Point", "coordinates": [-117.5474, 37.4104]}, "properties": {"NAME": "W7N/EM-027", "TITLE": "Magruder Mountain", "REGION": "NV-Esme-Mineral", "ASSOCIATION": "USA - Nevada", "POINTS": "8", "BONUSPOINTS": "3"}}, {"type": "Feature", "geometry": {"type": "Point", "coordinates": [-118.975, 38.2868]}, "properties": {"NAME": "W7N/EM-028", "TITLE": "Beauty Peak", "REGION": "NV-Esme-Mineral", "ASSOCIATION": "USA - Nevada", "POINTS": "8", "BONUSPOINTS": "3"}}, {"type": "Feature", "geometry": {"type": "Point", "coordinates": [-117.8947, 38.3623]}, "properties": {"NAME": "W7N/EM-029", "TITLE": "8961", "REGION": "NV-Esme-Mineral", "ASSOCIATION": "USA - Nevada", "POINTS": "8", "BONUSPOINTS": "3"}}, {"type": "Feature", "geometry": {"type": "Point", "coordinates": [-117.7603, 37.7598]}, "properties": {"NAME": "W7N/EM-030", "TITLE": "Red Mountain", "REGION": "NV-Esme-Mineral", "ASSOCIATION": "USA - Nevada", "POINTS": "8", "BONUSPOINTS": "3"}}, {"type": "Feature", "geometry": {"type": "Point", "coordinates": [-117.574, 37.4622]}, "properties": {"NAME": "W7N/EM-031", "TITLE": "Palmetto Mountain", "REGION": "NV-Esme-Mineral", "ASSOCIATION": "USA - Nevada", "POINTS": "8", "BONUSPOINTS": "3"}}, {"type": "Feature", "geometry": {"type": "Point", "coordinates": [-117.9398, 38.36]}, "properties": {"NAME": "W7N/EM-032", "TITLE": "8860", "REGION": "NV-Esme-Mineral", "ASSOCIATION": "USA - Nevada", "POINTS": "8", "BONUSPOINTS": "3"}}, {"type": "Feature", "geometry": {"type": "Point", "coordinates": [-118.7248, 38.4193]}, "properties": {"NAME": "W7N/EM-033", "TITLE": "8860", "REGION": "NV-Esme-Mineral", "ASSOCIATION": "USA - Nevada", "POINTS": "8", "BONUSPOINTS": "3"}}, {"type": "Feature", "geometry": {"type": "Point", "coordinates": [-118.6673, 38.1799]}, "properties": {"NAME": "W7N/EM-034", "TITLE": "8826", "REGION": "NV-Esme-Mineral", "ASSOCIATION": "USA - Nevada", "POINTS": "8", "BONUSPOINTS": "3"}}, {"type": "Feature", "geometry": {"type": "Point", "coordinates": [-118.2596, 38.2796]}, "properties": {"NAME": "W7N/EM-035", "TITLE": "Moho Mountain", "REGION": "NV-Esme-Mineral", "ASSOCIATION": "USA - Nevada", "POINTS": "8", "BONUSPOINTS": "3"}}, {"type": "Feature", "geometry": {"type": "Point", "coordinates": [-118.0178, 38.3613]}, "properties": {"NAME": "W7N/EM-036", "TITLE": "8770", "REGION": "NV-Esme-Mineral", "ASSOCIATION": "USA - Nevada", "POINTS": "8", "BONUSPOINTS": "3"}}, {"type": "Feature", "geometry": {"type": "Point", "coordinates": [-118.8606, 38.2777]}, "properties": {"NAME": "W7N/EM-037", "TITLE": "Aurora Peak", "REGION": "NV-Esme-Mineral", "ASSOCIATION": "USA - Nevada", "POINTS": "8", "BONUSPOINTS": "3"}}, {"type": "Feature", "geometry": {"type": "Point", "coordinates": [-118.9424, 38.2803]}, "properties": {"NAME": "W7N/EM-038", "TITLE": "8740", "REGION": "NV-Esme-Mineral", "ASSOCIATION": "USA - Nevada", "POINTS": "8", "BONUSPOINTS": "3"}}, {"type": "Feature", "geometry": {"type": "Point", "coordinates": [-118.1917, 38.0653]}, "properties": {"NAME": "W7N/EM-039", "TITLE": "Miller Mountain", "REGION": "NV-Esme-Mineral", "ASSOCIATION": "USA - Nevada", "POINTS": "8", "BONUSPOINTS": "3"}}, {"type": "Feature", "geometry": {"type": "Point", "coordinates": [-118.3915, 38.3016]}, "properties": {"NAME": "W7N/EM-040", "TITLE": "Excelsior Mountain", "REGION": "NV-Esme-Mineral", "ASSOCIATION": "USA - Nevada", "POINTS": "8", "BONUSPOINTS": "3"}}, {"type": "Feature", "geometry": {"type": "Point", "coordinates": [-118.2418, 38.2815]}, "properties": {"NAME": "W7N/EM-041", "TITLE": "8562", "REGION": "NV-Esme-Mineral", "ASSOCIATION": "USA - Nevada", "POINTS": "8", "BONUSPOINTS": "3"}}, {"type": "Feature", "geometry": {"type": "Point", "coordinates": [-118.471, 37.9918]}, "properties": {"NAME": "W7N/EM-042", "TITLE": "8552", "REGION": "NV-Esme-Mineral", "ASSOCIATION": "USA - Nevada", "POINTS": "8", "BONUSPOINTS": "3"}}, {"type": "Feature", "geometry": {"type": "Point", "coordinates": [-117.8096, 37.8216]}, "properties": {"NAME": "W7N/EM-043", "TITLE": "Rhyolite Ridge", "REGION": "NV-Esme-Mineral", "ASSOCIATION": "USA - Nevada", "POINTS": "8", "BONUSPOINTS": "3"}}, {"type": "Feature", "geometry": {"type": "Point", "coordinates": [-117.924, 37.7714]}, "properties": {"NAME": "W7N/EM-044", "TITLE": "8550", "REGION": "NV-Esme-Mineral", "ASSOCIATION": "USA - Nevada", "POINTS": "8", "BONUSPOINTS": "3"}}, {"type": "Feature", "geometry": {"type": "Point", "coordinates": [-118.6622, 38.1136]}, "properties": {"NAME": "W7N/EM-045", "TITLE": "8460", "REGION": "NV-Esme-Mineral", "ASSOCIATION": "USA - Nevada", "POINTS": "6", "BONUSPOINTS": "3"}}, {"type": "Feature", "geometry": {"type": "Point", "coordinates": [-117.746, 37.8035]}, "properties": {"NAME": "W7N/EM-046", "TITLE": "8380", "REGION": "NV-Esme-Mineral", "ASSOCIATION": "USA - Nevada", "POINTS": "6", "BONUSPOINTS": "3"}}, {"type": "Feature", "geometry": {"type": "Point", "coordinates": [-118.3268, 38.2956]}, "properties": {"NAME": "W7N/EM-047", "TITLE": "8380", "REGION": "NV-Esme-Mineral", "ASSOCIATION": "USA - Nevada", "POINTS": "6", "BONUSPOINTS": "3"}}, {"type": "Feature", "geometry": {"type": "Point", "coordinates": [-117.3622, 37.6945]}, "properties": {"NAME": "W7N/EM-048", "TITLE": "Montezuma Peak", "REGION": "NV-Esme-Mineral", "ASSOCIATION": "USA - Nevada", "POINTS": "6", "BONUSPOINTS": "3"}}, {"type": "Feature", "geometry": {"type": "Point", "coordinates": [-118.6165, 38.3619]}, "properties": {"NAME": "W7N/EM-049", "TITLE": "8370", "REGION": "NV-Esme-Mineral", "ASSOCIATION": "USA - Nevada", "POINTS": "6", "BONUSPOINTS": "3"}}, {"type": "Feature", "geometry": {"type": "Point", "coordinates": [-118.1609, 38.6572]}, "properties": {"NAME": "W7N/EM-050", "TITLE": "Ferguson, Mount", "REGION": "NV-Esme-Mineral", "ASSOCIATION": "USA - Nevada", "POINTS": "6", "BONUSPOINTS": "3"}}, {"type": "Feature", "geometry": {"type": "Point", "coordinates": [-118.7431, 38.5122]}, "properties": {"NAME": "W7N/EM-051", "TITLE": "8352", "REGION": "NV-Esme-Mineral", "ASSOCIATION": "USA - Nevada", "POINTS": "6", "BONUSPOINTS": "3"}}, {"type": "Feature", "geometry": {"type": "Point", "coordinates": [-117.8391, 37.7566]}, "properties": {"NAME": "W7N/EM-052", "TITLE": "8350", "REGION": "NV-Esme-Mineral", "ASSOCIATION": "USA - Nevada", "POINTS": "6", "BONUSPOINTS": "3"}}, {"type": "Feature", "geometry": {"type": "Point", "coordinates": [-118.5036, 38.2638]}, "properties": {"NAME": "W7N/EM-053", "TITLE": "8340", "REGION": "NV-Esme-Mineral", "ASSOCIATION": "USA - Nevada", "POINTS": "6", "BONUSPOINTS": "3"}}, {"type": "Feature", "geometry": {"type": "Point", "coordinates": [-118.0285, 38.5308]}, "properties": {"NAME": "W7N/EM-054", "TITLE": "Muller Mountain", "REGION": "NV-Esme-Mineral", "ASSOCIATION": "USA - Nevada", "POINTS": "6", "BONUSPOINTS": "3"}}, {"type": "Feature", "geometry": {"type": "Point", "coordinates": [-118.5421, 38.0338]}, "properties": {"NAME": "W7N/EM-055", "TITLE": "Huntoon Benchmark", "REGION": "NV-Esme-Mineral", "ASSOCIATION": "USA - Nevada", "POINTS": "6", "BONUSPOINTS": "3"}}, {"type": "Feature", "geometry": {"type": "Point", "coordinates": [-118.8475, 38.6321]}, "properties": {"NAME": "W7N/EM-056", "TITLE": "8288", "REGION": "NV-Esme-Mineral", "ASSOCIATION": "USA - Nevada", "POINTS": "6", "BONUSPOINTS": "3"}}, {"type": "Feature", "geometry": {"type": "Point", "coordinates": [-117.697, 37.3767]}, "properties": {"NAME": "W7N/EM-057", "TITLE": "Sylvania Mountains HP", "REGION": "NV-Esme-Mineral", "ASSOCIATION": "USA - Nevada", "POINTS": "6", "BONUSPOINTS": "3"}}, {"type": "Feature", "geometry": {"type": "Point", "coordinates": [-117.3056, 37.2523]}, "properties": {"NAME": "W7N/EM-058", "TITLE": "Gold Mountain", "REGION": "NV-Esme-Mineral", "ASSOCIATION": "USA - Nevada", "POINTS": "6", "BONUSPOINTS": "3"}}, {"type": "Feature", "geometry": {"type": "Point", "coordinates": [-118.9103, 38.9402]}, "properties": {"NAME": "W7N/EM-059", "TITLE": "Black Mountain", "REGION": "NV-Esme-Mineral", "ASSOCIATION": "USA - Nevada", "POINTS": "6", "BONUSPOINTS": "3"}}, {"type": "Feature", "geometry": {"type": "Point", "coordinates": [-118.842, 38.7131]}, "properties": {"NAME": "W7N/EM-060", "TITLE": "8095", "REGION": "NV-Esme-Mineral", "ASSOCIATION": "USA - Nevada", "POINTS": "6", "BONUSPOINTS": "3"}}, {"type": "Feature", "geometry": {"type": "Point", "coordinates": [-118.2456, 38.4431]}, "properties": {"NAME": "W7N/EM-061", "TITLE": "Garfield Hills", "REGION": "NV-Esme-Mineral", "ASSOCIATION": "USA - Nevada", "POINTS": "6", "BONUSPOINTS": "3"}}, {"type": "Feature", "geometry": {"type": "Point", "coordinates": [-117.8376, 38.534]}, "properties": {"NAME": "W7N/EM-062", "TITLE": "Cedar Mountains HP", "REGION": "NV-Esme-Mineral", "ASSOCIATION": "USA - Nevada", "POINTS": "6", "BONUSPOINTS": "3"}}, {"type": "Feature", "geometry": {"type": "Point", "coordinates": [-117.3601, 37.7192]}, "properties": {"NAME": "W7N/EM-063", "TITLE": "8074", "REGION": "NV-Esme-Mineral", "ASSOCIATION": "USA - Nevada", "POINTS": "6", "BONUSPOINTS": "3"}}, {"type": "Feature", "geometry": {"type": "Point", "coordinates": [-118.5801, 38.2122]}, "properties": {"NAME": "W7N/EM-064", "TITLE": "8060", "REGION": "NV-Esme-Mineral", "ASSOCIATION": "USA - Nevada", "POINTS": "6", "BONUSPOINTS": "3"}}, {"type": "Feature", "geometry": {"type": "Point", "coordinates": [-118.8516, 38.8865]}, "properties": {"NAME": "W7N/EM-065", "TITLE": "Reese Benchmark", "REGION": "NV-Esme-Mineral", "ASSOCIATION": "USA - Nevada", "POINTS": "6", "BONUSPOINTS": "3"}}, {"type": "Feature", "geometry": {"type": "Point", "coordinates": [-118.3084, 38.4563]}, "properties": {"NAME": "W7N/EM-066", "TITLE": "Mable Mountain", "REGION": "NV-Esme-Mineral", "ASSOCIATION": "USA - Nevada", "POINTS": "6", "BONUSPOINTS": "3"}}, {"type": "Feature", "geometry": {"type": "Point", "coordinates": [-117.5272, 38.0404]}, "properties": {"NAME": "W7N/EM-067", "TITLE": "8004", "REGION": "NV-Esme-Mineral", "ASSOCIATION": "USA - Nevada", "POINTS": "6", "BONUSPOINTS": "3"}}, {"type": "Feature", "geometry": {"type": "Point", "coordinates": [-117.6857, 38.147]}, "properties": {"NAME": "W7N/EM-068", "TITLE": "Monte Cristo Range HP", "REGION": "NV-Esme-Mineral", "ASSOCIATION": "USA - Nevada", "POINTS": "6", "BONUSPOINTS": "3"}}, {"type": "Feature", "geometry": {"type": "Point", "coordinates": [-118.2002, 38.3263]}, "properties": {"NAME": "W7N/EM-069", "TITLE": "Thunder Mountain", "REGION": "NV-Esme-Mineral", "ASSOCIATION": "USA - Nevada", "POINTS": "6", "BONUSPOINTS": "3"}}, {"type": "Feature", "geometry": {"type": "Point", "coordinates": [-117.8436, 37.64]}, "properties": {"NAME": "W7N/EM-070", "TITLE": "7981", "REGION": "NV-Esme-Mineral", "ASSOCIATION": "USA - Nevada", "POINTS": "6", "BONUSPOINTS": "3"}}, {"type": "Feature", "geometry": {"type": "Point", "coordinates": [-117.1918, 36.9993]}, "properties": {"NAME": "W7N/EM-071", "TITLE": "7980", "REGION": "NV-Esme-Mineral", "ASSOCIATION": "USA - Nevada", "POINTS": "6", "BONUSPOINTS": "3"}}, {"type": "Feature", "geometry": {"type": "Point", "coordinates": [-118.2198, 38.6629]}, "properties": {"NAME": "W7N/EM-072", "TITLE": "7979", "REGION": "NV-Esme-Mineral", "ASSOCIATION": "USA - Nevada", "POINTS": "6", "BONUSPOINTS": "3"}}, {"type": "Feature", "geometry": {"type": "Point", "coordinates": [-118.4433, 38.2736]}, "properties": {"NAME": "W7N/EM-073", "TITLE": "7947", "REGION": "NV-Esme-Mineral", "ASSOCIATION": "USA - Nevada", "POINTS": "6", "BONUSPOINTS": "3"}}, {"type": "Feature", "geometry": {"type": "Point", "coordinates": [-118.2589, 38.6421]}, "properties": {"NAME": "W7N/EM-074", "TITLE": "7940", "REGION": "NV-Esme-Mineral", "ASSOCIATION": "USA - Nevada", "POINTS": "6", "BONUSPOINTS": "3"}}, {"type": "Feature", "geometry": {"type": "Point", "coordinates": [-118.88, 38.3124]}, "properties": {"NAME": "W7N/EM-075", "TITLE": "Aurora Crater", "REGION": "NV-Esme-Mineral", "ASSOCIATION": "USA - Nevada", "POINTS": "6", "BONUSPOINTS": "3"}}, {"type": "Feature", "geometry": {"type": "Point", "coordinates": [-118.5507, 38.6828]}, "properties": {"NAME": "W7N/EM-076", "TITLE": "Buckley Benchmark", "REGION": "NV-Esme-Mineral", "ASSOCIATION": "USA - Nevada", "POINTS": "6", "BONUSPOINTS": "3"}}, {"type": "Feature", "geometry": {"type": "Point", "coordinates": [-118.0891, 38.5444]}, "properties": {"NAME": "W7N/EM-077", "TITLE": "Valley Benchmark", "REGION": "NV-Esme-Mineral", "ASSOCIATION": "USA - Nevada", "POINTS": "6", "BONUSPOINTS": "3"}}, {"type": "Feature", "geometry": {"type": "Point", "coordinates": [-118.5474, 38.2128]}, "properties": {"NAME": "W7N/EM-078", "TITLE": "7860", "REGION": "NV-Esme-Mineral", "ASSOCIATION": "USA - Nevada", "POINTS": "6", "BONUSPOINTS": "3"}}, {"type": "Feature", "geometry": {"type": "Point", "coordinates": [-118.45, 38.1859]}, "properties": {"NAME": "W7N/EM-079", "TITLE": "Blanca Benchmark", "REGION": "NV-Esme-Mineral", "ASSOCIATION": "USA - Nevada", "POINTS": "6", "BONUSPOINTS": "3"}}, {"type": "Feature", "geometry": {"type": "Point", "coordinates": [-118.0329, 38.5652]}, "properties": {"NAME": "W7N/EM-080", "TITLE": "7817", "REGION": "NV-Esme-Mineral", "ASSOCIATION": "USA - Nevada", "POINTS": "6", "BONUSPOINTS": "3"}}, {"type": "Feature", "geometry": {"type": "Point", "coordinates": [-117.9582, 37.7304]}, "properties": {"NAME": "W7N/EM-081", "TITLE": "7813", "REGION": "NV-Esme-Mineral", "ASSOCIATION": "USA - Nevada", "POINTS": "6", "BONUSPOINTS": "3"}}, {"type": "Feature", "geometry": {"type": "Point", "coordinates": [-117.8453, 37.8671]}, "properties": {"NAME": "W7N/EM-082", "TITLE": "7777", "REGION": "NV-Esme-Mineral", "ASSOCIATION": "USA - Nevada", "POINTS": "6", "BONUSPOINTS": "3"}}, {"type": "Feature", "geometry": {"type": "Point", "coordinates": [-117.3503, 37.2167]}, "properties": {"NAME": "W7N/EM-083", "TITLE": "7775", "REGION": "NV-Esme-Mineral", "ASSOCIATION": "USA - Nevada", "POINTS": "6", "BONUSPOINTS": "3"}}, {"type": "Feature", "geometry": {"type": "Point", "coordinates": [-117.49, 37.9224]}, "properties": {"NAME": "W7N/EM-084", "TITLE": "Weepah Hills", "REGION": "NV-Esme-Mineral", "ASSOCIATION": "USA - Nevada", "POINTS": "6", "BONUSPOINTS": "3"}}, {"type": "Feature", "geometry": {"type": "Point", "coordinates": [-118.645, 38.4251]}, "properties": {"NAME": "W7N/EM-085", "TITLE": "7740", "REGION": "NV-Esme-Mineral", "ASSOCIATION": "USA - Nevada", "POINTS": "6", "BONUSPOINTS": "3"}}, {"type": "Feature", "geometry": {"type": "Point", "coordinates": [-118.4551, 38.6733]}, "properties": {"NAME": "W7N/EM-086", "TITLE": "Ryan Benchmark", "REGION": "NV-Esme-Mineral", "ASSOCIATION": "USA - Nevada", "POINTS": "6", "BONUSPOINTS": "3"}}, {"type": "Feature", "geometry": {"type": "Point", "coordinates": [-117.8118, 37.5912]}, "properties": {"NAME": "W7N/EM-087", "TITLE": "7709", "REGION": "NV-Esme-Mineral", "ASSOCIATION": "USA - Nevada", "POINTS": "6", "BONUSPOINTS": "3"}}, {"type": "Feature", "geometry": {"type": "Point", "coordinates": [-118.2483, 38.1856]}, "properties": {"NAME": "W7N/EM-088", "TITLE": "7660", "REGION": "NV-Esme-Mineral", "ASSOCIATION": "USA - Nevada", "POINTS": "6", "BONUSPOINTS": "3"}}, {"type": "Feature", "geometry": {"type": "Point", "coordinates": [-118.3987, 38.6267]}, "properties": {"NAME": "W7N/EM-089", "TITLE": "7660", "REGION": "NV-Esme-Mineral", "ASSOCIATION": "USA - Nevada", "POINTS": "6", "BONUSPOINTS": "3"}}, {"type": "Feature", "geometry": {"type": "Point", "coordinates": [-118.4471, 38.4036]}, "properties": {"NAME": "W7N/EM-090", "TITLE": "Oro Benchmark", "REGION": "NV-Esme-Mineral", "ASSOCIATION": "USA - Nevada", "POINTS": "6", "BONUSPOINTS": "3"}}, {"type": "Feature", "geometry": {"type": "Point", "coordinates": [-117.4553, 37.5763]}, "properties": {"NAME": "W7N/EM-091", "TITLE": "Barrel Benchmark", "REGION": "NV-Esme-Mineral", "ASSOCIATION": "USA - Nevada", "POINTS": "6", "BONUSPOINTS": "3"}}, {"type": "Feature", "geometry": {"type": "Point", "coordinates": [-118.3497, 38.0667]}, "properties": {"NAME": "W7N/EM-092", "TITLE": "Eastside Benchmark", "REGION": "NV-Esme-Mineral", "ASSOCIATION": "USA - Nevada", "POINTS": "6", "BONUSPOINTS": "3"}}, {"type": "Feature", "geometry": {"type": "Point", "coordinates": [-118.3295, 38.704]}, "properties": {"NAME": "W7N/EM-093", "TITLE": "Chukar Ridge", "REGION": "NV-Esme-Mineral", "ASSOCIATION": "USA - Nevada", "POINTS": "4", "BONUSPOINTS": "3"}}, {"type": "Feature", "geometry": {"type": "Point", "coordinates": [-117.4939, 37.5147]}, "properties": {"NAME": "W7N/EM-094", "TITLE": "7494", "REGION": "NV-Esme-Mineral", "ASSOCIATION": "USA - Nevada", "POINTS": "4", "BONUSPOINTS": "3"}}, {"type": "Feature", "geometry": {"type": "Point", "coordinates": [-117.5182, 37.5395]}, "properties": {"NAME": "W7N/EM-095", "TITLE": "7444", "REGION": "NV-Esme-Mineral", "ASSOCIATION": "USA - Nevada", "POINTS": "4", "BONUSPOINTS": "3"}}, {"type": "Feature", "geometry": {"type": "Point", "coordinates": [-118.1049, 37.978]}, "properties": {"NAME": "W7N/EM-096", "TITLE": "Volcanic Hills HP", "REGION": "NV-Esme-Mineral", "ASSOCIATION": "USA - Nevada", "POINTS": "4", "BONUSPOINTS": "3"}}, {"type": "Feature", "geometry": {"type": "Point", "coordinates": [-117.8007, 38.1091]}, "properties": {"NAME": "W7N/EM-097", "TITLE": "Norman Benchmark", "REGION": "NV-Esme-Mineral", "ASSOCIATION": "USA - Nevada", "POINTS": "4", "BONUSPOINTS": "3"}}, {"type": "Feature", "geometry": {"type": "Point", "coordinates": [-118.43, 38.3374]}, "properties": {"NAME": "W7N/EM-098", "TITLE": "7379", "REGION": "NV-Esme-Mineral", "ASSOCIATION": "USA - Nevada", "POINTS": "4", "BONUSPOINTS": "3"}}, {"type": "Feature", "geometry": {"type": "Point", "coordinates": [-117.4206, 37.6328]}, "properties": {"NAME": "W7N/EM-099", "TITLE": "7365", "REGION": "NV-Esme-Mineral", "ASSOCIATION": "USA - Nevada", "POINTS": "4", "BONUSPOINTS": "3"}}, {"type": "Feature", "geometry": {"type": "Point", "coordinates": [-117.4828, 37.9587]}, "properties": {"NAME": "W7N/EM-100", "TITLE": "7361", "REGION": "NV-Esme-Mineral", "ASSOCIATION": "USA - Nevada", "POINTS": "4", "BONUSPOINTS": "3"}}, {"type": "Feature", "geometry": {"type": "Point", "coordinates": [-118.3305, 38.6117]}, "properties": {"NAME": "W7N/EM-101", "TITLE": "Indian Head Peak", "REGION": "NV-Esme-Mineral", "ASSOCIATION": "USA - Nevada", "POINTS": "4", "BONUSPOINTS": "3"}}, {"type": "Feature", "geometry": {"type": "Point", "coordinates": [-118.2104, 38.4473]}, "properties": {"NAME": "W7N/EM-102", "TITLE": "Black Dyke Mountain", "REGION": "NV-Esme-Mineral", "ASSOCIATION": "USA - Nevada", "POINTS": "4", "BONUSPOINTS": "3"}}, {"type": "Feature", "geometry": {"type": "Point", "coordinates": [-118.2445, 38.7108]}, "properties": {"NAME": "W7N/EM-103", "TITLE": "7227", "REGION": "NV-Esme-Mineral", "ASSOCIATION": "USA - Nevada", "POINTS": "4", "BONUSPOINTS": "3"}}, {"type": "Feature", "geometry": {"type": "Point", "coordinates": [-117.6281, 38.1828]}, "properties": {"NAME": "W7N/EM-104", "TITLE": "7221", "REGION": "NV-Esme-Mineral", "ASSOCIATION": "USA - Nevada", "POINTS": "4", "BONUSPOINTS": "3"}}, {"type": "Feature", "geometry": {"type": "Point", "coordinates": [-117.6993, 38.3281]}, "properties": {"NAME": "W7N/EM-105", "TITLE": "Brandon Benchmark", "REGION": "NV-Esme-Mineral", "ASSOCIATION": "USA - Nevada", "POINTS": "4", "BONUSPOINTS": "3"}}, {"type": "Feature", "geometry": {"type": "Point", "coordinates": [-118.3245, 39.0432]}, "properties": {"NAME": "W7N/EM-106", "TITLE": "Big Kasock Mountain", "REGION": "NV-Esme-Mineral", "ASSOCIATION": "USA - Nevada", "POINTS": "4", "BONUSPOINTS": "3"}}, {"type": "Feature", "geometry": {"type": "Point", "coordinates": [-117.3279, 37.343]}, "properties": {"NAME": "W7N/EM-107", "TITLE": "Dunfee, Mount", "REGION": "NV-Esme-Mineral", "ASSOCIATION": "USA - Nevada", "POINTS": "4", "BONUSPOINTS": "3"}}, {"type": "Feature", "geometry": {"type": "Point", "coordinates": [-117.2153, 37.9821]}, "properties": {"NAME": "W7N/EM-108", "TITLE": "Klondyke Hills", "REGION": "NV-Esme-Mineral", "ASSOCIATION": "USA - Nevada", "POINTS": "4", "BONUSPOINTS": "3"}}, {"type": "Feature", "geometry": {"type": "Point", "coordinates": [-118.6655, 38.4371]}, "properties": {"NAME": "W7N/EM-109", "TITLE": "7009", "REGION": "NV-Esme-Mineral", "ASSOCIATION": "USA - Nevada", "POINTS": "4", "BONUSPOINTS": "3"}}, {"type": "Feature", "geometry": {"type": "Point", "coordinates": [-118.1389, 38.58]}, "properties": {"NAME": "W7N/EM-110", "TITLE": "6980", "REGION": "NV-Esme-Mineral", "ASSOCIATION": "USA - Nevada", "POINTS": "4", "BONUSPOINTS": "3"}}, {"type": "Feature", "geometry": {"type": "Point", "coordinates": [-117.7179, 38.3574]}, "properties": {"NAME": "W7N/EM-111", "TITLE": "6927", "REGION": "NV-Esme-Mineral", "ASSOCIATION": "USA - Nevada", "POINTS": "4", "BONUSPOINTS": "3"}}, {"type": "Feature", "geometry": {"type": "Point", "coordinates": [-117.1998, 37.9996]}, "properties": {"NAME": "W7N/EM-112", "TITLE": "Douglas Benchmark", "REGION": "NV-Esme-Mineral", "ASSOCIATION": "USA - Nevada", "POINTS": "4", "BONUSPOINTS": "3"}}, {"type": "Feature", "geometry": {"type": "Point", "coordinates": [-118.3738, 38.3954]}, "properties": {"NAME": "W7N/EM-113", "TITLE": "6847", "REGION": "NV-Esme-Mineral", "ASSOCIATION": "USA - Nevada", "POINTS": "4", "BONUSPOINTS": "3"}}, {"type": "Feature", "geometry": {"type": "Point", "coordinates": [-117.8988, 37.9602]}, "properties": {"NAME": "W7N/EM-114", "TITLE": "Emigrant Peak", "REGION": "NV-Esme-Mineral", "ASSOCIATION": "USA - Nevada", "POINTS": "4", "BONUSPOINTS": "3"}}, {"type": "Feature", "geometry": {"type": "Point", "coordinates": [-117.9179, 38.2715]}, "properties": {"NAME": "W7N/EM-115", "TITLE": "6783", "REGION": "NV-Esme-Mineral", "ASSOCIATION": "USA - Nevada", "POINTS": "4", "BONUSPOINTS": "3"}}, {"type": "Feature", "geometry": {"type": "Point", "coordinates": [-118.7928, 38.7132]}, "properties": {"NAME": "W7N/EM-116", "TITLE": "6780", "REGION": "NV-Esme-Mineral", "ASSOCIATION": "USA - Nevada", "POINTS": "4", "BONUSPOINTS": "3"}}, {"type": "Feature", "geometry": {"type": "Point", "coordinates": [-117.3527, 37.1595]}, "properties": {"NAME": "W7N/EM-117", "TITLE": "Baldwin Benchmark", "REGION": "NV-Esme-Mineral", "ASSOCIATION": "USA - Nevada", "POINTS": "4", "BONUSPOINTS": "3"}}, {"type": "Feature", "geometry": {"type": "Point", "coordinates": [-118.8918, 38.6891]}, "properties": {"NAME": "W7N/EM-118", "TITLE": "Butler Mountain", "REGION": "NV-Esme-Mineral", "ASSOCIATION": "USA - Nevada", "POINTS": "4", "BONUSPOINTS": "3"}}, {"type": "Feature", "geometry": {"type": "Point", "coordinates": [-118.1042, 38.1808]}, "properties": {"NAME": "W7N/EM-119", "TITLE": "6747", "REGION": "NV-Esme-Mineral", "ASSOCIATION": "USA - Nevada", "POINTS": "4", "BONUSPOINTS": "3"}}, {"type": "Feature", "geometry": {"type": "Point", "coordinates": [-117.1977, 38.0213]}, "properties": {"NAME": "W7N/EM-120", "TITLE": "6724", "REGION": "NV-Esme-Mineral", "ASSOCIATION": "USA - Nevada", "POINTS": "4", "BONUSPOINTS": "3"}}, {"type": "Feature", "geometry": {"type": "Point", "coordinates": [-117.8583, 38.0925]}, "properties": {"NAME": "W7N/EM-121", "TITLE": "6720", "REGION": "NV-Esme-Mineral", "ASSOCIATION": "USA - Nevada", "POINTS": "4", "BONUSPOINTS": "3"}}, {"type": "Feature", "geometry": {"type": "Point", "coordinates": [-117.4159, 37.9647]}, "properties": {"NAME": "W7N/EM-122", "TITLE": "General Thomas Hills", "REGION": "NV-Esme-Mineral", "ASSOCIATION": "USA - Nevada", "POINTS": "4", "BONUSPOINTS": "3"}}, {"type": "Feature", "geometry": {"type": "Point", "coordinates": [-117.2439, 37.9955]}, "properties": {"NAME": "W7N/EM-123", "TITLE": "Gold Mountain", "REGION": "NV-Esme-Mineral", "ASSOCIATION": "USA - Nevada", "POINTS": "4", "BONUSPOINTS": "3"}}, {"type": "Feature", "geometry": {"type": "Point", "coordinates": [-118.1034, 38.15]}, "properties": {"NAME": "W7N/EM-124", "TITLE": "Candelaria Mountain", "REGION": "NV-Esme-Mineral", "ASSOCIATION": "USA - Nevada", "POINTS": "4", "BONUSPOINTS": "3"}}, {"type": "Feature", "geometry": {"type": "Point", "coordinates": [-117.1681, 37.7043]}, "properties": {"NAME": "W7N/EM-125", "TITLE": "Preble Mountain", "REGION": "NV-Esme-Mineral", "ASSOCIATION": "USA - Nevada", "POINTS": "4", "BONUSPOINTS": "3"}}, {"type": "Feature", "geometry": {"type": "Point", "coordinates": [-117.432, 37.3073]}, "properties": {"NAME": "W7N/EM-126", "TITLE": "Slate Benchmark", "REGION": "NV-Esme-Mineral", "ASSOCIATION": "USA - Nevada", "POINTS": "4", "BONUSPOINTS": "3"}}, {"type": "Feature", "geometry": {"type": "Point", "coordinates": [-118.3778, 38.7686]}, "properties": {"NAME": "W7N/EM-127", "TITLE": "Rand Ridge", "REGION": "NV-Esme-Mineral", "ASSOCIATION": "USA - Nevada", "POINTS": "4", "BONUSPOINTS": "3"}}, {"type": "Feature", "geometry": {"type": "Point", "coordinates": [-118.4367, 38.9883]}, "properties": {"NAME": "W7N/EM-128", "TITLE": "Pilot Cone", "REGION": "NV-Esme-Mineral", "ASSOCIATION": "USA - Nevada", "POINTS": "4", "BONUSPOINTS": "3"}}, {"type": "Feature", "geometry": {"type": "Point", "coordinates": [-117.6278, 38.2448]}, "properties": {"NAME": "W7N/EM-129", "TITLE": "6574", "REGION": "NV-Esme-Mineral", "ASSOCIATION": "USA - Nevada", "POINTS": "4", "BONUSPOINTS": "3"}}, {"type": "Feature", "geometry": {"type": "Point", "coordinates": [-118.605, 38.7648]}, "properties": {"NAME": "W7N/EM-130", "TITLE": "Copper Benchmark", "REGION": "NV-Esme-Mineral", "ASSOCIATION": "USA - Nevada", "POINTS": "4", "BONUSPOINTS": "3"}}, {"type": "Feature", "geometry": {"type": "Point", "coordinates": [-117.2341, 38.0212]}, "properties": {"NAME": "W7N/EM-131", "TITLE": "6553", "REGION": "NV-Esme-Mineral", "ASSOCIATION": "USA - Nevada", "POINTS": "4", "BONUSPOINTS": "3"}}, {"type": "Feature", "geometry": {"type": "Point", "coordinates": [-117.3143, 37.1583]}, "properties": {"NAME": "W7N/EM-132", "TITLE": "6544", "REGION": "NV-Esme-Mineral", "ASSOCIATION": "USA - Nevada", "POINTS": "4", "BONUSPOINTS": "3"}}, {"type": "Feature", "geometry": {"type": "Point", "coordinates": [-118.0859, 38.2057]}, "properties": {"NAME": "W7N/EM-133", "TITLE": "6535", "REGION": "NV-Esme-Mineral", "ASSOCIATION": "USA - Nevada", "POINTS": "4", "BONUSPOINTS": "3"}}, {"type": "Feature", "geometry": {"type": "Point", "coordinates": [-118.4254, 38.4847]}, "properties": {"NAME": "W7N/EM-134", "TITLE": "6524", "REGION": "NV-Esme-Mineral", "ASSOCIATION": "USA - Nevada", "POINTS": "4", "BONUSPOINTS": "3"}}, {"type": "Feature", "geometry": {"type": "Point", "coordinates": [-118.4898, 38.8216]}, "properties": {"NAME": "W7N/EM-135", "TITLE": "Nugent Benchmark", "REGION": "NV-Esme-Mineral", "ASSOCIATION": "USA - Nevada", "POINTS": "4", "BONUSPOINTS": "3"}}, {"type": "Feature", "geometry": {"type": "Point", "coordinates": [-118.2655, 38.2301]}, "properties": {"NAME": "W7N/EM-136", "TITLE": "6500", "REGION": "NV-Esme-Mineral", "ASSOCIATION": "USA - Nevada", "POINTS": "4", "BONUSPOINTS": "3"}}, {"type": "Feature", "geometry": {"type": "Point", "coordinates": [-117.2603, 37.1473]}, "properties": {"NAME": "W7N/EM-137", "TITLE": "6491", "REGION": "NV-Esme-Mineral", "ASSOCIATION": "USA - Nevada", "POINTS": "2", "BONUSPOINTS": "3"}}, {"type": "Feature", "geometry": {"type": "Point", "coordinates": [-117.6228, 38.2284]}, "properties": {"NAME": "W7N/EM-138", "TITLE": "6470", "REGION": "NV-Esme-Mineral", "ASSOCIATION": "USA - Nevada", "POINTS": "2", "BONUSPOINTS": "3"}}, {"type": "Feature", "geometry": {"type": "Point", "coordinates": [-117.6512, 38.2242]}, "properties": {"NAME": "W7N/EM-139", "TITLE": "6465", "REGION": "NV-Esme-Mineral", "ASSOCIATION": "USA - Nevada", "POINTS": "2", "BONUSPOINTS": "3"}}, {"type": "Feature", "geometry": {"type": "Point", "coordinates": [-117.6658, 38.2521]}, "properties": {"NAME": "W7N/EM-140", "TITLE": "6445", "REGION": "NV-Esme-Mineral", "ASSOCIATION": "USA - Nevada", "POINTS": "2", "BONUSPOINTS": "3"}}, {"type": "Feature", "geometry": {"type": "Point", "coordinates": [-117.4956, 37.3182]}, "properties": {"NAME": "W7N/EM-141", "TITLE": "6425", "REGION": "NV-Esme-Mineral", "ASSOCIATION": "USA - Nevada", "POINTS": "2", "BONUSPOINTS": "3"}}, {"type": "Feature", "geometry": {"type": "Point", "coordinates": [-118.4298, 39.011]}, "properties": {"NAME": "W7N/EM-142", "TITLE": "Squaw Peak", "REGION": "NV-Esme-Mineral", "ASSOCIATION": "USA - Nevada", "POINTS": "2", "BONUSPOINTS": "3"}}, {"type": "Feature", "geometry": {"type": "Point", "coordinates": [-117.3918, 37.3352]}, "properties": {"NAME": "W7N/EM-143", "TITLE": "6413", "REGION": "NV-Esme-Mineral", "ASSOCIATION": "USA - Nevada", "POINTS": "2", "BONUSPOINTS": "3"}}, {"type": "Feature", "geometry": {"type": "Point", "coordinates": [-117.377, 37.4734]}, "properties": {"NAME": "W7N/EM-144", "TITLE": "Jackson, Mount", "REGION": "NV-Esme-Mineral", "ASSOCIATION": "USA - Nevada", "POINTS": "2", "BONUSPOINTS": "3"}}, {"type": "Feature", "geometry": {"type": "Point", "coordinates": [-117.2482, 37.6091]}, "properties": {"NAME": "W7N/EM-145", "TITLE": "6404", "REGION": "NV-Esme-Mineral", "ASSOCIATION": "USA - Nevada", "POINTS": "2", "BONUSPOINTS": "3"}}, {"type": "Feature", "geometry": {"type": "Point", "coordinates": [-118.207, 39.0461]}, "properties": {"NAME": "W7N/EM-146", "TITLE": "6399", "REGION": "NV-Esme-Mineral", "ASSOCIATION": "USA - Nevada", "POINTS": "2", "BONUSPOINTS": "3"}}, {"type": "Feature", "geometry": {"type": "Point", "coordinates": [-118.581, 38.8378]}, "properties": {"NAME": "W7N/EM-147", "TITLE": "Ghost Dance Ridge", "REGION": "NV-Esme-Mineral", "ASSOCIATION": "USA - Nevada", "POINTS": "2", "BONUSPOINTS": "3"}}, {"type": "Feature", "geometry": {"type": "Point", "coordinates": [-117.302, 37.6099]}, "properties": {"NAME": "W7N/EM-148", "TITLE": "Halfway Benchmark", "REGION": "NV-Esme-Mineral", "ASSOCIATION": "USA - Nevada", "POINTS": "2", "BONUSPOINTS": "3"}}, {"type": "Feature", "geometry": {"type": "Point", "coordinates": [-117.4548, 37.7121]}, "properties": {"NAME": "W7N/EM-149", "TITLE": "Split Mountain", "REGION": "NV-Esme-Mineral", "ASSOCIATION": "USA - Nevada", "POINTS": "2", "BONUSPOINTS": "3"}}, {"type": "Feature", "geometry": {"type": "Point", "coordinates": [-118.6181, 38.832]}, "properties": {"NAME": "W7N/EM-150", "TITLE": "6299", "REGION": "NV-Esme-Mineral", "ASSOCIATION": "USA - Nevada", "POINTS": "2", "BONUSPOINTS": "3"}}, {"type": "Feature", "geometry": {"type": "Point", "coordinates": [-117.2653, 37.9917]}, "properties": {"NAME": "W7N/EM-151", "TITLE": "Hasbrouck Peak", "REGION": "NV-Esme-Mineral", "ASSOCIATION": "USA - Nevada", "POINTS": "2", "BONUSPOINTS": "3"}}, {"type": "Feature", "geometry": {"type": "Point", "coordinates": [-118.1039, 38.7307]}, "properties": {"NAME": "W7N/EM-152", "TITLE": "Gabbs Mountain", "REGION": "NV-Esme-Mineral", "ASSOCIATION": "USA - Nevada", "POINTS": "2", "BONUSPOINTS": "3"}}, {"type": "Feature", "geometry": {"type": "Point", "coordinates": [-118.2792, 38.7525]}, "properties": {"NAME": "W7N/EM-153", "TITLE": "6194", "REGION": "NV-Esme-Mineral", "ASSOCIATION": "USA - Nevada", "POINTS": "2", "BONUSPOINTS": "3"}}, {"type": "Feature", "geometry": {"type": "Point", "coordinates": [-117.2784, 37.5626]}, "properties": {"NAME": "W7N/EM-154", "TITLE": "6190", "REGION": "NV-Esme-Mineral", "ASSOCIATION": "USA - Nevada", "POINTS": "2", "BONUSPOINTS": "3"}}, {"type": "Feature", "geometry": {"type": "Point", "coordinates": [-118.6568, 38.8761]}, "properties": {"NAME": "W7N/EM-155", "TITLE": "Modoc Benchmark", "REGION": "NV-Esme-Mineral", "ASSOCIATION": "USA - Nevada", "POINTS": "2", "BONUSPOINTS": "3"}}, {"type": "Feature", "geometry": {"type": "Point", "coordinates": [-118.7971, 38.83]}, "properties": {"NAME": "W7N/EM-156", "TITLE": "6135", "REGION": "NV-Esme-Mineral", "ASSOCIATION": "USA - Nevada", "POINTS": "2", "BONUSPOINTS": "3"}}, {"type": "Feature", "geometry": {"type": "Point", "coordinates": [-117.9822, 38.7301]}, "properties": {"NAME": "W7N/EM-157", "TITLE": "6090", "REGION": "NV-Esme-Mineral", "ASSOCIATION": "USA - Nevada", "POINTS": "2", "BONUSPOINTS": "3"}}, {"type": "Feature", "geometry": {"type": "Point", "coordinates": [-118.7087, 39.0651]}, "properties": {"NAME": "W7N/EM-158", "TITLE": "Brown Knob", "REGION": "NV-Esme-Mineral", "ASSOCIATION": "USA - Nevada", "POINTS": "2", "BONUSPOINTS": "3"}}, {"type": "Feature", "geometry": {"type": "Point", "coordinates": [-117.2324, 37.5282]}, "properties": {"NAME": "W7N/EM-159", "TITLE": "Cuprite Hills", "REGION": "NV-Esme-Mineral", "ASSOCIATION": "USA - Nevada", "POINTS": "2", "BONUSPOINTS": "3"}}, {"type": "Feature", "geometry": {"type": "Point", "coordinates": [-118.9549, 39.0228]}, "properties": {"NAME": "W7N/EM-160", "TITLE": "6070", "REGION": "NV-Esme-Mineral", "ASSOCIATION": "USA - Nevada", "POINTS": "2", "BONUSPOINTS": "3"}}, {"type": "Feature", "geometry": {"type": "Point", "coordinates": [-118.071, 37.9213]}, "properties": {"NAME": "W7N/EM-161", "TITLE": "6060", "REGION": "NV-Esme-Mineral", "ASSOCIATION": "USA - Nevada", "POINTS": "2", "BONUSPOINTS": "3"}}, {"type": "Feature", "geometry": {"type": "Point", "coordinates": [-118.4528, 38.972]}, "properties": {"NAME": "W7N/EM-162", "TITLE": "Koegel Hills", "REGION": "NV-Esme-Mineral", "ASSOCIATION": "USA - Nevada", "POINTS": "2", "BONUSPOINTS": "3"}}, {"type": "Feature", "geometry": {"type": "Point", "coordinates": [-117.2807, 37.4841]}, "properties": {"NAME": "W7N/EM-163", "TITLE": "Adams Benchmark", "REGION": "NV-Esme-Mineral", "ASSOCIATION": "USA - Nevada", "POINTS": "2", "BONUSPOINTS": "3"}}, {"type": "Feature", "geometry": {"type": "Point", "coordinates": [-117.4572, 37.8239]}, "properties": {"NAME": "W7N/EM-164", "TITLE": "Joes Peak", "REGION": "NV-Esme-Mineral", "ASSOCIATION": "USA - Nevada", "POINTS": "2", "BONUSPOINTS": "3"}}, {"type": "Feature", "geometry": {"type": "Point", "coordinates": [-117.9989, 38.7055]}, "properties": {"NAME": "W7N/EM-165", "TITLE": "5944", "REGION": "NV-Esme-Mineral", "ASSOCIATION": "USA - Nevada", "POINTS": "2", "BONUSPOINTS": "3"}}, {"type": "Feature", "geometry": {"type": "Point", "coordinates": [-118.9889, 38.929]}, "properties": {"NAME": "W7N/EM-166", "TITLE": "5913", "REGION": "NV-Esme-Mineral", "ASSOCIATION": "USA - Nevada", "POINTS": "2", "BONUSPOINTS": "3"}}, {"type": "Feature", "geometry": {"type": "Point", "coordinates": [-117.985, 38.1618]}, "properties": {"NAME": "W7N/EM-167", "TITLE": "Candelaria Hills", "REGION": "NV-Esme-Mineral", "ASSOCIATION": "USA - Nevada", "POINTS": "2", "BONUSPOINTS": "3"}}, {"type": "Feature", "geometry": {"type": "Point", "coordinates": [-118.0155, 38.6721]}, "properties": {"NAME": "W7N/EM-168", "TITLE": "5850", "REGION": "NV-Esme-Mineral", "ASSOCIATION": "USA - Nevada", "POINTS": "2", "BONUSPOINTS": "3"}}, {"type": "Feature", "geometry": {"type": "Point", "coordinates": [-117.4526, 38.1032]}, "properties": {"NAME": "W7N/EM-169", "TITLE": "5761", "REGION": "NV-Esme-Mineral", "ASSOCIATION": "USA - Nevada", "POINTS": "2", "BONUSPOINTS": "3"}}, {"type": "Feature", "geometry": {"type": "Point", "coordinates": [-118.8904, 38.9994]}, "properties": {"NAME": "W7N/EM-170", "TITLE": "White Mountain", "REGION": "NV-Esme-Mineral", "ASSOCIATION": "USA - Nevada", "POINTS": "2", "BONUSPOINTS": "3"}}, {"type": "Feature", "geometry": {"type": "Point", "coordinates": [-118.2297, 38.788]}, "properties": {"NAME": "W7N/EM-171", "TITLE": "5641", "REGION": "NV-Esme-Mineral", "ASSOCIATION": "USA - Nevada", "POINTS": "2", "BONUSPOINTS": "3"}}, {"type": "Feature", "geometry": {"type": "Point", "coordinates": [-118.5837, 39.0228]}, "properties": {"NAME": "W7N/EM-172", "TITLE": "Red Ridge", "REGION": "NV-Esme-Mineral", "ASSOCIATION": "USA - Nevada", "POINTS": "2", "BONUSPOINTS": "3"}}, {"type": "Feature", "geometry": {"type": "Point", "coordinates": [-118.216, 38.875]}, "properties": {"NAME": "W7N/EM-173", "TITLE": "Black Hills North", "REGION": "NV-Esme-Mineral", "ASSOCIATION": "USA - Nevada", "POINTS": "2", "BONUSPOINTS": "3"}}, {"type": "Feature", "geometry": {"type": "Point", "coordinates": [-118.5006, 38.2316]}, "properties": {"NAME": "W7N/EM-174", "TITLE": "7874", "REGION": "NV-Esme-Mineral", "ASSOCIATION": "USA - Nevada", "POINTS": "6", "BONUSPOINTS": "3"}}, {"type": "Feature", "geometry": {"type": "Point", "coordinates": [-117.2617, 37.2897]}, "properties": {"NAME": "W7N/EM-175", "TITLE": "Hat Benchmark", "REGION": "NV-Esme-Mineral", "ASSOCIATION": "USA - Nevada", "POINTS": "6", "BONUSPOINTS": "3"}}, {"type": "Feature", "geometry": {"type": "Point", "coordinates": [-117.1796, 37.0213]}, "properties": {"NAME": "W7N/EM-176", "TITLE": "7393", "REGION": "NV-Esme-Mineral", "ASSOCIATION": "USA - Nevada", "POINTS": "4", "BONUSPOINTS": "3"}}, {"type": "Feature", "geometry": {"type": "Point", "coordinates": [-117.323, 37.3458]}, "properties": {"NAME": "W7N/EM-177", "TITLE": "Dunfee, Mount", "REGION": "NV-Esme-Mineral", "ASSOCIATION": "USA - Nevada", "POINTS": "4", "BONUSPOINTS": "3"}}, {"type": "Feature", "geometry": {"type": "Point", "coordinates": [-118.1398, 38.5767]}, "properties": {"NAME": "W7N/EM-178", "TITLE": "6980", "REGION": "NV-Esme-Mineral", "ASSOCIATION": "USA - Nevada", "POINTS": "4", "BONUSPOINTS": "3"}}, {"type": "Feature", "geometry": {"type": "Point", "coordinates": [-117.4604, 37.7168]}, "properties": {"NAME": "W7N/EM-179", "TITLE": "6330", "REGION": "NV-Esme-Mineral", "ASSOCIATION": "USA - Nevada", "POINTS": "2", "BONUSPOINTS": "3"}}, {"type": "Feature", "geometry": {"type": "Point", "coordinates": [-118.0755, 37.9441]}, "properties": {"NAME": "W7N/EM-180", "TITLE": "6090", "REGION": "NV-Esme-Mineral", "ASSOCIATION": "USA - Nevada", "POINTS": "2", "BONUSPOINTS": "3"}}, {"type": "Feature", "geometry": {"type": "Point", "coordinates": [-118.6004, 38.7998]}, "properties": {"NAME": "W7N/EM-181", "TITLE": "5821", "REGION": "NV-Esme-Mineral", "ASSOCIATION": "USA - Nevada", "POINTS": "2", "BONUSPOINTS": "3"}}, {"type": "Feature", "geometry": {"type": "Point", "coordinates": [-117.2675, 37.1186]}, "properties": {"NAME": "W7N/EM-182", "TITLE": "Queer Benchmark", "REGION": "NV-Esme-Mineral", "ASSOCIATION": "USA - Nevada", "POINTS": "2", "BONUSPOINTS": "3"}}]}