{"type": "FeatureCollection", "name": "W7N/EL SUMMITS", "features": [{"type": "Feature", "geometry": {"type": "Point", "coordinates": [-117.1261, 39.2528]}, "properties": {"NAME": "W7N/EL-001", "TITLE": "Bunker Hill", "REGION": "NV-Eureka-Lander", "ASSOCIATION": "USA - Nevada", "POINTS": "10", "BONUSPOINTS": "3"}}, {"type": "Feature", "geometry": {"type": "Point", "coordinates": [-117.0943, 39.2992]}, "properties": {"NAME": "W7N/EL-002", "TITLE": "Archie Hill", "REGION": "NV-Eureka-Lander", "ASSOCIATION": "USA - Nevada", "POINTS": "10", "BONUSPOINTS": "3"}}, {"type": "Feature", "geometry": {"type": "Point", "coordinates": [-117.1052, 39.2767]}, "properties": {"NAME": "W7N/EL-003", "TITLE": "Edith Hill", "REGION": "NV-Eureka-Lander", "ASSOCIATION": "USA - Nevada", "POINTS": "10", "BONUSPOINTS": "3"}}, {"type": "Feature", "geometry": {"type": "Point", "coordinates": [-117.0752, 39.3594]}, "properties": {"NAME": "W7N/EL-004", "TITLE": "North Toiyabe Peak", "REGION": "NV-Eureka-Lander", "ASSOCIATION": "USA - Nevada", "POINTS": "10", "BONUSPOINTS": "3"}}, {"type": "Feature", "geometry": {"type": "Point", "coordinates": [-115.8186, 39.585]}, "properties": {"NAME": "W7N/EL-005", "TITLE": "Diamond Peak", "REGION": "NV-Eureka-Lander", "ASSOCIATION": "USA - Nevada", "POINTS": "10", "BONUSPOINTS": "3"}}, {"type": "Feature", "geometry": {"type": "Point", "coordinates": [-117.1804, 39.1971]}, "properties": {"NAME": "W7N/EL-006", "TITLE": "10579", "REGION": "NV-Eureka-Lander", "ASSOCIATION": "USA - Nevada", "POINTS": "10", "BONUSPOINTS": "3"}}, {"type": "Feature", "geometry": {"type": "Point", "coordinates": [-116.4621, 39.3767]}, "properties": {"NAME": "W7N/EL-007", "TITLE": "Summit Mountain", "REGION": "NV-Eureka-Lander", "ASSOCIATION": "USA - Nevada", "POINTS": "10", "BONUSPOINTS": "3"}}, {"type": "Feature", "geometry": {"type": "Point", "coordinates": [-117.4801, 39.1504]}, "properties": {"NAME": "W7N/EL-008", "TITLE": "North Shoshone Peak", "REGION": "NV-Eureka-Lander", "ASSOCIATION": "USA - Nevada", "POINTS": "10", "BONUSPOINTS": "3"}}, {"type": "Feature", "geometry": {"type": "Point", "coordinates": [-116.4602, 39.3974]}, "properties": {"NAME": "W7N/EL-009", "TITLE": "Antelope Peak", "REGION": "NV-Eureka-Lander", "ASSOCIATION": "USA - Nevada", "POINTS": "10", "BONUSPOINTS": "3"}}, {"type": "Feature", "geometry": {"type": "Point", "coordinates": [-116.9509, 39.7094]}, "properties": {"NAME": "W7N/EL-010", "TITLE": "Callaghan, Mount", "REGION": "NV-Eureka-Lander", "ASSOCIATION": "USA - Nevada", "POINTS": "10", "BONUSPOINTS": "3"}}, {"type": "Feature", "geometry": {"type": "Point", "coordinates": [-116.3104, 39.87]}, "properties": {"NAME": "W7N/EL-011", "TITLE": "Roberts Creek Mountain", "REGION": "NV-Eureka-Lander", "ASSOCIATION": "USA - Nevada", "POINTS": "10", "BONUSPOINTS": "3"}}, {"type": "Feature", "geometry": {"type": "Point", "coordinates": [-117.1433, 39.2989]}, "properties": {"NAME": "W7N/EL-012", "TITLE": "Big Creek Peak", "REGION": "NV-Eureka-Lander", "ASSOCIATION": "USA - Nevada", "POINTS": "10", "BONUSPOINTS": "3"}}, {"type": "Feature", "geometry": {"type": "Point", "coordinates": [-117.4935, 39.1448]}, "properties": {"NAME": "W7N/EL-013", "TITLE": "9896", "REGION": "NV-Eureka-Lander", "ASSOCIATION": "USA - Nevada", "POINTS": "10", "BONUSPOINTS": "3"}}, {"type": "Feature", "geometry": {"type": "Point", "coordinates": [-116.4468, 39.2941]}, "properties": {"NAME": "W7N/EL-014", "TITLE": "Bald Mountain", "REGION": "NV-Eureka-Lander", "ASSOCIATION": "USA - Nevada", "POINTS": "10", "BONUSPOINTS": "3"}}, {"type": "Feature", "geometry": {"type": "Point", "coordinates": [-115.8054, 39.8694]}, "properties": {"NAME": "W7N/EL-015", "TITLE": "Birch Benchmark", "REGION": "NV-Eureka-Lander", "ASSOCIATION": "USA - Nevada", "POINTS": "10", "BONUSPOINTS": "3"}}, {"type": "Feature", "geometry": {"type": "Point", "coordinates": [-117.1757, 39.2773]}, "properties": {"NAME": "W7N/EL-016", "TITLE": "9724", "REGION": "NV-Eureka-Lander", "ASSOCIATION": "USA - Nevada", "POINTS": "10", "BONUSPOINTS": "3"}}, {"type": "Feature", "geometry": {"type": "Point", "coordinates": [-116.8616, 40.4034]}, "properties": {"NAME": "W7N/EL-017", "TITLE": "Lewis, Mount", "REGION": "NV-Eureka-Lander", "ASSOCIATION": "USA - Nevada", "POINTS": "10", "BONUSPOINTS": "3"}}, {"type": "Feature", "geometry": {"type": "Point", "coordinates": [-115.8242, 39.6737]}, "properties": {"NAME": "W7N/EL-018", "TITLE": "9610", "REGION": "NV-Eureka-Lander", "ASSOCIATION": "USA - Nevada", "POINTS": "10", "BONUSPOINTS": "3"}}, {"type": "Feature", "geometry": {"type": "Point", "coordinates": [-115.9992, 39.4499]}, "properties": {"NAME": "W7N/EL-019", "TITLE": "Prospect Peak", "REGION": "NV-Eureka-Lander", "ASSOCIATION": "USA - Nevada", "POINTS": "10", "BONUSPOINTS": "3"}}, {"type": "Feature", "geometry": {"type": "Point", "coordinates": [-115.7994, 39.8356]}, "properties": {"NAME": "W7N/EL-020", "TITLE": "9460", "REGION": "NV-Eureka-Lander", "ASSOCIATION": "USA - Nevada", "POINTS": "8", "BONUSPOINTS": "3"}}, {"type": "Feature", "geometry": {"type": "Point", "coordinates": [-116.4431, 39.4027]}, "properties": {"NAME": "W7N/EL-021", "TITLE": "9460", "REGION": "NV-Eureka-Lander", "ASSOCIATION": "USA - Nevada", "POINTS": "8", "BONUSPOINTS": "3"}}, {"type": "Feature", "geometry": {"type": "Point", "coordinates": [-117.1105, 39.3629]}, "properties": {"NAME": "W7N/EL-022", "TITLE": "9417", "REGION": "NV-Eureka-Lander", "ASSOCIATION": "USA - Nevada", "POINTS": "8", "BONUSPOINTS": "3"}}, {"type": "Feature", "geometry": {"type": "Point", "coordinates": [-116.8938, 39.7867]}, "properties": {"NAME": "W7N/EL-023", "TITLE": "Hall Benchmark", "REGION": "NV-Eureka-Lander", "ASSOCIATION": "USA - Nevada", "POINTS": "8", "BONUSPOINTS": "3"}}, {"type": "Feature", "geometry": {"type": "Point", "coordinates": [-117.4497, 39.1801]}, "properties": {"NAME": "W7N/EL-024", "TITLE": "9340", "REGION": "NV-Eureka-Lander", "ASSOCIATION": "USA - Nevada", "POINTS": "8", "BONUSPOINTS": "3"}}, {"type": "Feature", "geometry": {"type": "Point", "coordinates": [-115.8359, 39.9942]}, "properties": {"NAME": "W7N/EL-025", "TITLE": "9263", "REGION": "NV-Eureka-Lander", "ASSOCIATION": "USA - Nevada", "POINTS": "8", "BONUSPOINTS": "3"}}, {"type": "Feature", "geometry": {"type": "Point", "coordinates": [-116.8753, 39.7881]}, "properties": {"NAME": "W7N/EL-026", "TITLE": "9243", "REGION": "NV-Eureka-Lander", "ASSOCIATION": "USA - Nevada", "POINTS": "8", "BONUSPOINTS": "3"}}, {"type": "Feature", "geometry": {"type": "Point", "coordinates": [-115.8182, 39.9331]}, "properties": {"NAME": "W7N/EL-027", "TITLE": "9220", "REGION": "NV-Eureka-Lander", "ASSOCIATION": "USA - Nevada", "POINTS": "8", "BONUSPOINTS": "3"}}, {"type": "Feature", "geometry": {"type": "Point", "coordinates": [-116.5831, 40.1631]}, "properties": {"NAME": "W7N/EL-028", "TITLE": "Tenabo, Mount", "REGION": "NV-Eureka-Lander", "ASSOCIATION": "USA - Nevada", "POINTS": "8", "BONUSPOINTS": "3"}}, {"type": "Feature", "geometry": {"type": "Point", "coordinates": [-116.5804, 39.7507]}, "properties": {"NAME": "W7N/EL-029", "TITLE": "Fagin Mountain", "REGION": "NV-Eureka-Lander", "ASSOCIATION": "USA - Nevada", "POINTS": "8", "BONUSPOINTS": "3"}}, {"type": "Feature", "geometry": {"type": "Point", "coordinates": [-116.8969, 40.3479]}, "properties": {"NAME": "W7N/EL-030", "TITLE": "9140", "REGION": "NV-Eureka-Lander", "ASSOCIATION": "USA - Nevada", "POINTS": "8", "BONUSPOINTS": "3"}}, {"type": "Feature", "geometry": {"type": "Point", "coordinates": [-117.0231, 39.4242]}, "properties": {"NAME": "W7N/EL-031", "TITLE": "9133", "REGION": "NV-Eureka-Lander", "ASSOCIATION": "USA - Nevada", "POINTS": "8", "BONUSPOINTS": "3"}}, {"type": "Feature", "geometry": {"type": "Point", "coordinates": [-116.7448, 39.5676]}, "properties": {"NAME": "W7N/EL-032", "TITLE": "9070", "REGION": "NV-Eureka-Lander", "ASSOCIATION": "USA - Nevada", "POINTS": "8", "BONUSPOINTS": "3"}}, {"type": "Feature", "geometry": {"type": "Point", "coordinates": [-116.4452, 39.2435]}, "properties": {"NAME": "W7N/EL-033", "TITLE": "9065", "REGION": "NV-Eureka-Lander", "ASSOCIATION": "USA - Nevada", "POINTS": "8", "BONUSPOINTS": "3"}}, {"type": "Feature", "geometry": {"type": "Point", "coordinates": [-116.2295, 39.1909]}, "properties": {"NAME": "W7N/EL-034", "TITLE": "Cotton Benchmark", "REGION": "NV-Eureka-Lander", "ASSOCIATION": "USA - Nevada", "POINTS": "8", "BONUSPOINTS": "3"}}, {"type": "Feature", "geometry": {"type": "Point", "coordinates": [-116.3522, 39.8065]}, "properties": {"NAME": "W7N/EL-035", "TITLE": "9063", "REGION": "NV-Eureka-Lander", "ASSOCIATION": "USA - Nevada", "POINTS": "8", "BONUSPOINTS": "3"}}, {"type": "Feature", "geometry": {"type": "Point", "coordinates": [-116.3521, 39.9133]}, "properties": {"NAME": "W7N/EL-036", "TITLE": "Western Peak", "REGION": "NV-Eureka-Lander", "ASSOCIATION": "USA - Nevada", "POINTS": "8", "BONUSPOINTS": "3"}}, {"type": "Feature", "geometry": {"type": "Point", "coordinates": [-116.4778, 39.2482]}, "properties": {"NAME": "W7N/EL-037", "TITLE": "9042", "REGION": "NV-Eureka-Lander", "ASSOCIATION": "USA - Nevada", "POINTS": "8", "BONUSPOINTS": "3"}}, {"type": "Feature", "geometry": {"type": "Point", "coordinates": [-116.5161, 39.2627]}, "properties": {"NAME": "W7N/EL-038", "TITLE": "Charnac Benchmark", "REGION": "NV-Eureka-Lander", "ASSOCIATION": "USA - Nevada", "POINTS": "8", "BONUSPOINTS": "3"}}, {"type": "Feature", "geometry": {"type": "Point", "coordinates": [-117.1322, 39.2069]}, "properties": {"NAME": "W7N/EL-039", "TITLE": "9002", "REGION": "NV-Eureka-Lander", "ASSOCIATION": "USA - Nevada", "POINTS": "8", "BONUSPOINTS": "3"}}, {"type": "Feature", "geometry": {"type": "Point", "coordinates": [-116.0882, 39.3287]}, "properties": {"NAME": "W7N/EL-040", "TITLE": "Dave Keane Mountain", "REGION": "NV-Eureka-Lander", "ASSOCIATION": "USA - Nevada", "POINTS": "8", "BONUSPOINTS": "3"}}, {"type": "Feature", "geometry": {"type": "Point", "coordinates": [-116.6964, 39.6239]}, "properties": {"NAME": "W7N/EL-041", "TITLE": "Simpson Benchmark", "REGION": "NV-Eureka-Lander", "ASSOCIATION": "USA - Nevada", "POINTS": "8", "BONUSPOINTS": "3"}}, {"type": "Feature", "geometry": {"type": "Point", "coordinates": [-116.3581, 39.8708]}, "properties": {"NAME": "W7N/EL-042", "TITLE": "8919", "REGION": "NV-Eureka-Lander", "ASSOCIATION": "USA - Nevada", "POINTS": "8", "BONUSPOINTS": "3"}}, {"type": "Feature", "geometry": {"type": "Point", "coordinates": [-116.5634, 39.8029]}, "properties": {"NAME": "W7N/EL-043", "TITLE": "Buck Mountain", "REGION": "NV-Eureka-Lander", "ASSOCIATION": "USA - Nevada", "POINTS": "8", "BONUSPOINTS": "3"}}, {"type": "Feature", "geometry": {"type": "Point", "coordinates": [-116.4536, 39.4285]}, "properties": {"NAME": "W7N/EL-044", "TITLE": "8886", "REGION": "NV-Eureka-Lander", "ASSOCIATION": "USA - Nevada", "POINTS": "8", "BONUSPOINTS": "3"}}, {"type": "Feature", "geometry": {"type": "Point", "coordinates": [-116.2632, 39.8198]}, "properties": {"NAME": "W7N/EL-045", "TITLE": "8820", "REGION": "NV-Eureka-Lander", "ASSOCIATION": "USA - Nevada", "POINTS": "8", "BONUSPOINTS": "3"}}, {"type": "Feature", "geometry": {"type": "Point", "coordinates": [-116.5657, 39.2255]}, "properties": {"NAME": "W7N/EL-046", "TITLE": "Brock Benchmark", "REGION": "NV-Eureka-Lander", "ASSOCIATION": "USA - Nevada", "POINTS": "8", "BONUSPOINTS": "3"}}, {"type": "Feature", "geometry": {"type": "Point", "coordinates": [-116.615, 39.731]}, "properties": {"NAME": "W7N/EL-047", "TITLE": "Shagnasty", "REGION": "NV-Eureka-Lander", "ASSOCIATION": "USA - Nevada", "POINTS": "8", "BONUSPOINTS": "3"}}, {"type": "Feature", "geometry": {"type": "Point", "coordinates": [-116.8546, 40.3282]}, "properties": {"NAME": "W7N/EL-048", "TITLE": "8770", "REGION": "NV-Eureka-Lander", "ASSOCIATION": "USA - Nevada", "POINTS": "8", "BONUSPOINTS": "3"}}, {"type": "Feature", "geometry": {"type": "Point", "coordinates": [-116.2842, 39.8414]}, "properties": {"NAME": "W7N/EL-049", "TITLE": "8754", "REGION": "NV-Eureka-Lander", "ASSOCIATION": "USA - Nevada", "POINTS": "8", "BONUSPOINTS": "3"}}, {"type": "Feature", "geometry": {"type": "Point", "coordinates": [-116.8555, 39.7907]}, "properties": {"NAME": "W7N/EL-050", "TITLE": "8741", "REGION": "NV-Eureka-Lander", "ASSOCIATION": "USA - Nevada", "POINTS": "8", "BONUSPOINTS": "3"}}, {"type": "Feature", "geometry": {"type": "Point", "coordinates": [-116.9562, 39.6401]}, "properties": {"NAME": "W7N/EL-051", "TITLE": "8700", "REGION": "NV-Eureka-Lander", "ASSOCIATION": "USA - Nevada", "POINTS": "8", "BONUSPOINTS": "3"}}, {"type": "Feature", "geometry": {"type": "Point", "coordinates": [-116.617, 39.6447]}, "properties": {"NAME": "W7N/EL-052", "TITLE": "Park Benchmark", "REGION": "NV-Eureka-Lander", "ASSOCIATION": "USA - Nevada", "POINTS": "8", "BONUSPOINTS": "3"}}, {"type": "Feature", "geometry": {"type": "Point", "coordinates": [-116.6094, 39.6752]}, "properties": {"NAME": "W7N/EL-053", "TITLE": "8684", "REGION": "NV-Eureka-Lander", "ASSOCIATION": "USA - Nevada", "POINTS": "8", "BONUSPOINTS": "3"}}, {"type": "Feature", "geometry": {"type": "Point", "coordinates": [-116.5402, 39.2958]}, "properties": {"NAME": "W7N/EL-054", "TITLE": "8661", "REGION": "NV-Eureka-Lander", "ASSOCIATION": "USA - Nevada", "POINTS": "8", "BONUSPOINTS": "3"}}, {"type": "Feature", "geometry": {"type": "Point", "coordinates": [-116.8818, 39.8121]}, "properties": {"NAME": "W7N/EL-055", "TITLE": "8655", "REGION": "NV-Eureka-Lander", "ASSOCIATION": "USA - Nevada", "POINTS": "8", "BONUSPOINTS": "3"}}, {"type": "Feature", "geometry": {"type": "Point", "coordinates": [-116.5533, 40.1701]}, "properties": {"NAME": "W7N/EL-056", "TITLE": "8650", "REGION": "NV-Eureka-Lander", "ASSOCIATION": "USA - Nevada", "POINTS": "8", "BONUSPOINTS": "3"}}, {"type": "Feature", "geometry": {"type": "Point", "coordinates": [-117.4154, 40.1472]}, "properties": {"NAME": "W7N/EL-057", "TITLE": "Moses, Mount", "REGION": "NV-Eureka-Lander", "ASSOCIATION": "USA - Nevada", "POINTS": "8", "BONUSPOINTS": "3"}}, {"type": "Feature", "geometry": {"type": "Point", "coordinates": [-116.1328, 39.4206]}, "properties": {"NAME": "W7N/EL-058", "TITLE": "Combs Peak", "REGION": "NV-Eureka-Lander", "ASSOCIATION": "USA - Nevada", "POINTS": "8", "BONUSPOINTS": "3"}}, {"type": "Feature", "geometry": {"type": "Point", "coordinates": [-115.8304, 40.0347]}, "properties": {"NAME": "W7N/EL-059", "TITLE": "8620", "REGION": "NV-Eureka-Lander", "ASSOCIATION": "USA - Nevada", "POINTS": "8", "BONUSPOINTS": "3"}}, {"type": "Feature", "geometry": {"type": "Point", "coordinates": [-117.6757, 39.3059]}, "properties": {"NAME": "W7N/EL-060", "TITLE": "8590", "REGION": "NV-Eureka-Lander", "ASSOCIATION": "USA - Nevada", "POINTS": "8", "BONUSPOINTS": "3"}}, {"type": "Feature", "geometry": {"type": "Point", "coordinates": [-117.6493, 39.2833]}, "properties": {"NAME": "W7N/EL-061", "TITLE": "Valley View Benchmark", "REGION": "NV-Eureka-Lander", "ASSOCIATION": "USA - Nevada", "POINTS": "8", "BONUSPOINTS": "3"}}, {"type": "Feature", "geometry": {"type": "Point", "coordinates": [-116.8469, 40.438]}, "properties": {"NAME": "W7N/EL-062", "TITLE": "Bens Peak", "REGION": "NV-Eureka-Lander", "ASSOCIATION": "USA - Nevada", "POINTS": "8", "BONUSPOINTS": "3"}}, {"type": "Feature", "geometry": {"type": "Point", "coordinates": [-116.7035, 40.0527]}, "properties": {"NAME": "W7N/EL-063", "TITLE": "Bald Mountain", "REGION": "NV-Eureka-Lander", "ASSOCIATION": "USA - Nevada", "POINTS": "8", "BONUSPOINTS": "3"}}, {"type": "Feature", "geometry": {"type": "Point", "coordinates": [-117.0394, 39.555]}, "properties": {"NAME": "W7N/EL-064", "TITLE": "Telegraph Peak", "REGION": "NV-Eureka-Lander", "ASSOCIATION": "USA - Nevada", "POINTS": "8", "BONUSPOINTS": "3"}}, {"type": "Feature", "geometry": {"type": "Point", "coordinates": [-116.1154, 39.5031]}, "properties": {"NAME": "W7N/EL-065", "TITLE": "Devon Peak", "REGION": "NV-Eureka-Lander", "ASSOCIATION": "USA - Nevada", "POINTS": "8", "BONUSPOINTS": "3"}}, {"type": "Feature", "geometry": {"type": "Point", "coordinates": [-116.3935, 40.3077]}, "properties": {"NAME": "W7N/EL-066", "TITLE": "8473", "REGION": "NV-Eureka-Lander", "ASSOCIATION": "USA - Nevada", "POINTS": "6", "BONUSPOINTS": "3"}}, {"type": "Feature", "geometry": {"type": "Point", "coordinates": [-116.5537, 39.8955]}, "properties": {"NAME": "W7N/EL-067", "TITLE": "McClusky Peak", "REGION": "NV-Eureka-Lander", "ASSOCIATION": "USA - Nevada", "POINTS": "6", "BONUSPOINTS": "3"}}, {"type": "Feature", "geometry": {"type": "Point", "coordinates": [-117.0268, 40.1154]}, "properties": {"NAME": "W7N/EL-068", "TITLE": "Saddle Benchmark", "REGION": "NV-Eureka-Lander", "ASSOCIATION": "USA - Nevada", "POINTS": "6", "BONUSPOINTS": "3"}}, {"type": "Feature", "geometry": {"type": "Point", "coordinates": [-116.8343, 39.7918]}, "properties": {"NAME": "W7N/EL-069", "TITLE": "8444", "REGION": "NV-Eureka-Lander", "ASSOCIATION": "USA - Nevada", "POINTS": "6", "BONUSPOINTS": "3"}}, {"type": "Feature", "geometry": {"type": "Point", "coordinates": [-117.4126, 40.1943]}, "properties": {"NAME": "W7N/EL-070", "TITLE": "8420", "REGION": "NV-Eureka-Lander", "ASSOCIATION": "USA - Nevada", "POINTS": "6", "BONUSPOINTS": "3"}}, {"type": "Feature", "geometry": {"type": "Point", "coordinates": [-116.1882, 39.7954]}, "properties": {"NAME": "W7N/EL-071", "TITLE": "Hope, Mount", "REGION": "NV-Eureka-Lander", "ASSOCIATION": "USA - Nevada", "POINTS": "6", "BONUSPOINTS": "3"}}, {"type": "Feature", "geometry": {"type": "Point", "coordinates": [-116.3906, 40.2789]}, "properties": {"NAME": "W7N/EL-072", "TITLE": "8409", "REGION": "NV-Eureka-Lander", "ASSOCIATION": "USA - Nevada", "POINTS": "6", "BONUSPOINTS": "3"}}, {"type": "Feature", "geometry": {"type": "Point", "coordinates": [-117.0058, 40.1174]}, "properties": {"NAME": "W7N/EL-073", "TITLE": "Elephant Head", "REGION": "NV-Eureka-Lander", "ASSOCIATION": "USA - Nevada", "POINTS": "6", "BONUSPOINTS": "3"}}, {"type": "Feature", "geometry": {"type": "Point", "coordinates": [-116.1612, 39.4459]}, "properties": {"NAME": "W7N/EL-074", "TITLE": "Table Mountain", "REGION": "NV-Eureka-Lander", "ASSOCIATION": "USA - Nevada", "POINTS": "6", "BONUSPOINTS": "3"}}, {"type": "Feature", "geometry": {"type": "Point", "coordinates": [-117.436, 39.2077]}, "properties": {"NAME": "W7N/EL-075", "TITLE": "8405", "REGION": "NV-Eureka-Lander", "ASSOCIATION": "USA - Nevada", "POINTS": "6", "BONUSPOINTS": "3"}}, {"type": "Feature", "geometry": {"type": "Point", "coordinates": [-116.8086, 39.53]}, "properties": {"NAME": "W7N/EL-076", "TITLE": "Eagle Butte", "REGION": "NV-Eureka-Lander", "ASSOCIATION": "USA - Nevada", "POINTS": "6", "BONUSPOINTS": "3"}}, {"type": "Feature", "geometry": {"type": "Point", "coordinates": [-116.3405, 40.304]}, "properties": {"NAME": "W7N/EL-077", "TITLE": "8390", "REGION": "NV-Eureka-Lander", "ASSOCIATION": "USA - Nevada", "POINTS": "6", "BONUSPOINTS": "3"}}, {"type": "Feature", "geometry": {"type": "Point", "coordinates": [-115.9301, 39.5005]}, "properties": {"NAME": "W7N/EL-078", "TITLE": "Richmond Mountain", "REGION": "NV-Eureka-Lander", "ASSOCIATION": "USA - Nevada", "POINTS": "6", "BONUSPOINTS": "3"}}, {"type": "Feature", "geometry": {"type": "Point", "coordinates": [-116.0533, 40.1634]}, "properties": {"NAME": "W7N/EL-079", "TITLE": "Sulphur Spring Range HP", "REGION": "NV-Eureka-Lander", "ASSOCIATION": "USA - Nevada", "POINTS": "6", "BONUSPOINTS": "3"}}, {"type": "Feature", "geometry": {"type": "Point", "coordinates": [-116.261, 39.852]}, "properties": {"NAME": "W7N/EL-080", "TITLE": "8355", "REGION": "NV-Eureka-Lander", "ASSOCIATION": "USA - Nevada", "POINTS": "6", "BONUSPOINTS": "3"}}, {"type": "Feature", "geometry": {"type": "Point", "coordinates": [-116.1164, 39.4508]}, "properties": {"NAME": "W7N/EL-081", "TITLE": "Temple Peak", "REGION": "NV-Eureka-Lander", "ASSOCIATION": "USA - Nevada", "POINTS": "6", "BONUSPOINTS": "3"}}, {"type": "Feature", "geometry": {"type": "Point", "coordinates": [-116.3228, 40.319]}, "properties": {"NAME": "W7N/EL-082", "TITLE": "8336", "REGION": "NV-Eureka-Lander", "ASSOCIATION": "USA - Nevada", "POINTS": "6", "BONUSPOINTS": "3"}}, {"type": "Feature", "geometry": {"type": "Point", "coordinates": [-116.3321, 40.3461]}, "properties": {"NAME": "W7N/EL-083", "TITLE": "8334", "REGION": "NV-Eureka-Lander", "ASSOCIATION": "USA - Nevada", "POINTS": "6", "BONUSPOINTS": "3"}}, {"type": "Feature", "geometry": {"type": "Point", "coordinates": [-116.1387, 39.4665]}, "properties": {"NAME": "W7N/EL-084", "TITLE": "8235", "REGION": "NV-Eureka-Lander", "ASSOCIATION": "USA - Nevada", "POINTS": "6", "BONUSPOINTS": "3"}}, {"type": "Feature", "geometry": {"type": "Point", "coordinates": [-117.133, 40.5993]}, "properties": {"NAME": "W7N/EL-085", "TITLE": "Antler Peak", "REGION": "NV-Eureka-Lander", "ASSOCIATION": "USA - Nevada", "POINTS": "6", "BONUSPOINTS": "3"}}, {"type": "Feature", "geometry": {"type": "Point", "coordinates": [-117.1857, 40.6373]}, "properties": {"NAME": "W7N/EL-086", "TITLE": "8230", "REGION": "NV-Eureka-Lander", "ASSOCIATION": "USA - Nevada", "POINTS": "6", "BONUSPOINTS": "3"}}, {"type": "Feature", "geometry": {"type": "Point", "coordinates": [-117.1014, 40.6192]}, "properties": {"NAME": "W7N/EL-087", "TITLE": "Long Peak", "REGION": "NV-Eureka-Lander", "ASSOCIATION": "USA - Nevada", "POINTS": "6", "BONUSPOINTS": "3"}}, {"type": "Feature", "geometry": {"type": "Point", "coordinates": [-116.5374, 40.1576]}, "properties": {"NAME": "W7N/EL-088", "TITLE": "8220", "REGION": "NV-Eureka-Lander", "ASSOCIATION": "USA - Nevada", "POINTS": "6", "BONUSPOINTS": "3"}}, {"type": "Feature", "geometry": {"type": "Point", "coordinates": [-116.9522, 40.2701]}, "properties": {"NAME": "W7N/EL-089", "TITLE": "Horse Mountain", "REGION": "NV-Eureka-Lander", "ASSOCIATION": "USA - Nevada", "POINTS": "6", "BONUSPOINTS": "3"}}, {"type": "Feature", "geometry": {"type": "Point", "coordinates": [-116.9598, 39.4747]}, "properties": {"NAME": "W7N/EL-090", "TITLE": "King Benchmark", "REGION": "NV-Eureka-Lander", "ASSOCIATION": "USA - Nevada", "POINTS": "6", "BONUSPOINTS": "3"}}, {"type": "Feature", "geometry": {"type": "Point", "coordinates": [-117.3951, 39.1918]}, "properties": {"NAME": "W7N/EL-091", "TITLE": "8203", "REGION": "NV-Eureka-Lander", "ASSOCIATION": "USA - Nevada", "POINTS": "6", "BONUSPOINTS": "3"}}, {"type": "Feature", "geometry": {"type": "Point", "coordinates": [-116.7897, 40.3964]}, "properties": {"NAME": "W7N/EL-092", "TITLE": "Havingdon Peak", "REGION": "NV-Eureka-Lander", "ASSOCIATION": "USA - Nevada", "POINTS": "6", "BONUSPOINTS": "3"}}, {"type": "Feature", "geometry": {"type": "Point", "coordinates": [-116.9504, 39.8254]}, "properties": {"NAME": "W7N/EL-093", "TITLE": "8199", "REGION": "NV-Eureka-Lander", "ASSOCIATION": "USA - Nevada", "POINTS": "6", "BONUSPOINTS": "3"}}, {"type": "Feature", "geometry": {"type": "Point", "coordinates": [-116.7133, 40.0313]}, "properties": {"NAME": "W7N/EL-094", "TITLE": "8193", "REGION": "NV-Eureka-Lander", "ASSOCIATION": "USA - Nevada", "POINTS": "6", "BONUSPOINTS": "3"}}, {"type": "Feature", "geometry": {"type": "Point", "coordinates": [-116.7737, 39.5007]}, "properties": {"NAME": "W7N/EL-095", "TITLE": "8190", "REGION": "NV-Eureka-Lander", "ASSOCIATION": "USA - Nevada", "POINTS": "6", "BONUSPOINTS": "3"}}, {"type": "Feature", "geometry": {"type": "Point", "coordinates": [-116.5673, 40.1194]}, "properties": {"NAME": "W7N/EL-096", "TITLE": "8184", "REGION": "NV-Eureka-Lander", "ASSOCIATION": "USA - Nevada", "POINTS": "6", "BONUSPOINTS": "3"}}, {"type": "Feature", "geometry": {"type": "Point", "coordinates": [-116.4703, 39.942]}, "properties": {"NAME": "W7N/EL-097", "TITLE": "8166", "REGION": "NV-Eureka-Lander", "ASSOCIATION": "USA - Nevada", "POINTS": "6", "BONUSPOINTS": "3"}}, {"type": "Feature", "geometry": {"type": "Point", "coordinates": [-116.092, 39.6277]}, "properties": {"NAME": "W7N/EL-098", "TITLE": "Whistler Mountain", "REGION": "NV-Eureka-Lander", "ASSOCIATION": "USA - Nevada", "POINTS": "6", "BONUSPOINTS": "3"}}, {"type": "Feature", "geometry": {"type": "Point", "coordinates": [-116.0673, 40.0374]}, "properties": {"NAME": "W7N/EL-099", "TITLE": "8146", "REGION": "NV-Eureka-Lander", "ASSOCIATION": "USA - Nevada", "POINTS": "6", "BONUSPOINTS": "3"}}, {"type": "Feature", "geometry": {"type": "Point", "coordinates": [-117.3719, 39.2685]}, "properties": {"NAME": "W7N/EL-100", "TITLE": "8137", "REGION": "NV-Eureka-Lander", "ASSOCIATION": "USA - Nevada", "POINTS": "6", "BONUSPOINTS": "3"}}, {"type": "Feature", "geometry": {"type": "Point", "coordinates": [-117.1779, 39.8134]}, "properties": {"NAME": "W7N/EL-101", "TITLE": "Ravenswood Peak", "REGION": "NV-Eureka-Lander", "ASSOCIATION": "USA - Nevada", "POINTS": "6", "BONUSPOINTS": "3"}}, {"type": "Feature", "geometry": {"type": "Point", "coordinates": [-116.9917, 39.5814]}, "properties": {"NAME": "W7N/EL-102", "TITLE": "8107", "REGION": "NV-Eureka-Lander", "ASSOCIATION": "USA - Nevada", "POINTS": "6", "BONUSPOINTS": "3"}}, {"type": "Feature", "geometry": {"type": "Point", "coordinates": [-116.5183, 39.2849]}, "properties": {"NAME": "W7N/EL-103", "TITLE": "8088", "REGION": "NV-Eureka-Lander", "ASSOCIATION": "USA - Nevada", "POINTS": "6", "BONUSPOINTS": "3"}}, {"type": "Feature", "geometry": {"type": "Point", "coordinates": [-117.3908, 39.3128]}, "properties": {"NAME": "W7N/EL-104", "TITLE": "8072", "REGION": "NV-Eureka-Lander", "ASSOCIATION": "USA - Nevada", "POINTS": "6", "BONUSPOINTS": "3"}}, {"type": "Feature", "geometry": {"type": "Point", "coordinates": [-117.0451, 39.4961]}, "properties": {"NAME": "W7N/EL-105", "TITLE": "Prometheus, Mount", "REGION": "NV-Eureka-Lander", "ASSOCIATION": "USA - Nevada", "POINTS": "6", "BONUSPOINTS": "3"}}, {"type": "Feature", "geometry": {"type": "Point", "coordinates": [-116.7527, 40.3736]}, "properties": {"NAME": "W7N/EL-106", "TITLE": "8055", "REGION": "NV-Eureka-Lander", "ASSOCIATION": "USA - Nevada", "POINTS": "6", "BONUSPOINTS": "3"}}, {"type": "Feature", "geometry": {"type": "Point", "coordinates": [-117.6693, 39.2569]}, "properties": {"NAME": "W7N/EL-107", "TITLE": "8045", "REGION": "NV-Eureka-Lander", "ASSOCIATION": "USA - Nevada", "POINTS": "6", "BONUSPOINTS": "3"}}, {"type": "Feature", "geometry": {"type": "Point", "coordinates": [-117.032, 39.6149]}, "properties": {"NAME": "W7N/EL-108", "TITLE": "8030", "REGION": "NV-Eureka-Lander", "ASSOCIATION": "USA - Nevada", "POINTS": "6", "BONUSPOINTS": "3"}}, {"type": "Feature", "geometry": {"type": "Point", "coordinates": [-117.1349, 40.6209]}, "properties": {"NAME": "W7N/EL-109", "TITLE": "8014", "REGION": "NV-Eureka-Lander", "ASSOCIATION": "USA - Nevada", "POINTS": "6", "BONUSPOINTS": "3"}}, {"type": "Feature", "geometry": {"type": "Point", "coordinates": [-116.2867, 40.3588]}, "properties": {"NAME": "W7N/EL-110", "TITLE": "7993", "REGION": "NV-Eureka-Lander", "ASSOCIATION": "USA - Nevada", "POINTS": "6", "BONUSPOINTS": "3"}}, {"type": "Feature", "geometry": {"type": "Point", "coordinates": [-116.8674, 40.0704]}, "properties": {"NAME": "W7N/EL-111", "TITLE": "Red Mountain", "REGION": "NV-Eureka-Lander", "ASSOCIATION": "USA - Nevada", "POINTS": "6", "BONUSPOINTS": "3"}}, {"type": "Feature", "geometry": {"type": "Point", "coordinates": [-117.4036, 39.4425]}, "properties": {"NAME": "W7N/EL-112", "TITLE": "Dee Benchmark", "REGION": "NV-Eureka-Lander", "ASSOCIATION": "USA - Nevada", "POINTS": "6", "BONUSPOINTS": "3"}}, {"type": "Feature", "geometry": {"type": "Point", "coordinates": [-116.733, 40.414]}, "properties": {"NAME": "W7N/EL-113", "TITLE": "Bald Mountain", "REGION": "NV-Eureka-Lander", "ASSOCIATION": "USA - Nevada", "POINTS": "6", "BONUSPOINTS": "3"}}, {"type": "Feature", "geometry": {"type": "Point", "coordinates": [-116.2366, 39.9156]}, "properties": {"NAME": "W7N/EL-114", "TITLE": "7941", "REGION": "NV-Eureka-Lander", "ASSOCIATION": "USA - Nevada", "POINTS": "6", "BONUSPOINTS": "3"}}, {"type": "Feature", "geometry": {"type": "Point", "coordinates": [-116.8624, 39.8648]}, "properties": {"NAME": "W7N/EL-115", "TITLE": "7940", "REGION": "NV-Eureka-Lander", "ASSOCIATION": "USA - Nevada", "POINTS": "6", "BONUSPOINTS": "3"}}, {"type": "Feature", "geometry": {"type": "Point", "coordinates": [-116.2595, 39.599]}, "properties": {"NAME": "W7N/EL-116", "TITLE": "Lone Mountain", "REGION": "NV-Eureka-Lander", "ASSOCIATION": "USA - Nevada", "POINTS": "6", "BONUSPOINTS": "3"}}, {"type": "Feature", "geometry": {"type": "Point", "coordinates": [-115.8439, 39.7604]}, "properties": {"NAME": "W7N/EL-117", "TITLE": "7931", "REGION": "NV-Eureka-Lander", "ASSOCIATION": "USA - Nevada", "POINTS": "6", "BONUSPOINTS": "3"}}, {"type": "Feature", "geometry": {"type": "Point", "coordinates": [-116.5604, 40.201]}, "properties": {"NAME": "W7N/EL-118", "TITLE": "7924", "REGION": "NV-Eureka-Lander", "ASSOCIATION": "USA - Nevada", "POINTS": "6", "BONUSPOINTS": "3"}}, {"type": "Feature", "geometry": {"type": "Point", "coordinates": [-116.9704, 40.1833]}, "properties": {"NAME": "W7N/EL-119", "TITLE": "Cone Benchmark", "REGION": "NV-Eureka-Lander", "ASSOCIATION": "USA - Nevada", "POINTS": "6", "BONUSPOINTS": "3"}}, {"type": "Feature", "geometry": {"type": "Point", "coordinates": [-117.0056, 39.7878]}, "properties": {"NAME": "W7N/EL-120", "TITLE": "Joe Eason Mountain", "REGION": "NV-Eureka-Lander", "ASSOCIATION": "USA - Nevada", "POINTS": "6", "BONUSPOINTS": "3"}}, {"type": "Feature", "geometry": {"type": "Point", "coordinates": [-116.2142, 39.9124]}, "properties": {"NAME": "W7N/EL-121", "TITLE": "Henderson Benchmark", "REGION": "NV-Eureka-Lander", "ASSOCIATION": "USA - Nevada", "POINTS": "6", "BONUSPOINTS": "3"}}, {"type": "Feature", "geometry": {"type": "Point", "coordinates": [-116.9635, 40.2478]}, "properties": {"NAME": "W7N/EL-122", "TITLE": "7865", "REGION": "NV-Eureka-Lander", "ASSOCIATION": "USA - Nevada", "POINTS": "6", "BONUSPOINTS": "3"}}, {"type": "Feature", "geometry": {"type": "Point", "coordinates": [-116.3939, 40.2359]}, "properties": {"NAME": "W7N/EL-123", "TITLE": "Brock Benchmark", "REGION": "NV-Eureka-Lander", "ASSOCIATION": "USA - Nevada", "POINTS": "6", "BONUSPOINTS": "3"}}, {"type": "Feature", "geometry": {"type": "Point", "coordinates": [-117.262, 39.6841]}, "properties": {"NAME": "W7N/EL-124", "TITLE": "7850", "REGION": "NV-Eureka-Lander", "ASSOCIATION": "USA - Nevada", "POINTS": "6", "BONUSPOINTS": "3"}}, {"type": "Feature", "geometry": {"type": "Point", "coordinates": [-117.3929, 39.4048]}, "properties": {"NAME": "W7N/EL-125", "TITLE": "Emigrant Peak", "REGION": "NV-Eureka-Lander", "ASSOCIATION": "USA - Nevada", "POINTS": "6", "BONUSPOINTS": "3"}}, {"type": "Feature", "geometry": {"type": "Point", "coordinates": [-116.0524, 40.1209]}, "properties": {"NAME": "W7N/EL-126", "TITLE": "7844", "REGION": "NV-Eureka-Lander", "ASSOCIATION": "USA - Nevada", "POINTS": "6", "BONUSPOINTS": "3"}}, {"type": "Feature", "geometry": {"type": "Point", "coordinates": [-116.7853, 40.4218]}, "properties": {"NAME": "W7N/EL-127", "TITLE": "7824", "REGION": "NV-Eureka-Lander", "ASSOCIATION": "USA - Nevada", "POINTS": "6", "BONUSPOINTS": "3"}}, {"type": "Feature", "geometry": {"type": "Point", "coordinates": [-117.3721, 40.1876]}, "properties": {"NAME": "W7N/EL-128", "TITLE": "7820", "REGION": "NV-Eureka-Lander", "ASSOCIATION": "USA - Nevada", "POINTS": "6", "BONUSPOINTS": "3"}}, {"type": "Feature", "geometry": {"type": "Point", "coordinates": [-117.4, 39.3336]}, "properties": {"NAME": "W7N/EL-129", "TITLE": "Iron Mountain", "REGION": "NV-Eureka-Lander", "ASSOCIATION": "USA - Nevada", "POINTS": "6", "BONUSPOINTS": "3"}}, {"type": "Feature", "geometry": {"type": "Point", "coordinates": [-116.9166, 40.3065]}, "properties": {"NAME": "W7N/EL-130", "TITLE": "7765", "REGION": "NV-Eureka-Lander", "ASSOCIATION": "USA - Nevada", "POINTS": "6", "BONUSPOINTS": "3"}}, {"type": "Feature", "geometry": {"type": "Point", "coordinates": [-116.6779, 40.1011]}, "properties": {"NAME": "W7N/EL-131", "TITLE": "Caetano, Mount", "REGION": "NV-Eureka-Lander", "ASSOCIATION": "USA - Nevada", "POINTS": "6", "BONUSPOINTS": "3"}}, {"type": "Feature", "geometry": {"type": "Point", "coordinates": [-116.0905, 39.2196]}, "properties": {"NAME": "W7N/EL-132", "TITLE": "Fish Benchmark", "REGION": "NV-Eureka-Lander", "ASSOCIATION": "USA - Nevada", "POINTS": "6", "BONUSPOINTS": "3"}}, {"type": "Feature", "geometry": {"type": "Point", "coordinates": [-116.2631, 40.7356]}, "properties": {"NAME": "W7N/EL-133", "TITLE": "Marys Mountain", "REGION": "NV-Eureka-Lander", "ASSOCIATION": "USA - Nevada", "POINTS": "6", "BONUSPOINTS": "3"}}, {"type": "Feature", "geometry": {"type": "Point", "coordinates": [-116.131, 39.9239]}, "properties": {"NAME": "W7N/EL-134", "TITLE": "7685", "REGION": "NV-Eureka-Lander", "ASSOCIATION": "USA - Nevada", "POINTS": "6", "BONUSPOINTS": "3"}}, {"type": "Feature", "geometry": {"type": "Point", "coordinates": [-116.1321, 39.8523]}, "properties": {"NAME": "W7N/EL-135", "TITLE": "Charcoal Benchmark", "REGION": "NV-Eureka-Lander", "ASSOCIATION": "USA - Nevada", "POINTS": "6", "BONUSPOINTS": "3"}}, {"type": "Feature", "geometry": {"type": "Point", "coordinates": [-116.1881, 39.4701]}, "properties": {"NAME": "W7N/EL-136", "TITLE": "7664", "REGION": "NV-Eureka-Lander", "ASSOCIATION": "USA - Nevada", "POINTS": "6", "BONUSPOINTS": "3"}}, {"type": "Feature", "geometry": {"type": "Point", "coordinates": [-116.2973, 39.9394]}, "properties": {"NAME": "W7N/EL-137", "TITLE": "7625", "REGION": "NV-Eureka-Lander", "ASSOCIATION": "USA - Nevada", "POINTS": "6", "BONUSPOINTS": "3"}}, {"type": "Feature", "geometry": {"type": "Point", "coordinates": [-117.3772, 39.5223]}, "properties": {"NAME": "W7N/EL-138", "TITLE": "Airy, Mount", "REGION": "NV-Eureka-Lander", "ASSOCIATION": "USA - Nevada", "POINTS": "6", "BONUSPOINTS": "3"}}, {"type": "Feature", "geometry": {"type": "Point", "coordinates": [-117.3677, 39.2197]}, "properties": {"NAME": "W7N/EL-139", "TITLE": "7587", "REGION": "NV-Eureka-Lander", "ASSOCIATION": "USA - Nevada", "POINTS": "6", "BONUSPOINTS": "3"}}, {"type": "Feature", "geometry": {"type": "Point", "coordinates": [-116.708, 40.4646]}, "properties": {"NAME": "W7N/EL-140", "TITLE": "7580", "REGION": "NV-Eureka-Lander", "ASSOCIATION": "USA - Nevada", "POINTS": "6", "BONUSPOINTS": "3"}}, {"type": "Feature", "geometry": {"type": "Point", "coordinates": [-116.9893, 39.8044]}, "properties": {"NAME": "W7N/EL-141", "TITLE": "7555", "REGION": "NV-Eureka-Lander", "ASSOCIATION": "USA - Nevada", "POINTS": "6", "BONUSPOINTS": "3"}}, {"type": "Feature", "geometry": {"type": "Point", "coordinates": [-115.9366, 39.3959]}, "properties": {"NAME": "W7N/EL-142", "TITLE": "Carbon Ridge", "REGION": "NV-Eureka-Lander", "ASSOCIATION": "USA - Nevada", "POINTS": "6", "BONUSPOINTS": "3"}}, {"type": "Feature", "geometry": {"type": "Point", "coordinates": [-116.8391, 39.9453]}, "properties": {"NAME": "W7N/EL-143", "TITLE": "Ox Benchmark", "REGION": "NV-Eureka-Lander", "ASSOCIATION": "USA - Nevada", "POINTS": "6", "BONUSPOINTS": "3"}}, {"type": "Feature", "geometry": {"type": "Point", "coordinates": [-116.1125, 39.1982]}, "properties": {"NAME": "W7N/EL-144", "TITLE": "Bisoni Ridge", "REGION": "NV-Eureka-Lander", "ASSOCIATION": "USA - Nevada", "POINTS": "6", "BONUSPOINTS": "3"}}, {"type": "Feature", "geometry": {"type": "Point", "coordinates": [-116.7413, 39.3323]}, "properties": {"NAME": "W7N/EL-145", "TITLE": "Camel Benchmark", "REGION": "NV-Eureka-Lander", "ASSOCIATION": "USA - Nevada", "POINTS": "6", "BONUSPOINTS": "3"}}, {"type": "Feature", "geometry": {"type": "Point", "coordinates": [-116.941, 39.5161]}, "properties": {"NAME": "W7N/EL-146", "TITLE": "7508", "REGION": "NV-Eureka-Lander", "ASSOCIATION": "USA - Nevada", "POINTS": "6", "BONUSPOINTS": "3"}}, {"type": "Feature", "geometry": {"type": "Point", "coordinates": [-116.2767, 39.7626]}, "properties": {"NAME": "W7N/EL-147", "TITLE": "Seventyfive Benchmark", "REGION": "NV-Eureka-Lander", "ASSOCIATION": "USA - Nevada", "POINTS": "6", "BONUSPOINTS": "3"}}, {"type": "Feature", "geometry": {"type": "Point", "coordinates": [-116.6518, 40.1354]}, "properties": {"NAME": "W7N/EL-148", "TITLE": "7500", "REGION": "NV-Eureka-Lander", "ASSOCIATION": "USA - Nevada", "POINTS": "6", "BONUSPOINTS": "3"}}, {"type": "Feature", "geometry": {"type": "Point", "coordinates": [-116.6997, 40.0018]}, "properties": {"NAME": "W7N/EL-149", "TITLE": "Hot Springs Point", "REGION": "NV-Eureka-Lander", "ASSOCIATION": "USA - Nevada", "POINTS": "6", "BONUSPOINTS": "3"}}, {"type": "Feature", "geometry": {"type": "Point", "coordinates": [-116.6468, 39.4075]}, "properties": {"NAME": "W7N/EL-150", "TITLE": "Grimes Hills", "REGION": "NV-Eureka-Lander", "ASSOCIATION": "USA - Nevada", "POINTS": "4", "BONUSPOINTS": "3"}}, {"type": "Feature", "geometry": {"type": "Point", "coordinates": [-116.8485, 39.9098]}, "properties": {"NAME": "W7N/EL-151", "TITLE": "7475", "REGION": "NV-Eureka-Lander", "ASSOCIATION": "USA - Nevada", "POINTS": "4", "BONUSPOINTS": "3"}}, {"type": "Feature", "geometry": {"type": "Point", "coordinates": [-116.2924, 40.7414]}, "properties": {"NAME": "W7N/EL-152", "TITLE": "Carlin Peaks", "REGION": "NV-Eureka-Lander", "ASSOCIATION": "USA - Nevada", "POINTS": "4", "BONUSPOINTS": "3"}}, {"type": "Feature", "geometry": {"type": "Point", "coordinates": [-116.1087, 39.8446]}, "properties": {"NAME": "W7N/EL-153", "TITLE": "7450", "REGION": "NV-Eureka-Lander", "ASSOCIATION": "USA - Nevada", "POINTS": "4", "BONUSPOINTS": "3"}}, {"type": "Feature", "geometry": {"type": "Point", "coordinates": [-117.3484, 39.2467]}, "properties": {"NAME": "W7N/EL-154", "TITLE": "7448", "REGION": "NV-Eureka-Lander", "ASSOCIATION": "USA - Nevada", "POINTS": "4", "BONUSPOINTS": "3"}}, {"type": "Feature", "geometry": {"type": "Point", "coordinates": [-116.6797, 40.6335]}, "properties": {"NAME": "W7N/EL-155", "TITLE": "Argenta Rim West", "REGION": "NV-Eureka-Lander", "ASSOCIATION": "USA - Nevada", "POINTS": "4", "BONUSPOINTS": "3"}}, {"type": "Feature", "geometry": {"type": "Point", "coordinates": [-116.2548, 40.393]}, "properties": {"NAME": "W7N/EL-156", "TITLE": "7420", "REGION": "NV-Eureka-Lander", "ASSOCIATION": "USA - Nevada", "POINTS": "4", "BONUSPOINTS": "3"}}, {"type": "Feature", "geometry": {"type": "Point", "coordinates": [-116.8593, 39.7434]}, "properties": {"NAME": "W7N/EL-157", "TITLE": "7411", "REGION": "NV-Eureka-Lander", "ASSOCIATION": "USA - Nevada", "POINTS": "4", "BONUSPOINTS": "3"}}, {"type": "Feature", "geometry": {"type": "Point", "coordinates": [-117.3139, 40.1542]}, "properties": {"NAME": "W7N/EL-158", "TITLE": "7405", "REGION": "NV-Eureka-Lander", "ASSOCIATION": "USA - Nevada", "POINTS": "4", "BONUSPOINTS": "3"}}, {"type": "Feature", "geometry": {"type": "Point", "coordinates": [-116.3133, 40.7488]}, "properties": {"NAME": "W7N/EL-159", "TITLE": "7397", "REGION": "NV-Eureka-Lander", "ASSOCIATION": "USA - Nevada", "POINTS": "4", "BONUSPOINTS": "3"}}, {"type": "Feature", "geometry": {"type": "Point", "coordinates": [-116.1104, 39.8861]}, "properties": {"NAME": "W7N/EL-160", "TITLE": "7384", "REGION": "NV-Eureka-Lander", "ASSOCIATION": "USA - Nevada", "POINTS": "4", "BONUSPOINTS": "3"}}, {"type": "Feature", "geometry": {"type": "Point", "coordinates": [-116.7231, 40.0885]}, "properties": {"NAME": "W7N/EL-161", "TITLE": "7347", "REGION": "NV-Eureka-Lander", "ASSOCIATION": "USA - Nevada", "POINTS": "4", "BONUSPOINTS": "3"}}, {"type": "Feature", "geometry": {"type": "Point", "coordinates": [-117.3942, 39.497]}, "properties": {"NAME": "W7N/EL-162", "TITLE": "7332", "REGION": "NV-Eureka-Lander", "ASSOCIATION": "USA - Nevada", "POINTS": "4", "BONUSPOINTS": "3"}}, {"type": "Feature", "geometry": {"type": "Point", "coordinates": [-117.44, 40.1983]}, "properties": {"NAME": "W7N/EL-163", "TITLE": "7300", "REGION": "NV-Eureka-Lander", "ASSOCIATION": "USA - Nevada", "POINTS": "4", "BONUSPOINTS": "3"}}, {"type": "Feature", "geometry": {"type": "Point", "coordinates": [-116.3093, 40.9426]}, "properties": {"NAME": "W7N/EL-164", "TITLE": "7290", "REGION": "NV-Eureka-Lander", "ASSOCIATION": "USA - Nevada", "POINTS": "4", "BONUSPOINTS": "3"}}, {"type": "Feature", "geometry": {"type": "Point", "coordinates": [-116.8611, 40.7596]}, "properties": {"NAME": "W7N/EL-165", "TITLE": "Sheep Creek Range HP", "REGION": "NV-Eureka-Lander", "ASSOCIATION": "USA - Nevada", "POINTS": "4", "BONUSPOINTS": "3"}}, {"type": "Feature", "geometry": {"type": "Point", "coordinates": [-117.252, 39.7671]}, "properties": {"NAME": "W7N/EL-166", "TITLE": "Raven Benchmark", "REGION": "NV-Eureka-Lander", "ASSOCIATION": "USA - Nevada", "POINTS": "4", "BONUSPOINTS": "3"}}, {"type": "Feature", "geometry": {"type": "Point", "coordinates": [-116.3161, 40.884]}, "properties": {"NAME": "W7N/EL-167", "TITLE": "Richmond Mountain", "REGION": "NV-Eureka-Lander", "ASSOCIATION": "USA - Nevada", "POINTS": "4", "BONUSPOINTS": "3"}}, {"type": "Feature", "geometry": {"type": "Point", "coordinates": [-116.3219, 40.7107]}, "properties": {"NAME": "W7N/EL-168", "TITLE": "7193", "REGION": "NV-Eureka-Lander", "ASSOCIATION": "USA - Nevada", "POINTS": "4", "BONUSPOINTS": "3"}}, {"type": "Feature", "geometry": {"type": "Point", "coordinates": [-117.032, 40.2168]}, "properties": {"NAME": "W7N/EL-169", "TITLE": "7140", "REGION": "NV-Eureka-Lander", "ASSOCIATION": "USA - Nevada", "POINTS": "4", "BONUSPOINTS": "3"}}, {"type": "Feature", "geometry": {"type": "Point", "coordinates": [-117.0321, 40.1845]}, "properties": {"NAME": "W7N/EL-170", "TITLE": "7140", "REGION": "NV-Eureka-Lander", "ASSOCIATION": "USA - Nevada", "POINTS": "4", "BONUSPOINTS": "3"}}, {"type": "Feature", "geometry": {"type": "Point", "coordinates": [-116.2117, 40.5064]}, "properties": {"NAME": "W7N/EL-171", "TITLE": "7111", "REGION": "NV-Eureka-Lander", "ASSOCIATION": "USA - Nevada", "POINTS": "4", "BONUSPOINTS": "3"}}, {"type": "Feature", "geometry": {"type": "Point", "coordinates": [-116.2974, 40.6918]}, "properties": {"NAME": "W7N/EL-172", "TITLE": "7108", "REGION": "NV-Eureka-Lander", "ASSOCIATION": "USA - Nevada", "POINTS": "4", "BONUSPOINTS": "3"}}, {"type": "Feature", "geometry": {"type": "Point", "coordinates": [-117.0794, 40.0159]}, "properties": {"NAME": "W7N/EL-173", "TITLE": "7100", "REGION": "NV-Eureka-Lander", "ASSOCIATION": "USA - Nevada", "POINTS": "4", "BONUSPOINTS": "3"}}, {"type": "Feature", "geometry": {"type": "Point", "coordinates": [-116.7254, 39.4367]}, "properties": {"NAME": "W7N/EL-174", "TITLE": "Hickison Benchmark", "REGION": "NV-Eureka-Lander", "ASSOCIATION": "USA - Nevada", "POINTS": "4", "BONUSPOINTS": "3"}}, {"type": "Feature", "geometry": {"type": "Point", "coordinates": [-117.4057, 39.371]}, "properties": {"NAME": "W7N/EL-175", "TITLE": "7082", "REGION": "NV-Eureka-Lander", "ASSOCIATION": "USA - Nevada", "POINTS": "4", "BONUSPOINTS": "3"}}, {"type": "Feature", "geometry": {"type": "Point", "coordinates": [-116.7154, 40.6266]}, "properties": {"NAME": "W7N/EL-176", "TITLE": "Argenta Butte", "REGION": "NV-Eureka-Lander", "ASSOCIATION": "USA - Nevada", "POINTS": "4", "BONUSPOINTS": "3"}}, {"type": "Feature", "geometry": {"type": "Point", "coordinates": [-116.7634, 39.6596]}, "properties": {"NAME": "W7N/EL-177", "TITLE": "7046", "REGION": "NV-Eureka-Lander", "ASSOCIATION": "USA - Nevada", "POINTS": "4", "BONUSPOINTS": "3"}}, {"type": "Feature", "geometry": {"type": "Point", "coordinates": [-117.1248, 40.5473]}, "properties": {"NAME": "W7N/EL-178", "TITLE": "6998", "REGION": "NV-Eureka-Lander", "ASSOCIATION": "USA - Nevada", "POINTS": "4", "BONUSPOINTS": "3"}}, {"type": "Feature", "geometry": {"type": "Point", "coordinates": [-116.6399, 40.9116]}, "properties": {"NAME": "W7N/EL-179", "TITLE": "Black Mountain", "REGION": "NV-Eureka-Lander", "ASSOCIATION": "USA - Nevada", "POINTS": "4", "BONUSPOINTS": "3"}}, {"type": "Feature", "geometry": {"type": "Point", "coordinates": [-116.8299, 40.4819]}, "properties": {"NAME": "W7N/EL-180", "TITLE": "6977", "REGION": "NV-Eureka-Lander", "ASSOCIATION": "USA - Nevada", "POINTS": "4", "BONUSPOINTS": "3"}}, {"type": "Feature", "geometry": {"type": "Point", "coordinates": [-117.2527, 40.2905]}, "properties": {"NAME": "W7N/EL-181", "TITLE": "6967", "REGION": "NV-Eureka-Lander", "ASSOCIATION": "USA - Nevada", "POINTS": "4", "BONUSPOINTS": "3"}}, {"type": "Feature", "geometry": {"type": "Point", "coordinates": [-116.7974, 40.4678]}, "properties": {"NAME": "W7N/EL-182", "TITLE": "6964", "REGION": "NV-Eureka-Lander", "ASSOCIATION": "USA - Nevada", "POINTS": "4", "BONUSPOINTS": "3"}}, {"type": "Feature", "geometry": {"type": "Point", "coordinates": [-117.452, 40.1723]}, "properties": {"NAME": "W7N/EL-183", "TITLE": "6942", "REGION": "NV-Eureka-Lander", "ASSOCIATION": "USA - Nevada", "POINTS": "4", "BONUSPOINTS": "3"}}, {"type": "Feature", "geometry": {"type": "Point", "coordinates": [-116.9686, 40.1267]}, "properties": {"NAME": "W7N/EL-184", "TITLE": "6914", "REGION": "NV-Eureka-Lander", "ASSOCIATION": "USA - Nevada", "POINTS": "4", "BONUSPOINTS": "3"}}, {"type": "Feature", "geometry": {"type": "Point", "coordinates": [-116.8473, 40.2494]}, "properties": {"NAME": "W7N/EL-185", "TITLE": "6910", "REGION": "NV-Eureka-Lander", "ASSOCIATION": "USA - Nevada", "POINTS": "4", "BONUSPOINTS": "3"}}, {"type": "Feature", "geometry": {"type": "Point", "coordinates": [-116.8435, 40.0111]}, "properties": {"NAME": "W7N/EL-186", "TITLE": "6898", "REGION": "NV-Eureka-Lander", "ASSOCIATION": "USA - Nevada", "POINTS": "4", "BONUSPOINTS": "3"}}, {"type": "Feature", "geometry": {"type": "Point", "coordinates": [-116.1349, 40.1137]}, "properties": {"NAME": "W7N/EL-187", "TITLE": "Table Mountain", "REGION": "NV-Eureka-Lander", "ASSOCIATION": "USA - Nevada", "POINTS": "4", "BONUSPOINTS": "3"}}, {"type": "Feature", "geometry": {"type": "Point", "coordinates": [-116.8971, 40.9683]}, "properties": {"NAME": "W7N/EL-188", "TITLE": "Roosters Comb", "REGION": "NV-Eureka-Lander", "ASSOCIATION": "USA - Nevada", "POINTS": "4", "BONUSPOINTS": "3"}}, {"type": "Feature", "geometry": {"type": "Point", "coordinates": [-115.8764, 40.0592]}, "properties": {"NAME": "W7N/EL-189", "TITLE": "6830", "REGION": "NV-Eureka-Lander", "ASSOCIATION": "USA - Nevada", "POINTS": "4", "BONUSPOINTS": "3"}}, {"type": "Feature", "geometry": {"type": "Point", "coordinates": [-117.0202, 40.252]}, "properties": {"NAME": "W7N/EL-190", "TITLE": "Notch Benchmark", "REGION": "NV-Eureka-Lander", "ASSOCIATION": "USA - Nevada", "POINTS": "4", "BONUSPOINTS": "3"}}, {"type": "Feature", "geometry": {"type": "Point", "coordinates": [-116.6618, 40.1567]}, "properties": {"NAME": "W7N/EL-191", "TITLE": "6700", "REGION": "NV-Eureka-Lander", "ASSOCIATION": "USA - Nevada", "POINTS": "4", "BONUSPOINTS": "3"}}, {"type": "Feature", "geometry": {"type": "Point", "coordinates": [-116.2424, 40.5388]}, "properties": {"NAME": "W7N/EL-192", "TITLE": "Iron Blossom Mountain", "REGION": "NV-Eureka-Lander", "ASSOCIATION": "USA - Nevada", "POINTS": "4", "BONUSPOINTS": "3"}}, {"type": "Feature", "geometry": {"type": "Point", "coordinates": [-116.3363, 40.4882]}, "properties": {"NAME": "W7N/EL-193", "TITLE": "Dry Hills", "REGION": "NV-Eureka-Lander", "ASSOCIATION": "USA - Nevada", "POINTS": "4", "BONUSPOINTS": "3"}}, {"type": "Feature", "geometry": {"type": "Point", "coordinates": [-116.7007, 40.1223]}, "properties": {"NAME": "W7N/EL-194", "TITLE": "6660", "REGION": "NV-Eureka-Lander", "ASSOCIATION": "USA - Nevada", "POINTS": "4", "BONUSPOINTS": "3"}}, {"type": "Feature", "geometry": {"type": "Point", "coordinates": [-116.8747, 40.9811]}, "properties": {"NAME": "W7N/EL-195", "TITLE": "6641", "REGION": "NV-Eureka-Lander", "ASSOCIATION": "USA - Nevada", "POINTS": "4", "BONUSPOINTS": "3"}}, {"type": "Feature", "geometry": {"type": "Point", "coordinates": [-116.6021, 40.6576]}, "properties": {"NAME": "W7N/EL-196", "TITLE": "Argenta Rim East", "REGION": "NV-Eureka-Lander", "ASSOCIATION": "USA - Nevada", "POINTS": "4", "BONUSPOINTS": "3"}}, {"type": "Feature", "geometry": {"type": "Point", "coordinates": [-117.2544, 39.9212]}, "properties": {"NAME": "W7N/EL-197", "TITLE": "6579", "REGION": "NV-Eureka-Lander", "ASSOCIATION": "USA - Nevada", "POINTS": "4", "BONUSPOINTS": "3"}}, {"type": "Feature", "geometry": {"type": "Point", "coordinates": [-116.6956, 40.7964]}, "properties": {"NAME": "W7N/EL-198", "TITLE": "6534", "REGION": "NV-Eureka-Lander", "ASSOCIATION": "USA - Nevada", "POINTS": "4", "BONUSPOINTS": "3"}}, {"type": "Feature", "geometry": {"type": "Point", "coordinates": [-117.1795, 39.5599]}, "properties": {"NAME": "W7N/EL-199", "TITLE": "Vigus Butte", "REGION": "NV-Eureka-Lander", "ASSOCIATION": "USA - Nevada", "POINTS": "4", "BONUSPOINTS": "3"}}, {"type": "Feature", "geometry": {"type": "Point", "coordinates": [-116.3609, 40.94]}, "properties": {"NAME": "W7N/EL-200", "TITLE": "6417", "REGION": "NV-Eureka-Lander", "ASSOCIATION": "USA - Nevada", "POINTS": "2", "BONUSPOINTS": "0"}}, {"type": "Feature", "geometry": {"type": "Point", "coordinates": [-116.1855, 40.8366]}, "properties": {"NAME": "W7N/EL-201", "TITLE": "Maggie Peak", "REGION": "NV-Eureka-Lander", "ASSOCIATION": "USA - Nevada", "POINTS": "2", "BONUSPOINTS": "0"}}, {"type": "Feature", "geometry": {"type": "Point", "coordinates": [-116.829, 40.9273]}, "properties": {"NAME": "W7N/EL-202", "TITLE": "6266", "REGION": "NV-Eureka-Lander", "ASSOCIATION": "USA - Nevada", "POINTS": "2", "BONUSPOINTS": "0"}}, {"type": "Feature", "geometry": {"type": "Point", "coordinates": [-116.8121, 40.9674]}, "properties": {"NAME": "W7N/EL-203", "TITLE": "6230", "REGION": "NV-Eureka-Lander", "ASSOCIATION": "USA - Nevada", "POINTS": "2", "BONUSPOINTS": "0"}}, {"type": "Feature", "geometry": {"type": "Point", "coordinates": [-116.3924, 40.456]}, "properties": {"NAME": "W7N/EL-204", "TITLE": "6163", "REGION": "NV-Eureka-Lander", "ASSOCIATION": "USA - Nevada", "POINTS": "2", "BONUSPOINTS": "0"}}, {"type": "Feature", "geometry": {"type": "Point", "coordinates": [-116.522, 40.9089]}, "properties": {"NAME": "W7N/EL-205", "TITLE": "6096", "REGION": "NV-Eureka-Lander", "ASSOCIATION": "USA - Nevada", "POINTS": "2", "BONUSPOINTS": "0"}}, {"type": "Feature", "geometry": {"type": "Point", "coordinates": [-116.416, 40.4518]}, "properties": {"NAME": "W7N/EL-206", "TITLE": "6081", "REGION": "NV-Eureka-Lander", "ASSOCIATION": "USA - Nevada", "POINTS": "2", "BONUSPOINTS": "0"}}, {"type": "Feature", "geometry": {"type": "Point", "coordinates": [-117.4999, 40.067]}, "properties": {"NAME": "W7N/EL-207", "TITLE": "6060", "REGION": "NV-Eureka-Lander", "ASSOCIATION": "USA - Nevada", "POINTS": "2", "BONUSPOINTS": "0"}}, {"type": "Feature", "geometry": {"type": "Point", "coordinates": [-116.7357, 40.1523]}, "properties": {"NAME": "W7N/EL-208", "TITLE": "6020", "REGION": "NV-Eureka-Lander", "ASSOCIATION": "USA - Nevada", "POINTS": "2", "BONUSPOINTS": "0"}}, {"type": "Feature", "geometry": {"type": "Point", "coordinates": [-116.5462, 40.5584]}, "properties": {"NAME": "W7N/EL-209", "TITLE": "5930", "REGION": "NV-Eureka-Lander", "ASSOCIATION": "USA - Nevada", "POINTS": "2", "BONUSPOINTS": "0"}}, {"type": "Feature", "geometry": {"type": "Point", "coordinates": [-117.2964, 39.9761]}, "properties": {"NAME": "W7N/EL-210", "TITLE": "Red Butte", "REGION": "NV-Eureka-Lander", "ASSOCIATION": "USA - Nevada", "POINTS": "2", "BONUSPOINTS": "0"}}, {"type": "Feature", "geometry": {"type": "Point", "coordinates": [-117.2437, 40.3817]}, "properties": {"NAME": "W7N/EL-211", "TITLE": "5910", "REGION": "NV-Eureka-Lander", "ASSOCIATION": "USA - Nevada", "POINTS": "2", "BONUSPOINTS": "0"}}, {"type": "Feature", "geometry": {"type": "Point", "coordinates": [-117.1455, 39.3035]}, "properties": {"NAME": "W7N/EL-212", "TITLE": "Big Creek Peak", "REGION": "NV-Eureka-Lander", "ASSOCIATION": "USA - Nevada", "POINTS": "10", "BONUSPOINTS": "3"}}, {"type": "Feature", "geometry": {"type": "Point", "coordinates": [-117.1383, 39.1922]}, "properties": {"NAME": "W7N/EL-213", "TITLE": "9513", "REGION": "NV-Eureka-Lander", "ASSOCIATION": "USA - Nevada", "POINTS": "10", "BONUSPOINTS": "3"}}, {"type": "Feature", "geometry": {"type": "Point", "coordinates": [-116.964, 40.2406]}, "properties": {"NAME": "W7N/EL-214", "TITLE": "7880", "REGION": "NV-Eureka-Lander", "ASSOCIATION": "USA - Nevada", "POINTS": "6", "BONUSPOINTS": "3"}}, {"type": "Feature", "geometry": {"type": "Point", "coordinates": [-116.2703, 40.7185]}, "properties": {"NAME": "W7N/EL-215", "TITLE": "Marys Mountain, South", "REGION": "NV-Eureka-Lander", "ASSOCIATION": "USA - Nevada", "POINTS": "6", "BONUSPOINTS": "3"}}, {"type": "Feature", "geometry": {"type": "Point", "coordinates": [-116.7235, 40.3085]}, "properties": {"NAME": "W7N/EL-216", "TITLE": "6513", "REGION": "NV-Eureka-Lander", "ASSOCIATION": "USA - Nevada", "POINTS": "4", "BONUSPOINTS": "3"}}]}