{"type": "FeatureCollection", "name": "W7N/ES SUMMITS", "features": [{"type": "Feature", "geometry": {"type": "Point", "coordinates": [-115.4754, 40.6217]}, "properties": {"NAME": "W7N/ES-001", "TITLE": "Ruby Dome", "REGION": "NV-Elko South", "ASSOCIATION": "USA - Nevada", "POINTS": "10", "BONUSPOINTS": "3"}}, {"type": "Feature", "geometry": {"type": "Point", "coordinates": [-115.3928, 40.6221]}, "properties": {"NAME": "W7N/ES-002", "TITLE": "11340", "REGION": "NV-Elko South", "ASSOCIATION": "USA - Nevada", "POINTS": "10", "BONUSPOINTS": "3"}}, {"type": "Feature", "geometry": {"type": "Point", "coordinates": [-115.1223, 40.9507]}, "properties": {"NAME": "W7N/ES-003", "TITLE": "Hole in the Mountain Peak", "REGION": "NV-Elko South", "ASSOCIATION": "USA - Nevada", "POINTS": "10", "BONUSPOINTS": "3"}}, {"type": "Feature", "geometry": {"type": "Point", "coordinates": [-115.4103, 40.6038]}, "properties": {"NAME": "W7N/ES-004", "TITLE": "Fitzgerald, Mount", "REGION": "NV-Elko South", "ASSOCIATION": "USA - Nevada", "POINTS": "10", "BONUSPOINTS": "3"}}, {"type": "Feature", "geometry": {"type": "Point", "coordinates": [-115.1248, 40.9242]}, "properties": {"NAME": "W7N/ES-005", "TITLE": "11140", "REGION": "NV-Elko South", "ASSOCIATION": "USA - Nevada", "POINTS": "10", "BONUSPOINTS": "3"}}, {"type": "Feature", "geometry": {"type": "Point", "coordinates": [-115.446, 40.6243]}, "properties": {"NAME": "W7N/ES-006", "TITLE": "Gilbert, Mount", "REGION": "NV-Elko South", "ASSOCIATION": "USA - Nevada", "POINTS": "10", "BONUSPOINTS": "3"}}, {"type": "Feature", "geometry": {"type": "Point", "coordinates": [-115.349, 40.6632]}, "properties": {"NAME": "W7N/ES-007", "TITLE": "Mount Talbot", "REGION": "NV-Elko South", "ASSOCIATION": "USA - Nevada", "POINTS": "10", "BONUSPOINTS": "3"}}, {"type": "Feature", "geometry": {"type": "Point", "coordinates": [-115.3575, 40.6454]}, "properties": {"NAME": "W7N/ES-008", "TITLE": "Verdi Peak", "REGION": "NV-Elko South", "ASSOCIATION": "USA - Nevada", "POINTS": "10", "BONUSPOINTS": "3"}}, {"type": "Feature", "geometry": {"type": "Point", "coordinates": [-115.4706, 40.4778]}, "properties": {"NAME": "W7N/ES-009", "TITLE": "King Peak", "REGION": "NV-Elko South", "ASSOCIATION": "USA - Nevada", "POINTS": "10", "BONUSPOINTS": "3"}}, {"type": "Feature", "geometry": {"type": "Point", "coordinates": [-115.4001, 40.5865]}, "properties": {"NAME": "W7N/ES-010", "TITLE": "Liberty Peak", "REGION": "NV-Elko South", "ASSOCIATION": "USA - Nevada", "POINTS": "10", "BONUSPOINTS": "3"}}, {"type": "Feature", "geometry": {"type": "Point", "coordinates": [-115.1199, 40.9012]}, "properties": {"NAME": "W7N/ES-011", "TITLE": "Humboldt Peak", "REGION": "NV-Elko South", "ASSOCIATION": "USA - Nevada", "POINTS": "10", "BONUSPOINTS": "3"}}, {"type": "Feature", "geometry": {"type": "Point", "coordinates": [-115.4792, 40.423]}, "properties": {"NAME": "W7N/ES-012", "TITLE": "Tipton Peak", "REGION": "NV-Elko South", "ASSOCIATION": "USA - Nevada", "POINTS": "10", "BONUSPOINTS": "3"}}, {"type": "Feature", "geometry": {"type": "Point", "coordinates": [-115.4078, 40.55]}, "properties": {"NAME": "W7N/ES-013", "TITLE": "Wines Peak", "REGION": "NV-Elko South", "ASSOCIATION": "USA - Nevada", "POINTS": "10", "BONUSPOINTS": "3"}}, {"type": "Feature", "geometry": {"type": "Point", "coordinates": [-115.395, 40.5636]}, "properties": {"NAME": "W7N/ES-014", "TITLE": "Lake Peak", "REGION": "NV-Elko South", "ASSOCIATION": "USA - Nevada", "POINTS": "10", "BONUSPOINTS": "3"}}, {"type": "Feature", "geometry": {"type": "Point", "coordinates": [-115.4904, 40.4038]}, "properties": {"NAME": "W7N/ES-015", "TITLE": "10891", "REGION": "NV-Elko South", "ASSOCIATION": "USA - Nevada", "POINTS": "10", "BONUSPOINTS": "3"}}, {"type": "Feature", "geometry": {"type": "Point", "coordinates": [-115.5407, 40.2352]}, "properties": {"NAME": "W7N/ES-016", "TITLE": "Pearl Peak", "REGION": "NV-Elko South", "ASSOCIATION": "USA - Nevada", "POINTS": "10", "BONUSPOINTS": "3"}}, {"type": "Feature", "geometry": {"type": "Point", "coordinates": [-115.4176, 40.6234]}, "properties": {"NAME": "W7N/ES-017", "TITLE": "10835", "REGION": "NV-Elko South", "ASSOCIATION": "USA - Nevada", "POINTS": "10", "BONUSPOINTS": "3"}}, {"type": "Feature", "geometry": {"type": "Point", "coordinates": [-115.2996, 40.7105]}, "properties": {"NAME": "W7N/ES-018", "TITLE": "Green Benchmark", "REGION": "NV-Elko South", "ASSOCIATION": "USA - Nevada", "POINTS": "10", "BONUSPOINTS": "3"}}, {"type": "Feature", "geometry": {"type": "Point", "coordinates": [-115.449, 40.6072]}, "properties": {"NAME": "W7N/ES-019", "TITLE": "10820", "REGION": "NV-Elko South", "ASSOCIATION": "USA - Nevada", "POINTS": "10", "BONUSPOINTS": "3"}}, {"type": "Feature", "geometry": {"type": "Point", "coordinates": [-115.1073, 40.9888]}, "properties": {"NAME": "W7N/ES-020", "TITLE": "10745", "REGION": "NV-Elko South", "ASSOCIATION": "USA - Nevada", "POINTS": "10", "BONUSPOINTS": "3"}}, {"type": "Feature", "geometry": {"type": "Point", "coordinates": [-115.1331, 40.8905]}, "properties": {"NAME": "W7N/ES-021", "TITLE": "10601", "REGION": "NV-Elko South", "ASSOCIATION": "USA - Nevada", "POINTS": "10", "BONUSPOINTS": "3"}}, {"type": "Feature", "geometry": {"type": "Point", "coordinates": [-115.4103, 40.6631]}, "properties": {"NAME": "W7N/ES-022", "TITLE": "10529", "REGION": "NV-Elko South", "ASSOCIATION": "USA - Nevada", "POINTS": "10", "BONUSPOINTS": "3"}}, {"type": "Feature", "geometry": {"type": "Point", "coordinates": [-115.1521, 40.9317]}, "properties": {"NAME": "W7N/ES-023", "TITLE": "10505", "REGION": "NV-Elko South", "ASSOCIATION": "USA - Nevada", "POINTS": "10", "BONUSPOINTS": "3"}}, {"type": "Feature", "geometry": {"type": "Point", "coordinates": [-115.1461, 40.8865]}, "properties": {"NAME": "W7N/ES-024", "TITLE": "10292", "REGION": "NV-Elko South", "ASSOCIATION": "USA - Nevada", "POINTS": "10", "BONUSPOINTS": "3"}}, {"type": "Feature", "geometry": {"type": "Point", "coordinates": [-114.8218, 40.552]}, "properties": {"NAME": "W7N/ES-025", "TITLE": "Spruce Mountain", "REGION": "NV-Elko South", "ASSOCIATION": "USA - Nevada", "POINTS": "10", "BONUSPOINTS": "3"}}, {"type": "Feature", "geometry": {"type": "Point", "coordinates": [-115.5625, 40.1736]}, "properties": {"NAME": "W7N/ES-026", "TITLE": "10155", "REGION": "NV-Elko South", "ASSOCIATION": "USA - Nevada", "POINTS": "10", "BONUSPOINTS": "3"}}, {"type": "Feature", "geometry": {"type": "Point", "coordinates": [-115.4371, 40.588]}, "properties": {"NAME": "W7N/ES-027", "TITLE": "10095", "REGION": "NV-Elko South", "ASSOCIATION": "USA - Nevada", "POINTS": "10", "BONUSPOINTS": "3"}}, {"type": "Feature", "geometry": {"type": "Point", "coordinates": [-115.2755, 40.7758]}, "properties": {"NAME": "W7N/ES-028", "TITLE": "Soldier Peak", "REGION": "NV-Elko South", "ASSOCIATION": "USA - Nevada", "POINTS": "10", "BONUSPOINTS": "3"}}, {"type": "Feature", "geometry": {"type": "Point", "coordinates": [-115.2542, 40.7516]}, "properties": {"NAME": "W7N/ES-029", "TITLE": "9850", "REGION": "NV-Elko South", "ASSOCIATION": "USA - Nevada", "POINTS": "10", "BONUSPOINTS": "3"}}, {"type": "Feature", "geometry": {"type": "Point", "coordinates": [-115.5723, 40.1392]}, "properties": {"NAME": "W7N/ES-030", "TITLE": "9835", "REGION": "NV-Elko South", "ASSOCIATION": "USA - Nevada", "POINTS": "10", "BONUSPOINTS": "3"}}, {"type": "Feature", "geometry": {"type": "Point", "coordinates": [-114.9097, 40.1957]}, "properties": {"NAME": "W7N/ES-031", "TITLE": "High Peak", "REGION": "NV-Elko South", "ASSOCIATION": "USA - Nevada", "POINTS": "10", "BONUSPOINTS": "3"}}, {"type": "Feature", "geometry": {"type": "Point", "coordinates": [-114.2956, 40.4994]}, "properties": {"NAME": "W7N/ES-032", "TITLE": "Goshute Peak", "REGION": "NV-Elko South", "ASSOCIATION": "USA - Nevada", "POINTS": "10", "BONUSPOINTS": "3"}}, {"type": "Feature", "geometry": {"type": "Point", "coordinates": [-114.9269, 40.2161]}, "properties": {"NAME": "W7N/ES-033", "TITLE": "Taylor, Mount", "REGION": "NV-Elko South", "ASSOCIATION": "USA - Nevada", "POINTS": "8", "BONUSPOINTS": "3"}}, {"type": "Feature", "geometry": {"type": "Point", "coordinates": [-114.5895, 40.9241]}, "properties": {"NAME": "W7N/ES-034", "TITLE": "South Pequop Benchmark", "REGION": "NV-Elko South", "ASSOCIATION": "USA - Nevada", "POINTS": "8", "BONUSPOINTS": "3"}}, {"type": "Feature", "geometry": {"type": "Point", "coordinates": [-115.1394, 40.2444]}, "properties": {"NAME": "W7N/ES-035", "TITLE": "High Bald Peaks North", "REGION": "NV-Elko South", "ASSOCIATION": "USA - Nevada", "POINTS": "8", "BONUSPOINTS": "3"}}, {"type": "Feature", "geometry": {"type": "Point", "coordinates": [-114.914, 40.2673]}, "properties": {"NAME": "W7N/ES-036", "TITLE": "9232", "REGION": "NV-Elko South", "ASSOCIATION": "USA - Nevada", "POINTS": "8", "BONUSPOINTS": "3"}}, {"type": "Feature", "geometry": {"type": "Point", "coordinates": [-114.8059, 40.5725]}, "properties": {"NAME": "W7N/ES-037", "TITLE": "9226", "REGION": "NV-Elko South", "ASSOCIATION": "USA - Nevada", "POINTS": "8", "BONUSPOINTS": "3"}}, {"type": "Feature", "geometry": {"type": "Point", "coordinates": [-114.8813, 40.2455]}, "properties": {"NAME": "W7N/ES-038", "TITLE": "9215", "REGION": "NV-Elko South", "ASSOCIATION": "USA - Nevada", "POINTS": "8", "BONUSPOINTS": "3"}}, {"type": "Feature", "geometry": {"type": "Point", "coordinates": [-114.2973, 40.548]}, "properties": {"NAME": "W7N/ES-039", "TITLE": "9174", "REGION": "NV-Elko South", "ASSOCIATION": "USA - Nevada", "POINTS": "8", "BONUSPOINTS": "3"}}, {"type": "Feature", "geometry": {"type": "Point", "coordinates": [-115.259, 40.8226]}, "properties": {"NAME": "W7N/ES-040", "TITLE": "Secret Peak", "REGION": "NV-Elko South", "ASSOCIATION": "USA - Nevada", "POINTS": "8", "BONUSPOINTS": "3"}}, {"type": "Feature", "geometry": {"type": "Point", "coordinates": [-114.2709, 40.4241]}, "properties": {"NAME": "W7N/ES-041", "TITLE": "Pisgah, Mount", "REGION": "NV-Elko South", "ASSOCIATION": "USA - Nevada", "POINTS": "8", "BONUSPOINTS": "3"}}, {"type": "Feature", "geometry": {"type": "Point", "coordinates": [-114.6106, 40.6656]}, "properties": {"NAME": "W7N/ES-042", "TITLE": "Flowery Benchmark", "REGION": "NV-Elko South", "ASSOCIATION": "USA - Nevada", "POINTS": "8", "BONUSPOINTS": "3"}}, {"type": "Feature", "geometry": {"type": "Point", "coordinates": [-114.8409, 40.5911]}, "properties": {"NAME": "W7N/ES-043", "TITLE": "Spruce Mountain Ridge", "REGION": "NV-Elko South", "ASSOCIATION": "USA - Nevada", "POINTS": "8", "BONUSPOINTS": "3"}}, {"type": "Feature", "geometry": {"type": "Point", "coordinates": [-114.31, 40.5738]}, "properties": {"NAME": "W7N/ES-044", "TITLE": "8842", "REGION": "NV-Elko South", "ASSOCIATION": "USA - Nevada", "POINTS": "8", "BONUSPOINTS": "3"}}, {"type": "Feature", "geometry": {"type": "Point", "coordinates": [-114.8263, 40.1577]}, "properties": {"NAME": "W7N/ES-045", "TITLE": "8792", "REGION": "NV-Elko South", "ASSOCIATION": "USA - Nevada", "POINTS": "8", "BONUSPOINTS": "3"}}, {"type": "Feature", "geometry": {"type": "Point", "coordinates": [-115.9883, 40.4097]}, "properties": {"NAME": "W7N/ES-046", "TITLE": "PiÃ±on Range HP", "REGION": "NV-Elko South", "ASSOCIATION": "USA - Nevada", "POINTS": "8", "BONUSPOINTS": "3"}}, {"type": "Feature", "geometry": {"type": "Point", "coordinates": [-116.0107, 40.5112]}, "properties": {"NAME": "W7N/ES-047", "TITLE": "Bunker Hill", "REGION": "NV-Elko South", "ASSOCIATION": "USA - Nevada", "POINTS": "8", "BONUSPOINTS": "3"}}, {"type": "Feature", "geometry": {"type": "Point", "coordinates": [-114.2893, 40.6599]}, "properties": {"NAME": "W7N/ES-048", "TITLE": "Toano 2 Benchmark", "REGION": "NV-Elko South", "ASSOCIATION": "USA - Nevada", "POINTS": "8", "BONUSPOINTS": "3"}}, {"type": "Feature", "geometry": {"type": "Point", "coordinates": [-115.2265, 40.8933]}, "properties": {"NAME": "W7N/ES-049", "TITLE": "8595", "REGION": "NV-Elko South", "ASSOCIATION": "USA - Nevada", "POINTS": "8", "BONUSPOINTS": "3"}}, {"type": "Feature", "geometry": {"type": "Point", "coordinates": [-114.5616, 40.3226]}, "properties": {"NAME": "W7N/ES-050", "TITLE": "Dolly Varden Mountains HP", "REGION": "NV-Elko South", "ASSOCIATION": "USA - Nevada", "POINTS": "8", "BONUSPOINTS": "3"}}, {"type": "Feature", "geometry": {"type": "Point", "coordinates": [-114.6249, 40.6205]}, "properties": {"NAME": "W7N/ES-051", "TITLE": "8580", "REGION": "NV-Elko South", "ASSOCIATION": "USA - Nevada", "POINTS": "8", "BONUSPOINTS": "3"}}, {"type": "Feature", "geometry": {"type": "Point", "coordinates": [-114.5844, 40.8796]}, "properties": {"NAME": "W7N/ES-052", "TITLE": "8576", "REGION": "NV-Elko South", "ASSOCIATION": "USA - Nevada", "POINTS": "8", "BONUSPOINTS": "3"}}, {"type": "Feature", "geometry": {"type": "Point", "coordinates": [-115.4806, 40.351]}, "properties": {"NAME": "W7N/ES-053", "TITLE": "8508", "REGION": "NV-Elko South", "ASSOCIATION": "USA - Nevada", "POINTS": "8", "BONUSPOINTS": "3"}}, {"type": "Feature", "geometry": {"type": "Point", "coordinates": [-115.5759, 40.3939]}, "properties": {"NAME": "W7N/ES-054", "TITLE": "8460", "REGION": "NV-Elko South", "ASSOCIATION": "USA - Nevada", "POINTS": "6", "BONUSPOINTS": "3"}}, {"type": "Feature", "geometry": {"type": "Point", "coordinates": [-114.2906, 40.6805]}, "properties": {"NAME": "W7N/ES-055", "TITLE": "8425", "REGION": "NV-Elko South", "ASSOCIATION": "USA - Nevada", "POINTS": "6", "BONUSPOINTS": "3"}}, {"type": "Feature", "geometry": {"type": "Point", "coordinates": [-114.5553, 40.3489]}, "properties": {"NAME": "W7N/ES-056", "TITLE": "Sharp Peak", "REGION": "NV-Elko South", "ASSOCIATION": "USA - Nevada", "POINTS": "6", "BONUSPOINTS": "3"}}, {"type": "Feature", "geometry": {"type": "Point", "coordinates": [-114.3319, 40.507]}, "properties": {"NAME": "W7N/ES-057", "TITLE": "Black Point", "REGION": "NV-Elko South", "ASSOCIATION": "USA - Nevada", "POINTS": "6", "BONUSPOINTS": "3"}}, {"type": "Feature", "geometry": {"type": "Point", "coordinates": [-114.2945, 40.7159]}, "properties": {"NAME": "W7N/ES-058", "TITLE": "8380", "REGION": "NV-Elko South", "ASSOCIATION": "USA - Nevada", "POINTS": "6", "BONUSPOINTS": "3"}}, {"type": "Feature", "geometry": {"type": "Point", "coordinates": [-115.099, 40.7559]}, "properties": {"NAME": "W7N/ES-059", "TITLE": "8338", "REGION": "NV-Elko South", "ASSOCIATION": "USA - Nevada", "POINTS": "6", "BONUSPOINTS": "3"}}, {"type": "Feature", "geometry": {"type": "Point", "coordinates": [-115.9499, 40.2733]}, "properties": {"NAME": "W7N/ES-060", "TITLE": "Bailey Mountain", "REGION": "NV-Elko South", "ASSOCIATION": "USA - Nevada", "POINTS": "6", "BONUSPOINTS": "3"}}, {"type": "Feature", "geometry": {"type": "Point", "coordinates": [-115.9873, 40.3362]}, "properties": {"NAME": "W7N/ES-061", "TITLE": "8301", "REGION": "NV-Elko South", "ASSOCIATION": "USA - Nevada", "POINTS": "6", "BONUSPOINTS": "3"}}, {"type": "Feature", "geometry": {"type": "Point", "coordinates": [-114.7633, 40.5392]}, "properties": {"NAME": "W7N/ES-062", "TITLE": "8301", "REGION": "NV-Elko South", "ASSOCIATION": "USA - Nevada", "POINTS": "6", "BONUSPOINTS": "3"}}, {"type": "Feature", "geometry": {"type": "Point", "coordinates": [-115.3623, 40.1757]}, "properties": {"NAME": "W7N/ES-063", "TITLE": "8291", "REGION": "NV-Elko South", "ASSOCIATION": "USA - Nevada", "POINTS": "6", "BONUSPOINTS": "3"}}, {"type": "Feature", "geometry": {"type": "Point", "coordinates": [-116.0606, 40.5294]}, "properties": {"NAME": "W7N/ES-064", "TITLE": "Pine Mountain", "REGION": "NV-Elko South", "ASSOCIATION": "USA - Nevada", "POINTS": "6", "BONUSPOINTS": "3"}}, {"type": "Feature", "geometry": {"type": "Point", "coordinates": [-114.7132, 40.5082]}, "properties": {"NAME": "W7N/ES-065", "TITLE": "Hart Benchmark", "REGION": "NV-Elko South", "ASSOCIATION": "USA - Nevada", "POINTS": "6", "BONUSPOINTS": "3"}}, {"type": "Feature", "geometry": {"type": "Point", "coordinates": [-114.7275, 40.5205]}, "properties": {"NAME": "W7N/ES-066", "TITLE": "8186", "REGION": "NV-Elko South", "ASSOCIATION": "USA - Nevada", "POINTS": "6", "BONUSPOINTS": "3"}}, {"type": "Feature", "geometry": {"type": "Point", "coordinates": [-116.0049, 40.2724]}, "properties": {"NAME": "W7N/ES-067", "TITLE": "Coffin Mountain", "REGION": "NV-Elko South", "ASSOCIATION": "USA - Nevada", "POINTS": "6", "BONUSPOINTS": "3"}}, {"type": "Feature", "geometry": {"type": "Point", "coordinates": [-114.545, 40.3077]}, "properties": {"NAME": "W7N/ES-068", "TITLE": "Bald Peak", "REGION": "NV-Elko South", "ASSOCIATION": "USA - Nevada", "POINTS": "6", "BONUSPOINTS": "3"}}, {"type": "Feature", "geometry": {"type": "Point", "coordinates": [-115.9343, 40.3879]}, "properties": {"NAME": "W7N/ES-069", "TITLE": "Robinson Mountain", "REGION": "NV-Elko South", "ASSOCIATION": "USA - Nevada", "POINTS": "6", "BONUSPOINTS": "3"}}, {"type": "Feature", "geometry": {"type": "Point", "coordinates": [-114.2693, 40.292]}, "properties": {"NAME": "W7N/ES-070", "TITLE": "White Horse Mountain", "REGION": "NV-Elko South", "ASSOCIATION": "USA - Nevada", "POINTS": "6", "BONUSPOINTS": "3"}}, {"type": "Feature", "geometry": {"type": "Point", "coordinates": [-116.052, 40.9362]}, "properties": {"NAME": "W7N/ES-071", "TITLE": "Swales Mountain", "REGION": "NV-Elko South", "ASSOCIATION": "USA - Nevada", "POINTS": "6", "BONUSPOINTS": "3"}}, {"type": "Feature", "geometry": {"type": "Point", "coordinates": [-114.3094, 40.9766]}, "properties": {"NAME": "W7N/ES-072", "TITLE": "8037", "REGION": "NV-Elko South", "ASSOCIATION": "USA - Nevada", "POINTS": "6", "BONUSPOINTS": "3"}}, {"type": "Feature", "geometry": {"type": "Point", "coordinates": [-114.2503, 40.3074]}, "properties": {"NAME": "W7N/ES-073", "TITLE": "Sugar Loaf Peak", "REGION": "NV-Elko South", "ASSOCIATION": "USA - Nevada", "POINTS": "6", "BONUSPOINTS": "3"}}, {"type": "Feature", "geometry": {"type": "Point", "coordinates": [-115.9953, 40.2946]}, "properties": {"NAME": "W7N/ES-074", "TITLE": "8020", "REGION": "NV-Elko South", "ASSOCIATION": "USA - Nevada", "POINTS": "6", "BONUSPOINTS": "3"}}, {"type": "Feature", "geometry": {"type": "Point", "coordinates": [-114.2808, 40.8139]}, "properties": {"NAME": "W7N/ES-075", "TITLE": "8003", "REGION": "NV-Elko South", "ASSOCIATION": "USA - Nevada", "POINTS": "6", "BONUSPOINTS": "3"}}, {"type": "Feature", "geometry": {"type": "Point", "coordinates": [-115.0871, 40.1731]}, "properties": {"NAME": "W7N/ES-076", "TITLE": "7998", "REGION": "NV-Elko South", "ASSOCIATION": "USA - Nevada", "POINTS": "6", "BONUSPOINTS": "3"}}, {"type": "Feature", "geometry": {"type": "Point", "coordinates": [-115.9807, 40.4387]}, "properties": {"NAME": "W7N/ES-077", "TITLE": "Dix Benchmark", "REGION": "NV-Elko South", "ASSOCIATION": "USA - Nevada", "POINTS": "6", "BONUSPOINTS": "3"}}, {"type": "Feature", "geometry": {"type": "Point", "coordinates": [-116.0126, 40.1905]}, "properties": {"NAME": "W7N/ES-078", "TITLE": "Union Mountain", "REGION": "NV-Elko South", "ASSOCIATION": "USA - Nevada", "POINTS": "6", "BONUSPOINTS": "3"}}, {"type": "Feature", "geometry": {"type": "Point", "coordinates": [-114.8973, 40.3178]}, "properties": {"NAME": "W7N/ES-079", "TITLE": "7926", "REGION": "NV-Elko South", "ASSOCIATION": "USA - Nevada", "POINTS": "6", "BONUSPOINTS": "3"}}, {"type": "Feature", "geometry": {"type": "Point", "coordinates": [-115.2269, 40.8773]}, "properties": {"NAME": "W7N/ES-080", "TITLE": "7893", "REGION": "NV-Elko South", "ASSOCIATION": "USA - Nevada", "POINTS": "6", "BONUSPOINTS": "3"}}, {"type": "Feature", "geometry": {"type": "Point", "coordinates": [-114.3533, 40.1337]}, "properties": {"NAME": "W7N/ES-081", "TITLE": "Kinsley Mountains HP", "REGION": "NV-Elko South", "ASSOCIATION": "USA - Nevada", "POINTS": "6", "BONUSPOINTS": "3"}}, {"type": "Feature", "geometry": {"type": "Point", "coordinates": [-115.5431, 40.3574]}, "properties": {"NAME": "W7N/ES-082", "TITLE": "7860", "REGION": "NV-Elko South", "ASSOCIATION": "USA - Nevada", "POINTS": "6", "BONUSPOINTS": "3"}}, {"type": "Feature", "geometry": {"type": "Point", "coordinates": [-116.0796, 40.9741]}, "properties": {"NAME": "W7N/ES-083", "TITLE": "Fish Creek Mountain", "REGION": "NV-Elko South", "ASSOCIATION": "USA - Nevada", "POINTS": "6", "BONUSPOINTS": "3"}}, {"type": "Feature", "geometry": {"type": "Point", "coordinates": [-115.9831, 40.3684]}, "properties": {"NAME": "W7N/ES-084", "TITLE": "7824", "REGION": "NV-Elko South", "ASSOCIATION": "USA - Nevada", "POINTS": "6", "BONUSPOINTS": "3"}}, {"type": "Feature", "geometry": {"type": "Point", "coordinates": [-114.5975, 40.7952]}, "properties": {"NAME": "W7N/ES-085", "TITLE": "7746", "REGION": "NV-Elko South", "ASSOCIATION": "USA - Nevada", "POINTS": "6", "BONUSPOINTS": "3"}}, {"type": "Feature", "geometry": {"type": "Point", "coordinates": [-114.3133, 40.9947]}, "properties": {"NAME": "W7N/ES-086", "TITLE": "7735", "REGION": "NV-Elko South", "ASSOCIATION": "USA - Nevada", "POINTS": "6", "BONUSPOINTS": "3"}}, {"type": "Feature", "geometry": {"type": "Point", "coordinates": [-114.1992, 40.4546]}, "properties": {"NAME": "W7N/ES-087", "TITLE": "Ferguson Mountain", "REGION": "NV-Elko South", "ASSOCIATION": "USA - Nevada", "POINTS": "6", "BONUSPOINTS": "3"}}, {"type": "Feature", "geometry": {"type": "Point", "coordinates": [-115.9989, 40.3542]}, "properties": {"NAME": "W7N/ES-088", "TITLE": "7673", "REGION": "NV-Elko South", "ASSOCIATION": "USA - Nevada", "POINTS": "6", "BONUSPOINTS": "3"}}, {"type": "Feature", "geometry": {"type": "Point", "coordinates": [-115.0183, 40.3609]}, "properties": {"NAME": "W7N/ES-089", "TITLE": "West Buttes South", "REGION": "NV-Elko South", "ASSOCIATION": "USA - Nevada", "POINTS": "6", "BONUSPOINTS": "3"}}, {"type": "Feature", "geometry": {"type": "Point", "coordinates": [-114.2939, 40.8728]}, "properties": {"NAME": "W7N/ES-090", "TITLE": "Proctor Benchmark", "REGION": "NV-Elko South", "ASSOCIATION": "USA - Nevada", "POINTS": "6", "BONUSPOINTS": "3"}}, {"type": "Feature", "geometry": {"type": "Point", "coordinates": [-115.8138, 40.9505]}, "properties": {"NAME": "W7N/ES-091", "TITLE": "7536", "REGION": "NV-Elko South", "ASSOCIATION": "USA - Nevada", "POINTS": "6", "BONUSPOINTS": "3"}}, {"type": "Feature", "geometry": {"type": "Point", "coordinates": [-115.7519, 40.9914]}, "properties": {"NAME": "W7N/ES-092", "TITLE": "Sherman Peak", "REGION": "NV-Elko South", "ASSOCIATION": "USA - Nevada", "POINTS": "6", "BONUSPOINTS": "3"}}, {"type": "Feature", "geometry": {"type": "Point", "coordinates": [-115.6301, 40.8943]}, "properties": {"NAME": "W7N/ES-093", "TITLE": "Elko Mountain", "REGION": "NV-Elko South", "ASSOCIATION": "USA - Nevada", "POINTS": "6", "BONUSPOINTS": "3"}}, {"type": "Feature", "geometry": {"type": "Point", "coordinates": [-114.4691, 40.2956]}, "properties": {"NAME": "W7N/ES-094", "TITLE": "7496", "REGION": "NV-Elko South", "ASSOCIATION": "USA - Nevada", "POINTS": "4", "BONUSPOINTS": "3"}}, {"type": "Feature", "geometry": {"type": "Point", "coordinates": [-114.3428, 40.8692]}, "properties": {"NAME": "W7N/ES-095", "TITLE": "7478", "REGION": "NV-Elko South", "ASSOCIATION": "USA - Nevada", "POINTS": "4", "BONUSPOINTS": "3"}}, {"type": "Feature", "geometry": {"type": "Point", "coordinates": [-115.8443, 40.9289]}, "properties": {"NAME": "W7N/ES-096", "TITLE": "East Twin Benchmark", "REGION": "NV-Elko South", "ASSOCIATION": "USA - Nevada", "POINTS": "4", "BONUSPOINTS": "3"}}, {"type": "Feature", "geometry": {"type": "Point", "coordinates": [-115.0221, 40.5518]}, "properties": {"NAME": "W7N/ES-097", "TITLE": "Valley Mountain", "REGION": "NV-Elko South", "ASSOCIATION": "USA - Nevada", "POINTS": "4", "BONUSPOINTS": "3"}}, {"type": "Feature", "geometry": {"type": "Point", "coordinates": [-116.0246, 40.627]}, "properties": {"NAME": "W7N/ES-098", "TITLE": "Carlin Benchmark", "REGION": "NV-Elko South", "ASSOCIATION": "USA - Nevada", "POINTS": "4", "BONUSPOINTS": "3"}}, {"type": "Feature", "geometry": {"type": "Point", "coordinates": [-114.4686, 40.1956]}, "properties": {"NAME": "W7N/ES-099", "TITLE": "7404", "REGION": "NV-Elko South", "ASSOCIATION": "USA - Nevada", "POINTS": "4", "BONUSPOINTS": "3"}}, {"type": "Feature", "geometry": {"type": "Point", "coordinates": [-115.9045, 40.6979]}, "properties": {"NAME": "W7N/ES-100", "TITLE": "Grindstone Mountain", "REGION": "NV-Elko South", "ASSOCIATION": "USA - Nevada", "POINTS": "4", "BONUSPOINTS": "3"}}, {"type": "Feature", "geometry": {"type": "Point", "coordinates": [-115.991, 40.6444]}, "properties": {"NAME": "W7N/ES-101", "TITLE": "Spring Canyon Mountain", "REGION": "NV-Elko South", "ASSOCIATION": "USA - Nevada", "POINTS": "4", "BONUSPOINTS": "3"}}, {"type": "Feature", "geometry": {"type": "Point", "coordinates": [-114.8473, 40.3756]}, "properties": {"NAME": "W7N/ES-102", "TITLE": "Palomino Ridge", "REGION": "NV-Elko South", "ASSOCIATION": "USA - Nevada", "POINTS": "4", "BONUSPOINTS": "3"}}, {"type": "Feature", "geometry": {"type": "Point", "coordinates": [-114.6065, 40.206]}, "properties": {"NAME": "W7N/ES-103", "TITLE": "Currie Hills", "REGION": "NV-Elko South", "ASSOCIATION": "USA - Nevada", "POINTS": "4", "BONUSPOINTS": "3"}}, {"type": "Feature", "geometry": {"type": "Point", "coordinates": [-115.9242, 40.3423]}, "properties": {"NAME": "W7N/ES-104", "TITLE": "7284", "REGION": "NV-Elko South", "ASSOCIATION": "USA - Nevada", "POINTS": "4", "BONUSPOINTS": "3"}}, {"type": "Feature", "geometry": {"type": "Point", "coordinates": [-115.9811, 40.2145]}, "properties": {"NAME": "W7N/ES-105", "TITLE": "Black Mountain", "REGION": "NV-Elko South", "ASSOCIATION": "USA - Nevada", "POINTS": "4", "BONUSPOINTS": "3"}}, {"type": "Feature", "geometry": {"type": "Point", "coordinates": [-114.2311, 40.621]}, "properties": {"NAME": "W7N/ES-106", "TITLE": "7183", "REGION": "NV-Elko South", "ASSOCIATION": "USA - Nevada", "POINTS": "4", "BONUSPOINTS": "3"}}, {"type": "Feature", "geometry": {"type": "Point", "coordinates": [-115.8163, 40.4791]}, "properties": {"NAME": "W7N/ES-107", "TITLE": "Cedar Ridge", "REGION": "NV-Elko South", "ASSOCIATION": "USA - Nevada", "POINTS": "4", "BONUSPOINTS": "3"}}, {"type": "Feature", "geometry": {"type": "Point", "coordinates": [-115.966, 40.6229]}, "properties": {"NAME": "W7N/ES-108", "TITLE": "7153", "REGION": "NV-Elko South", "ASSOCIATION": "USA - Nevada", "POINTS": "4", "BONUSPOINTS": "3"}}, {"type": "Feature", "geometry": {"type": "Point", "coordinates": [-116.0268, 40.9928]}, "properties": {"NAME": "W7N/ES-109", "TITLE": "7152", "REGION": "NV-Elko South", "ASSOCIATION": "USA - Nevada", "POINTS": "4", "BONUSPOINTS": "3"}}, {"type": "Feature", "geometry": {"type": "Point", "coordinates": [-116.001, 40.6001]}, "properties": {"NAME": "W7N/ES-110", "TITLE": "7148", "REGION": "NV-Elko South", "ASSOCIATION": "USA - Nevada", "POINTS": "4", "BONUSPOINTS": "3"}}, {"type": "Feature", "geometry": {"type": "Point", "coordinates": [-115.4123, 40.2043]}, "properties": {"NAME": "W7N/ES-111", "TITLE": "7145", "REGION": "NV-Elko South", "ASSOCIATION": "USA - Nevada", "POINTS": "4", "BONUSPOINTS": "3"}}, {"type": "Feature", "geometry": {"type": "Point", "coordinates": [-115.0068, 40.3982]}, "properties": {"NAME": "W7N/ES-112", "TITLE": "West Buttes North", "REGION": "NV-Elko South", "ASSOCIATION": "USA - Nevada", "POINTS": "4", "BONUSPOINTS": "3"}}, {"type": "Feature", "geometry": {"type": "Point", "coordinates": [-114.6749, 40.4933]}, "properties": {"NAME": "W7N/ES-113", "TITLE": "7135", "REGION": "NV-Elko South", "ASSOCIATION": "USA - Nevada", "POINTS": "4", "BONUSPOINTS": "3"}}, {"type": "Feature", "geometry": {"type": "Point", "coordinates": [-114.2352, 40.2443]}, "properties": {"NAME": "W7N/ES-114", "TITLE": "7070", "REGION": "NV-Elko South", "ASSOCIATION": "USA - Nevada", "POINTS": "4", "BONUSPOINTS": "3"}}, {"type": "Feature", "geometry": {"type": "Point", "coordinates": [-116.0419, 40.3159]}, "properties": {"NAME": "W7N/ES-115", "TITLE": "7067", "REGION": "NV-Elko South", "ASSOCIATION": "USA - Nevada", "POINTS": "4", "BONUSPOINTS": "3"}}, {"type": "Feature", "geometry": {"type": "Point", "coordinates": [-115.9, 40.8796]}, "properties": {"NAME": "W7N/ES-116", "TITLE": "7048", "REGION": "NV-Elko South", "ASSOCIATION": "USA - Nevada", "POINTS": "4", "BONUSPOINTS": "3"}}, {"type": "Feature", "geometry": {"type": "Point", "coordinates": [-115.8889, 40.9464]}, "properties": {"NAME": "W7N/ES-117", "TITLE": "6968", "REGION": "NV-Elko South", "ASSOCIATION": "USA - Nevada", "POINTS": "4", "BONUSPOINTS": "3"}}, {"type": "Feature", "geometry": {"type": "Point", "coordinates": [-115.89, 40.2824]}, "properties": {"NAME": "W7N/ES-118", "TITLE": "6938", "REGION": "NV-Elko South", "ASSOCIATION": "USA - Nevada", "POINTS": "4", "BONUSPOINTS": "3"}}, {"type": "Feature", "geometry": {"type": "Point", "coordinates": [-115.0627, 40.4052]}, "properties": {"NAME": "W7N/ES-119", "TITLE": "Delcer Buttes", "REGION": "NV-Elko South", "ASSOCIATION": "USA - Nevada", "POINTS": "4", "BONUSPOINTS": "3"}}, {"type": "Feature", "geometry": {"type": "Point", "coordinates": [-114.821, 40.7673]}, "properties": {"NAME": "W7N/ES-120", "TITLE": "Ventosa Benchmark", "REGION": "NV-Elko South", "ASSOCIATION": "USA - Nevada", "POINTS": "4", "BONUSPOINTS": "3"}}, {"type": "Feature", "geometry": {"type": "Point", "coordinates": [-115.8476, 40.1695]}, "properties": {"NAME": "W7N/ES-121", "TITLE": "Diamond Hills", "REGION": "NV-Elko South", "ASSOCIATION": "USA - Nevada", "POINTS": "4", "BONUSPOINTS": "3"}}, {"type": "Feature", "geometry": {"type": "Point", "coordinates": [-114.0718, 40.7823]}, "properties": {"NAME": "W7N/ES-122", "TITLE": "Leppy Peak", "REGION": "NV-Elko South", "ASSOCIATION": "USA - Nevada", "POINTS": "4", "BONUSPOINTS": "3"}}, {"type": "Feature", "geometry": {"type": "Point", "coordinates": [-115.7956, 40.1641]}, "properties": {"NAME": "W7N/ES-123", "TITLE": "Juniper Benchmark", "REGION": "NV-Elko South", "ASSOCIATION": "USA - Nevada", "POINTS": "4", "BONUSPOINTS": "3"}}, {"type": "Feature", "geometry": {"type": "Point", "coordinates": [-114.055, 40.2119]}, "properties": {"NAME": "W7N/ES-124", "TITLE": "Ferber Peak", "REGION": "NV-Elko South", "ASSOCIATION": "USA - Nevada", "POINTS": "4", "BONUSPOINTS": "3"}}, {"type": "Feature", "geometry": {"type": "Point", "coordinates": [-116.1271, 40.6334]}, "properties": {"NAME": "W7N/ES-125", "TITLE": "6481", "REGION": "NV-Elko South", "ASSOCIATION": "USA - Nevada", "POINTS": "2", "BONUSPOINTS": "0"}}, {"type": "Feature", "geometry": {"type": "Point", "coordinates": [-115.7453, 40.7776]}, "properties": {"NAME": "W7N/ES-126", "TITLE": "6470", "REGION": "NV-Elko South", "ASSOCIATION": "USA - Nevada", "POINTS": "2", "BONUSPOINTS": "0"}}, {"type": "Feature", "geometry": {"type": "Point", "coordinates": [-115.7, 40.8128]}, "properties": {"NAME": "W7N/ES-127", "TITLE": "6465", "REGION": "NV-Elko South", "ASSOCIATION": "USA - Nevada", "POINTS": "2", "BONUSPOINTS": "0"}}, {"type": "Feature", "geometry": {"type": "Point", "coordinates": [-114.0438, 40.7728]}, "properties": {"NAME": "W7N/ES-128", "TITLE": "6265", "REGION": "NV-Elko South", "ASSOCIATION": "USA - Nevada", "POINTS": "2", "BONUSPOINTS": "0"}}, {"type": "Feature", "geometry": {"type": "Point", "coordinates": [-114.1853, 40.5226]}, "properties": {"NAME": "W7N/ES-129", "TITLE": "Wildcat Peak", "REGION": "NV-Elko South", "ASSOCIATION": "USA - Nevada", "POINTS": "2", "BONUSPOINTS": "0"}}, {"type": "Feature", "geometry": {"type": "Point", "coordinates": [-114.0662, 40.4691]}, "properties": {"NAME": "W7N/ES-130", "TITLE": "Ferguson Benchmark", "REGION": "NV-Elko South", "ASSOCIATION": "USA - Nevada", "POINTS": "2", "BONUSPOINTS": "0"}}, {"type": "Feature", "geometry": {"type": "Point", "coordinates": [-114.1053, 40.639]}, "properties": {"NAME": "W7N/ES-131", "TITLE": "5248", "REGION": "NV-Elko South", "ASSOCIATION": "USA - Nevada", "POINTS": "2", "BONUSPOINTS": "0"}}, {"type": "Feature", "geometry": {"type": "Point", "coordinates": [-115.3338, 40.6604]}, "properties": {"NAME": "W7N/ES-132", "TITLE": "Smith Peak", "REGION": "NV-Elko South", "ASSOCIATION": "USA - Nevada", "POINTS": "10", "BONUSPOINTS": "3"}}, {"type": "Feature", "geometry": {"type": "Point", "coordinates": [-115.3242, 40.6004]}, "properties": {"NAME": "W7N/ES-133", "TITLE": "8319", "REGION": "NV-Elko South", "ASSOCIATION": "USA - Nevada", "POINTS": "6", "BONUSPOINTS": "3"}}, {"type": "Feature", "geometry": {"type": "Point", "coordinates": [-114.495, 40.2847]}, "properties": {"NAME": "W7N/ES-134", "TITLE": "7431", "REGION": "NV-Elko South", "ASSOCIATION": "USA - Nevada", "POINTS": "4", "BONUSPOINTS": "3"}}, {"type": "Feature", "geometry": {"type": "Point", "coordinates": [-114.4906, 40.129]}, "properties": {"NAME": "W7N/ES-135", "TITLE": "Boone Spring Hills", "REGION": "NV-Elko South", "ASSOCIATION": "USA - Nevada", "POINTS": "4", "BONUSPOINTS": "3"}}]}