{"type": "FeatureCollection", "name": "W7N/NS SUMMITS", "features": [{"type": "Feature", "geometry": {"type": "Point", "coordinates": [-115.7085, 38.1223]}, "properties": {"NAME": "W7N/NS-001", "TITLE": "Quinn Canyon Range HP", "REGION": "NV-Nye South", "ASSOCIATION": "USA - Nevada", "POINTS": "10", "BONUSPOINTS": "3"}}, {"type": "Feature", "geometry": {"type": "Point", "coordinates": [-115.7389, 38.0793]}, "properties": {"NAME": "W7N/NS-002", "TITLE": "Sage Mountain", "REGION": "NV-Nye South", "ASSOCIATION": "USA - Nevada", "POINTS": "10", "BONUSPOINTS": "3"}}, {"type": "Feature", "geometry": {"type": "Point", "coordinates": [-115.6839, 38.152]}, "properties": {"NAME": "W7N/NS-003", "TITLE": "Troy Mountain", "REGION": "NV-Nye South", "ASSOCIATION": "USA - Nevada", "POINTS": "10", "BONUSPOINTS": "3"}}, {"type": "Feature", "geometry": {"type": "Point", "coordinates": [-115.67, 38.2086]}, "properties": {"NAME": "W7N/NS-004", "TITLE": "9860", "REGION": "NV-Nye South", "ASSOCIATION": "USA - Nevada", "POINTS": "10", "BONUSPOINTS": "3"}}, {"type": "Feature", "geometry": {"type": "Point", "coordinates": [-116.4617, 37.9617]}, "properties": {"NAME": "W7N/NS-005", "TITLE": "Kawich Peak", "REGION": "NV-Nye South", "ASSOCIATION": "USA - Nevada", "POINTS": "8", "BONUSPOINTS": "3"}}, {"type": "Feature", "geometry": {"type": "Point", "coordinates": [-116.446, 38.0066]}, "properties": {"NAME": "W7N/NS-006", "TITLE": "9325", "REGION": "NV-Nye South", "ASSOCIATION": "USA - Nevada", "POINTS": "8", "BONUSPOINTS": "3"}}, {"type": "Feature", "geometry": {"type": "Point", "coordinates": [-116.4299, 38.0244]}, "properties": {"NAME": "W7N/NS-007", "TITLE": "9171", "REGION": "NV-Nye South", "ASSOCIATION": "USA - Nevada", "POINTS": "8", "BONUSPOINTS": "3"}}, {"type": "Feature", "geometry": {"type": "Point", "coordinates": [-115.6258, 38.1978]}, "properties": {"NAME": "W7N/NS-008", "TITLE": "9151", "REGION": "NV-Nye South", "ASSOCIATION": "USA - Nevada", "POINTS": "8", "BONUSPOINTS": "3"}}, {"type": "Feature", "geometry": {"type": "Point", "coordinates": [-115.7886, 38.0617]}, "properties": {"NAME": "W7N/NS-009", "TITLE": "9012", "REGION": "NV-Nye South", "ASSOCIATION": "USA - Nevada", "POINTS": "8", "BONUSPOINTS": "3"}}, {"type": "Feature", "geometry": {"type": "Point", "coordinates": [-115.5608, 38.2079]}, "properties": {"NAME": "W7N/NS-010", "TITLE": "8961", "REGION": "NV-Nye South", "ASSOCIATION": "USA - Nevada", "POINTS": "8", "BONUSPOINTS": "3"}}, {"type": "Feature", "geometry": {"type": "Point", "coordinates": [-116.3339, 37.8012]}, "properties": {"NAME": "W7N/NS-011", "TITLE": "8860", "REGION": "NV-Nye South", "ASSOCIATION": "USA - Nevada", "POINTS": "8", "BONUSPOINTS": "3"}}, {"type": "Feature", "geometry": {"type": "Point", "coordinates": [-116.527, 37.943]}, "properties": {"NAME": "W7N/NS-012", "TITLE": "8820", "REGION": "NV-Nye South", "ASSOCIATION": "USA - Nevada", "POINTS": "8", "BONUSPOINTS": "3"}}, {"type": "Feature", "geometry": {"type": "Point", "coordinates": [-116.1357, 37.8536]}, "properties": {"NAME": "W7N/NS-013", "TITLE": "Reveille Peak", "REGION": "NV-Nye South", "ASSOCIATION": "USA - Nevada", "POINTS": "8", "BONUSPOINTS": "3"}}, {"type": "Feature", "geometry": {"type": "Point", "coordinates": [-116.3288, 37.7683]}, "properties": {"NAME": "W7N/NS-014", "TITLE": "8780", "REGION": "NV-Nye South", "ASSOCIATION": "USA - Nevada", "POINTS": "8", "BONUSPOINTS": "3"}}, {"type": "Feature", "geometry": {"type": "Point", "coordinates": [-116.3732, 37.8499]}, "properties": {"NAME": "W7N/NS-015", "TITLE": "8740", "REGION": "NV-Nye South", "ASSOCIATION": "USA - Nevada", "POINTS": "8", "BONUSPOINTS": "3"}}, {"type": "Feature", "geometry": {"type": "Point", "coordinates": [-115.7482, 38.1512]}, "properties": {"NAME": "W7N/NS-016", "TITLE": "8740", "REGION": "NV-Nye South", "ASSOCIATION": "USA - Nevada", "POINTS": "8", "BONUSPOINTS": "3"}}, {"type": "Feature", "geometry": {"type": "Point", "coordinates": [-117.1497, 36.9652]}, "properties": {"NAME": "W7N/NS-017", "TITLE": "Grapevine Peak", "REGION": "NV-Nye South", "ASSOCIATION": "USA - Nevada", "POINTS": "8", "BONUSPOINTS": "3"}}, {"type": "Feature", "geometry": {"type": "Point", "coordinates": [-117.1052, 36.9396]}, "properties": {"NAME": "W7N/NS-018", "TITLE": "Wahguyhe Peak", "REGION": "NV-Nye South", "ASSOCIATION": "USA - Nevada", "POINTS": "8", "BONUSPOINTS": "3"}}, {"type": "Feature", "geometry": {"type": "Point", "coordinates": [-115.1018, 38.0639]}, "properties": {"NAME": "W7N/NS-019", "TITLE": "Black Cliff", "REGION": "NV-Nye South", "ASSOCIATION": "USA - Nevada", "POINTS": "8", "BONUSPOINTS": "3"}}, {"type": "Feature", "geometry": {"type": "Point", "coordinates": [-115.9158, 36.4165]}, "properties": {"NAME": "W7N/NS-020", "TITLE": "Dead Horse Mountain", "REGION": "NV-Nye South", "ASSOCIATION": "USA - Nevada", "POINTS": "8", "BONUSPOINTS": "3"}}, {"type": "Feature", "geometry": {"type": "Point", "coordinates": [-117.1382, 36.9969]}, "properties": {"NAME": "W7N/NS-021", "TITLE": "8572", "REGION": "NV-Nye South", "ASSOCIATION": "USA - Nevada", "POINTS": "8", "BONUSPOINTS": "3"}}, {"type": "Feature", "geometry": {"type": "Point", "coordinates": [-116.0827, 37.4951]}, "properties": {"NAME": "W7N/NS-022", "TITLE": "Belted Range HP", "REGION": "NV-Nye South", "ASSOCIATION": "USA - Nevada", "POINTS": "8", "BONUSPOINTS": "3"}}, {"type": "Feature", "geometry": {"type": "Point", "coordinates": [-115.7142, 38.1796]}, "properties": {"NAME": "W7N/NS-023", "TITLE": "8527", "REGION": "NV-Nye South", "ASSOCIATION": "USA - Nevada", "POINTS": "8", "BONUSPOINTS": "3"}}, {"type": "Feature", "geometry": {"type": "Point", "coordinates": [-116.0785, 37.4512]}, "properties": {"NAME": "W7N/NS-024", "TITLE": "Wheelbarrow Peak", "REGION": "NV-Nye South", "ASSOCIATION": "USA - Nevada", "POINTS": "6", "BONUSPOINTS": "3"}}, {"type": "Feature", "geometry": {"type": "Point", "coordinates": [-116.3462, 37.8246]}, "properties": {"NAME": "W7N/NS-025", "TITLE": "8460", "REGION": "NV-Nye South", "ASSOCIATION": "USA - Nevada", "POINTS": "6", "BONUSPOINTS": "3"}}, {"type": "Feature", "geometry": {"type": "Point", "coordinates": [-116.3765, 37.8711]}, "properties": {"NAME": "W7N/NS-026", "TITLE": "8460", "REGION": "NV-Nye South", "ASSOCIATION": "USA - Nevada", "POINTS": "6", "BONUSPOINTS": "3"}}, {"type": "Feature", "geometry": {"type": "Point", "coordinates": [-116.123, 37.4056]}, "properties": {"NAME": "W7N/NS-027", "TITLE": "Wheel Benchmark", "REGION": "NV-Nye South", "ASSOCIATION": "USA - Nevada", "POINTS": "6", "BONUSPOINTS": "3"}}, {"type": "Feature", "geometry": {"type": "Point", "coordinates": [-116.3348, 37.7063]}, "properties": {"NAME": "W7N/NS-028", "TITLE": "Cedar Peak", "REGION": "NV-Nye South", "ASSOCIATION": "USA - Nevada", "POINTS": "6", "BONUSPOINTS": "3"}}, {"type": "Feature", "geometry": {"type": "Point", "coordinates": [-115.6231, 38.1732]}, "properties": {"NAME": "W7N/NS-029", "TITLE": "8407", "REGION": "NV-Nye South", "ASSOCIATION": "USA - Nevada", "POINTS": "6", "BONUSPOINTS": "3"}}, {"type": "Feature", "geometry": {"type": "Point", "coordinates": [-115.6193, 38.1198]}, "properties": {"NAME": "W7N/NS-030", "TITLE": "Badger Benchmark", "REGION": "NV-Nye South", "ASSOCIATION": "USA - Nevada", "POINTS": "6", "BONUSPOINTS": "3"}}, {"type": "Feature", "geometry": {"type": "Point", "coordinates": [-115.6272, 38.1337]}, "properties": {"NAME": "W7N/NS-031", "TITLE": "8385", "REGION": "NV-Nye South", "ASSOCIATION": "USA - Nevada", "POINTS": "6", "BONUSPOINTS": "3"}}, {"type": "Feature", "geometry": {"type": "Point", "coordinates": [-115.9015, 36.4215]}, "properties": {"NAME": "W7N/NS-032", "TITLE": "8346", "REGION": "NV-Nye South", "ASSOCIATION": "USA - Nevada", "POINTS": "6", "BONUSPOINTS": "3"}}, {"type": "Feature", "geometry": {"type": "Point", "coordinates": [-115.568, 38.169]}, "properties": {"NAME": "W7N/NS-033", "TITLE": "8345", "REGION": "NV-Nye South", "ASSOCIATION": "USA - Nevada", "POINTS": "6", "BONUSPOINTS": "3"}}, {"type": "Feature", "geometry": {"type": "Point", "coordinates": [-117.0401, 37.4999]}, "properties": {"NAME": "W7N/NS-034", "TITLE": "Stonewall Mountain", "REGION": "NV-Nye South", "ASSOCIATION": "USA - Nevada", "POINTS": "6", "BONUSPOINTS": "3"}}, {"type": "Feature", "geometry": {"type": "Point", "coordinates": [-116.1638, 37.9526]}, "properties": {"NAME": "W7N/NS-035", "TITLE": "8300", "REGION": "NV-Nye South", "ASSOCIATION": "USA - Nevada", "POINTS": "6", "BONUSPOINTS": "3"}}, {"type": "Feature", "geometry": {"type": "Point", "coordinates": [-116.129, 37.8758]}, "properties": {"NAME": "W7N/NS-036", "TITLE": "8300", "REGION": "NV-Nye South", "ASSOCIATION": "USA - Nevada", "POINTS": "6", "BONUSPOINTS": "3"}}, {"type": "Feature", "geometry": {"type": "Point", "coordinates": [-115.5919, 38.1629]}, "properties": {"NAME": "W7N/NS-037", "TITLE": "8260", "REGION": "NV-Nye South", "ASSOCIATION": "USA - Nevada", "POINTS": "6", "BONUSPOINTS": "3"}}, {"type": "Feature", "geometry": {"type": "Point", "coordinates": [-116.5424, 37.9325]}, "properties": {"NAME": "W7N/NS-038", "TITLE": "8241", "REGION": "NV-Nye South", "ASSOCIATION": "USA - Nevada", "POINTS": "6", "BONUSPOINTS": "3"}}, {"type": "Feature", "geometry": {"type": "Point", "coordinates": [-116.0762, 37.5687]}, "properties": {"NAME": "W7N/NS-039", "TITLE": "Belted Peak", "REGION": "NV-Nye South", "ASSOCIATION": "USA - Nevada", "POINTS": "6", "BONUSPOINTS": "3"}}, {"type": "Feature", "geometry": {"type": "Point", "coordinates": [-115.9687, 36.4531]}, "properties": {"NAME": "W7N/NS-040", "TITLE": "Stirling, Mount", "REGION": "NV-Nye South", "ASSOCIATION": "USA - Nevada", "POINTS": "6", "BONUSPOINTS": "3"}}, {"type": "Feature", "geometry": {"type": "Point", "coordinates": [-116.1461, 37.9081]}, "properties": {"NAME": "W7N/NS-041", "TITLE": "8135", "REGION": "NV-Nye South", "ASSOCIATION": "USA - Nevada", "POINTS": "6", "BONUSPOINTS": "3"}}, {"type": "Feature", "geometry": {"type": "Point", "coordinates": [-116.9312, 38.1765]}, "properties": {"NAME": "W7N/NS-042", "TITLE": "7979", "REGION": "NV-Nye South", "ASSOCIATION": "USA - Nevada", "POINTS": "6", "BONUSPOINTS": "3"}}, {"type": "Feature", "geometry": {"type": "Point", "coordinates": [-116.1783, 37.9849]}, "properties": {"NAME": "W7N/NS-043", "TITLE": "7940", "REGION": "NV-Nye South", "ASSOCIATION": "USA - Nevada", "POINTS": "6", "BONUSPOINTS": "3"}}, {"type": "Feature", "geometry": {"type": "Point", "coordinates": [-116.9322, 38.2419]}, "properties": {"NAME": "W7N/NS-044", "TITLE": "7929", "REGION": "NV-Nye South", "ASSOCIATION": "USA - Nevada", "POINTS": "6", "BONUSPOINTS": "3"}}, {"type": "Feature", "geometry": {"type": "Point", "coordinates": [-116.19, 38.0091]}, "properties": {"NAME": "W7N/NS-045", "TITLE": "7923", "REGION": "NV-Nye South", "ASSOCIATION": "USA - Nevada", "POINTS": "6", "BONUSPOINTS": "3"}}, {"type": "Feature", "geometry": {"type": "Point", "coordinates": [-116.4095, 37.9531]}, "properties": {"NAME": "W7N/NS-046", "TITLE": "7923", "REGION": "NV-Nye South", "ASSOCIATION": "USA - Nevada", "POINTS": "6", "BONUSPOINTS": "3"}}, {"type": "Feature", "geometry": {"type": "Point", "coordinates": [-116.2949, 37.6951]}, "properties": {"NAME": "W7N/NS-047", "TITLE": "White Ridge", "REGION": "NV-Nye South", "ASSOCIATION": "USA - Nevada", "POINTS": "6", "BONUSPOINTS": "3"}}, {"type": "Feature", "geometry": {"type": "Point", "coordinates": [-116.8912, 38.2233]}, "properties": {"NAME": "W7N/NS-048", "TITLE": "7881", "REGION": "NV-Nye South", "ASSOCIATION": "USA - Nevada", "POINTS": "6", "BONUSPOINTS": "3"}}, {"type": "Feature", "geometry": {"type": "Point", "coordinates": [-115.6111, 38.0923]}, "properties": {"NAME": "W7N/NS-049", "TITLE": "Mystery Mountain", "REGION": "NV-Nye South", "ASSOCIATION": "USA - Nevada", "POINTS": "6", "BONUSPOINTS": "3"}}, {"type": "Feature", "geometry": {"type": "Point", "coordinates": [-116.891, 38.154]}, "properties": {"NAME": "W7N/NS-050", "TITLE": "Red Peak", "REGION": "NV-Nye South", "ASSOCIATION": "USA - Nevada", "POINTS": "6", "BONUSPOINTS": "3"}}, {"type": "Feature", "geometry": {"type": "Point", "coordinates": [-116.1707, 37.3508]}, "properties": {"NAME": "W7N/NS-051", "TITLE": "Quartet Dome", "REGION": "NV-Nye South", "ASSOCIATION": "USA - Nevada", "POINTS": "6", "BONUSPOINTS": "3"}}, {"type": "Feature", "geometry": {"type": "Point", "coordinates": [-116.7542, 38.152]}, "properties": {"NAME": "W7N/NS-052", "TITLE": "7787", "REGION": "NV-Nye South", "ASSOCIATION": "USA - Nevada", "POINTS": "6", "BONUSPOINTS": "3"}}, {"type": "Feature", "geometry": {"type": "Point", "coordinates": [-116.0805, 37.5425]}, "properties": {"NAME": "W7N/NS-053", "TITLE": "7783", "REGION": "NV-Nye South", "ASSOCIATION": "USA - Nevada", "POINTS": "6", "BONUSPOINTS": "3"}}, {"type": "Feature", "geometry": {"type": "Point", "coordinates": [-116.4446, 38.2426]}, "properties": {"NAME": "W7N/NS-054", "TITLE": "7771", "REGION": "NV-Nye South", "ASSOCIATION": "USA - Nevada", "POINTS": "6", "BONUSPOINTS": "3"}}, {"type": "Feature", "geometry": {"type": "Point", "coordinates": [-116.3237, 37.5138]}, "properties": {"NAME": "W7N/NS-055", "TITLE": "Quartzite Mountain", "REGION": "NV-Nye South", "ASSOCIATION": "USA - Nevada", "POINTS": "6", "BONUSPOINTS": "3"}}, {"type": "Feature", "geometry": {"type": "Point", "coordinates": [-116.3965, 38.0468]}, "properties": {"NAME": "W7N/NS-056", "TITLE": "7744", "REGION": "NV-Nye South", "ASSOCIATION": "USA - Nevada", "POINTS": "6", "BONUSPOINTS": "3"}}, {"type": "Feature", "geometry": {"type": "Point", "coordinates": [-115.7376, 38.1892]}, "properties": {"NAME": "W7N/NS-057", "TITLE": "7738", "REGION": "NV-Nye South", "ASSOCIATION": "USA - Nevada", "POINTS": "6", "BONUSPOINTS": "3"}}, {"type": "Feature", "geometry": {"type": "Point", "coordinates": [-116.4399, 38.0963]}, "properties": {"NAME": "W7N/NS-058", "TITLE": "7735", "REGION": "NV-Nye South", "ASSOCIATION": "USA - Nevada", "POINTS": "6", "BONUSPOINTS": "3"}}, {"type": "Feature", "geometry": {"type": "Point", "coordinates": [-116.1281, 37.4374]}, "properties": {"NAME": "W7N/NS-059", "TITLE": "7730", "REGION": "NV-Nye South", "ASSOCIATION": "USA - Nevada", "POINTS": "6", "BONUSPOINTS": "3"}}, {"type": "Feature", "geometry": {"type": "Point", "coordinates": [-116.7812, 38.2386]}, "properties": {"NAME": "W7N/NS-060", "TITLE": "7716", "REGION": "NV-Nye South", "ASSOCIATION": "USA - Nevada", "POINTS": "6", "BONUSPOINTS": "3"}}, {"type": "Feature", "geometry": {"type": "Point", "coordinates": [-116.2077, 37.1766]}, "properties": {"NAME": "W7N/NS-061", "TITLE": "Rainier Mesa", "REGION": "NV-Nye South", "ASSOCIATION": "USA - Nevada", "POINTS": "6", "BONUSPOINTS": "3"}}, {"type": "Feature", "geometry": {"type": "Point", "coordinates": [-116.3637, 37.7508]}, "properties": {"NAME": "W7N/NS-062", "TITLE": "7660", "REGION": "NV-Nye South", "ASSOCIATION": "USA - Nevada", "POINTS": "6", "BONUSPOINTS": "3"}}, {"type": "Feature", "geometry": {"type": "Point", "coordinates": [-116.4715, 37.8784]}, "properties": {"NAME": "W7N/NS-063", "TITLE": "Nixon Peak", "REGION": "NV-Nye South", "ASSOCIATION": "USA - Nevada", "POINTS": "6", "BONUSPOINTS": "3"}}, {"type": "Feature", "geometry": {"type": "Point", "coordinates": [-116.187, 38.0462]}, "properties": {"NAME": "W7N/NS-064", "TITLE": "7554", "REGION": "NV-Nye South", "ASSOCIATION": "USA - Nevada", "POINTS": "6", "BONUSPOINTS": "3"}}, {"type": "Feature", "geometry": {"type": "Point", "coordinates": [-116.7596, 37.6278]}, "properties": {"NAME": "W7N/NS-065", "TITLE": "Antelope Peak", "REGION": "NV-Nye South", "ASSOCIATION": "USA - Nevada", "POINTS": "6", "BONUSPOINTS": "3"}}, {"type": "Feature", "geometry": {"type": "Point", "coordinates": [-116.2043, 38.0733]}, "properties": {"NAME": "W7N/NS-066", "TITLE": "7540", "REGION": "NV-Nye South", "ASSOCIATION": "USA - Nevada", "POINTS": "6", "BONUSPOINTS": "3"}}, {"type": "Feature", "geometry": {"type": "Point", "coordinates": [-116.4444, 38.069]}, "properties": {"NAME": "W7N/NS-067", "TITLE": "7528", "REGION": "NV-Nye South", "ASSOCIATION": "USA - Nevada", "POINTS": "6", "BONUSPOINTS": "3"}}, {"type": "Feature", "geometry": {"type": "Point", "coordinates": [-116.4158, 38.1513]}, "properties": {"NAME": "W7N/NS-068", "TITLE": "7524", "REGION": "NV-Nye South", "ASSOCIATION": "USA - Nevada", "POINTS": "6", "BONUSPOINTS": "3"}}, {"type": "Feature", "geometry": {"type": "Point", "coordinates": [-116.5514, 38.005]}, "properties": {"NAME": "W7N/NS-069", "TITLE": "7501", "REGION": "NV-Nye South", "ASSOCIATION": "USA - Nevada", "POINTS": "6", "BONUSPOINTS": "3"}}, {"type": "Feature", "geometry": {"type": "Point", "coordinates": [-116.878, 37.7827]}, "properties": {"NAME": "W7N/NS-070", "TITLE": "Cactus Peak", "REGION": "NV-Nye South", "ASSOCIATION": "USA - Nevada", "POINTS": "4", "BONUSPOINTS": "3"}}, {"type": "Feature", "geometry": {"type": "Point", "coordinates": [-116.457, 37.8707]}, "properties": {"NAME": "W7N/NS-071", "TITLE": "7452", "REGION": "NV-Nye South", "ASSOCIATION": "USA - Nevada", "POINTS": "4", "BONUSPOINTS": "3"}}, {"type": "Feature", "geometry": {"type": "Point", "coordinates": [-116.4538, 37.0859]}, "properties": {"NAME": "W7N/NS-072", "TITLE": "Timber Mountain", "REGION": "NV-Nye South", "ASSOCIATION": "USA - Nevada", "POINTS": "4", "BONUSPOINTS": "3"}}, {"type": "Feature", "geometry": {"type": "Point", "coordinates": [-116.1757, 38.1142]}, "properties": {"NAME": "W7N/NS-073", "TITLE": "Dark Benchmark", "REGION": "NV-Nye South", "ASSOCIATION": "USA - Nevada", "POINTS": "4", "BONUSPOINTS": "3"}}, {"type": "Feature", "geometry": {"type": "Point", "coordinates": [-116.3327, 37.6393]}, "properties": {"NAME": "W7N/NS-074", "TITLE": "Cathedral Ridge", "REGION": "NV-Nye South", "ASSOCIATION": "USA - Nevada", "POINTS": "4", "BONUSPOINTS": "3"}}, {"type": "Feature", "geometry": {"type": "Point", "coordinates": [-116.1436, 37.9327]}, "properties": {"NAME": "W7N/NS-075", "TITLE": "Fang Ridge", "REGION": "NV-Nye South", "ASSOCIATION": "USA - Nevada", "POINTS": "4", "BONUSPOINTS": "3"}}, {"type": "Feature", "geometry": {"type": "Point", "coordinates": [-116.5059, 37.893]}, "properties": {"NAME": "W7N/NS-076", "TITLE": "7371", "REGION": "NV-Nye South", "ASSOCIATION": "USA - Nevada", "POINTS": "4", "BONUSPOINTS": "3"}}, {"type": "Feature", "geometry": {"type": "Point", "coordinates": [-115.9209, 37.5313]}, "properties": {"NAME": "W7N/NS-077", "TITLE": "Chalk Mountain", "REGION": "NV-Nye South", "ASSOCIATION": "USA - Nevada", "POINTS": "4", "BONUSPOINTS": "3"}}, {"type": "Feature", "geometry": {"type": "Point", "coordinates": [-116.322, 37.3817]}, "properties": {"NAME": "W7N/NS-078", "TITLE": "7348", "REGION": "NV-Nye South", "ASSOCIATION": "USA - Nevada", "POINTS": "4", "BONUSPOINTS": "3"}}, {"type": "Feature", "geometry": {"type": "Point", "coordinates": [-116.8348, 37.6998]}, "properties": {"NAME": "W7N/NS-079", "TITLE": "Urania Peak", "REGION": "NV-Nye South", "ASSOCIATION": "USA - Nevada", "POINTS": "4", "BONUSPOINTS": "3"}}, {"type": "Feature", "geometry": {"type": "Point", "coordinates": [-116.7467, 38.0706]}, "properties": {"NAME": "W7N/NS-080", "TITLE": "Saul Benchmark", "REGION": "NV-Nye South", "ASSOCIATION": "USA - Nevada", "POINTS": "4", "BONUSPOINTS": "3"}}, {"type": "Feature", "geometry": {"type": "Point", "coordinates": [-116.2057, 37.1503]}, "properties": {"NAME": "W7N/NS-081", "TITLE": "7321", "REGION": "NV-Nye South", "ASSOCIATION": "USA - Nevada", "POINTS": "4", "BONUSPOINTS": "3"}}, {"type": "Feature", "geometry": {"type": "Point", "coordinates": [-116.5257, 37.9039]}, "properties": {"NAME": "W7N/NS-082", "TITLE": "7316", "REGION": "NV-Nye South", "ASSOCIATION": "USA - Nevada", "POINTS": "4", "BONUSPOINTS": "3"}}, {"type": "Feature", "geometry": {"type": "Point", "coordinates": [-116.2834, 37.3701]}, "properties": {"NAME": "W7N/NS-083", "TITLE": "Kaw Benchmark", "REGION": "NV-Nye South", "ASSOCIATION": "USA - Nevada", "POINTS": "4", "BONUSPOINTS": "3"}}, {"type": "Feature", "geometry": {"type": "Point", "coordinates": [-116.0345, 38.2427]}, "properties": {"NAME": "W7N/NS-084", "TITLE": "Streaked Benchmark", "REGION": "NV-Nye South", "ASSOCIATION": "USA - Nevada", "POINTS": "4", "BONUSPOINTS": "3"}}, {"type": "Feature", "geometry": {"type": "Point", "coordinates": [-115.3042, 38.2242]}, "properties": {"NAME": "W7N/NS-085", "TITLE": "Gate Benchmark", "REGION": "NV-Nye South", "ASSOCIATION": "USA - Nevada", "POINTS": "4", "BONUSPOINTS": "3"}}, {"type": "Feature", "geometry": {"type": "Point", "coordinates": [-116.8549, 37.7258]}, "properties": {"NAME": "W7N/NS-086", "TITLE": "7263", "REGION": "NV-Nye South", "ASSOCIATION": "USA - Nevada", "POINTS": "4", "BONUSPOINTS": "3"}}, {"type": "Feature", "geometry": {"type": "Point", "coordinates": [-116.3303, 37.5866]}, "properties": {"NAME": "W7N/NS-087", "TITLE": "Cathedral Ridge South", "REGION": "NV-Nye South", "ASSOCIATION": "USA - Nevada", "POINTS": "4", "BONUSPOINTS": "3"}}, {"type": "Feature", "geometry": {"type": "Point", "coordinates": [-116.4656, 37.0412]}, "properties": {"NAME": "W7N/NS-088", "TITLE": "South Timber Peak", "REGION": "NV-Nye South", "ASSOCIATION": "USA - Nevada", "POINTS": "4", "BONUSPOINTS": "3"}}, {"type": "Feature", "geometry": {"type": "Point", "coordinates": [-116.6463, 37.2835]}, "properties": {"NAME": "W7N/NS-089", "TITLE": "Black Mountain", "REGION": "NV-Nye South", "ASSOCIATION": "USA - Nevada", "POINTS": "4", "BONUSPOINTS": "3"}}, {"type": "Feature", "geometry": {"type": "Point", "coordinates": [-116.2628, 37.6811]}, "properties": {"NAME": "W7N/NS-090", "TITLE": "7222", "REGION": "NV-Nye South", "ASSOCIATION": "USA - Nevada", "POINTS": "4", "BONUSPOINTS": "3"}}, {"type": "Feature", "geometry": {"type": "Point", "coordinates": [-117.2326, 38.0502]}, "properties": {"NAME": "W7N/NS-091", "TITLE": "Butler, Mount", "REGION": "NV-Nye South", "ASSOCIATION": "USA - Nevada", "POINTS": "4", "BONUSPOINTS": "3"}}, {"type": "Feature", "geometry": {"type": "Point", "coordinates": [-115.3361, 38.114]}, "properties": {"NAME": "W7N/NS-092", "TITLE": "7162", "REGION": "NV-Nye South", "ASSOCIATION": "USA - Nevada", "POINTS": "4", "BONUSPOINTS": "3"}}, {"type": "Feature", "geometry": {"type": "Point", "coordinates": [-116.5957, 37.9463]}, "properties": {"NAME": "W7N/NS-093", "TITLE": "7155", "REGION": "NV-Nye South", "ASSOCIATION": "USA - Nevada", "POINTS": "4", "BONUSPOINTS": "3"}}, {"type": "Feature", "geometry": {"type": "Point", "coordinates": [-116.7556, 38.1127]}, "properties": {"NAME": "W7N/NS-094", "TITLE": "Yellow Cone", "REGION": "NV-Nye South", "ASSOCIATION": "USA - Nevada", "POINTS": "4", "BONUSPOINTS": "3"}}, {"type": "Feature", "geometry": {"type": "Point", "coordinates": [-116.7429, 37.4962]}, "properties": {"NAME": "W7N/NS-095", "TITLE": "Helen, Mount", "REGION": "NV-Nye South", "ASSOCIATION": "USA - Nevada", "POINTS": "4", "BONUSPOINTS": "3"}}, {"type": "Feature", "geometry": {"type": "Point", "coordinates": [-116.3028, 36.9527]}, "properties": {"NAME": "W7N/NS-096", "TITLE": "7150", "REGION": "NV-Nye South", "ASSOCIATION": "USA - Nevada", "POINTS": "4", "BONUSPOINTS": "3"}}, {"type": "Feature", "geometry": {"type": "Point", "coordinates": [-116.1251, 37.2471]}, "properties": {"NAME": "W7N/NS-097", "TITLE": "Burnt Mountain", "REGION": "NV-Nye South", "ASSOCIATION": "USA - Nevada", "POINTS": "4", "BONUSPOINTS": "3"}}, {"type": "Feature", "geometry": {"type": "Point", "coordinates": [-117.1996, 38.1437]}, "properties": {"NAME": "W7N/NS-098", "TITLE": "7130", "REGION": "NV-Nye South", "ASSOCIATION": "USA - Nevada", "POINTS": "4", "BONUSPOINTS": "3"}}, {"type": "Feature", "geometry": {"type": "Point", "coordinates": [-116.0947, 37.2263]}, "properties": {"NAME": "W7N/NS-099", "TITLE": "Quartzite Ridge", "REGION": "NV-Nye South", "ASSOCIATION": "USA - Nevada", "POINTS": "4", "BONUSPOINTS": "3"}}, {"type": "Feature", "geometry": {"type": "Point", "coordinates": [-116.0859, 37.7042]}, "properties": {"NAME": "W7N/NS-100", "TITLE": "Ragged Ridge", "REGION": "NV-Nye South", "ASSOCIATION": "USA - Nevada", "POINTS": "4", "BONUSPOINTS": "3"}}, {"type": "Feature", "geometry": {"type": "Point", "coordinates": [-115.9359, 37.7705]}, "properties": {"NAME": "W7N/NS-101", "TITLE": "7087", "REGION": "NV-Nye South", "ASSOCIATION": "USA - Nevada", "POINTS": "4", "BONUSPOINTS": "3"}}, {"type": "Feature", "geometry": {"type": "Point", "coordinates": [-117.0273, 38.1713]}, "properties": {"NAME": "W7N/NS-102", "TITLE": "Thunder Mountain", "REGION": "NV-Nye South", "ASSOCIATION": "USA - Nevada", "POINTS": "4", "BONUSPOINTS": "3"}}, {"type": "Feature", "geometry": {"type": "Point", "coordinates": [-116.261, 36.9436]}, "properties": {"NAME": "W7N/NS-103", "TITLE": "Shoshone Peak", "REGION": "NV-Nye South", "ASSOCIATION": "USA - Nevada", "POINTS": "4", "BONUSPOINTS": "3"}}, {"type": "Feature", "geometry": {"type": "Point", "coordinates": [-116.8105, 37.2681]}, "properties": {"NAME": "W7N/NS-104", "TITLE": "Tolicha Peak", "REGION": "NV-Nye South", "ASSOCIATION": "USA - Nevada", "POINTS": "4", "BONUSPOINTS": "3"}}, {"type": "Feature", "geometry": {"type": "Point", "coordinates": [-115.9221, 37.8687]}, "properties": {"NAME": "W7N/NS-105", "TITLE": "7049", "REGION": "NV-Nye South", "ASSOCIATION": "USA - Nevada", "POINTS": "4", "BONUSPOINTS": "3"}}, {"type": "Feature", "geometry": {"type": "Point", "coordinates": [-116.0815, 37.686]}, "properties": {"NAME": "W7N/NS-106", "TITLE": "Gray Top Mountain", "REGION": "NV-Nye South", "ASSOCIATION": "USA - Nevada", "POINTS": "4", "BONUSPOINTS": "3"}}, {"type": "Feature", "geometry": {"type": "Point", "coordinates": [-115.1382, 38.104]}, "properties": {"NAME": "W7N/NS-107", "TITLE": "7034", "REGION": "NV-Nye South", "ASSOCIATION": "USA - Nevada", "POINTS": "4", "BONUSPOINTS": "3"}}, {"type": "Feature", "geometry": {"type": "Point", "coordinates": [-116.7286, 37.2733]}, "properties": {"NAME": "W7N/NS-108", "TITLE": "Quartz Mountain", "REGION": "NV-Nye South", "ASSOCIATION": "USA - Nevada", "POINTS": "4", "BONUSPOINTS": "3"}}, {"type": "Feature", "geometry": {"type": "Point", "coordinates": [-116.399, 38.2469]}, "properties": {"NAME": "W7N/NS-109", "TITLE": "7002", "REGION": "NV-Nye South", "ASSOCIATION": "USA - Nevada", "POINTS": "4", "BONUSPOINTS": "3"}}, {"type": "Feature", "geometry": {"type": "Point", "coordinates": [-116.4274, 37.0374]}, "properties": {"NAME": "W7N/NS-110", "TITLE": "7001", "REGION": "NV-Nye South", "ASSOCIATION": "USA - Nevada", "POINTS": "4", "BONUSPOINTS": "3"}}, {"type": "Feature", "geometry": {"type": "Point", "coordinates": [-116.2538, 37.1896]}, "properties": {"NAME": "W7N/NS-111", "TITLE": "Rattlesnake Ridge", "REGION": "NV-Nye South", "ASSOCIATION": "USA - Nevada", "POINTS": "4", "BONUSPOINTS": "3"}}, {"type": "Feature", "geometry": {"type": "Point", "coordinates": [-116.064, 37.6004]}, "properties": {"NAME": "W7N/NS-112", "TITLE": "6973", "REGION": "NV-Nye South", "ASSOCIATION": "USA - Nevada", "POINTS": "4", "BONUSPOINTS": "3"}}, {"type": "Feature", "geometry": {"type": "Point", "coordinates": [-116.0559, 37.2527]}, "properties": {"NAME": "W7N/NS-113", "TITLE": "Oak Spring Butte", "REGION": "NV-Nye South", "ASSOCIATION": "USA - Nevada", "POINTS": "4", "BONUSPOINTS": "3"}}, {"type": "Feature", "geometry": {"type": "Point", "coordinates": [-115.9016, 37.9563]}, "properties": {"NAME": "W7N/NS-114", "TITLE": "6961", "REGION": "NV-Nye South", "ASSOCIATION": "USA - Nevada", "POINTS": "4", "BONUSPOINTS": "3"}}, {"type": "Feature", "geometry": {"type": "Point", "coordinates": [-116.106, 37.6145]}, "properties": {"NAME": "W7N/NS-115", "TITLE": "6956", "REGION": "NV-Nye South", "ASSOCIATION": "USA - Nevada", "POINTS": "4", "BONUSPOINTS": "3"}}, {"type": "Feature", "geometry": {"type": "Point", "coordinates": [-115.9054, 36.4693]}, "properties": {"NAME": "W7N/NS-116", "TITLE": "6938", "REGION": "NV-Nye South", "ASSOCIATION": "USA - Nevada", "POINTS": "4", "BONUSPOINTS": "3"}}, {"type": "Feature", "geometry": {"type": "Point", "coordinates": [-117.187, 38.0991]}, "properties": {"NAME": "W7N/NS-117", "TITLE": "Booker Mountain", "REGION": "NV-Nye South", "ASSOCIATION": "USA - Nevada", "POINTS": "4", "BONUSPOINTS": "3"}}, {"type": "Feature", "geometry": {"type": "Point", "coordinates": [-115.065, 38.1972]}, "properties": {"NAME": "W7N/NS-118", "TITLE": "Fox Mountain", "REGION": "NV-Nye South", "ASSOCIATION": "USA - Nevada", "POINTS": "4", "BONUSPOINTS": "3"}}, {"type": "Feature", "geometry": {"type": "Point", "coordinates": [-116.9963, 37.536]}, "properties": {"NAME": "W7N/NS-119", "TITLE": "6887", "REGION": "NV-Nye South", "ASSOCIATION": "USA - Nevada", "POINTS": "4", "BONUSPOINTS": "3"}}, {"type": "Feature", "geometry": {"type": "Point", "coordinates": [-116.7309, 37.6547]}, "properties": {"NAME": "W7N/NS-120", "TITLE": "Roller Coaster Knob", "REGION": "NV-Nye South", "ASSOCIATION": "USA - Nevada", "POINTS": "4", "BONUSPOINTS": "3"}}, {"type": "Feature", "geometry": {"type": "Point", "coordinates": [-115.9479, 37.8071]}, "properties": {"NAME": "W7N/NS-121", "TITLE": "6870", "REGION": "NV-Nye South", "ASSOCIATION": "USA - Nevada", "POINTS": "4", "BONUSPOINTS": "3"}}, {"type": "Feature", "geometry": {"type": "Point", "coordinates": [-116.2269, 36.9371]}, "properties": {"NAME": "W7N/NS-122", "TITLE": "6870", "REGION": "NV-Nye South", "ASSOCIATION": "USA - Nevada", "POINTS": "4", "BONUSPOINTS": "3"}}, {"type": "Feature", "geometry": {"type": "Point", "coordinates": [-116.8973, 38.0733]}, "properties": {"NAME": "W7N/NS-123", "TITLE": "Hannapah Peak", "REGION": "NV-Nye South", "ASSOCIATION": "USA - Nevada", "POINTS": "4", "BONUSPOINTS": "3"}}, {"type": "Feature", "geometry": {"type": "Point", "coordinates": [-117.1315, 37.7274]}, "properties": {"NAME": "W7N/NS-124", "TITLE": "Cole Mountain", "REGION": "NV-Nye South", "ASSOCIATION": "USA - Nevada", "POINTS": "4", "BONUSPOINTS": "3"}}, {"type": "Feature", "geometry": {"type": "Point", "coordinates": [-115.9617, 37.6983]}, "properties": {"NAME": "W7N/NS-125", "TITLE": "6852", "REGION": "NV-Nye South", "ASSOCIATION": "USA - Nevada", "POINTS": "4", "BONUSPOINTS": "3"}}, {"type": "Feature", "geometry": {"type": "Point", "coordinates": [-115.5511, 38.1129]}, "properties": {"NAME": "W7N/NS-126", "TITLE": "6821", "REGION": "NV-Nye South", "ASSOCIATION": "USA - Nevada", "POINTS": "4", "BONUSPOINTS": "3"}}, {"type": "Feature", "geometry": {"type": "Point", "coordinates": [-115.3418, 38.1525]}, "properties": {"NAME": "W7N/NS-127", "TITLE": "6806", "REGION": "NV-Nye South", "ASSOCIATION": "USA - Nevada", "POINTS": "4", "BONUSPOINTS": "3"}}, {"type": "Feature", "geometry": {"type": "Point", "coordinates": [-116.1157, 38.2158]}, "properties": {"NAME": "W7N/NS-128", "TITLE": "6732", "REGION": "NV-Nye South", "ASSOCIATION": "USA - Nevada", "POINTS": "4", "BONUSPOINTS": "3"}}, {"type": "Feature", "geometry": {"type": "Point", "coordinates": [-116.0105, 37.4811]}, "properties": {"NAME": "W7N/NS-129", "TITLE": "6730", "REGION": "NV-Nye South", "ASSOCIATION": "USA - Nevada", "POINTS": "4", "BONUSPOINTS": "3"}}, {"type": "Feature", "geometry": {"type": "Point", "coordinates": [-116.2111, 37.1003]}, "properties": {"NAME": "W7N/NS-130", "TITLE": "Big Butte", "REGION": "NV-Nye South", "ASSOCIATION": "USA - Nevada", "POINTS": "4", "BONUSPOINTS": "3"}}, {"type": "Feature", "geometry": {"type": "Point", "coordinates": [-116.4851, 36.9402]}, "properties": {"NAME": "W7N/NS-131", "TITLE": "Chocolate Mountain", "REGION": "NV-Nye South", "ASSOCIATION": "USA - Nevada", "POINTS": "4", "BONUSPOINTS": "3"}}, {"type": "Feature", "geometry": {"type": "Point", "coordinates": [-116.1277, 38.0667]}, "properties": {"NAME": "W7N/NS-132", "TITLE": "6674", "REGION": "NV-Nye South", "ASSOCIATION": "USA - Nevada", "POINTS": "4", "BONUSPOINTS": "3"}}, {"type": "Feature", "geometry": {"type": "Point", "coordinates": [-115.9075, 38.0863]}, "properties": {"NAME": "W7N/NS-133", "TITLE": "Eds Hill", "REGION": "NV-Nye South", "ASSOCIATION": "USA - Nevada", "POINTS": "4", "BONUSPOINTS": "3"}}, {"type": "Feature", "geometry": {"type": "Point", "coordinates": [-116.3198, 36.9306]}, "properties": {"NAME": "W7N/NS-134", "TITLE": "Shosh Benchmark", "REGION": "NV-Nye South", "ASSOCIATION": "USA - Nevada", "POINTS": "4", "BONUSPOINTS": "3"}}, {"type": "Feature", "geometry": {"type": "Point", "coordinates": [-117.1052, 37.7738]}, "properties": {"NAME": "W7N/NS-135", "TITLE": "6620", "REGION": "NV-Nye South", "ASSOCIATION": "USA - Nevada", "POINTS": "4", "BONUSPOINTS": "3"}}, {"type": "Feature", "geometry": {"type": "Point", "coordinates": [-116.1103, 37.9522]}, "properties": {"NAME": "W7N/NS-136", "TITLE": "6617", "REGION": "NV-Nye South", "ASSOCIATION": "USA - Nevada", "POINTS": "4", "BONUSPOINTS": "3"}}, {"type": "Feature", "geometry": {"type": "Point", "coordinates": [-116.4544, 36.9416]}, "properties": {"NAME": "W7N/NS-137", "TITLE": "Pinnacles Ridge", "REGION": "NV-Nye South", "ASSOCIATION": "USA - Nevada", "POINTS": "4", "BONUSPOINTS": "3"}}, {"type": "Feature", "geometry": {"type": "Point", "coordinates": [-115.2144, 38.1436]}, "properties": {"NAME": "W7N/NS-138", "TITLE": "Mist Benchmark", "REGION": "NV-Nye South", "ASSOCIATION": "USA - Nevada", "POINTS": "4", "BONUSPOINTS": "3"}}, {"type": "Feature", "geometry": {"type": "Point", "coordinates": [-115.9476, 36.4992]}, "properties": {"NAME": "W7N/NS-139", "TITLE": "Jaybird Benchmark", "REGION": "NV-Nye South", "ASSOCIATION": "USA - Nevada", "POINTS": "4", "BONUSPOINTS": "3"}}, {"type": "Feature", "geometry": {"type": "Point", "coordinates": [-115.2354, 38.1573]}, "properties": {"NAME": "W7N/NS-140", "TITLE": "6545", "REGION": "NV-Nye South", "ASSOCIATION": "USA - Nevada", "POINTS": "4", "BONUSPOINTS": "3"}}, {"type": "Feature", "geometry": {"type": "Point", "coordinates": [-116.8759, 37.8138]}, "properties": {"NAME": "W7N/NS-141", "TITLE": "6540", "REGION": "NV-Nye South", "ASSOCIATION": "USA - Nevada", "POINTS": "4", "BONUSPOINTS": "3"}}, {"type": "Feature", "geometry": {"type": "Point", "coordinates": [-116.2176, 37.0931]}, "properties": {"NAME": "W7N/NS-142", "TITLE": "Sugar Loaves East", "REGION": "NV-Nye South", "ASSOCIATION": "USA - Nevada", "POINTS": "4", "BONUSPOINTS": "3"}}, {"type": "Feature", "geometry": {"type": "Point", "coordinates": [-116.3166, 37.542]}, "properties": {"NAME": "W7N/NS-143", "TITLE": "6522", "REGION": "NV-Nye South", "ASSOCIATION": "USA - Nevada", "POINTS": "4", "BONUSPOINTS": "3"}}, {"type": "Feature", "geometry": {"type": "Point", "coordinates": [-117.1372, 37.0963]}, "properties": {"NAME": "W7N/NS-144", "TITLE": "6512", "REGION": "NV-Nye South", "ASSOCIATION": "USA - Nevada", "POINTS": "4", "BONUSPOINTS": "3"}}, {"type": "Feature", "geometry": {"type": "Point", "coordinates": [-116.6317, 38.187]}, "properties": {"NAME": "W7N/NS-145", "TITLE": "6462", "REGION": "NV-Nye South", "ASSOCIATION": "USA - Nevada", "POINTS": "2", "BONUSPOINTS": "3"}}, {"type": "Feature", "geometry": {"type": "Point", "coordinates": [-116.9784, 37.4899]}, "properties": {"NAME": "W7N/NS-146", "TITLE": "6455", "REGION": "NV-Nye South", "ASSOCIATION": "USA - Nevada", "POINTS": "2", "BONUSPOINTS": "3"}}, {"type": "Feature", "geometry": {"type": "Point", "coordinates": [-117.069, 37.0136]}, "properties": {"NAME": "W7N/NS-147", "TITLE": "6424", "REGION": "NV-Nye South", "ASSOCIATION": "USA - Nevada", "POINTS": "2", "BONUSPOINTS": "3"}}, {"type": "Feature", "geometry": {"type": "Point", "coordinates": [-117.0093, 37.5526]}, "properties": {"NAME": "W7N/NS-148", "TITLE": "6420", "REGION": "NV-Nye South", "ASSOCIATION": "USA - Nevada", "POINTS": "2", "BONUSPOINTS": "3"}}, {"type": "Feature", "geometry": {"type": "Point", "coordinates": [-117.0629, 36.9947]}, "properties": {"NAME": "W7N/NS-149", "TITLE": "Vine Benchmark", "REGION": "NV-Nye South", "ASSOCIATION": "USA - Nevada", "POINTS": "2", "BONUSPOINTS": "3"}}, {"type": "Feature", "geometry": {"type": "Point", "coordinates": [-116.8942, 37.9832]}, "properties": {"NAME": "W7N/NS-150", "TITLE": "Monitor Peak", "REGION": "NV-Nye South", "ASSOCIATION": "USA - Nevada", "POINTS": "2", "BONUSPOINTS": "3"}}, {"type": "Feature", "geometry": {"type": "Point", "coordinates": [-116.9212, 37.3735]}, "properties": {"NAME": "W7N/NS-151", "TITLE": "Slant Benchmark", "REGION": "NV-Nye South", "ASSOCIATION": "USA - Nevada", "POINTS": "2", "BONUSPOINTS": "3"}}, {"type": "Feature", "geometry": {"type": "Point", "coordinates": [-115.9306, 37.15]}, "properties": {"NAME": "W7N/NS-152", "TITLE": "Cockeyed Ridge", "REGION": "NV-Nye South", "ASSOCIATION": "USA - Nevada", "POINTS": "2", "BONUSPOINTS": "3"}}, {"type": "Feature", "geometry": {"type": "Point", "coordinates": [-116.685, 37.3045]}, "properties": {"NAME": "W7N/NS-153", "TITLE": "6329", "REGION": "NV-Nye South", "ASSOCIATION": "USA - Nevada", "POINTS": "2", "BONUSPOINTS": "3"}}, {"type": "Feature", "geometry": {"type": "Point", "coordinates": [-117.0676, 37.7445]}, "properties": {"NAME": "W7N/NS-154", "TITLE": "6323", "REGION": "NV-Nye South", "ASSOCIATION": "USA - Nevada", "POINTS": "2", "BONUSPOINTS": "3"}}, {"type": "Feature", "geometry": {"type": "Point", "coordinates": [-116.6745, 36.8429]}, "properties": {"NAME": "W7N/NS-155", "TITLE": "Bare Mountain", "REGION": "NV-Nye South", "ASSOCIATION": "USA - Nevada", "POINTS": "2", "BONUSPOINTS": "3"}}, {"type": "Feature", "geometry": {"type": "Point", "coordinates": [-115.3805, 38.0624]}, "properties": {"NAME": "W7N/NS-156", "TITLE": "Cherry Benchmark", "REGION": "NV-Nye South", "ASSOCIATION": "USA - Nevada", "POINTS": "2", "BONUSPOINTS": "3"}}, {"type": "Feature", "geometry": {"type": "Point", "coordinates": [-116.5411, 37.6121]}, "properties": {"NAME": "W7N/NS-157", "TITLE": "Lizard Hills South", "REGION": "NV-Nye South", "ASSOCIATION": "USA - Nevada", "POINTS": "2", "BONUSPOINTS": "3"}}, {"type": "Feature", "geometry": {"type": "Point", "coordinates": [-116.5659, 37.5529]}, "properties": {"NAME": "W7N/NS-158", "TITLE": "Triangle Mountain", "REGION": "NV-Nye South", "ASSOCIATION": "USA - Nevada", "POINTS": "2", "BONUSPOINTS": "3"}}, {"type": "Feature", "geometry": {"type": "Point", "coordinates": [-115.3777, 38.088]}, "properties": {"NAME": "W7N/NS-159", "TITLE": "6260", "REGION": "NV-Nye South", "ASSOCIATION": "USA - Nevada", "POINTS": "2", "BONUSPOINTS": "3"}}, {"type": "Feature", "geometry": {"type": "Point", "coordinates": [-116.9677, 37.5354]}, "properties": {"NAME": "W7N/NS-160", "TITLE": "6251", "REGION": "NV-Nye South", "ASSOCIATION": "USA - Nevada", "POINTS": "2", "BONUSPOINTS": "3"}}, {"type": "Feature", "geometry": {"type": "Point", "coordinates": [-117.1478, 37.9646]}, "properties": {"NAME": "W7N/NS-161", "TITLE": "6249", "REGION": "NV-Nye South", "ASSOCIATION": "USA - Nevada", "POINTS": "2", "BONUSPOINTS": "3"}}, {"type": "Feature", "geometry": {"type": "Point", "coordinates": [-116.3959, 36.9859]}, "properties": {"NAME": "W7N/NS-162", "TITLE": "Dome Mountain", "REGION": "NV-Nye South", "ASSOCIATION": "USA - Nevada", "POINTS": "2", "BONUSPOINTS": "3"}}, {"type": "Feature", "geometry": {"type": "Point", "coordinates": [-116.8629, 37.3197]}, "properties": {"NAME": "W7N/NS-163", "TITLE": "Obsidian Butte", "REGION": "NV-Nye South", "ASSOCIATION": "USA - Nevada", "POINTS": "2", "BONUSPOINTS": "3"}}, {"type": "Feature", "geometry": {"type": "Point", "coordinates": [-116.4141, 36.9397]}, "properties": {"NAME": "W7N/NS-164", "TITLE": "Jack Benchmark", "REGION": "NV-Nye South", "ASSOCIATION": "USA - Nevada", "POINTS": "2", "BONUSPOINTS": "3"}}, {"type": "Feature", "geometry": {"type": "Point", "coordinates": [-116.2242, 37.0494]}, "properties": {"NAME": "W7N/NS-165", "TITLE": "6161", "REGION": "NV-Nye South", "ASSOCIATION": "USA - Nevada", "POINTS": "2", "BONUSPOINTS": "3"}}, {"type": "Feature", "geometry": {"type": "Point", "coordinates": [-116.9172, 37.3578]}, "properties": {"NAME": "W7N/NS-166", "TITLE": "6147", "REGION": "NV-Nye South", "ASSOCIATION": "USA - Nevada", "POINTS": "2", "BONUSPOINTS": "3"}}, {"type": "Feature", "geometry": {"type": "Point", "coordinates": [-117.1429, 37.1191]}, "properties": {"NAME": "W7N/NS-167", "TITLE": "6114", "REGION": "NV-Nye South", "ASSOCIATION": "USA - Nevada", "POINTS": "2", "BONUSPOINTS": "3"}}, {"type": "Feature", "geometry": {"type": "Point", "coordinates": [-116.9537, 36.9468]}, "properties": {"NAME": "W7N/NS-168", "TITLE": "6100", "REGION": "NV-Nye South", "ASSOCIATION": "USA - Nevada", "POINTS": "2", "BONUSPOINTS": "3"}}, {"type": "Feature", "geometry": {"type": "Point", "coordinates": [-117.0304, 37.8066]}, "properties": {"NAME": "W7N/NS-169", "TITLE": "6100", "REGION": "NV-Nye South", "ASSOCIATION": "USA - Nevada", "POINTS": "2", "BONUSPOINTS": "3"}}, {"type": "Feature", "geometry": {"type": "Point", "coordinates": [-116.8874, 37.3424]}, "properties": {"NAME": "W7N/NS-170", "TITLE": "6093", "REGION": "NV-Nye South", "ASSOCIATION": "USA - Nevada", "POINTS": "2", "BONUSPOINTS": "3"}}, {"type": "Feature", "geometry": {"type": "Point", "coordinates": [-115.9118, 36.6479]}, "properties": {"NAME": "W7N/NS-171", "TITLE": "South Ridge", "REGION": "NV-Nye South", "ASSOCIATION": "USA - Nevada", "POINTS": "2", "BONUSPOINTS": "3"}}, {"type": "Feature", "geometry": {"type": "Point", "coordinates": [-117.0136, 37.8078]}, "properties": {"NAME": "W7N/NS-172", "TITLE": "6060", "REGION": "NV-Nye South", "ASSOCIATION": "USA - Nevada", "POINTS": "2", "BONUSPOINTS": "3"}}, {"type": "Feature", "geometry": {"type": "Point", "coordinates": [-116.3797, 37.1293]}, "properties": {"NAME": "W7N/NS-173", "TITLE": "Scrugham Peak", "REGION": "NV-Nye South", "ASSOCIATION": "USA - Nevada", "POINTS": "2", "BONUSPOINTS": "3"}}, {"type": "Feature", "geometry": {"type": "Point", "coordinates": [-116.5451, 36.9704]}, "properties": {"NAME": "W7N/NS-174", "TITLE": "6010", "REGION": "NV-Nye South", "ASSOCIATION": "USA - Nevada", "POINTS": "2", "BONUSPOINTS": "3"}}, {"type": "Feature", "geometry": {"type": "Point", "coordinates": [-116.8494, 36.9367]}, "properties": {"NAME": "W7N/NS-175", "TITLE": "Sawtooth Mountain", "REGION": "NV-Nye South", "ASSOCIATION": "USA - Nevada", "POINTS": "2", "BONUSPOINTS": "3"}}, {"type": "Feature", "geometry": {"type": "Point", "coordinates": [-116.1758, 36.7759]}, "properties": {"NAME": "W7N/NS-176", "TITLE": "Skull Mountain", "REGION": "NV-Nye South", "ASSOCIATION": "USA - Nevada", "POINTS": "2", "BONUSPOINTS": "3"}}, {"type": "Feature", "geometry": {"type": "Point", "coordinates": [-116.6632, 36.883]}, "properties": {"NAME": "W7N/NS-177", "TITLE": "Meiklejohn Peak", "REGION": "NV-Nye South", "ASSOCIATION": "USA - Nevada", "POINTS": "2", "BONUSPOINTS": "3"}}, {"type": "Feature", "geometry": {"type": "Point", "coordinates": [-116.4796, 36.9007]}, "properties": {"NAME": "W7N/NS-178", "TITLE": "Prow, The", "REGION": "NV-Nye South", "ASSOCIATION": "USA - Nevada", "POINTS": "2", "BONUSPOINTS": "3"}}, {"type": "Feature", "geometry": {"type": "Point", "coordinates": [-116.1746, 36.8556]}, "properties": {"NAME": "W7N/NS-179", "TITLE": "Lookout Peak", "REGION": "NV-Nye South", "ASSOCIATION": "USA - Nevada", "POINTS": "2", "BONUSPOINTS": "3"}}, {"type": "Feature", "geometry": {"type": "Point", "coordinates": [-115.9681, 37.1111]}, "properties": {"NAME": "W7N/NS-180", "TITLE": "Slanted Buttes North", "REGION": "NV-Nye South", "ASSOCIATION": "USA - Nevada", "POINTS": "2", "BONUSPOINTS": "3"}}, {"type": "Feature", "geometry": {"type": "Point", "coordinates": [-116.7407, 37.1565]}, "properties": {"NAME": "W7N/NS-181", "TITLE": "Sleeping Benchmark", "REGION": "NV-Nye South", "ASSOCIATION": "USA - Nevada", "POINTS": "2", "BONUSPOINTS": "3"}}, {"type": "Feature", "geometry": {"type": "Point", "coordinates": [-116.8297, 36.9614]}, "properties": {"NAME": "W7N/NS-182", "TITLE": "5620", "REGION": "NV-Nye South", "ASSOCIATION": "USA - Nevada", "POINTS": "2", "BONUSPOINTS": "3"}}, {"type": "Feature", "geometry": {"type": "Point", "coordinates": [-116.8161, 37.0034]}, "properties": {"NAME": "W7N/NS-183", "TITLE": "Donovan Mountain", "REGION": "NV-Nye South", "ASSOCIATION": "USA - Nevada", "POINTS": "2", "BONUSPOINTS": "3"}}, {"type": "Feature", "geometry": {"type": "Point", "coordinates": [-116.8983, 36.938]}, "properties": {"NAME": "W7N/NS-184", "TITLE": "Gold Bar Mountain", "REGION": "NV-Nye South", "ASSOCIATION": "USA - Nevada", "POINTS": "2", "BONUSPOINTS": "3"}}, {"type": "Feature", "geometry": {"type": "Point", "coordinates": [-116.1509, 36.9969]}, "properties": {"NAME": "W7N/NS-185", "TITLE": "Mine Mountain", "REGION": "NV-Nye South", "ASSOCIATION": "USA - Nevada", "POINTS": "2", "BONUSPOINTS": "3"}}, {"type": "Feature", "geometry": {"type": "Point", "coordinates": [-116.9103, 37.2808]}, "properties": {"NAME": "W7N/NS-186", "TITLE": "5410", "REGION": "NV-Nye South", "ASSOCIATION": "USA - Nevada", "POINTS": "2", "BONUSPOINTS": "3"}}, {"type": "Feature", "geometry": {"type": "Point", "coordinates": [-116.4037, 36.913]}, "properties": {"NAME": "W7N/NS-187", "TITLE": "Comb Peak", "REGION": "NV-Nye South", "ASSOCIATION": "USA - Nevada", "POINTS": "2", "BONUSPOINTS": "3"}}, {"type": "Feature", "geometry": {"type": "Point", "coordinates": [-116.0943, 36.9322]}, "properties": {"NAME": "W7N/NS-188", "TITLE": "C P Hills", "REGION": "NV-Nye South", "ASSOCIATION": "USA - Nevada", "POINTS": "2", "BONUSPOINTS": "3"}}, {"type": "Feature", "geometry": {"type": "Point", "coordinates": [-116.0084, 37.146]}, "properties": {"NAME": "W7N/NS-189", "TITLE": "Banded Mountain", "REGION": "NV-Nye South", "ASSOCIATION": "USA - Nevada", "POINTS": "2", "BONUSPOINTS": "3"}}, {"type": "Feature", "geometry": {"type": "Point", "coordinates": [-115.9513, 36.6761]}, "properties": {"NAME": "W7N/NS-190", "TITLE": "Mercury Ridge", "REGION": "NV-Nye South", "ASSOCIATION": "USA - Nevada", "POINTS": "2", "BONUSPOINTS": "3"}}, {"type": "Feature", "geometry": {"type": "Point", "coordinates": [-115.9509, 36.9133]}, "properties": {"NAME": "W7N/NS-191", "TITLE": "French Peak", "REGION": "NV-Nye South", "ASSOCIATION": "USA - Nevada", "POINTS": "2", "BONUSPOINTS": "3"}}, {"type": "Feature", "geometry": {"type": "Point", "coordinates": [-117.1435, 37.2658]}, "properties": {"NAME": "W7N/NS-192", "TITLE": "5267", "REGION": "NV-Nye South", "ASSOCIATION": "USA - Nevada", "POINTS": "2", "BONUSPOINTS": "3"}}, {"type": "Feature", "geometry": {"type": "Point", "coordinates": [-115.9639, 37.0649]}, "properties": {"NAME": "W7N/NS-193", "TITLE": "Paiute Ridge", "REGION": "NV-Nye South", "ASSOCIATION": "USA - Nevada", "POINTS": "2", "BONUSPOINTS": "3"}}, {"type": "Feature", "geometry": {"type": "Point", "coordinates": [-117.0926, 37.403]}, "properties": {"NAME": "W7N/NS-194", "TITLE": "5211", "REGION": "NV-Nye South", "ASSOCIATION": "USA - Nevada", "POINTS": "2", "BONUSPOINTS": "3"}}, {"type": "Feature", "geometry": {"type": "Point", "coordinates": [-116.9246, 37.2678]}, "properties": {"NAME": "W7N/NS-195", "TITLE": "5203", "REGION": "NV-Nye South", "ASSOCIATION": "USA - Nevada", "POINTS": "2", "BONUSPOINTS": "3"}}, {"type": "Feature", "geometry": {"type": "Point", "coordinates": [-116.9152, 36.7828]}, "properties": {"NAME": "W7N/NS-196", "TITLE": "CA/NV Boundary Monument 93", "REGION": "NV-Nye South", "ASSOCIATION": "USA - Nevada", "POINTS": "2", "BONUSPOINTS": "3"}}, {"type": "Feature", "geometry": {"type": "Point", "coordinates": [-116.929, 36.811]}, "properties": {"NAME": "W7N/NS-197", "TITLE": "Prospect Peak", "REGION": "NV-Nye South", "ASSOCIATION": "USA - Nevada", "POINTS": "2", "BONUSPOINTS": "3"}}, {"type": "Feature", "geometry": {"type": "Point", "coordinates": [-116.6789, 36.8977]}, "properties": {"NAME": "W7N/NS-198", "TITLE": "5051", "REGION": "NV-Nye South", "ASSOCIATION": "USA - Nevada", "POINTS": "2", "BONUSPOINTS": "3"}}, {"type": "Feature", "geometry": {"type": "Point", "coordinates": [-116.7938, 37.0078]}, "properties": {"NAME": "W7N/NS-199", "TITLE": "4991", "REGION": "NV-Nye South", "ASSOCIATION": "USA - Nevada", "POINTS": "1", "BONUSPOINTS": "3"}}, {"type": "Feature", "geometry": {"type": "Point", "coordinates": [-116.0843, 36.3356]}, "properties": {"NAME": "W7N/NS-200", "TITLE": "Last Chance Range HP", "REGION": "NV-Nye South", "ASSOCIATION": "USA - Nevada", "POINTS": "1", "BONUSPOINTS": "3"}}, {"type": "Feature", "geometry": {"type": "Point", "coordinates": [-116.0492, 36.502]}, "properties": {"NAME": "W7N/NS-201", "TITLE": "4983", "REGION": "NV-Nye South", "ASSOCIATION": "USA - Nevada", "POINTS": "1", "BONUSPOINTS": "3"}}, {"type": "Feature", "geometry": {"type": "Point", "coordinates": [-117.1238, 37.2012]}, "properties": {"NAME": "W7N/NS-202", "TITLE": "Bonnie Benchmark", "REGION": "NV-Nye South", "ASSOCIATION": "USA - Nevada", "POINTS": "1", "BONUSPOINTS": "3"}}, {"type": "Feature", "geometry": {"type": "Point", "coordinates": [-116.0967, 36.7605]}, "properties": {"NAME": "W7N/NS-203", "TITLE": "Hampel Hill", "REGION": "NV-Nye South", "ASSOCIATION": "USA - Nevada", "POINTS": "1", "BONUSPOINTS": "3"}}, {"type": "Feature", "geometry": {"type": "Point", "coordinates": [-116.8184, 37.0817]}, "properties": {"NAME": "W7N/NS-204", "TITLE": "Springdale Mountain", "REGION": "NV-Nye South", "ASSOCIATION": "USA - Nevada", "POINTS": "1", "BONUSPOINTS": "3"}}, {"type": "Feature", "geometry": {"type": "Point", "coordinates": [-116.8821, 36.9086]}, "properties": {"NAME": "W7N/NS-205", "TITLE": "Bullfrog Mountain", "REGION": "NV-Nye South", "ASSOCIATION": "USA - Nevada", "POINTS": "1", "BONUSPOINTS": "3"}}, {"type": "Feature", "geometry": {"type": "Point", "coordinates": [-116.7829, 36.9489]}, "properties": {"NAME": "W7N/NS-206", "TITLE": "4900", "REGION": "NV-Nye South", "ASSOCIATION": "USA - Nevada", "POINTS": "1", "BONUSPOINTS": "3"}}, {"type": "Feature", "geometry": {"type": "Point", "coordinates": [-116.1565, 36.6373]}, "properties": {"NAME": "W7N/NS-207", "TITLE": "Eagle Benchmark", "REGION": "NV-Nye South", "ASSOCIATION": "USA - Nevada", "POINTS": "1", "BONUSPOINTS": "3"}}, {"type": "Feature", "geometry": {"type": "Point", "coordinates": [-116.0181, 36.6819]}, "properties": {"NAME": "W7N/NS-208", "TITLE": "Red Mountain", "REGION": "NV-Nye South", "ASSOCIATION": "USA - Nevada", "POINTS": "1", "BONUSPOINTS": "3"}}, {"type": "Feature", "geometry": {"type": "Point", "coordinates": [-116.9063, 36.8857]}, "properties": {"NAME": "W7N/NS-209", "TITLE": "Sharp Benchmark", "REGION": "NV-Nye South", "ASSOCIATION": "USA - Nevada", "POINTS": "1", "BONUSPOINTS": "3"}}, {"type": "Feature", "geometry": {"type": "Point", "coordinates": [-116.7533, 37.0481]}, "properties": {"NAME": "W7N/NS-210", "TITLE": "Oasis Mountain", "REGION": "NV-Nye South", "ASSOCIATION": "USA - Nevada", "POINTS": "1", "BONUSPOINTS": "3"}}, {"type": "Feature", "geometry": {"type": "Point", "coordinates": [-116.0669, 36.8028]}, "properties": {"NAME": "W7N/NS-211", "TITLE": "Salyer, Mount", "REGION": "NV-Nye South", "ASSOCIATION": "USA - Nevada", "POINTS": "1", "BONUSPOINTS": "3"}}, {"type": "Feature", "geometry": {"type": "Point", "coordinates": [-116.2628, 36.723]}, "properties": {"NAME": "W7N/NS-212", "TITLE": "Little Skull Mountain", "REGION": "NV-Nye South", "ASSOCIATION": "USA - Nevada", "POINTS": "1", "BONUSPOINTS": "3"}}, {"type": "Feature", "geometry": {"type": "Point", "coordinates": [-116.7655, 36.9971]}, "properties": {"NAME": "W7N/NS-213", "TITLE": "4660", "REGION": "NV-Nye South", "ASSOCIATION": "USA - Nevada", "POINTS": "1", "BONUSPOINTS": "3"}}, {"type": "Feature", "geometry": {"type": "Point", "coordinates": [-116.9215, 37.1522]}, "properties": {"NAME": "W7N/NS-214", "TITLE": "Coba Mountain", "REGION": "NV-Nye South", "ASSOCIATION": "USA - Nevada", "POINTS": "1", "BONUSPOINTS": "3"}}, {"type": "Feature", "geometry": {"type": "Point", "coordinates": [-116.2024, 36.6209]}, "properties": {"NAME": "W7N/NS-215", "TITLE": "4458", "REGION": "NV-Nye South", "ASSOCIATION": "USA - Nevada", "POINTS": "1", "BONUSPOINTS": "3"}}, {"type": "Feature", "geometry": {"type": "Point", "coordinates": [-116.118, 36.3897]}, "properties": {"NAME": "W7N/NS-216", "TITLE": "Johnnie Range HP", "REGION": "NV-Nye South", "ASSOCIATION": "USA - Nevada", "POINTS": "1", "BONUSPOINTS": "3"}}, {"type": "Feature", "geometry": {"type": "Point", "coordinates": [-116.7885, 36.918]}, "properties": {"NAME": "W7N/NS-217", "TITLE": "Burton Mountain", "REGION": "NV-Nye South", "ASSOCIATION": "USA - Nevada", "POINTS": "1", "BONUSPOINTS": "3"}}, {"type": "Feature", "geometry": {"type": "Point", "coordinates": [-116.1859, 36.3654]}, "properties": {"NAME": "W7N/NS-218", "TITLE": "Devils Hole Hills HP", "REGION": "NV-Nye South", "ASSOCIATION": "USA - Nevada", "POINTS": "1", "BONUSPOINTS": "3"}}, {"type": "Feature", "geometry": {"type": "Point", "coordinates": [-116.2212, 36.6558]}, "properties": {"NAME": "W7N/NS-219", "TITLE": "4315", "REGION": "NV-Nye South", "ASSOCIATION": "USA - Nevada", "POINTS": "1", "BONUSPOINTS": "3"}}, {"type": "Feature", "geometry": {"type": "Point", "coordinates": [-116.419, 36.7829]}, "properties": {"NAME": "W7N/NS-220", "TITLE": "Busted Butte", "REGION": "NV-Nye South", "ASSOCIATION": "USA - Nevada", "POINTS": "1", "BONUSPOINTS": "3"}}, {"type": "Feature", "geometry": {"type": "Point", "coordinates": [-116.1011, 36.5967]}, "properties": {"NAME": "W7N/NS-221", "TITLE": "4183", "REGION": "NV-Nye South", "ASSOCIATION": "USA - Nevada", "POINTS": "1", "BONUSPOINTS": "3"}}, {"type": "Feature", "geometry": {"type": "Point", "coordinates": [-116.2114, 36.3984]}, "properties": {"NAME": "W7N/NS-222", "TITLE": "4150", "REGION": "NV-Nye South", "ASSOCIATION": "USA - Nevada", "POINTS": "1", "BONUSPOINTS": "3"}}, {"type": "Feature", "geometry": {"type": "Point", "coordinates": [-116.1695, 36.3384]}, "properties": {"NAME": "W7N/NS-223", "TITLE": "4112", "REGION": "NV-Nye South", "ASSOCIATION": "USA - Nevada", "POINTS": "1", "BONUSPOINTS": "3"}}, {"type": "Feature", "geometry": {"type": "Point", "coordinates": [-116.2707, 36.6448]}, "properties": {"NAME": "W7N/NS-224", "TITLE": "4101", "REGION": "NV-Nye South", "ASSOCIATION": "USA - Nevada", "POINTS": "1", "BONUSPOINTS": "3"}}, {"type": "Feature", "geometry": {"type": "Point", "coordinates": [-116.3296, 36.6671]}, "properties": {"NAME": "W7N/NS-225", "TITLE": "Striped Hills", "REGION": "NV-Nye South", "ASSOCIATION": "USA - Nevada", "POINTS": "1", "BONUSPOINTS": "3"}}, {"type": "Feature", "geometry": {"type": "Point", "coordinates": [-116.1343, 36.2511]}, "properties": {"NAME": "W7N/NS-226", "TITLE": "High Peak", "REGION": "NV-Nye South", "ASSOCIATION": "USA - Nevada", "POINTS": "1", "BONUSPOINTS": "3"}}, {"type": "Feature", "geometry": {"type": "Point", "coordinates": [-116.0514, 36.5802]}, "properties": {"NAME": "W7N/NS-227", "TITLE": "Chase Mountain", "REGION": "NV-Nye South", "ASSOCIATION": "USA - Nevada", "POINTS": "1", "BONUSPOINTS": "3"}}, {"type": "Feature", "geometry": {"type": "Point", "coordinates": [-116.3366, 36.6557]}, "properties": {"NAME": "W7N/NS-228", "TITLE": "3790", "REGION": "NV-Nye South", "ASSOCIATION": "USA - Nevada", "POINTS": "1", "BONUSPOINTS": "3"}}, {"type": "Feature", "geometry": {"type": "Point", "coordinates": [-116.3578, 36.6109]}, "properties": {"NAME": "W7N/NS-229", "TITLE": "Skeleton Hills West", "REGION": "NV-Nye South", "ASSOCIATION": "USA - Nevada", "POINTS": "1", "BONUSPOINTS": "3"}}, {"type": "Feature", "geometry": {"type": "Point", "coordinates": [-116.6253, 36.7511]}, "properties": {"NAME": "W7N/NS-230", "TITLE": "Black Marble", "REGION": "NV-Nye South", "ASSOCIATION": "USA - Nevada", "POINTS": "1", "BONUSPOINTS": "3"}}, {"type": "Feature", "geometry": {"type": "Point", "coordinates": [-116.662, 36.6308]}, "properties": {"NAME": "W7N/NS-231", "TITLE": "Lees Benchmark", "REGION": "NV-Nye South", "ASSOCIATION": "USA - Nevada", "POINTS": "1", "BONUSPOINTS": "3"}}, {"type": "Feature", "geometry": {"type": "Point", "coordinates": [-116.3598, 36.6638]}, "properties": {"NAME": "W7N/NS-232", "TITLE": "Sand Hill Peak", "REGION": "NV-Nye South", "ASSOCIATION": "USA - Nevada", "POINTS": "1", "BONUSPOINTS": "3"}}, {"type": "Feature", "geometry": {"type": "Point", "coordinates": [-116.2946, 36.4357]}, "properties": {"NAME": "W7N/NS-233", "TITLE": "3180", "REGION": "NV-Nye South", "ASSOCIATION": "USA - Nevada", "POINTS": "1", "BONUSPOINTS": "3"}}, {"type": "Feature", "geometry": {"type": "Point", "coordinates": [-116.2734, 36.417]}, "properties": {"NAME": "W7N/NS-234", "TITLE": "3055", "REGION": "NV-Nye South", "ASSOCIATION": "USA - Nevada", "POINTS": "1", "BONUSPOINTS": "3"}}, {"type": "Feature", "geometry": {"type": "Point", "coordinates": [-116.1169, 37.5485]}, "properties": {"NAME": "W7N/NS-235", "TITLE": "Limestone Ridge", "REGION": "NV-Nye South", "ASSOCIATION": "USA - Nevada", "POINTS": "4", "BONUSPOINTS": "3"}}, {"type": "Feature", "geometry": {"type": "Point", "coordinates": [-116.804, 37.5929]}, "properties": {"NAME": "W7N/NS-236", "TITLE": "Wellington Hills", "REGION": "NV-Nye South", "ASSOCIATION": "USA - Nevada", "POINTS": "2", "BONUSPOINTS": "3"}}, {"type": "Feature", "geometry": {"type": "Point", "coordinates": [-116.3375, 36.9078]}, "properties": {"NAME": "W7N/NS-237", "TITLE": "6164", "REGION": "NV-Nye South", "ASSOCIATION": "USA - Nevada", "POINTS": "2", "BONUSPOINTS": "3"}}, {"type": "Feature", "geometry": {"type": "Point", "coordinates": [-116.8288, 37.447]}, "properties": {"NAME": "W7N/NS-238", "TITLE": "6107", "REGION": "NV-Nye South", "ASSOCIATION": "USA - Nevada", "POINTS": "2", "BONUSPOINTS": "3"}}, {"type": "Feature", "geometry": {"type": "Point", "coordinates": [-116.8313, 37.0868]}, "properties": {"NAME": "W7N/NS-239", "TITLE": "4897", "REGION": "NV-Nye South", "ASSOCIATION": "USA - Nevada", "POINTS": "1", "BONUSPOINTS": "3"}}, {"type": "Feature", "geometry": {"type": "Point", "coordinates": [-116.0879, 36.6025]}, "properties": {"NAME": "W7N/NS-240", "TITLE": "4120", "REGION": "NV-Nye South", "ASSOCIATION": "USA - Nevada", "POINTS": "1", "BONUSPOINTS": "3"}}, {"type": "Feature", "geometry": {"type": "Point", "coordinates": [-116.2909, 36.646]}, "properties": {"NAME": "W7N/NS-241", "TITLE": "3788", "REGION": "NV-Nye South", "ASSOCIATION": "USA - Nevada", "POINTS": "1", "BONUSPOINTS": "3"}}]}