{"type": "FeatureCollection", "name": "W7N/NN SUMMITS", "features": [{"type": "Feature", "geometry": {"type": "Point", "coordinates": [-116.9267, 38.752]}, "properties": {"NAME": "W7N/NN-001", "TITLE": "Jefferson, Mount-South Summit", "REGION": "NV-Nye North", "ASSOCIATION": "USA - Nevada", "POINTS": "10", "BONUSPOINTS": "3"}}, {"type": "Feature", "geometry": {"type": "Point", "coordinates": [-116.9277, 38.7951]}, "properties": {"NAME": "W7N/NN-002", "TITLE": "Jefferson, Mount-North Summit", "REGION": "NV-Nye North", "ASSOCIATION": "USA - Nevada", "POINTS": "10", "BONUSPOINTS": "3"}}, {"type": "Feature", "geometry": {"type": "Point", "coordinates": [-117.3532, 38.8328]}, "properties": {"NAME": "W7N/NN-003", "TITLE": "Arc Dome", "REGION": "NV-Nye North", "ASSOCIATION": "USA - Nevada", "POINTS": "10", "BONUSPOINTS": "3"}}, {"type": "Feature", "geometry": {"type": "Point", "coordinates": [-117.3487, 38.8574]}, "properties": {"NAME": "W7N/NN-004", "TITLE": "11406", "REGION": "NV-Nye North", "ASSOCIATION": "USA - Nevada", "POINTS": "10", "BONUSPOINTS": "3"}}, {"type": "Feature", "geometry": {"type": "Point", "coordinates": [-117.2515, 38.7988]}, "properties": {"NAME": "W7N/NN-005", "TITLE": "Toiyabe Dome", "REGION": "NV-Nye North", "ASSOCIATION": "USA - Nevada", "POINTS": "10", "BONUSPOINTS": "3"}}, {"type": "Feature", "geometry": {"type": "Point", "coordinates": [-115.5018, 38.3194]}, "properties": {"NAME": "W7N/NN-006", "TITLE": "Troy Peak", "REGION": "NV-Nye North", "ASSOCIATION": "USA - Nevada", "POINTS": "10", "BONUSPOINTS": "3"}}, {"type": "Feature", "geometry": {"type": "Point", "coordinates": [-117.2912, 38.7664]}, "properties": {"NAME": "W7N/NN-007", "TITLE": "11194", "REGION": "NV-Nye North", "ASSOCIATION": "USA - Nevada", "POINTS": "10", "BONUSPOINTS": "3"}}, {"type": "Feature", "geometry": {"type": "Point", "coordinates": [-117.2933, 38.7952]}, "properties": {"NAME": "W7N/NN-008", "TITLE": "11100", "REGION": "NV-Nye North", "ASSOCIATION": "USA - Nevada", "POINTS": "10", "BONUSPOINTS": "3"}}, {"type": "Feature", "geometry": {"type": "Point", "coordinates": [-117.1739, 39.1531]}, "properties": {"NAME": "W7N/NN-009", "TITLE": "11085", "REGION": "NV-Nye North", "ASSOCIATION": "USA - Nevada", "POINTS": "10", "BONUSPOINTS": "3"}}, {"type": "Feature", "geometry": {"type": "Point", "coordinates": [-117.2059, 39.115]}, "properties": {"NAME": "W7N/NN-010", "TITLE": "Toiyabe Range Peak", "REGION": "NV-Nye North", "ASSOCIATION": "USA - Nevada", "POINTS": "10", "BONUSPOINTS": "3"}}, {"type": "Feature", "geometry": {"type": "Point", "coordinates": [-116.9617, 38.6699]}, "properties": {"NAME": "W7N/NN-011", "TITLE": "Shoshone Mountain", "REGION": "NV-Nye North", "ASSOCIATION": "USA - Nevada", "POINTS": "10", "BONUSPOINTS": "3"}}, {"type": "Feature", "geometry": {"type": "Point", "coordinates": [-117.3063, 38.9202]}, "properties": {"NAME": "W7N/NN-012", "TITLE": "South Toiyabe Peak", "REGION": "NV-Nye North", "ASSOCIATION": "USA - Nevada", "POINTS": "10", "BONUSPOINTS": "3"}}, {"type": "Feature", "geometry": {"type": "Point", "coordinates": [-117.2985, 38.8712]}, "properties": {"NAME": "W7N/NN-013", "TITLE": "10894", "REGION": "NV-Nye North", "ASSOCIATION": "USA - Nevada", "POINTS": "10", "BONUSPOINTS": "3"}}, {"type": "Feature", "geometry": {"type": "Point", "coordinates": [-116.5884, 38.8118]}, "properties": {"NAME": "W7N/NN-014", "TITLE": "Table Mountain", "REGION": "NV-Nye North", "ASSOCIATION": "USA - Nevada", "POINTS": "10", "BONUSPOINTS": "3"}}, {"type": "Feature", "geometry": {"type": "Point", "coordinates": [-117.3236, 38.9297]}, "properties": {"NAME": "W7N/NN-015", "TITLE": "10820", "REGION": "NV-Nye North", "ASSOCIATION": "USA - Nevada", "POINTS": "10", "BONUSPOINTS": "3"}}, {"type": "Feature", "geometry": {"type": "Point", "coordinates": [-117.2637, 39.0127]}, "properties": {"NAME": "W7N/NN-016", "TITLE": "French Peak", "REGION": "NV-Nye North", "ASSOCIATION": "USA - Nevada", "POINTS": "10", "BONUSPOINTS": "3"}}, {"type": "Feature", "geometry": {"type": "Point", "coordinates": [-116.9829, 38.6587]}, "properties": {"NAME": "W7N/NN-017", "TITLE": "Spanish Peak", "REGION": "NV-Nye North", "ASSOCIATION": "USA - Nevada", "POINTS": "10", "BONUSPOINTS": "3"}}, {"type": "Feature", "geometry": {"type": "Point", "coordinates": [-117.2554, 38.7728]}, "properties": {"NAME": "W7N/NN-018", "TITLE": "10718", "REGION": "NV-Nye North", "ASSOCIATION": "USA - Nevada", "POINTS": "10", "BONUSPOINTS": "3"}}, {"type": "Feature", "geometry": {"type": "Point", "coordinates": [-117.3138, 38.9517]}, "properties": {"NAME": "W7N/NN-019", "TITLE": "10715", "REGION": "NV-Nye North", "ASSOCIATION": "USA - Nevada", "POINTS": "10", "BONUSPOINTS": "3"}}, {"type": "Feature", "geometry": {"type": "Point", "coordinates": [-117.2837, 38.8743]}, "properties": {"NAME": "W7N/NN-020", "TITLE": "10660", "REGION": "NV-Nye North", "ASSOCIATION": "USA - Nevada", "POINTS": "10", "BONUSPOINTS": "3"}}, {"type": "Feature", "geometry": {"type": "Point", "coordinates": [-115.5009, 38.3489]}, "properties": {"NAME": "W7N/NN-021", "TITLE": "Timber Mountain", "REGION": "NV-Nye North", "ASSOCIATION": "USA - Nevada", "POINTS": "10", "BONUSPOINTS": "3"}}, {"type": "Feature", "geometry": {"type": "Point", "coordinates": [-116.8333, 39.0152]}, "properties": {"NAME": "W7N/NN-022", "TITLE": "Wildcat Peak", "REGION": "NV-Nye North", "ASSOCIATION": "USA - Nevada", "POINTS": "10", "BONUSPOINTS": "3"}}, {"type": "Feature", "geometry": {"type": "Point", "coordinates": [-116.7838, 39.0346]}, "properties": {"NAME": "W7N/NN-023", "TITLE": "Masket Peak", "REGION": "NV-Nye North", "ASSOCIATION": "USA - Nevada", "POINTS": "10", "BONUSPOINTS": "3"}}, {"type": "Feature", "geometry": {"type": "Point", "coordinates": [-115.5264, 38.2673]}, "properties": {"NAME": "W7N/NN-024", "TITLE": "10460", "REGION": "NV-Nye North", "ASSOCIATION": "USA - Nevada", "POINTS": "10", "BONUSPOINTS": "3"}}, {"type": "Feature", "geometry": {"type": "Point", "coordinates": [-116.5329, 38.8422]}, "properties": {"NAME": "W7N/NN-025", "TITLE": "Tulle Mountain", "REGION": "NV-Nye North", "ASSOCIATION": "USA - Nevada", "POINTS": "10", "BONUSPOINTS": "3"}}, {"type": "Feature", "geometry": {"type": "Point", "coordinates": [-117.235, 39.0713]}, "properties": {"NAME": "W7N/NN-026", "TITLE": "10327", "REGION": "NV-Nye North", "ASSOCIATION": "USA - Nevada", "POINTS": "10", "BONUSPOINTS": "3"}}, {"type": "Feature", "geometry": {"type": "Point", "coordinates": [-116.288, 38.6275]}, "properties": {"NAME": "W7N/NN-027", "TITLE": "Morey Peak", "REGION": "NV-Nye North", "ASSOCIATION": "USA - Nevada", "POINTS": "10", "BONUSPOINTS": "3"}}, {"type": "Feature", "geometry": {"type": "Point", "coordinates": [-116.562, 38.8142]}, "properties": {"NAME": "W7N/NN-028", "TITLE": "10260", "REGION": "NV-Nye North", "ASSOCIATION": "USA - Nevada", "POINTS": "10", "BONUSPOINTS": "3"}}, {"type": "Feature", "geometry": {"type": "Point", "coordinates": [-116.7943, 39.0674]}, "properties": {"NAME": "W7N/NN-029", "TITLE": "White Rock Mountain", "REGION": "NV-Nye North", "ASSOCIATION": "USA - Nevada", "POINTS": "10", "BONUSPOINTS": "3"}}, {"type": "Feature", "geometry": {"type": "Point", "coordinates": [-116.2512, 39.1465]}, "properties": {"NAME": "W7N/NN-030", "TITLE": "Ninemile Peak", "REGION": "NV-Nye North", "ASSOCIATION": "USA - Nevada", "POINTS": "10", "BONUSPOINTS": "3"}}, {"type": "Feature", "geometry": {"type": "Point", "coordinates": [-117.3628, 38.7543]}, "properties": {"NAME": "W7N/NN-031", "TITLE": "Peavine Mountain", "REGION": "NV-Nye North", "ASSOCIATION": "USA - Nevada", "POINTS": "10", "BONUSPOINTS": "3"}}, {"type": "Feature", "geometry": {"type": "Point", "coordinates": [-116.8285, 39.0013]}, "properties": {"NAME": "W7N/NN-032", "TITLE": "10098", "REGION": "NV-Nye North", "ASSOCIATION": "USA - Nevada", "POINTS": "10", "BONUSPOINTS": "3"}}, {"type": "Feature", "geometry": {"type": "Point", "coordinates": [-117.5608, 39.0564]}, "properties": {"NAME": "W7N/NN-033", "TITLE": "South Shoshone Peak", "REGION": "NV-Nye North", "ASSOCIATION": "USA - Nevada", "POINTS": "10", "BONUSPOINTS": "3"}}, {"type": "Feature", "geometry": {"type": "Point", "coordinates": [-116.544, 38.8918]}, "properties": {"NAME": "W7N/NN-034", "TITLE": "9936", "REGION": "NV-Nye North", "ASSOCIATION": "USA - Nevada", "POINTS": "10", "BONUSPOINTS": "3"}}, {"type": "Feature", "geometry": {"type": "Point", "coordinates": [-116.2989, 38.6577]}, "properties": {"NAME": "W7N/NN-035", "TITLE": "Devils Cave Ridge", "REGION": "NV-Nye North", "ASSOCIATION": "USA - Nevada", "POINTS": "10", "BONUSPOINTS": "3"}}, {"type": "Feature", "geometry": {"type": "Point", "coordinates": [-116.3185, 38.6641]}, "properties": {"NAME": "W7N/NN-036", "TITLE": "Mahogany Peak", "REGION": "NV-Nye North", "ASSOCIATION": "USA - Nevada", "POINTS": "10", "BONUSPOINTS": "3"}}, {"type": "Feature", "geometry": {"type": "Point", "coordinates": [-116.4924, 38.9809]}, "properties": {"NAME": "W7N/NN-037", "TITLE": "9792", "REGION": "NV-Nye North", "ASSOCIATION": "USA - Nevada", "POINTS": "10", "BONUSPOINTS": "3"}}, {"type": "Feature", "geometry": {"type": "Point", "coordinates": [-116.4567, 39.0002]}, "properties": {"NAME": "W7N/NN-038", "TITLE": "Butler Benchmark", "REGION": "NV-Nye North", "ASSOCIATION": "USA - Nevada", "POINTS": "10", "BONUSPOINTS": "3"}}, {"type": "Feature", "geometry": {"type": "Point", "coordinates": [-116.8726, 38.7047]}, "properties": {"NAME": "W7N/NN-039", "TITLE": "Little Table Mountain", "REGION": "NV-Nye North", "ASSOCIATION": "USA - Nevada", "POINTS": "10", "BONUSPOINTS": "3"}}, {"type": "Feature", "geometry": {"type": "Point", "coordinates": [-116.9252, 38.6402]}, "properties": {"NAME": "W7N/NN-040", "TITLE": "9660", "REGION": "NV-Nye North", "ASSOCIATION": "USA - Nevada", "POINTS": "10", "BONUSPOINTS": "3"}}, {"type": "Feature", "geometry": {"type": "Point", "coordinates": [-116.884, 38.8155]}, "properties": {"NAME": "W7N/NN-041", "TITLE": "9660", "REGION": "NV-Nye North", "ASSOCIATION": "USA - Nevada", "POINTS": "10", "BONUSPOINTS": "3"}}, {"type": "Feature", "geometry": {"type": "Point", "coordinates": [-116.3156, 38.6827]}, "properties": {"NAME": "W7N/NN-042", "TITLE": "Aspen Peak", "REGION": "NV-Nye North", "ASSOCIATION": "USA - Nevada", "POINTS": "10", "BONUSPOINTS": "3"}}, {"type": "Feature", "geometry": {"type": "Point", "coordinates": [-116.3528, 38.6402]}, "properties": {"NAME": "W7N/NN-043", "TITLE": "Little Fandango", "REGION": "NV-Nye North", "ASSOCIATION": "USA - Nevada", "POINTS": "10", "BONUSPOINTS": "3"}}, {"type": "Feature", "geometry": {"type": "Point", "coordinates": [-117.4372, 38.7427]}, "properties": {"NAME": "W7N/NN-044", "TITLE": "9603", "REGION": "NV-Nye North", "ASSOCIATION": "USA - Nevada", "POINTS": "10", "BONUSPOINTS": "3"}}, {"type": "Feature", "geometry": {"type": "Point", "coordinates": [-116.3519, 38.6587]}, "properties": {"NAME": "W7N/NN-045", "TITLE": "Big Fandango", "REGION": "NV-Nye North", "ASSOCIATION": "USA - Nevada", "POINTS": "10", "BONUSPOINTS": "3"}}, {"type": "Feature", "geometry": {"type": "Point", "coordinates": [-117.4024, 38.7664]}, "properties": {"NAME": "W7N/NN-046", "TITLE": "9598", "REGION": "NV-Nye North", "ASSOCIATION": "USA - Nevada", "POINTS": "10", "BONUSPOINTS": "3"}}, {"type": "Feature", "geometry": {"type": "Point", "coordinates": [-116.5245, 38.9346]}, "properties": {"NAME": "W7N/NN-047", "TITLE": "9584", "REGION": "NV-Nye North", "ASSOCIATION": "USA - Nevada", "POINTS": "10", "BONUSPOINTS": "3"}}, {"type": "Feature", "geometry": {"type": "Point", "coordinates": [-115.4716, 38.5413]}, "properties": {"NAME": "W7N/NN-048", "TITLE": "Blue Eagle Mountain", "REGION": "NV-Nye North", "ASSOCIATION": "USA - Nevada", "POINTS": "10", "BONUSPOINTS": "3"}}, {"type": "Feature", "geometry": {"type": "Point", "coordinates": [-116.6454, 38.618]}, "properties": {"NAME": "W7N/NN-049", "TITLE": "Barley Benchmark", "REGION": "NV-Nye North", "ASSOCIATION": "USA - Nevada", "POINTS": "10", "BONUSPOINTS": "3"}}, {"type": "Feature", "geometry": {"type": "Point", "coordinates": [-116.6678, 38.6687]}, "properties": {"NAME": "W7N/NN-050", "TITLE": "9500", "REGION": "NV-Nye North", "ASSOCIATION": "USA - Nevada", "POINTS": "10", "BONUSPOINTS": "3"}}, {"type": "Feature", "geometry": {"type": "Point", "coordinates": [-116.4203, 39.0509]}, "properties": {"NAME": "W7N/NN-051", "TITLE": "Savory Mountain", "REGION": "NV-Nye North", "ASSOCIATION": "USA - Nevada", "POINTS": "10", "BONUSPOINTS": "3"}}, {"type": "Feature", "geometry": {"type": "Point", "coordinates": [-117.5509, 39.1052]}, "properties": {"NAME": "W7N/NN-052", "TITLE": "9471", "REGION": "NV-Nye North", "ASSOCIATION": "USA - Nevada", "POINTS": "8", "BONUSPOINTS": "3"}}, {"type": "Feature", "geometry": {"type": "Point", "coordinates": [-116.6177, 38.6751]}, "properties": {"NAME": "W7N/NN-053", "TITLE": "9471", "REGION": "NV-Nye North", "ASSOCIATION": "USA - Nevada", "POINTS": "8", "BONUSPOINTS": "3"}}, {"type": "Feature", "geometry": {"type": "Point", "coordinates": [-116.2501, 38.9788]}, "properties": {"NAME": "W7N/NN-054", "TITLE": "Moonshine Peak", "REGION": "NV-Nye North", "ASSOCIATION": "USA - Nevada", "POINTS": "8", "BONUSPOINTS": "3"}}, {"type": "Feature", "geometry": {"type": "Point", "coordinates": [-117.5496, 38.7584]}, "properties": {"NAME": "W7N/NN-055", "TITLE": "Last Chance Benchmark", "REGION": "NV-Nye North", "ASSOCIATION": "USA - Nevada", "POINTS": "8", "BONUSPOINTS": "3"}}, {"type": "Feature", "geometry": {"type": "Point", "coordinates": [-117.5547, 38.7053]}, "properties": {"NAME": "W7N/NN-056", "TITLE": "Ardivey, Mount", "REGION": "NV-Nye North", "ASSOCIATION": "USA - Nevada", "POINTS": "8", "BONUSPOINTS": "3"}}, {"type": "Feature", "geometry": {"type": "Point", "coordinates": [-116.5468, 38.7861]}, "properties": {"NAME": "W7N/NN-057", "TITLE": "9403", "REGION": "NV-Nye North", "ASSOCIATION": "USA - Nevada", "POINTS": "8", "BONUSPOINTS": "3"}}, {"type": "Feature", "geometry": {"type": "Point", "coordinates": [-116.4665, 39.137]}, "properties": {"NAME": "W7N/NN-058", "TITLE": "Horse Benchmark", "REGION": "NV-Nye North", "ASSOCIATION": "USA - Nevada", "POINTS": "8", "BONUSPOINTS": "3"}}, {"type": "Feature", "geometry": {"type": "Point", "coordinates": [-117.4354, 38.685]}, "properties": {"NAME": "W7N/NN-059", "TITLE": "9396", "REGION": "NV-Nye North", "ASSOCIATION": "USA - Nevada", "POINTS": "8", "BONUSPOINTS": "3"}}, {"type": "Feature", "geometry": {"type": "Point", "coordinates": [-116.8274, 38.7323]}, "properties": {"NAME": "W7N/NN-060", "TITLE": "9388", "REGION": "NV-Nye North", "ASSOCIATION": "USA - Nevada", "POINTS": "8", "BONUSPOINTS": "3"}}, {"type": "Feature", "geometry": {"type": "Point", "coordinates": [-116.681, 38.5653]}, "properties": {"NAME": "W7N/NN-061", "TITLE": "9380", "REGION": "NV-Nye North", "ASSOCIATION": "USA - Nevada", "POINTS": "8", "BONUSPOINTS": "3"}}, {"type": "Feature", "geometry": {"type": "Point", "coordinates": [-115.3938, 38.427]}, "properties": {"NAME": "W7N/NN-062", "TITLE": "Heath Benchmark", "REGION": "NV-Nye North", "ASSOCIATION": "USA - Nevada", "POINTS": "8", "BONUSPOINTS": "3"}}, {"type": "Feature", "geometry": {"type": "Point", "coordinates": [-116.7777, 38.3591]}, "properties": {"NAME": "W7N/NN-063", "TITLE": "George Benchmark", "REGION": "NV-Nye North", "ASSOCIATION": "USA - Nevada", "POINTS": "8", "BONUSPOINTS": "3"}}, {"type": "Feature", "geometry": {"type": "Point", "coordinates": [-116.607, 38.869]}, "properties": {"NAME": "W7N/NN-064", "TITLE": "9302", "REGION": "NV-Nye North", "ASSOCIATION": "USA - Nevada", "POINTS": "8", "BONUSPOINTS": "3"}}, {"type": "Feature", "geometry": {"type": "Point", "coordinates": [-116.5009, 38.9359]}, "properties": {"NAME": "W7N/NN-065", "TITLE": "9300", "REGION": "NV-Nye North", "ASSOCIATION": "USA - Nevada", "POINTS": "8", "BONUSPOINTS": "3"}}, {"type": "Feature", "geometry": {"type": "Point", "coordinates": [-117.0455, 38.5773]}, "properties": {"NAME": "W7N/NN-066", "TITLE": "Bald Mountain", "REGION": "NV-Nye North", "ASSOCIATION": "USA - Nevada", "POINTS": "8", "BONUSPOINTS": "3"}}, {"type": "Feature", "geometry": {"type": "Point", "coordinates": [-116.8791, 38.952]}, "properties": {"NAME": "W7N/NN-067", "TITLE": "9271", "REGION": "NV-Nye North", "ASSOCIATION": "USA - Nevada", "POINTS": "8", "BONUSPOINTS": "3"}}, {"type": "Feature", "geometry": {"type": "Point", "coordinates": [-116.5449, 38.7565]}, "properties": {"NAME": "W7N/NN-068", "TITLE": "9260", "REGION": "NV-Nye North", "ASSOCIATION": "USA - Nevada", "POINTS": "8", "BONUSPOINTS": "3"}}, {"type": "Feature", "geometry": {"type": "Point", "coordinates": [-115.8496, 38.7415]}, "properties": {"NAME": "W7N/NN-069", "TITLE": "Portuguese Mountain", "REGION": "NV-Nye North", "ASSOCIATION": "USA - Nevada", "POINTS": "8", "BONUSPOINTS": "3"}}, {"type": "Feature", "geometry": {"type": "Point", "coordinates": [-117.4034, 38.6787]}, "properties": {"NAME": "W7N/NN-070", "TITLE": "9238", "REGION": "NV-Nye North", "ASSOCIATION": "USA - Nevada", "POINTS": "8", "BONUSPOINTS": "3"}}, {"type": "Feature", "geometry": {"type": "Point", "coordinates": [-116.8423, 38.9311]}, "properties": {"NAME": "W7N/NN-071", "TITLE": "Wilson, Mount", "REGION": "NV-Nye North", "ASSOCIATION": "USA - Nevada", "POINTS": "8", "BONUSPOINTS": "3"}}, {"type": "Feature", "geometry": {"type": "Point", "coordinates": [-116.4653, 39.1536]}, "properties": {"NAME": "W7N/NN-072", "TITLE": "Horse Heaven Mountain", "REGION": "NV-Nye North", "ASSOCIATION": "USA - Nevada", "POINTS": "8", "BONUSPOINTS": "3"}}, {"type": "Feature", "geometry": {"type": "Point", "coordinates": [-116.413, 38.2957]}, "properties": {"NAME": "W7N/NN-073", "TITLE": "Rawhide Mountain", "REGION": "NV-Nye North", "ASSOCIATION": "USA - Nevada", "POINTS": "8", "BONUSPOINTS": "3"}}, {"type": "Feature", "geometry": {"type": "Point", "coordinates": [-117.5147, 39.1311]}, "properties": {"NAME": "W7N/NN-074", "TITLE": "9180", "REGION": "NV-Nye North", "ASSOCIATION": "USA - Nevada", "POINTS": "8", "BONUSPOINTS": "3"}}, {"type": "Feature", "geometry": {"type": "Point", "coordinates": [-116.187, 38.8604]}, "properties": {"NAME": "W7N/NN-075", "TITLE": "Park Range HP", "REGION": "NV-Nye North", "ASSOCIATION": "USA - Nevada", "POINTS": "8", "BONUSPOINTS": "3"}}, {"type": "Feature", "geometry": {"type": "Point", "coordinates": [-116.673, 38.5961]}, "properties": {"NAME": "W7N/NN-076", "TITLE": "9120", "REGION": "NV-Nye North", "ASSOCIATION": "USA - Nevada", "POINTS": "8", "BONUSPOINTS": "3"}}, {"type": "Feature", "geometry": {"type": "Point", "coordinates": [-116.8758, 38.3981]}, "properties": {"NAME": "W7N/NN-077", "TITLE": "Big Ten Peak", "REGION": "NV-Nye North", "ASSOCIATION": "USA - Nevada", "POINTS": "8", "BONUSPOINTS": "3"}}, {"type": "Feature", "geometry": {"type": "Point", "coordinates": [-115.4389, 38.4804]}, "properties": {"NAME": "W7N/NN-078", "TITLE": "9105", "REGION": "NV-Nye North", "ASSOCIATION": "USA - Nevada", "POINTS": "8", "BONUSPOINTS": "3"}}, {"type": "Feature", "geometry": {"type": "Point", "coordinates": [-117.2314, 38.7177]}, "properties": {"NAME": "W7N/NN-079", "TITLE": "9098", "REGION": "NV-Nye North", "ASSOCIATION": "USA - Nevada", "POINTS": "8", "BONUSPOINTS": "3"}}, {"type": "Feature", "geometry": {"type": "Point", "coordinates": [-116.3048, 38.828]}, "properties": {"NAME": "W7N/NN-080", "TITLE": "Hicks Benchmark", "REGION": "NV-Nye North", "ASSOCIATION": "USA - Nevada", "POINTS": "8", "BONUSPOINTS": "3"}}, {"type": "Feature", "geometry": {"type": "Point", "coordinates": [-116.153, 38.9061]}, "properties": {"NAME": "W7N/NN-081", "TITLE": "Park Mountain", "REGION": "NV-Nye North", "ASSOCIATION": "USA - Nevada", "POINTS": "8", "BONUSPOINTS": "3"}}, {"type": "Feature", "geometry": {"type": "Point", "coordinates": [-117.569, 38.8961]}, "properties": {"NAME": "W7N/NN-082", "TITLE": "Buffalo Mountain", "REGION": "NV-Nye North", "ASSOCIATION": "USA - Nevada", "POINTS": "8", "BONUSPOINTS": "3"}}, {"type": "Feature", "geometry": {"type": "Point", "coordinates": [-116.7325, 38.4165]}, "properties": {"NAME": "W7N/NN-083", "TITLE": "9020", "REGION": "NV-Nye North", "ASSOCIATION": "USA - Nevada", "POINTS": "8", "BONUSPOINTS": "3"}}, {"type": "Feature", "geometry": {"type": "Point", "coordinates": [-117.3044, 38.7216]}, "properties": {"NAME": "W7N/NN-084", "TITLE": "9018", "REGION": "NV-Nye North", "ASSOCIATION": "USA - Nevada", "POINTS": "8", "BONUSPOINTS": "3"}}, {"type": "Feature", "geometry": {"type": "Point", "coordinates": [-116.8456, 38.3856]}, "properties": {"NAME": "W7N/NN-085", "TITLE": "8980", "REGION": "NV-Nye North", "ASSOCIATION": "USA - Nevada", "POINTS": "8", "BONUSPOINTS": "3"}}, {"type": "Feature", "geometry": {"type": "Point", "coordinates": [-116.4225, 38.3472]}, "properties": {"NAME": "W7N/NN-086", "TITLE": "Amethyst Peak", "REGION": "NV-Nye North", "ASSOCIATION": "USA - Nevada", "POINTS": "8", "BONUSPOINTS": "3"}}, {"type": "Feature", "geometry": {"type": "Point", "coordinates": [-116.4626, 39.1059]}, "properties": {"NAME": "W7N/NN-087", "TITLE": "8972", "REGION": "NV-Nye North", "ASSOCIATION": "USA - Nevada", "POINTS": "8", "BONUSPOINTS": "3"}}, {"type": "Feature", "geometry": {"type": "Point", "coordinates": [-116.8434, 38.4446]}, "properties": {"NAME": "W7N/NN-088", "TITLE": "8910", "REGION": "NV-Nye North", "ASSOCIATION": "USA - Nevada", "POINTS": "8", "BONUSPOINTS": "3"}}, {"type": "Feature", "geometry": {"type": "Point", "coordinates": [-116.3669, 39.0315]}, "properties": {"NAME": "W7N/NN-089", "TITLE": "8900", "REGION": "NV-Nye North", "ASSOCIATION": "USA - Nevada", "POINTS": "8", "BONUSPOINTS": "3"}}, {"type": "Feature", "geometry": {"type": "Point", "coordinates": [-115.9442, 39.0276]}, "properties": {"NAME": "W7N/NN-090", "TITLE": "Moody Peak", "REGION": "NV-Nye North", "ASSOCIATION": "USA - Nevada", "POINTS": "8", "BONUSPOINTS": "3"}}, {"type": "Feature", "geometry": {"type": "Point", "coordinates": [-116.8421, 38.7548]}, "properties": {"NAME": "W7N/NN-091", "TITLE": "8883", "REGION": "NV-Nye North", "ASSOCIATION": "USA - Nevada", "POINTS": "8", "BONUSPOINTS": "3"}}, {"type": "Feature", "geometry": {"type": "Point", "coordinates": [-116.7014, 38.7675]}, "properties": {"NAME": "W7N/NN-092", "TITLE": "8879", "REGION": "NV-Nye North", "ASSOCIATION": "USA - Nevada", "POINTS": "8", "BONUSPOINTS": "3"}}, {"type": "Feature", "geometry": {"type": "Point", "coordinates": [-115.9057, 39.0462]}, "properties": {"NAME": "W7N/NN-093", "TITLE": "Moody Mountain", "REGION": "NV-Nye North", "ASSOCIATION": "USA - Nevada", "POINTS": "8", "BONUSPOINTS": "3"}}, {"type": "Feature", "geometry": {"type": "Point", "coordinates": [-117.5379, 39.0733]}, "properties": {"NAME": "W7N/NN-094", "TITLE": "8851", "REGION": "NV-Nye North", "ASSOCIATION": "USA - Nevada", "POINTS": "8", "BONUSPOINTS": "3"}}, {"type": "Feature", "geometry": {"type": "Point", "coordinates": [-116.7588, 38.4511]}, "properties": {"NAME": "W7N/NN-095", "TITLE": "8844", "REGION": "NV-Nye North", "ASSOCIATION": "USA - Nevada", "POINTS": "8", "BONUSPOINTS": "3"}}, {"type": "Feature", "geometry": {"type": "Point", "coordinates": [-116.4246, 38.5008]}, "properties": {"NAME": "W7N/NN-096", "TITLE": "Hot Creek Benchmark", "REGION": "NV-Nye North", "ASSOCIATION": "USA - Nevada", "POINTS": "8", "BONUSPOINTS": "3"}}, {"type": "Feature", "geometry": {"type": "Point", "coordinates": [-117.4835, 38.829]}, "properties": {"NAME": "W7N/NN-097", "TITLE": "Black Mountain", "REGION": "NV-Nye North", "ASSOCIATION": "USA - Nevada", "POINTS": "8", "BONUSPOINTS": "3"}}, {"type": "Feature", "geometry": {"type": "Point", "coordinates": [-116.8143, 39.148]}, "properties": {"NAME": "W7N/NN-098", "TITLE": "Clipper Gap Benchmark", "REGION": "NV-Nye North", "ASSOCIATION": "USA - Nevada", "POINTS": "8", "BONUSPOINTS": "3"}}, {"type": "Feature", "geometry": {"type": "Point", "coordinates": [-116.4005, 38.4655]}, "properties": {"NAME": "W7N/NN-099", "TITLE": "Flagstaff Mountain", "REGION": "NV-Nye North", "ASSOCIATION": "USA - Nevada", "POINTS": "8", "BONUSPOINTS": "3"}}, {"type": "Feature", "geometry": {"type": "Point", "coordinates": [-116.2215, 39.122]}, "properties": {"NAME": "W7N/NN-100", "TITLE": "8815", "REGION": "NV-Nye North", "ASSOCIATION": "USA - Nevada", "POINTS": "8", "BONUSPOINTS": "3"}}, {"type": "Feature", "geometry": {"type": "Point", "coordinates": [-116.2335, 39.1003]}, "properties": {"NAME": "W7N/NN-101", "TITLE": "8780", "REGION": "NV-Nye North", "ASSOCIATION": "USA - Nevada", "POINTS": "8", "BONUSPOINTS": "3"}}, {"type": "Feature", "geometry": {"type": "Point", "coordinates": [-116.8727, 38.3635]}, "properties": {"NAME": "W7N/NN-102", "TITLE": "8773", "REGION": "NV-Nye North", "ASSOCIATION": "USA - Nevada", "POINTS": "8", "BONUSPOINTS": "3"}}, {"type": "Feature", "geometry": {"type": "Point", "coordinates": [-117.5471, 38.8731]}, "properties": {"NAME": "W7N/NN-103", "TITLE": "8764", "REGION": "NV-Nye North", "ASSOCIATION": "USA - Nevada", "POINTS": "8", "BONUSPOINTS": "3"}}, {"type": "Feature", "geometry": {"type": "Point", "coordinates": [-116.463, 38.3383]}, "properties": {"NAME": "W7N/NN-104", "TITLE": "8755", "REGION": "NV-Nye North", "ASSOCIATION": "USA - Nevada", "POINTS": "8", "BONUSPOINTS": "3"}}, {"type": "Feature", "geometry": {"type": "Point", "coordinates": [-116.8501, 38.4625]}, "properties": {"NAME": "W7N/NN-105", "TITLE": "8734", "REGION": "NV-Nye North", "ASSOCIATION": "USA - Nevada", "POINTS": "8", "BONUSPOINTS": "3"}}, {"type": "Feature", "geometry": {"type": "Point", "coordinates": [-116.4295, 38.3954]}, "properties": {"NAME": "W7N/NN-106", "TITLE": "8706", "REGION": "NV-Nye North", "ASSOCIATION": "USA - Nevada", "POINTS": "8", "BONUSPOINTS": "3"}}, {"type": "Feature", "geometry": {"type": "Point", "coordinates": [-115.3976, 38.507]}, "properties": {"NAME": "W7N/NN-107", "TITLE": "Bald Mountain", "REGION": "NV-Nye North", "ASSOCIATION": "USA - Nevada", "POINTS": "8", "BONUSPOINTS": "3"}}, {"type": "Feature", "geometry": {"type": "Point", "coordinates": [-117.017, 38.609]}, "properties": {"NAME": "W7N/NN-108", "TITLE": "8705", "REGION": "NV-Nye North", "ASSOCIATION": "USA - Nevada", "POINTS": "8", "BONUSPOINTS": "3"}}, {"type": "Feature", "geometry": {"type": "Point", "coordinates": [-116.4634, 38.3558]}, "properties": {"NAME": "W7N/NN-109", "TITLE": "8697", "REGION": "NV-Nye North", "ASSOCIATION": "USA - Nevada", "POINTS": "8", "BONUSPOINTS": "3"}}, {"type": "Feature", "geometry": {"type": "Point", "coordinates": [-117.2442, 38.6298]}, "properties": {"NAME": "W7N/NN-110", "TITLE": "8685", "REGION": "NV-Nye North", "ASSOCIATION": "USA - Nevada", "POINTS": "8", "BONUSPOINTS": "3"}}, {"type": "Feature", "geometry": {"type": "Point", "coordinates": [-116.4693, 38.31]}, "properties": {"NAME": "W7N/NN-111", "TITLE": "8681", "REGION": "NV-Nye North", "ASSOCIATION": "USA - Nevada", "POINTS": "8", "BONUSPOINTS": "3"}}, {"type": "Feature", "geometry": {"type": "Point", "coordinates": [-116.3834, 39.1294]}, "properties": {"NAME": "W7N/NN-112", "TITLE": "Martin Ridge", "REGION": "NV-Nye North", "ASSOCIATION": "USA - Nevada", "POINTS": "8", "BONUSPOINTS": "3"}}, {"type": "Feature", "geometry": {"type": "Point", "coordinates": [-117.7734, 38.9369]}, "properties": {"NAME": "W7N/NN-113", "TITLE": "Sherman Peak", "REGION": "NV-Nye North", "ASSOCIATION": "USA - Nevada", "POINTS": "8", "BONUSPOINTS": "3"}}, {"type": "Feature", "geometry": {"type": "Point", "coordinates": [-117.827, 38.8069]}, "properties": {"NAME": "W7N/NN-114", "TITLE": "Paradise Peak", "REGION": "NV-Nye North", "ASSOCIATION": "USA - Nevada", "POINTS": "8", "BONUSPOINTS": "3"}}, {"type": "Feature", "geometry": {"type": "Point", "coordinates": [-116.9071, 38.4373]}, "properties": {"NAME": "W7N/NN-115", "TITLE": "Hat Peak", "REGION": "NV-Nye North", "ASSOCIATION": "USA - Nevada", "POINTS": "8", "BONUSPOINTS": "3"}}, {"type": "Feature", "geometry": {"type": "Point", "coordinates": [-116.8456, 38.4026]}, "properties": {"NAME": "W7N/NN-116", "TITLE": "8621", "REGION": "NV-Nye North", "ASSOCIATION": "USA - Nevada", "POINTS": "8", "BONUSPOINTS": "3"}}, {"type": "Feature", "geometry": {"type": "Point", "coordinates": [-115.8542, 38.6888]}, "properties": {"NAME": "W7N/NN-117", "TITLE": "8620", "REGION": "NV-Nye North", "ASSOCIATION": "USA - Nevada", "POINTS": "8", "BONUSPOINTS": "3"}}, {"type": "Feature", "geometry": {"type": "Point", "coordinates": [-116.47, 38.3872]}, "properties": {"NAME": "W7N/NN-118", "TITLE": "8617", "REGION": "NV-Nye North", "ASSOCIATION": "USA - Nevada", "POINTS": "8", "BONUSPOINTS": "3"}}, {"type": "Feature", "geometry": {"type": "Point", "coordinates": [-116.4031, 38.4298]}, "properties": {"NAME": "W7N/NN-119", "TITLE": "8583", "REGION": "NV-Nye North", "ASSOCIATION": "USA - Nevada", "POINTS": "8", "BONUSPOINTS": "3"}}, {"type": "Feature", "geometry": {"type": "Point", "coordinates": [-117.382, 38.6505]}, "properties": {"NAME": "W7N/NN-120", "TITLE": "8582", "REGION": "NV-Nye North", "ASSOCIATION": "USA - Nevada", "POINTS": "8", "BONUSPOINTS": "3"}}, {"type": "Feature", "geometry": {"type": "Point", "coordinates": [-116.8504, 38.8841]}, "properties": {"NAME": "W7N/NN-121", "TITLE": "8580", "REGION": "NV-Nye North", "ASSOCIATION": "USA - Nevada", "POINTS": "8", "BONUSPOINTS": "3"}}, {"type": "Feature", "geometry": {"type": "Point", "coordinates": [-116.4526, 38.4348]}, "properties": {"NAME": "W7N/NN-122", "TITLE": "8578", "REGION": "NV-Nye North", "ASSOCIATION": "USA - Nevada", "POINTS": "8", "BONUSPOINTS": "3"}}, {"type": "Feature", "geometry": {"type": "Point", "coordinates": [-115.4487, 38.4029]}, "properties": {"NAME": "W7N/NN-123", "TITLE": "8574", "REGION": "NV-Nye North", "ASSOCIATION": "USA - Nevada", "POINTS": "8", "BONUSPOINTS": "3"}}, {"type": "Feature", "geometry": {"type": "Point", "coordinates": [-116.4626, 38.3708]}, "properties": {"NAME": "W7N/NN-124", "TITLE": "8561", "REGION": "NV-Nye North", "ASSOCIATION": "USA - Nevada", "POINTS": "8", "BONUSPOINTS": "3"}}, {"type": "Feature", "geometry": {"type": "Point", "coordinates": [-117.264, 38.7079]}, "properties": {"NAME": "W7N/NN-125", "TITLE": "8545", "REGION": "NV-Nye North", "ASSOCIATION": "USA - Nevada", "POINTS": "8", "BONUSPOINTS": "3"}}, {"type": "Feature", "geometry": {"type": "Point", "coordinates": [-117.2425, 38.3136]}, "properties": {"NAME": "W7N/NN-126", "TITLE": "San Antonio Mountains HP", "REGION": "NV-Nye North", "ASSOCIATION": "USA - Nevada", "POINTS": "8", "BONUSPOINTS": "3"}}, {"type": "Feature", "geometry": {"type": "Point", "coordinates": [-116.4134, 38.495]}, "properties": {"NAME": "W7N/NN-127", "TITLE": "8512", "REGION": "NV-Nye North", "ASSOCIATION": "USA - Nevada", "POINTS": "8", "BONUSPOINTS": "3"}}, {"type": "Feature", "geometry": {"type": "Point", "coordinates": [-116.7854, 38.4257]}, "properties": {"NAME": "W7N/NN-128", "TITLE": "8484", "REGION": "NV-Nye North", "ASSOCIATION": "USA - Nevada", "POINTS": "6", "BONUSPOINTS": "3"}}, {"type": "Feature", "geometry": {"type": "Point", "coordinates": [-117.1009, 38.4858]}, "properties": {"NAME": "W7N/NN-129", "TITLE": "Quima Benchmark", "REGION": "NV-Nye North", "ASSOCIATION": "USA - Nevada", "POINTS": "6", "BONUSPOINTS": "3"}}, {"type": "Feature", "geometry": {"type": "Point", "coordinates": [-117.2739, 38.6422]}, "properties": {"NAME": "W7N/NN-130", "TITLE": "8473", "REGION": "NV-Nye North", "ASSOCIATION": "USA - Nevada", "POINTS": "6", "BONUSPOINTS": "3"}}, {"type": "Feature", "geometry": {"type": "Point", "coordinates": [-115.4051, 38.5246]}, "properties": {"NAME": "W7N/NN-131", "TITLE": "8468", "REGION": "NV-Nye North", "ASSOCIATION": "USA - Nevada", "POINTS": "6", "BONUSPOINTS": "3"}}, {"type": "Feature", "geometry": {"type": "Point", "coordinates": [-116.5422, 38.6575]}, "properties": {"NAME": "W7N/NN-132", "TITLE": "8458", "REGION": "NV-Nye North", "ASSOCIATION": "USA - Nevada", "POINTS": "6", "BONUSPOINTS": "3"}}, {"type": "Feature", "geometry": {"type": "Point", "coordinates": [-116.433, 38.2803]}, "properties": {"NAME": "W7N/NN-133", "TITLE": "Little Rawhide Mountain", "REGION": "NV-Nye North", "ASSOCIATION": "USA - Nevada", "POINTS": "6", "BONUSPOINTS": "3"}}, {"type": "Feature", "geometry": {"type": "Point", "coordinates": [-115.8845, 39.0051]}, "properties": {"NAME": "W7N/NN-134", "TITLE": "Cake Benchmark", "REGION": "NV-Nye North", "ASSOCIATION": "USA - Nevada", "POINTS": "6", "BONUSPOINTS": "3"}}, {"type": "Feature", "geometry": {"type": "Point", "coordinates": [-117.2638, 38.6354]}, "properties": {"NAME": "W7N/NN-135", "TITLE": "8436", "REGION": "NV-Nye North", "ASSOCIATION": "USA - Nevada", "POINTS": "6", "BONUSPOINTS": "3"}}, {"type": "Feature", "geometry": {"type": "Point", "coordinates": [-116.4022, 38.4898]}, "properties": {"NAME": "W7N/NN-136", "TITLE": "8380", "REGION": "NV-Nye North", "ASSOCIATION": "USA - Nevada", "POINTS": "6", "BONUSPOINTS": "3"}}, {"type": "Feature", "geometry": {"type": "Point", "coordinates": [-116.3899, 38.5459]}, "properties": {"NAME": "W7N/NN-137", "TITLE": "8378", "REGION": "NV-Nye North", "ASSOCIATION": "USA - Nevada", "POINTS": "6", "BONUSPOINTS": "3"}}, {"type": "Feature", "geometry": {"type": "Point", "coordinates": [-117.2931, 38.6476]}, "properties": {"NAME": "W7N/NN-138", "TITLE": "8372", "REGION": "NV-Nye North", "ASSOCIATION": "USA - Nevada", "POINTS": "6", "BONUSPOINTS": "3"}}, {"type": "Feature", "geometry": {"type": "Point", "coordinates": [-115.438, 38.5286]}, "properties": {"NAME": "W7N/NN-139", "TITLE": "Tank Summit", "REGION": "NV-Nye North", "ASSOCIATION": "USA - Nevada", "POINTS": "6", "BONUSPOINTS": "3"}}, {"type": "Feature", "geometry": {"type": "Point", "coordinates": [-116.4912, 38.3402]}, "properties": {"NAME": "W7N/NN-140", "TITLE": "8363", "REGION": "NV-Nye North", "ASSOCIATION": "USA - Nevada", "POINTS": "6", "BONUSPOINTS": "3"}}, {"type": "Feature", "geometry": {"type": "Point", "coordinates": [-116.9314, 38.9883]}, "properties": {"NAME": "W7N/NN-141", "TITLE": "8344", "REGION": "NV-Nye North", "ASSOCIATION": "USA - Nevada", "POINTS": "6", "BONUSPOINTS": "3"}}, {"type": "Feature", "geometry": {"type": "Point", "coordinates": [-116.4282, 38.5936]}, "properties": {"NAME": "W7N/NN-142", "TITLE": "8343", "REGION": "NV-Nye North", "ASSOCIATION": "USA - Nevada", "POINTS": "6", "BONUSPOINTS": "3"}}, {"type": "Feature", "geometry": {"type": "Point", "coordinates": [-116.296, 38.9029]}, "properties": {"NAME": "W7N/NN-143", "TITLE": "8342", "REGION": "NV-Nye North", "ASSOCIATION": "USA - Nevada", "POINTS": "6", "BONUSPOINTS": "3"}}, {"type": "Feature", "geometry": {"type": "Point", "coordinates": [-116.3754, 38.565]}, "properties": {"NAME": "W7N/NN-144", "TITLE": "8340", "REGION": "NV-Nye North", "ASSOCIATION": "USA - Nevada", "POINTS": "6", "BONUSPOINTS": "3"}}, {"type": "Feature", "geometry": {"type": "Point", "coordinates": [-115.4297, 38.5382]}, "properties": {"NAME": "W7N/NN-145", "TITLE": "8340", "REGION": "NV-Nye North", "ASSOCIATION": "USA - Nevada", "POINTS": "6", "BONUSPOINTS": "3"}}, {"type": "Feature", "geometry": {"type": "Point", "coordinates": [-116.5668, 38.6105]}, "properties": {"NAME": "W7N/NN-146", "TITLE": "8316", "REGION": "NV-Nye North", "ASSOCIATION": "USA - Nevada", "POINTS": "6", "BONUSPOINTS": "3"}}, {"type": "Feature", "geometry": {"type": "Point", "coordinates": [-115.3514, 38.7759]}, "properties": {"NAME": "W7N/NN-147", "TITLE": "Wilhoites Benchmark", "REGION": "NV-Nye North", "ASSOCIATION": "USA - Nevada", "POINTS": "6", "BONUSPOINTS": "3"}}, {"type": "Feature", "geometry": {"type": "Point", "coordinates": [-116.4044, 38.3809]}, "properties": {"NAME": "W7N/NN-148", "TITLE": "8300", "REGION": "NV-Nye North", "ASSOCIATION": "USA - Nevada", "POINTS": "6", "BONUSPOINTS": "3"}}, {"type": "Feature", "geometry": {"type": "Point", "coordinates": [-117.0411, 38.5402]}, "properties": {"NAME": "W7N/NN-149", "TITLE": "Salisbury Peak", "REGION": "NV-Nye North", "ASSOCIATION": "USA - Nevada", "POINTS": "6", "BONUSPOINTS": "3"}}, {"type": "Feature", "geometry": {"type": "Point", "coordinates": [-116.4004, 38.3373]}, "properties": {"NAME": "W7N/NN-150", "TITLE": "8288", "REGION": "NV-Nye North", "ASSOCIATION": "USA - Nevada", "POINTS": "6", "BONUSPOINTS": "3"}}, {"type": "Feature", "geometry": {"type": "Point", "coordinates": [-116.4383, 38.475]}, "properties": {"NAME": "W7N/NN-151", "TITLE": "8282", "REGION": "NV-Nye North", "ASSOCIATION": "USA - Nevada", "POINTS": "6", "BONUSPOINTS": "3"}}, {"type": "Feature", "geometry": {"type": "Point", "coordinates": [-116.483, 38.4582]}, "properties": {"NAME": "W7N/NN-152", "TITLE": "8262", "REGION": "NV-Nye North", "ASSOCIATION": "USA - Nevada", "POINTS": "6", "BONUSPOINTS": "3"}}, {"type": "Feature", "geometry": {"type": "Point", "coordinates": [-117.4518, 38.6232]}, "properties": {"NAME": "W7N/NN-153", "TITLE": "8242", "REGION": "NV-Nye North", "ASSOCIATION": "USA - Nevada", "POINTS": "6", "BONUSPOINTS": "3"}}, {"type": "Feature", "geometry": {"type": "Point", "coordinates": [-116.5331, 38.5693]}, "properties": {"NAME": "W7N/NN-154", "TITLE": "8232", "REGION": "NV-Nye North", "ASSOCIATION": "USA - Nevada", "POINTS": "6", "BONUSPOINTS": "3"}}, {"type": "Feature", "geometry": {"type": "Point", "coordinates": [-116.3459, 38.5981]}, "properties": {"NAME": "W7N/NN-155", "TITLE": "8206", "REGION": "NV-Nye North", "ASSOCIATION": "USA - Nevada", "POINTS": "6", "BONUSPOINTS": "3"}}, {"type": "Feature", "geometry": {"type": "Point", "coordinates": [-116.4428, 38.2911]}, "properties": {"NAME": "W7N/NN-156", "TITLE": "Peach Peak", "REGION": "NV-Nye North", "ASSOCIATION": "USA - Nevada", "POINTS": "6", "BONUSPOINTS": "3"}}, {"type": "Feature", "geometry": {"type": "Point", "coordinates": [-116.13, 38.7394]}, "properties": {"NAME": "W7N/NN-157", "TITLE": "8201", "REGION": "NV-Nye North", "ASSOCIATION": "USA - Nevada", "POINTS": "6", "BONUSPOINTS": "3"}}, {"type": "Feature", "geometry": {"type": "Point", "coordinates": [-115.8733, 38.6643]}, "properties": {"NAME": "W7N/NN-158", "TITLE": "8197", "REGION": "NV-Nye North", "ASSOCIATION": "USA - Nevada", "POINTS": "6", "BONUSPOINTS": "3"}}, {"type": "Feature", "geometry": {"type": "Point", "coordinates": [-117.5758, 38.8691]}, "properties": {"NAME": "W7N/NN-159", "TITLE": "Richmond Hill", "REGION": "NV-Nye North", "ASSOCIATION": "USA - Nevada", "POINTS": "6", "BONUSPOINTS": "3"}}, {"type": "Feature", "geometry": {"type": "Point", "coordinates": [-115.8082, 38.7855]}, "properties": {"NAME": "W7N/NN-160", "TITLE": "8142", "REGION": "NV-Nye North", "ASSOCIATION": "USA - Nevada", "POINTS": "6", "BONUSPOINTS": "3"}}, {"type": "Feature", "geometry": {"type": "Point", "coordinates": [-116.401, 38.3605]}, "properties": {"NAME": "W7N/NN-161", "TITLE": "8140", "REGION": "NV-Nye North", "ASSOCIATION": "USA - Nevada", "POINTS": "6", "BONUSPOINTS": "3"}}, {"type": "Feature", "geometry": {"type": "Point", "coordinates": [-116.8809, 38.5721]}, "properties": {"NAME": "W7N/NN-162", "TITLE": "8132", "REGION": "NV-Nye North", "ASSOCIATION": "USA - Nevada", "POINTS": "6", "BONUSPOINTS": "3"}}, {"type": "Feature", "geometry": {"type": "Point", "coordinates": [-115.3575, 38.4786]}, "properties": {"NAME": "W7N/NN-163", "TITLE": "8127", "REGION": "NV-Nye North", "ASSOCIATION": "USA - Nevada", "POINTS": "6", "BONUSPOINTS": "3"}}, {"type": "Feature", "geometry": {"type": "Point", "coordinates": [-115.4548, 38.5966]}, "properties": {"NAME": "W7N/NN-164", "TITLE": "8109", "REGION": "NV-Nye North", "ASSOCIATION": "USA - Nevada", "POINTS": "6", "BONUSPOINTS": "3"}}, {"type": "Feature", "geometry": {"type": "Point", "coordinates": [-116.5407, 38.458]}, "properties": {"NAME": "W7N/NN-165", "TITLE": "8105", "REGION": "NV-Nye North", "ASSOCIATION": "USA - Nevada", "POINTS": "6", "BONUSPOINTS": "3"}}, {"type": "Feature", "geometry": {"type": "Point", "coordinates": [-116.4157, 38.415]}, "properties": {"NAME": "W7N/NN-166", "TITLE": "8100", "REGION": "NV-Nye North", "ASSOCIATION": "USA - Nevada", "POINTS": "6", "BONUSPOINTS": "3"}}, {"type": "Feature", "geometry": {"type": "Point", "coordinates": [-116.4268, 38.4361]}, "properties": {"NAME": "W7N/NN-167", "TITLE": "8100", "REGION": "NV-Nye North", "ASSOCIATION": "USA - Nevada", "POINTS": "6", "BONUSPOINTS": "3"}}, {"type": "Feature", "geometry": {"type": "Point", "coordinates": [-115.2907, 38.5566]}, "properties": {"NAME": "W7N/NN-168", "TITLE": "Gubler Benchmark", "REGION": "NV-Nye North", "ASSOCIATION": "USA - Nevada", "POINTS": "6", "BONUSPOINTS": "3"}}, {"type": "Feature", "geometry": {"type": "Point", "coordinates": [-115.8289, 38.7104]}, "properties": {"NAME": "W7N/NN-169", "TITLE": "8085", "REGION": "NV-Nye North", "ASSOCIATION": "USA - Nevada", "POINTS": "6", "BONUSPOINTS": "3"}}, {"type": "Feature", "geometry": {"type": "Point", "coordinates": [-117.4816, 38.6185]}, "properties": {"NAME": "W7N/NN-170", "TITLE": "8081", "REGION": "NV-Nye North", "ASSOCIATION": "USA - Nevada", "POINTS": "6", "BONUSPOINTS": "3"}}, {"type": "Feature", "geometry": {"type": "Point", "coordinates": [-116.0974, 38.6571]}, "properties": {"NAME": "W7N/NN-171", "TITLE": "Needle Benchmark", "REGION": "NV-Nye North", "ASSOCIATION": "USA - Nevada", "POINTS": "6", "BONUSPOINTS": "3"}}, {"type": "Feature", "geometry": {"type": "Point", "coordinates": [-116.4469, 38.4574]}, "properties": {"NAME": "W7N/NN-172", "TITLE": "8073", "REGION": "NV-Nye North", "ASSOCIATION": "USA - Nevada", "POINTS": "6", "BONUSPOINTS": "3"}}, {"type": "Feature", "geometry": {"type": "Point", "coordinates": [-116.5476, 38.4339]}, "properties": {"NAME": "W7N/NN-173", "TITLE": "8067", "REGION": "NV-Nye North", "ASSOCIATION": "USA - Nevada", "POINTS": "6", "BONUSPOINTS": "3"}}, {"type": "Feature", "geometry": {"type": "Point", "coordinates": [-115.835, 38.6714]}, "properties": {"NAME": "W7N/NN-174", "TITLE": "8050", "REGION": "NV-Nye North", "ASSOCIATION": "USA - Nevada", "POINTS": "6", "BONUSPOINTS": "3"}}, {"type": "Feature", "geometry": {"type": "Point", "coordinates": [-116.1162, 38.8167]}, "properties": {"NAME": "W7N/NN-175", "TITLE": "Andesite Ridge", "REGION": "NV-Nye North", "ASSOCIATION": "USA - Nevada", "POINTS": "6", "BONUSPOINTS": "3"}}, {"type": "Feature", "geometry": {"type": "Point", "coordinates": [-115.9708, 38.5921]}, "properties": {"NAME": "W7N/NN-176", "TITLE": "Cross Benchmark", "REGION": "NV-Nye North", "ASSOCIATION": "USA - Nevada", "POINTS": "6", "BONUSPOINTS": "3"}}, {"type": "Feature", "geometry": {"type": "Point", "coordinates": [-115.8396, 38.5935]}, "properties": {"NAME": "W7N/NN-177", "TITLE": "Army Benchmark", "REGION": "NV-Nye North", "ASSOCIATION": "USA - Nevada", "POINTS": "6", "BONUSPOINTS": "3"}}, {"type": "Feature", "geometry": {"type": "Point", "coordinates": [-115.8137, 38.8668]}, "properties": {"NAME": "W7N/NN-178", "TITLE": "Jam Benchmark", "REGION": "NV-Nye North", "ASSOCIATION": "USA - Nevada", "POINTS": "6", "BONUSPOINTS": "3"}}, {"type": "Feature", "geometry": {"type": "Point", "coordinates": [-116.3511, 38.5882]}, "properties": {"NAME": "W7N/NN-179", "TITLE": "7980", "REGION": "NV-Nye North", "ASSOCIATION": "USA - Nevada", "POINTS": "6", "BONUSPOINTS": "3"}}, {"type": "Feature", "geometry": {"type": "Point", "coordinates": [-116.416, 38.5629]}, "properties": {"NAME": "W7N/NN-180", "TITLE": "7963", "REGION": "NV-Nye North", "ASSOCIATION": "USA - Nevada", "POINTS": "6", "BONUSPOINTS": "3"}}, {"type": "Feature", "geometry": {"type": "Point", "coordinates": [-115.7831, 38.7535]}, "properties": {"NAME": "W7N/NN-181", "TITLE": "7940", "REGION": "NV-Nye North", "ASSOCIATION": "USA - Nevada", "POINTS": "6", "BONUSPOINTS": "3"}}, {"type": "Feature", "geometry": {"type": "Point", "coordinates": [-117.5801, 38.8284]}, "properties": {"NAME": "W7N/NN-182", "TITLE": "Grantsville Ridge", "REGION": "NV-Nye North", "ASSOCIATION": "USA - Nevada", "POINTS": "6", "BONUSPOINTS": "3"}}, {"type": "Feature", "geometry": {"type": "Point", "coordinates": [-116.4024, 38.5193]}, "properties": {"NAME": "W7N/NN-183", "TITLE": "7921", "REGION": "NV-Nye North", "ASSOCIATION": "USA - Nevada", "POINTS": "6", "BONUSPOINTS": "3"}}, {"type": "Feature", "geometry": {"type": "Point", "coordinates": [-116.5187, 38.5474]}, "properties": {"NAME": "W7N/NN-184", "TITLE": "7900", "REGION": "NV-Nye North", "ASSOCIATION": "USA - Nevada", "POINTS": "6", "BONUSPOINTS": "3"}}, {"type": "Feature", "geometry": {"type": "Point", "coordinates": [-115.948, 38.5856]}, "properties": {"NAME": "W7N/NN-185", "TITLE": "7891", "REGION": "NV-Nye North", "ASSOCIATION": "USA - Nevada", "POINTS": "6", "BONUSPOINTS": "3"}}, {"type": "Feature", "geometry": {"type": "Point", "coordinates": [-115.4364, 38.62]}, "properties": {"NAME": "W7N/NN-186", "TITLE": "7887", "REGION": "NV-Nye North", "ASSOCIATION": "USA - Nevada", "POINTS": "6", "BONUSPOINTS": "3"}}, {"type": "Feature", "geometry": {"type": "Point", "coordinates": [-116.4699, 38.4915]}, "properties": {"NAME": "W7N/NN-187", "TITLE": "7878", "REGION": "NV-Nye North", "ASSOCIATION": "USA - Nevada", "POINTS": "6", "BONUSPOINTS": "3"}}, {"type": "Feature", "geometry": {"type": "Point", "coordinates": [-116.4322, 38.5716]}, "properties": {"NAME": "W7N/NN-188", "TITLE": "7873", "REGION": "NV-Nye North", "ASSOCIATION": "USA - Nevada", "POINTS": "6", "BONUSPOINTS": "3"}}, {"type": "Feature", "geometry": {"type": "Point", "coordinates": [-116.3863, 38.5175]}, "properties": {"NAME": "W7N/NN-189", "TITLE": "7860", "REGION": "NV-Nye North", "ASSOCIATION": "USA - Nevada", "POINTS": "6", "BONUSPOINTS": "3"}}, {"type": "Feature", "geometry": {"type": "Point", "coordinates": [-115.8212, 38.773]}, "properties": {"NAME": "W7N/NN-190", "TITLE": "7845", "REGION": "NV-Nye North", "ASSOCIATION": "USA - Nevada", "POINTS": "6", "BONUSPOINTS": "3"}}, {"type": "Feature", "geometry": {"type": "Point", "coordinates": [-116.8569, 38.526]}, "properties": {"NAME": "W7N/NN-191", "TITLE": "7821", "REGION": "NV-Nye North", "ASSOCIATION": "USA - Nevada", "POINTS": "6", "BONUSPOINTS": "3"}}, {"type": "Feature", "geometry": {"type": "Point", "coordinates": [-115.3807, 38.6215]}, "properties": {"NAME": "W7N/NN-192", "TITLE": "7803", "REGION": "NV-Nye North", "ASSOCIATION": "USA - Nevada", "POINTS": "6", "BONUSPOINTS": "3"}}, {"type": "Feature", "geometry": {"type": "Point", "coordinates": [-116.1067, 38.6584]}, "properties": {"NAME": "W7N/NN-193", "TITLE": "7782", "REGION": "NV-Nye North", "ASSOCIATION": "USA - Nevada", "POINTS": "6", "BONUSPOINTS": "3"}}, {"type": "Feature", "geometry": {"type": "Point", "coordinates": [-115.3104, 38.7954]}, "properties": {"NAME": "W7N/NN-194", "TITLE": "7774", "REGION": "NV-Nye North", "ASSOCIATION": "USA - Nevada", "POINTS": "6", "BONUSPOINTS": "3"}}, {"type": "Feature", "geometry": {"type": "Point", "coordinates": [-116.0556, 38.7641]}, "properties": {"NAME": "W7N/NN-195", "TITLE": "Red Ring Mountain", "REGION": "NV-Nye North", "ASSOCIATION": "USA - Nevada", "POINTS": "6", "BONUSPOINTS": "3"}}, {"type": "Feature", "geometry": {"type": "Point", "coordinates": [-115.3604, 38.5487]}, "properties": {"NAME": "W7N/NN-196", "TITLE": "7758", "REGION": "NV-Nye North", "ASSOCIATION": "USA - Nevada", "POINTS": "6", "BONUSPOINTS": "3"}}, {"type": "Feature", "geometry": {"type": "Point", "coordinates": [-116.4513, 38.5829]}, "properties": {"NAME": "W7N/NN-197", "TITLE": "7700", "REGION": "NV-Nye North", "ASSOCIATION": "USA - Nevada", "POINTS": "6", "BONUSPOINTS": "3"}}, {"type": "Feature", "geometry": {"type": "Point", "coordinates": [-117.8545, 38.8593]}, "properties": {"NAME": "W7N/NN-198", "TITLE": "Gabbs Benchmark", "REGION": "NV-Nye North", "ASSOCIATION": "USA - Nevada", "POINTS": "6", "BONUSPOINTS": "3"}}, {"type": "Feature", "geometry": {"type": "Point", "coordinates": [-117.338, 38.6488]}, "properties": {"NAME": "W7N/NN-199", "TITLE": "7682", "REGION": "NV-Nye North", "ASSOCIATION": "USA - Nevada", "POINTS": "6", "BONUSPOINTS": "3"}}, {"type": "Feature", "geometry": {"type": "Point", "coordinates": [-115.4233, 38.3611]}, "properties": {"NAME": "W7N/NN-200", "TITLE": "7675", "REGION": "NV-Nye North", "ASSOCIATION": "USA - Nevada", "POINTS": "6", "BONUSPOINTS": "3"}}, {"type": "Feature", "geometry": {"type": "Point", "coordinates": [-115.2941, 38.6346]}, "properties": {"NAME": "W7N/NN-201", "TITLE": "Horse Benchmark", "REGION": "NV-Nye North", "ASSOCIATION": "USA - Nevada", "POINTS": "6", "BONUSPOINTS": "3"}}, {"type": "Feature", "geometry": {"type": "Point", "coordinates": [-116.8827, 38.2875]}, "properties": {"NAME": "W7N/NN-202", "TITLE": "7618", "REGION": "NV-Nye North", "ASSOCIATION": "USA - Nevada", "POINTS": "6", "BONUSPOINTS": "3"}}, {"type": "Feature", "geometry": {"type": "Point", "coordinates": [-117.7999, 38.8821]}, "properties": {"NAME": "W7N/NN-203", "TITLE": "7601", "REGION": "NV-Nye North", "ASSOCIATION": "USA - Nevada", "POINTS": "6", "BONUSPOINTS": "3"}}, {"type": "Feature", "geometry": {"type": "Point", "coordinates": [-115.8116, 38.6757]}, "properties": {"NAME": "W7N/NN-204", "TITLE": "7587", "REGION": "NV-Nye North", "ASSOCIATION": "USA - Nevada", "POINTS": "6", "BONUSPOINTS": "3"}}, {"type": "Feature", "geometry": {"type": "Point", "coordinates": [-116.0806, 38.6574]}, "properties": {"NAME": "W7N/NN-205", "TITLE": "Basalt Butte", "REGION": "NV-Nye North", "ASSOCIATION": "USA - Nevada", "POINTS": "6", "BONUSPOINTS": "3"}}, {"type": "Feature", "geometry": {"type": "Point", "coordinates": [-116.3228, 38.5663]}, "properties": {"NAME": "W7N/NN-206", "TITLE": "7580", "REGION": "NV-Nye North", "ASSOCIATION": "USA - Nevada", "POINTS": "6", "BONUSPOINTS": "3"}}, {"type": "Feature", "geometry": {"type": "Point", "coordinates": [-115.9035, 38.5862]}, "properties": {"NAME": "W7N/NN-207", "TITLE": "7566", "REGION": "NV-Nye North", "ASSOCIATION": "USA - Nevada", "POINTS": "6", "BONUSPOINTS": "3"}}, {"type": "Feature", "geometry": {"type": "Point", "coordinates": [-115.2965, 38.6702]}, "properties": {"NAME": "W7N/NN-208", "TITLE": "7565", "REGION": "NV-Nye North", "ASSOCIATION": "USA - Nevada", "POINTS": "6", "BONUSPOINTS": "3"}}, {"type": "Feature", "geometry": {"type": "Point", "coordinates": [-115.4116, 38.6525]}, "properties": {"NAME": "W7N/NN-209", "TITLE": "7559", "REGION": "NV-Nye North", "ASSOCIATION": "USA - Nevada", "POINTS": "6", "BONUSPOINTS": "3"}}, {"type": "Feature", "geometry": {"type": "Point", "coordinates": [-116.8506, 38.2823]}, "properties": {"NAME": "W7N/NN-210", "TITLE": "7558", "REGION": "NV-Nye North", "ASSOCIATION": "USA - Nevada", "POINTS": "6", "BONUSPOINTS": "3"}}, {"type": "Feature", "geometry": {"type": "Point", "coordinates": [-115.9968, 38.9043]}, "properties": {"NAME": "W7N/NN-211", "TITLE": "Island Benchmark", "REGION": "NV-Nye North", "ASSOCIATION": "USA - Nevada", "POINTS": "6", "BONUSPOINTS": "3"}}, {"type": "Feature", "geometry": {"type": "Point", "coordinates": [-117.7752, 39.0302]}, "properties": {"NAME": "W7N/NN-212", "TITLE": "Black Butte", "REGION": "NV-Nye North", "ASSOCIATION": "USA - Nevada", "POINTS": "6", "BONUSPOINTS": "3"}}, {"type": "Feature", "geometry": {"type": "Point", "coordinates": [-117.3697, 38.5782]}, "properties": {"NAME": "W7N/NN-213", "TITLE": "7531", "REGION": "NV-Nye North", "ASSOCIATION": "USA - Nevada", "POINTS": "6", "BONUSPOINTS": "3"}}, {"type": "Feature", "geometry": {"type": "Point", "coordinates": [-115.3746, 38.8187]}, "properties": {"NAME": "W7N/NN-214", "TITLE": "7516", "REGION": "NV-Nye North", "ASSOCIATION": "USA - Nevada", "POINTS": "6", "BONUSPOINTS": "3"}}, {"type": "Feature", "geometry": {"type": "Point", "coordinates": [-116.1076, 38.3088]}, "properties": {"NAME": "W7N/NN-215", "TITLE": "Citadel Mountain", "REGION": "NV-Nye North", "ASSOCIATION": "USA - Nevada", "POINTS": "6", "BONUSPOINTS": "3"}}, {"type": "Feature", "geometry": {"type": "Point", "coordinates": [-115.8444, 39.1121]}, "properties": {"NAME": "W7N/NN-216", "TITLE": "Duckwater Peak", "REGION": "NV-Nye North", "ASSOCIATION": "USA - Nevada", "POINTS": "4", "BONUSPOINTS": "3"}}, {"type": "Feature", "geometry": {"type": "Point", "coordinates": [-116.3744, 38.2665]}, "properties": {"NAME": "W7N/NN-217", "TITLE": "7481", "REGION": "NV-Nye North", "ASSOCIATION": "USA - Nevada", "POINTS": "4", "BONUSPOINTS": "3"}}, {"type": "Feature", "geometry": {"type": "Point", "coordinates": [-117.3191, 38.5699]}, "properties": {"NAME": "W7N/NN-218", "TITLE": "7477", "REGION": "NV-Nye North", "ASSOCIATION": "USA - Nevada", "POINTS": "4", "BONUSPOINTS": "3"}}, {"type": "Feature", "geometry": {"type": "Point", "coordinates": [-115.2989, 38.7249]}, "properties": {"NAME": "W7N/NN-219", "TITLE": "7470", "REGION": "NV-Nye North", "ASSOCIATION": "USA - Nevada", "POINTS": "4", "BONUSPOINTS": "3"}}, {"type": "Feature", "geometry": {"type": "Point", "coordinates": [-115.4318, 38.6779]}, "properties": {"NAME": "W7N/NN-220", "TITLE": "Ragged Ridge", "REGION": "NV-Nye North", "ASSOCIATION": "USA - Nevada", "POINTS": "4", "BONUSPOINTS": "3"}}, {"type": "Feature", "geometry": {"type": "Point", "coordinates": [-117.3066, 38.6032]}, "properties": {"NAME": "W7N/NN-221", "TITLE": "7391", "REGION": "NV-Nye North", "ASSOCIATION": "USA - Nevada", "POINTS": "4", "BONUSPOINTS": "3"}}, {"type": "Feature", "geometry": {"type": "Point", "coordinates": [-115.2462, 38.8069]}, "properties": {"NAME": "W7N/NN-222", "TITLE": "7390", "REGION": "NV-Nye North", "ASSOCIATION": "USA - Nevada", "POINTS": "4", "BONUSPOINTS": "3"}}, {"type": "Feature", "geometry": {"type": "Point", "coordinates": [-115.7232, 38.7602]}, "properties": {"NAME": "W7N/NN-223", "TITLE": "7375", "REGION": "NV-Nye North", "ASSOCIATION": "USA - Nevada", "POINTS": "4", "BONUSPOINTS": "3"}}, {"type": "Feature", "geometry": {"type": "Point", "coordinates": [-115.7445, 38.8052]}, "properties": {"NAME": "W7N/NN-224", "TITLE": "7370", "REGION": "NV-Nye North", "ASSOCIATION": "USA - Nevada", "POINTS": "4", "BONUSPOINTS": "3"}}, {"type": "Feature", "geometry": {"type": "Point", "coordinates": [-117.3532, 38.5617]}, "properties": {"NAME": "W7N/NN-225", "TITLE": "7337", "REGION": "NV-Nye North", "ASSOCIATION": "USA - Nevada", "POINTS": "4", "BONUSPOINTS": "3"}}, {"type": "Feature", "geometry": {"type": "Point", "coordinates": [-117.5183, 38.5925]}, "properties": {"NAME": "W7N/NN-226", "TITLE": "7317", "REGION": "NV-Nye North", "ASSOCIATION": "USA - Nevada", "POINTS": "4", "BONUSPOINTS": "3"}}, {"type": "Feature", "geometry": {"type": "Point", "coordinates": [-116.1451, 38.5099]}, "properties": {"NAME": "W7N/NN-227", "TITLE": "Halligan Mesa", "REGION": "NV-Nye North", "ASSOCIATION": "USA - Nevada", "POINTS": "4", "BONUSPOINTS": "3"}}, {"type": "Feature", "geometry": {"type": "Point", "coordinates": [-115.8535, 38.5573]}, "properties": {"NAME": "W7N/NN-228", "TITLE": "7265", "REGION": "NV-Nye North", "ASSOCIATION": "USA - Nevada", "POINTS": "4", "BONUSPOINTS": "3"}}, {"type": "Feature", "geometry": {"type": "Point", "coordinates": [-115.5801, 38.3329]}, "properties": {"NAME": "W7N/NN-229", "TITLE": "7257", "REGION": "NV-Nye North", "ASSOCIATION": "USA - Nevada", "POINTS": "4", "BONUSPOINTS": "3"}}, {"type": "Feature", "geometry": {"type": "Point", "coordinates": [-115.89, 38.5353]}, "properties": {"NAME": "W7N/NN-230", "TITLE": "7253", "REGION": "NV-Nye North", "ASSOCIATION": "USA - Nevada", "POINTS": "4", "BONUSPOINTS": "3"}}, {"type": "Feature", "geometry": {"type": "Point", "coordinates": [-116.1298, 38.6458]}, "properties": {"NAME": "W7N/NN-231", "TITLE": "Slanted Buttes East", "REGION": "NV-Nye North", "ASSOCIATION": "USA - Nevada", "POINTS": "4", "BONUSPOINTS": "3"}}, {"type": "Feature", "geometry": {"type": "Point", "coordinates": [-115.8926, 38.4834]}, "properties": {"NAME": "W7N/NN-232", "TITLE": "Black Rock", "REGION": "NV-Nye North", "ASSOCIATION": "USA - Nevada", "POINTS": "4", "BONUSPOINTS": "3"}}, {"type": "Feature", "geometry": {"type": "Point", "coordinates": [-115.2566, 38.7716]}, "properties": {"NAME": "W7N/NN-233", "TITLE": "Antler Point Benchmark", "REGION": "NV-Nye North", "ASSOCIATION": "USA - Nevada", "POINTS": "4", "BONUSPOINTS": "3"}}, {"type": "Feature", "geometry": {"type": "Point", "coordinates": [-115.3569, 38.6988]}, "properties": {"NAME": "W7N/NN-234", "TITLE": "7091", "REGION": "NV-Nye North", "ASSOCIATION": "USA - Nevada", "POINTS": "4", "BONUSPOINTS": "3"}}, {"type": "Feature", "geometry": {"type": "Point", "coordinates": [-115.9342, 38.538]}, "properties": {"NAME": "W7N/NN-235", "TITLE": "7074", "REGION": "NV-Nye North", "ASSOCIATION": "USA - Nevada", "POINTS": "4", "BONUSPOINTS": "3"}}, {"type": "Feature", "geometry": {"type": "Point", "coordinates": [-115.0521, 38.2995]}, "properties": {"NAME": "W7N/NN-236", "TITLE": "Gap Mountain", "REGION": "NV-Nye North", "ASSOCIATION": "USA - Nevada", "POINTS": "4", "BONUSPOINTS": "3"}}, {"type": "Feature", "geometry": {"type": "Point", "coordinates": [-116.1782, 38.3886]}, "properties": {"NAME": "W7N/NN-237", "TITLE": "Palisade Mesa", "REGION": "NV-Nye North", "ASSOCIATION": "USA - Nevada", "POINTS": "4", "BONUSPOINTS": "3"}}, {"type": "Feature", "geometry": {"type": "Point", "coordinates": [-115.3814, 38.3698]}, "properties": {"NAME": "W7N/NN-238", "TITLE": "Big Benchmark", "REGION": "NV-Nye North", "ASSOCIATION": "USA - Nevada", "POINTS": "4", "BONUSPOINTS": "3"}}, {"type": "Feature", "geometry": {"type": "Point", "coordinates": [-115.7939, 38.9627]}, "properties": {"NAME": "W7N/NN-239", "TITLE": "6946", "REGION": "NV-Nye North", "ASSOCIATION": "USA - Nevada", "POINTS": "4", "BONUSPOINTS": "3"}}, {"type": "Feature", "geometry": {"type": "Point", "coordinates": [-117.6082, 38.5886]}, "properties": {"NAME": "W7N/NN-240", "TITLE": "6934", "REGION": "NV-Nye North", "ASSOCIATION": "USA - Nevada", "POINTS": "4", "BONUSPOINTS": "3"}}, {"type": "Feature", "geometry": {"type": "Point", "coordinates": [-115.7949, 39.0163]}, "properties": {"NAME": "W7N/NN-241", "TITLE": "Dough Benchmark", "REGION": "NV-Nye North", "ASSOCIATION": "USA - Nevada", "POINTS": "4", "BONUSPOINTS": "3"}}, {"type": "Feature", "geometry": {"type": "Point", "coordinates": [-118.1262, 39.0033]}, "properties": {"NAME": "W7N/NN-242", "TITLE": "Anna, Mount", "REGION": "NV-Nye North", "ASSOCIATION": "USA - Nevada", "POINTS": "4", "BONUSPOINTS": "3"}}, {"type": "Feature", "geometry": {"type": "Point", "coordinates": [-115.9599, 38.3697]}, "properties": {"NAME": "W7N/NN-243", "TITLE": "6873", "REGION": "NV-Nye North", "ASSOCIATION": "USA - Nevada", "POINTS": "4", "BONUSPOINTS": "3"}}, {"type": "Feature", "geometry": {"type": "Point", "coordinates": [-115.4578, 38.7884]}, "properties": {"NAME": "W7N/NN-244", "TITLE": "6859", "REGION": "NV-Nye North", "ASSOCIATION": "USA - Nevada", "POINTS": "4", "BONUSPOINTS": "3"}}, {"type": "Feature", "geometry": {"type": "Point", "coordinates": [-115.2638, 38.5031]}, "properties": {"NAME": "W7N/NN-245", "TITLE": "Perish Benchmark", "REGION": "NV-Nye North", "ASSOCIATION": "USA - Nevada", "POINTS": "4", "BONUSPOINTS": "3"}}, {"type": "Feature", "geometry": {"type": "Point", "coordinates": [-117.2752, 38.5785]}, "properties": {"NAME": "W7N/NN-246", "TITLE": "6756", "REGION": "NV-Nye North", "ASSOCIATION": "USA - Nevada", "POINTS": "4", "BONUSPOINTS": "3"}}, {"type": "Feature", "geometry": {"type": "Point", "coordinates": [-115.93, 38.4175]}, "properties": {"NAME": "W7N/NN-247", "TITLE": "Wall, The", "REGION": "NV-Nye North", "ASSOCIATION": "USA - Nevada", "POINTS": "4", "BONUSPOINTS": "3"}}, {"type": "Feature", "geometry": {"type": "Point", "coordinates": [-115.4019, 38.7244]}, "properties": {"NAME": "W7N/NN-248", "TITLE": "6731", "REGION": "NV-Nye North", "ASSOCIATION": "USA - Nevada", "POINTS": "4", "BONUSPOINTS": "3"}}, {"type": "Feature", "geometry": {"type": "Point", "coordinates": [-115.2106, 38.6022]}, "properties": {"NAME": "W7N/NN-249", "TITLE": "6712", "REGION": "NV-Nye North", "ASSOCIATION": "USA - Nevada", "POINTS": "4", "BONUSPOINTS": "3"}}, {"type": "Feature", "geometry": {"type": "Point", "coordinates": [-115.9438, 38.4036]}, "properties": {"NAME": "W7N/NN-250", "TITLE": "6700", "REGION": "NV-Nye North", "ASSOCIATION": "USA - Nevada", "POINTS": "4", "BONUSPOINTS": "3"}}, {"type": "Feature", "geometry": {"type": "Point", "coordinates": [-115.9952, 38.6576]}, "properties": {"NAME": "W7N/NN-251", "TITLE": "6696", "REGION": "NV-Nye North", "ASSOCIATION": "USA - Nevada", "POINTS": "4", "BONUSPOINTS": "3"}}, {"type": "Feature", "geometry": {"type": "Point", "coordinates": [-117.6818, 38.4944]}, "properties": {"NAME": "W7N/NN-252", "TITLE": "Royston Hills", "REGION": "NV-Nye North", "ASSOCIATION": "USA - Nevada", "POINTS": "4", "BONUSPOINTS": "3"}}, {"type": "Feature", "geometry": {"type": "Point", "coordinates": [-118.1379, 38.9752]}, "properties": {"NAME": "W7N/NN-253", "TITLE": "Annie, Mount", "REGION": "NV-Nye North", "ASSOCIATION": "USA - Nevada", "POINTS": "4", "BONUSPOINTS": "3"}}, {"type": "Feature", "geometry": {"type": "Point", "coordinates": [-117.6249, 38.4728]}, "properties": {"NAME": "W7N/NN-254", "TITLE": "6670", "REGION": "NV-Nye North", "ASSOCIATION": "USA - Nevada", "POINTS": "4", "BONUSPOINTS": "3"}}, {"type": "Feature", "geometry": {"type": "Point", "coordinates": [-115.6604, 38.9402]}, "properties": {"NAME": "W7N/NN-255", "TITLE": "McGeary Benchmark", "REGION": "NV-Nye North", "ASSOCIATION": "USA - Nevada", "POINTS": "4", "BONUSPOINTS": "3"}}, {"type": "Feature", "geometry": {"type": "Point", "coordinates": [-115.409, 38.7001]}, "properties": {"NAME": "W7N/NN-256", "TITLE": "Red Mountain", "REGION": "NV-Nye North", "ASSOCIATION": "USA - Nevada", "POINTS": "4", "BONUSPOINTS": "3"}}, {"type": "Feature", "geometry": {"type": "Point", "coordinates": [-116.0294, 38.4489]}, "properties": {"NAME": "W7N/NN-257", "TITLE": "6570", "REGION": "NV-Nye North", "ASSOCIATION": "USA - Nevada", "POINTS": "4", "BONUSPOINTS": "3"}}, {"type": "Feature", "geometry": {"type": "Point", "coordinates": [-117.4207, 38.4994]}, "properties": {"NAME": "W7N/NN-258", "TITLE": "Rainier Mountain", "REGION": "NV-Nye North", "ASSOCIATION": "USA - Nevada", "POINTS": "4", "BONUSPOINTS": "3"}}, {"type": "Feature", "geometry": {"type": "Point", "coordinates": [-117.9136, 38.9979]}, "properties": {"NAME": "W7N/NN-259", "TITLE": "Lodi Hills", "REGION": "NV-Nye North", "ASSOCIATION": "USA - Nevada", "POINTS": "4", "BONUSPOINTS": "3"}}, {"type": "Feature", "geometry": {"type": "Point", "coordinates": [-117.5863, 38.4391]}, "properties": {"NAME": "W7N/NN-260", "TITLE": "6450", "REGION": "NV-Nye North", "ASSOCIATION": "USA - Nevada", "POINTS": "2", "BONUSPOINTS": "0"}}, {"type": "Feature", "geometry": {"type": "Point", "coordinates": [-115.066, 38.271]}, "properties": {"NAME": "W7N/NN-261", "TITLE": "6449", "REGION": "NV-Nye North", "ASSOCIATION": "USA - Nevada", "POINTS": "2", "BONUSPOINTS": "0"}}, {"type": "Feature", "geometry": {"type": "Point", "coordinates": [-115.2851, 38.3171]}, "properties": {"NAME": "W7N/NN-262", "TITLE": "Gardner Benchmark", "REGION": "NV-Nye North", "ASSOCIATION": "USA - Nevada", "POINTS": "2", "BONUSPOINTS": "0"}}, {"type": "Feature", "geometry": {"type": "Point", "coordinates": [-115.9517, 38.4317]}, "properties": {"NAME": "W7N/NN-263", "TITLE": "6370", "REGION": "NV-Nye North", "ASSOCIATION": "USA - Nevada", "POINTS": "2", "BONUSPOINTS": "0"}}, {"type": "Feature", "geometry": {"type": "Point", "coordinates": [-115.9957, 38.4412]}, "properties": {"NAME": "W7N/NN-264", "TITLE": "6355", "REGION": "NV-Nye North", "ASSOCIATION": "USA - Nevada", "POINTS": "2", "BONUSPOINTS": "0"}}, {"type": "Feature", "geometry": {"type": "Point", "coordinates": [-115.189, 38.5593]}, "properties": {"NAME": "W7N/NN-265", "TITLE": "6345", "REGION": "NV-Nye North", "ASSOCIATION": "USA - Nevada", "POINTS": "2", "BONUSPOINTS": "0"}}, {"type": "Feature", "geometry": {"type": "Point", "coordinates": [-116.0158, 38.4169]}, "properties": {"NAME": "W7N/NN-266", "TITLE": "6342", "REGION": "NV-Nye North", "ASSOCIATION": "USA - Nevada", "POINTS": "2", "BONUSPOINTS": "0"}}, {"type": "Feature", "geometry": {"type": "Point", "coordinates": [-117.8802, 38.982]}, "properties": {"NAME": "W7N/NN-267", "TITLE": "6230", "REGION": "NV-Nye North", "ASSOCIATION": "USA - Nevada", "POINTS": "2", "BONUSPOINTS": "0"}}, {"type": "Feature", "geometry": {"type": "Point", "coordinates": [-115.4513, 38.7443]}, "properties": {"NAME": "W7N/NN-268", "TITLE": "6197", "REGION": "NV-Nye North", "ASSOCIATION": "USA - Nevada", "POINTS": "2", "BONUSPOINTS": "0"}}, {"type": "Feature", "geometry": {"type": "Point", "coordinates": [-115.165, 38.3679]}, "properties": {"NAME": "W7N/NN-269", "TITLE": "Hot Creek Butte", "REGION": "NV-Nye North", "ASSOCIATION": "USA - Nevada", "POINTS": "2", "BONUSPOINTS": "0"}}, {"type": "Feature", "geometry": {"type": "Point", "coordinates": [-117.8925, 38.9658]}, "properties": {"NAME": "W7N/NN-270", "TITLE": "5870", "REGION": "NV-Nye North", "ASSOCIATION": "USA - Nevada", "POINTS": "2", "BONUSPOINTS": "0"}}, {"type": "Feature", "geometry": {"type": "Point", "coordinates": [-115.8692, 38.4031]}, "properties": {"NAME": "W7N/NN-271", "TITLE": "5585", "REGION": "NV-Nye North", "ASSOCIATION": "USA - Nevada", "POINTS": "2", "BONUSPOINTS": "0"}}, {"type": "Feature", "geometry": {"type": "Point", "coordinates": [-118.1703, 38.9289]}, "properties": {"NAME": "W7N/NN-272", "TITLE": "Fissure Ridge", "REGION": "NV-Nye North", "ASSOCIATION": "USA - Nevada", "POINTS": "1", "BONUSPOINTS": "0"}}, {"type": "Feature", "geometry": {"type": "Point", "coordinates": [-116.2859, 38.6305]}, "properties": {"NAME": "W7N/NN-273", "TITLE": "Hot Creek Range (HP)", "REGION": "NV-Nye North", "ASSOCIATION": "USA - Nevada", "POINTS": "10", "BONUSPOINTS": "3"}}, {"type": "Feature", "geometry": {"type": "Point", "coordinates": [-116.4218, 38.2891]}, "properties": {"NAME": "W7N/NN-274", "TITLE": "Rawhide Mountain", "REGION": "NV-Nye North", "ASSOCIATION": "USA - Nevada", "POINTS": "8", "BONUSPOINTS": "3"}}, {"type": "Feature", "geometry": {"type": "Point", "coordinates": [-117.4068, 39.1494]}, "properties": {"NAME": "W7N/NN-275", "TITLE": "8678", "REGION": "NV-Nye North", "ASSOCIATION": "USA - Nevada", "POINTS": "8", "BONUSPOINTS": "3"}}, {"type": "Feature", "geometry": {"type": "Point", "coordinates": [-116.4429, 38.9553]}, "properties": {"NAME": "W7N/NN-276", "TITLE": "8540", "REGION": "NV-Nye North", "ASSOCIATION": "USA - Nevada", "POINTS": "8", "BONUSPOINTS": "3"}}, {"type": "Feature", "geometry": {"type": "Point", "coordinates": [-117.4399, 38.5785]}, "properties": {"NAME": "W7N/NN-277", "TITLE": "7811", "REGION": "NV-Nye North", "ASSOCIATION": "USA - Nevada", "POINTS": "6", "BONUSPOINTS": "3"}}, {"type": "Feature", "geometry": {"type": "Point", "coordinates": [-117.0129, 38.5096]}, "properties": {"NAME": "W7N/NN-278", "TITLE": "7798", "REGION": "NV-Nye North", "ASSOCIATION": "USA - Nevada", "POINTS": "6", "BONUSPOINTS": "3"}}, {"type": "Feature", "geometry": {"type": "Point", "coordinates": [-115.7706, 38.7015]}, "properties": {"NAME": "W7N/NN-279", "TITLE": "6958", "REGION": "NV-Nye North", "ASSOCIATION": "USA - Nevada", "POINTS": "4", "BONUSPOINTS": "3"}}, {"type": "Feature", "geometry": {"type": "Point", "coordinates": [-115.8948, 38.4065]}, "properties": {"NAME": "W7N/NN-280", "TITLE": "5995", "REGION": "NV-Nye North", "ASSOCIATION": "USA - Nevada", "POINTS": "2", "BONUSPOINTS": "0"}}, {"type": "Feature", "geometry": {"type": "Point", "coordinates": [-117.89, 38.9662]}, "properties": {"NAME": "W7N/NN-281", "TITLE": "5900", "REGION": "NV-Nye North", "ASSOCIATION": "USA - Nevada", "POINTS": "2", "BONUSPOINTS": "0"}}]}