{"type": "FeatureCollection", "name": "W7N/TR SUMMITS", "features": [{"type": "Feature", "geometry": {"type": "Point", "coordinates": [-119.2901, 38.5232]}, "properties": {"NAME": "W7N/TR-001", "TITLE": "East Sister", "REGION": "NV-Tahoe Region", "ASSOCIATION": "USA - Nevada", "POINTS": "10", "BONUSPOINTS": "3"}}, {"type": "Feature", "geometry": {"type": "Point", "coordinates": [-119.1153, 38.5345]}, "properties": {"NAME": "W7N/TR-002", "TITLE": "Bald Mountain", "REGION": "NV-Tahoe Region", "ASSOCIATION": "USA - Nevada", "POINTS": "10", "BONUSPOINTS": "3"}}, {"type": "Feature", "geometry": {"type": "Point", "coordinates": [-119.5025, 38.8885]}, "properties": {"NAME": "W7N/TR-003", "TITLE": "Siegel, Mount", "REGION": "NV-Tahoe Region", "ASSOCIATION": "USA - Nevada", "POINTS": "8", "BONUSPOINTS": "3"}}, {"type": "Feature", "geometry": {"type": "Point", "coordinates": [-119.479, 38.8648]}, "properties": {"NAME": "W7N/TR-004", "TITLE": "Oreana Peak", "REGION": "NV-Tahoe Region", "ASSOCIATION": "USA - Nevada", "POINTS": "8", "BONUSPOINTS": "3"}}, {"type": "Feature", "geometry": {"type": "Point", "coordinates": [-119.5229, 38.8087]}, "properties": {"NAME": "W7N/TR-005", "TITLE": "Bald Mountain", "REGION": "NV-Tahoe Region", "ASSOCIATION": "USA - Nevada", "POINTS": "8", "BONUSPOINTS": "3"}}, {"type": "Feature", "geometry": {"type": "Point", "coordinates": [-119.8832, 39.154]}, "properties": {"NAME": "W7N/TR-006", "TITLE": "Snow Valley Peak", "REGION": "NV-Tahoe Region", "ASSOCIATION": "USA - Nevada", "POINTS": "8", "BONUSPOINTS": "3"}}, {"type": "Feature", "geometry": {"type": "Point", "coordinates": [-119.8811, 39.043]}, "properties": {"NAME": "W7N/TR-007", "TITLE": "Genoa Peak", "REGION": "NV-Tahoe Region", "ASSOCIATION": "USA - Nevada", "POINTS": "8", "BONUSPOINTS": "3"}}, {"type": "Feature", "geometry": {"type": "Point", "coordinates": [-119.4738, 39.0213]}, "properties": {"NAME": "W7N/TR-008", "TITLE": "Como, Mount", "REGION": "NV-Tahoe Region", "ASSOCIATION": "USA - Nevada", "POINTS": "8", "BONUSPOINTS": "3"}}, {"type": "Feature", "geometry": {"type": "Point", "coordinates": [-119.3157, 38.6139]}, "properties": {"NAME": "W7N/TR-009", "TITLE": "Desert Creek Peak", "REGION": "NV-Tahoe Region", "ASSOCIATION": "USA - Nevada", "POINTS": "8", "BONUSPOINTS": "3"}}, {"type": "Feature", "geometry": {"type": "Point", "coordinates": [-119.4781, 38.8168]}, "properties": {"NAME": "W7N/TR-010", "TITLE": "Eagle Mountain", "REGION": "NV-Tahoe Region", "ASSOCIATION": "USA - Nevada", "POINTS": "8", "BONUSPOINTS": "3"}}, {"type": "Feature", "geometry": {"type": "Point", "coordinates": [-119.465, 38.9844]}, "properties": {"NAME": "W7N/TR-011", "TITLE": "Rice Peak", "REGION": "NV-Tahoe Region", "ASSOCIATION": "USA - Nevada", "POINTS": "8", "BONUSPOINTS": "3"}}, {"type": "Feature", "geometry": {"type": "Point", "coordinates": [-119.4731, 39.128]}, "properties": {"NAME": "W7N/TR-012", "TITLE": "Lyon Peak", "REGION": "NV-Tahoe Region", "ASSOCIATION": "USA - Nevada", "POINTS": "8", "BONUSPOINTS": "3"}}, {"type": "Feature", "geometry": {"type": "Point", "coordinates": [-119.8996, 39.1538]}, "properties": {"NAME": "W7N/TR-013", "TITLE": "8738", "REGION": "NV-Tahoe Region", "ASSOCIATION": "USA - Nevada", "POINTS": "8", "BONUSPOINTS": "3"}}, {"type": "Feature", "geometry": {"type": "Point", "coordinates": [-119.8781, 39.0806]}, "properties": {"NAME": "W7N/TR-014", "TITLE": "Duane Bliss Peak", "REGION": "NV-Tahoe Region", "ASSOCIATION": "USA - Nevada", "POINTS": "8", "BONUSPOINTS": "3"}}, {"type": "Feature", "geometry": {"type": "Point", "coordinates": [-119.0967, 38.6367]}, "properties": {"NAME": "W7N/TR-015", "TITLE": "Pine Grove Hills", "REGION": "NV-Tahoe Region", "ASSOCIATION": "USA - Nevada", "POINTS": "8", "BONUSPOINTS": "3"}}, {"type": "Feature", "geometry": {"type": "Point", "coordinates": [-119.1054, 38.5939]}, "properties": {"NAME": "W7N/TR-016", "TITLE": "8550", "REGION": "NV-Tahoe Region", "ASSOCIATION": "USA - Nevada", "POINTS": "8", "BONUSPOINTS": "3"}}, {"type": "Feature", "geometry": {"type": "Point", "coordinates": [-119.0728, 38.53]}, "properties": {"NAME": "W7N/TR-017", "TITLE": "8472", "REGION": "NV-Tahoe Region", "ASSOCIATION": "USA - Nevada", "POINTS": "6", "BONUSPOINTS": "3"}}, {"type": "Feature", "geometry": {"type": "Point", "coordinates": [-119.4811, 39.2003]}, "properties": {"NAME": "W7N/TR-018", "TITLE": "Rawe Peak", "REGION": "NV-Tahoe Region", "ASSOCIATION": "USA - Nevada", "POINTS": "6", "BONUSPOINTS": "3"}}, {"type": "Feature", "geometry": {"type": "Point", "coordinates": [-119.5383, 39.0471]}, "properties": {"NAME": "W7N/TR-019", "TITLE": "Mineral Peak", "REGION": "NV-Tahoe Region", "ASSOCIATION": "USA - Nevada", "POINTS": "6", "BONUSPOINTS": "3"}}, {"type": "Feature", "geometry": {"type": "Point", "coordinates": [-119.0575, 38.516]}, "properties": {"NAME": "W7N/TR-020", "TITLE": "8149", "REGION": "NV-Tahoe Region", "ASSOCIATION": "USA - Nevada", "POINTS": "6", "BONUSPOINTS": "3"}}, {"type": "Feature", "geometry": {"type": "Point", "coordinates": [-119.6143, 38.7449]}, "properties": {"NAME": "W7N/TR-021", "TITLE": "Nevada Hill", "REGION": "NV-Tahoe Region", "ASSOCIATION": "USA - Nevada", "POINTS": "6", "BONUSPOINTS": "3"}}, {"type": "Feature", "geometry": {"type": "Point", "coordinates": [-119.1758, 38.5946]}, "properties": {"NAME": "W7N/TR-022", "TITLE": "Wiley Benchmark", "REGION": "NV-Tahoe Region", "ASSOCIATION": "USA - Nevada", "POINTS": "6", "BONUSPOINTS": "3"}}, {"type": "Feature", "geometry": {"type": "Point", "coordinates": [-119.4457, 38.8324]}, "properties": {"NAME": "W7N/TR-023", "TITLE": "7900", "REGION": "NV-Tahoe Region", "ASSOCIATION": "USA - Nevada", "POINTS": "6", "BONUSPOINTS": "3"}}, {"type": "Feature", "geometry": {"type": "Point", "coordinates": [-119.3653, 38.6109]}, "properties": {"NAME": "W7N/TR-024", "TITLE": "Pine Nut Benchmark", "REGION": "NV-Tahoe Region", "ASSOCIATION": "USA - Nevada", "POINTS": "6", "BONUSPOINTS": "3"}}, {"type": "Feature", "geometry": {"type": "Point", "coordinates": [-119.6634, 39.3082]}, "properties": {"NAME": "W7N/TR-025", "TITLE": "Davidson, Mount", "REGION": "NV-Tahoe Region", "ASSOCIATION": "USA - Nevada", "POINTS": "6", "BONUSPOINTS": "3"}}, {"type": "Feature", "geometry": {"type": "Point", "coordinates": [-119.5718, 38.8334]}, "properties": {"NAME": "W7N/TR-026", "TITLE": "7764", "REGION": "NV-Tahoe Region", "ASSOCIATION": "USA - Nevada", "POINTS": "6", "BONUSPOINTS": "3"}}, {"type": "Feature", "geometry": {"type": "Point", "coordinates": [-119.9235, 39.0957]}, "properties": {"NAME": "W7N/TR-027", "TITLE": "Captain Pomin Rock", "REGION": "NV-Tahoe Region", "ASSOCIATION": "USA - Nevada", "POINTS": "6", "BONUSPOINTS": "3"}}, {"type": "Feature", "geometry": {"type": "Point", "coordinates": [-119.5688, 39.0858]}, "properties": {"NAME": "W7N/TR-028", "TITLE": "Bismark Peak", "REGION": "NV-Tahoe Region", "ASSOCIATION": "USA - Nevada", "POINTS": "6", "BONUSPOINTS": "3"}}, {"type": "Feature", "geometry": {"type": "Point", "coordinates": [-119.5232, 39.1039]}, "properties": {"NAME": "W7N/TR-029", "TITLE": "7380", "REGION": "NV-Tahoe Region", "ASSOCIATION": "USA - Nevada", "POINTS": "4", "BONUSPOINTS": "3"}}, {"type": "Feature", "geometry": {"type": "Point", "coordinates": [-119.5296, 39.3959]}, "properties": {"NAME": "W7N/TR-030", "TITLE": "Flowery Range HP", "REGION": "NV-Tahoe Region", "ASSOCIATION": "USA - Nevada", "POINTS": "4", "BONUSPOINTS": "3"}}, {"type": "Feature", "geometry": {"type": "Point", "coordinates": [-119.3415, 39.4979]}, "properties": {"NAME": "W7N/TR-031", "TITLE": "7273", "REGION": "NV-Tahoe Region", "ASSOCIATION": "USA - Nevada", "POINTS": "4", "BONUSPOINTS": "3"}}, {"type": "Feature", "geometry": {"type": "Point", "coordinates": [-119.3902, 39.1627]}, "properties": {"NAME": "W7N/TR-032", "TITLE": "Rusty Benchmark", "REGION": "NV-Tahoe Region", "ASSOCIATION": "USA - Nevada", "POINTS": "4", "BONUSPOINTS": "3"}}, {"type": "Feature", "geometry": {"type": "Point", "coordinates": [-119.424, 38.7936]}, "properties": {"NAME": "W7N/TR-033", "TITLE": "7242", "REGION": "NV-Tahoe Region", "ASSOCIATION": "USA - Nevada", "POINTS": "4", "BONUSPOINTS": "3"}}, {"type": "Feature", "geometry": {"type": "Point", "coordinates": [-119.5523, 39.5043]}, "properties": {"NAME": "W7N/TR-034", "TITLE": "Clark Mountain", "REGION": "NV-Tahoe Region", "ASSOCIATION": "USA - Nevada", "POINTS": "4", "BONUSPOINTS": "3"}}, {"type": "Feature", "geometry": {"type": "Point", "coordinates": [-119.5197, 38.9887]}, "properties": {"NAME": "W7N/TR-035", "TITLE": "7134", "REGION": "NV-Tahoe Region", "ASSOCIATION": "USA - Nevada", "POINTS": "4", "BONUSPOINTS": "3"}}, {"type": "Feature", "geometry": {"type": "Point", "coordinates": [-119.5889, 38.8683]}, "properties": {"NAME": "W7N/TR-036", "TITLE": "7074", "REGION": "NV-Tahoe Region", "ASSOCIATION": "USA - Nevada", "POINTS": "4", "BONUSPOINTS": "3"}}, {"type": "Feature", "geometry": {"type": "Point", "coordinates": [-118.9283, 38.4665]}, "properties": {"NAME": "W7N/TR-037", "TITLE": "7066", "REGION": "NV-Tahoe Region", "ASSOCIATION": "USA - Nevada", "POINTS": "4", "BONUSPOINTS": "3"}}, {"type": "Feature", "geometry": {"type": "Point", "coordinates": [-119.6053, 39.3458]}, "properties": {"NAME": "W7N/TR-038", "TITLE": "7036", "REGION": "NV-Tahoe Region", "ASSOCIATION": "USA - Nevada", "POINTS": "4", "BONUSPOINTS": "3"}}, {"type": "Feature", "geometry": {"type": "Point", "coordinates": [-119.4306, 39.4311]}, "properties": {"NAME": "W7N/TR-039", "TITLE": "6991", "REGION": "NV-Tahoe Region", "ASSOCIATION": "USA - Nevada", "POINTS": "4", "BONUSPOINTS": "3"}}, {"type": "Feature", "geometry": {"type": "Point", "coordinates": [-119.3715, 39.0289]}, "properties": {"NAME": "W7N/TR-040", "TITLE": "Artesia Benchmark", "REGION": "NV-Tahoe Region", "ASSOCIATION": "USA - Nevada", "POINTS": "4", "BONUSPOINTS": "3"}}, {"type": "Feature", "geometry": {"type": "Point", "coordinates": [-118.9638, 38.4728]}, "properties": {"NAME": "W7N/TR-041", "TITLE": "Chet Benchmark", "REGION": "NV-Tahoe Region", "ASSOCIATION": "USA - Nevada", "POINTS": "4", "BONUSPOINTS": "3"}}, {"type": "Feature", "geometry": {"type": "Point", "coordinates": [-119.6576, 39.1095]}, "properties": {"NAME": "W7N/TR-042", "TITLE": "McTarnahan Hill", "REGION": "NV-Tahoe Region", "ASSOCIATION": "USA - Nevada", "POINTS": "4", "BONUSPOINTS": "3"}}, {"type": "Feature", "geometry": {"type": "Point", "coordinates": [-118.9204, 38.5897]}, "properties": {"NAME": "W7N/TR-043", "TITLE": "FSM Stud Stn 17 Benchmark", "REGION": "NV-Tahoe Region", "ASSOCIATION": "USA - Nevada", "POINTS": "4", "BONUSPOINTS": "3"}}, {"type": "Feature", "geometry": {"type": "Point", "coordinates": [-119.2204, 38.8508]}, "properties": {"NAME": "W7N/TR-044", "TITLE": "Wilson, Mount", "REGION": "NV-Tahoe Region", "ASSOCIATION": "USA - Nevada", "POINTS": "4", "BONUSPOINTS": "3"}}, {"type": "Feature", "geometry": {"type": "Point", "coordinates": [-119.1335, 39.2185]}, "properties": {"NAME": "W7N/TR-045", "TITLE": "Cleaver Peak", "REGION": "NV-Tahoe Region", "ASSOCIATION": "USA - Nevada", "POINTS": "4", "BONUSPOINTS": "3"}}, {"type": "Feature", "geometry": {"type": "Point", "coordinates": [-118.9483, 38.8124]}, "properties": {"NAME": "W7N/TR-046", "TITLE": "Gray Hills", "REGION": "NV-Tahoe Region", "ASSOCIATION": "USA - Nevada", "POINTS": "4", "BONUSPOINTS": "3"}}, {"type": "Feature", "geometry": {"type": "Point", "coordinates": [-119.1075, 38.7017]}, "properties": {"NAME": "W7N/TR-047", "TITLE": "6657", "REGION": "NV-Tahoe Region", "ASSOCIATION": "USA - Nevada", "POINTS": "4", "BONUSPOINTS": "3"}}, {"type": "Feature", "geometry": {"type": "Point", "coordinates": [-119.3641, 39.5571]}, "properties": {"NAME": "W7N/TR-048", "TITLE": "Eagle Benchmark", "REGION": "NV-Tahoe Region", "ASSOCIATION": "USA - Nevada", "POINTS": "4", "BONUSPOINTS": "3"}}, {"type": "Feature", "geometry": {"type": "Point", "coordinates": [-119.2611, 38.9225]}, "properties": {"NAME": "W7N/TR-049", "TITLE": "Shamrock Hill", "REGION": "NV-Tahoe Region", "ASSOCIATION": "USA - Nevada", "POINTS": "4", "BONUSPOINTS": "3"}}, {"type": "Feature", "geometry": {"type": "Point", "coordinates": [-119.6017, 39.4038]}, "properties": {"NAME": "W7N/TR-050", "TITLE": "6540", "REGION": "NV-Tahoe Region", "ASSOCIATION": "USA - Nevada", "POINTS": "4", "BONUSPOINTS": "3"}}, {"type": "Feature", "geometry": {"type": "Point", "coordinates": [-119.6291, 38.8156]}, "properties": {"NAME": "W7N/TR-051", "TITLE": "6530", "REGION": "NV-Tahoe Region", "ASSOCIATION": "USA - Nevada", "POINTS": "4", "BONUSPOINTS": "3"}}, {"type": "Feature", "geometry": {"type": "Point", "coordinates": [-119.2129, 38.8884]}, "properties": {"NAME": "W7N/TR-052", "TITLE": "Black Mountain", "REGION": "NV-Tahoe Region", "ASSOCIATION": "USA - Nevada", "POINTS": "4", "BONUSPOINTS": "3"}}, {"type": "Feature", "geometry": {"type": "Point", "coordinates": [-119.8199, 39.1072]}, "properties": {"NAME": "W7N/TR-053", "TITLE": "6460", "REGION": "NV-Tahoe Region", "ASSOCIATION": "USA - Nevada", "POINTS": "2", "BONUSPOINTS": "0"}}, {"type": "Feature", "geometry": {"type": "Point", "coordinates": [-119.6034, 39.2963]}, "properties": {"NAME": "W7N/TR-054", "TITLE": "Emma Peak", "REGION": "NV-Tahoe Region", "ASSOCIATION": "USA - Nevada", "POINTS": "2", "BONUSPOINTS": "0"}}, {"type": "Feature", "geometry": {"type": "Point", "coordinates": [-119.4261, 39.2394]}, "properties": {"NAME": "W7N/TR-055", "TITLE": "6380", "REGION": "NV-Tahoe Region", "ASSOCIATION": "USA - Nevada", "POINTS": "2", "BONUSPOINTS": "0"}}, {"type": "Feature", "geometry": {"type": "Point", "coordinates": [-119.2446, 38.9866]}, "properties": {"NAME": "W7N/TR-056", "TITLE": "Singatse Peak", "REGION": "NV-Tahoe Region", "ASSOCIATION": "USA - Nevada", "POINTS": "2", "BONUSPOINTS": "0"}}, {"type": "Feature", "geometry": {"type": "Point", "coordinates": [-119.5003, 39.5009]}, "properties": {"NAME": "W7N/TR-057", "TITLE": "6322", "REGION": "NV-Tahoe Region", "ASSOCIATION": "USA - Nevada", "POINTS": "2", "BONUSPOINTS": "0"}}, {"type": "Feature", "geometry": {"type": "Point", "coordinates": [-118.9605, 38.5938]}, "properties": {"NAME": "W7N/TR-058", "TITLE": "6300", "REGION": "NV-Tahoe Region", "ASSOCIATION": "USA - Nevada", "POINTS": "2", "BONUSPOINTS": "0"}}, {"type": "Feature", "geometry": {"type": "Point", "coordinates": [-118.9905, 38.8039]}, "properties": {"NAME": "W7N/TR-059", "TITLE": "FSM Marble Stn 14 Benchmark", "REGION": "NV-Tahoe Region", "ASSOCIATION": "USA - Nevada", "POINTS": "2", "BONUSPOINTS": "0"}}, {"type": "Feature", "geometry": {"type": "Point", "coordinates": [-119.3123, 39.1006]}, "properties": {"NAME": "W7N/TR-060", "TITLE": "6180", "REGION": "NV-Tahoe Region", "ASSOCIATION": "USA - Nevada", "POINTS": "2", "BONUSPOINTS": "0"}}, {"type": "Feature", "geometry": {"type": "Point", "coordinates": [-118.9892, 38.6464]}, "properties": {"NAME": "W7N/TR-061", "TITLE": "6121", "REGION": "NV-Tahoe Region", "ASSOCIATION": "USA - Nevada", "POINTS": "2", "BONUSPOINTS": "0"}}, {"type": "Feature", "geometry": {"type": "Point", "coordinates": [-118.8202, 39.113]}, "properties": {"NAME": "W7N/TR-062", "TITLE": "Painted Mesa", "REGION": "NV-Tahoe Region", "ASSOCIATION": "USA - Nevada", "POINTS": "2", "BONUSPOINTS": "0"}}, {"type": "Feature", "geometry": {"type": "Point", "coordinates": [-119.1916, 38.7908]}, "properties": {"NAME": "W7N/TR-063", "TITLE": "2-64A Benchmark", "REGION": "NV-Tahoe Region", "ASSOCIATION": "USA - Nevada", "POINTS": "2", "BONUSPOINTS": "0"}}, {"type": "Feature", "geometry": {"type": "Point", "coordinates": [-119.2955, 39.3399]}, "properties": {"NAME": "W7N/TR-064", "TITLE": "Churchill Butte", "REGION": "NV-Tahoe Region", "ASSOCIATION": "USA - Nevada", "POINTS": "2", "BONUSPOINTS": "0"}}, {"type": "Feature", "geometry": {"type": "Point", "coordinates": [-119.5385, 38.7086]}, "properties": {"NAME": "W7N/TR-065", "TITLE": "Wild Oat Mountain", "REGION": "NV-Tahoe Region", "ASSOCIATION": "USA - Nevada", "POINTS": "2", "BONUSPOINTS": "0"}}, {"type": "Feature", "geometry": {"type": "Point", "coordinates": [-119.0319, 38.7304]}, "properties": {"NAME": "W7N/TR-066", "TITLE": "FSM Sta 13 Benchmark", "REGION": "NV-Tahoe Region", "ASSOCIATION": "USA - Nevada", "POINTS": "2", "BONUSPOINTS": "0"}}, {"type": "Feature", "geometry": {"type": "Point", "coordinates": [-119.0147, 38.6702]}, "properties": {"NAME": "W7N/TR-067", "TITLE": "6001", "REGION": "NV-Tahoe Region", "ASSOCIATION": "USA - Nevada", "POINTS": "2", "BONUSPOINTS": "0"}}, {"type": "Feature", "geometry": {"type": "Point", "coordinates": [-119.689, 39.4975]}, "properties": {"NAME": "W7N/TR-068", "TITLE": "5990", "REGION": "NV-Tahoe Region", "ASSOCIATION": "USA - Nevada", "POINTS": "2", "BONUSPOINTS": "0"}}, {"type": "Feature", "geometry": {"type": "Point", "coordinates": [-119.4219, 39.5759]}, "properties": {"NAME": "W7N/TR-069", "TITLE": "Thisbee Benchmark", "REGION": "NV-Tahoe Region", "ASSOCIATION": "USA - Nevada", "POINTS": "2", "BONUSPOINTS": "0"}}, {"type": "Feature", "geometry": {"type": "Point", "coordinates": [-119.718, 39.0638]}, "properties": {"NAME": "W7N/TR-070", "TITLE": "Hot Springs Mountain", "REGION": "NV-Tahoe Region", "ASSOCIATION": "USA - Nevada", "POINTS": "2", "BONUSPOINTS": "0"}}, {"type": "Feature", "geometry": {"type": "Point", "coordinates": [-119.6189, 39.465]}, "properties": {"NAME": "W7N/TR-071", "TITLE": "Washington Hill", "REGION": "NV-Tahoe Region", "ASSOCIATION": "USA - Nevada", "POINTS": "2", "BONUSPOINTS": "0"}}, {"type": "Feature", "geometry": {"type": "Point", "coordinates": [-118.9369, 39.192]}, "properties": {"NAME": "W7N/TR-072", "TITLE": "5883", "REGION": "NV-Tahoe Region", "ASSOCIATION": "USA - Nevada", "POINTS": "2", "BONUSPOINTS": "0"}}, {"type": "Feature", "geometry": {"type": "Point", "coordinates": [-119.004, 39.2153]}, "properties": {"NAME": "W7N/TR-073", "TITLE": "View Benchmark", "REGION": "NV-Tahoe Region", "ASSOCIATION": "USA - Nevada", "POINTS": "2", "BONUSPOINTS": "0"}}, {"type": "Feature", "geometry": {"type": "Point", "coordinates": [-119.0182, 38.962]}, "properties": {"NAME": "W7N/TR-074", "TITLE": "5780", "REGION": "NV-Tahoe Region", "ASSOCIATION": "USA - Nevada", "POINTS": "2", "BONUSPOINTS": "0"}}, {"type": "Feature", "geometry": {"type": "Point", "coordinates": [-119.7212, 39.1265]}, "properties": {"NAME": "W7N/TR-075", "TITLE": "Prison Hill", "REGION": "NV-Tahoe Region", "ASSOCIATION": "USA - Nevada", "POINTS": "2", "BONUSPOINTS": "0"}}, {"type": "Feature", "geometry": {"type": "Point", "coordinates": [-119.1824, 39.5267]}, "properties": {"NAME": "W7N/TR-076", "TITLE": "5528", "REGION": "NV-Tahoe Region", "ASSOCIATION": "USA - Nevada", "POINTS": "2", "BONUSPOINTS": "0"}}, {"type": "Feature", "geometry": {"type": "Point", "coordinates": [-118.9942, 39.0442]}, "properties": {"NAME": "W7N/TR-077", "TITLE": "5330", "REGION": "NV-Tahoe Region", "ASSOCIATION": "USA - Nevada", "POINTS": "2", "BONUSPOINTS": "0"}}, {"type": "Feature", "geometry": {"type": "Point", "coordinates": [-119.431, 39.2943]}, "properties": {"NAME": "W7N/TR-078", "TITLE": "5295", "REGION": "NV-Tahoe Region", "ASSOCIATION": "USA - Nevada", "POINTS": "2", "BONUSPOINTS": "0"}}, {"type": "Feature", "geometry": {"type": "Point", "coordinates": [-119.3266, 39.2469]}, "properties": {"NAME": "W7N/TR-079", "TITLE": "5260", "REGION": "NV-Tahoe Region", "ASSOCIATION": "USA - Nevada", "POINTS": "2", "BONUSPOINTS": "0"}}, {"type": "Feature", "geometry": {"type": "Point", "coordinates": [-119.0884, 38.9739]}, "properties": {"NAME": "W7N/TR-080", "TITLE": "5223", "REGION": "NV-Tahoe Region", "ASSOCIATION": "USA - Nevada", "POINTS": "2", "BONUSPOINTS": "0"}}, {"type": "Feature", "geometry": {"type": "Point", "coordinates": [-119.4759, 39.3042]}, "properties": {"NAME": "W7N/TR-081", "TITLE": "5088", "REGION": "NV-Tahoe Region", "ASSOCIATION": "USA - Nevada", "POINTS": "2", "BONUSPOINTS": "0"}}, {"type": "Feature", "geometry": {"type": "Point", "coordinates": [-119.0665, 39.1352]}, "properties": {"NAME": "W7N/TR-082", "TITLE": "Parker Butte", "REGION": "NV-Tahoe Region", "ASSOCIATION": "USA - Nevada", "POINTS": "2", "BONUSPOINTS": "0"}}, {"type": "Feature", "geometry": {"type": "Point", "coordinates": [-119.0287, 39.1086]}, "properties": {"NAME": "W7N/TR-083", "TITLE": "4987", "REGION": "NV-Tahoe Region", "ASSOCIATION": "USA - Nevada", "POINTS": "1", "BONUSPOINTS": "0"}}, {"type": "Feature", "geometry": {"type": "Point", "coordinates": [-119.122, 39.4186]}, "properties": {"NAME": "W7N/TR-084", "TITLE": "Arm Benchmark", "REGION": "NV-Tahoe Region", "ASSOCIATION": "USA - Nevada", "POINTS": "1", "BONUSPOINTS": "0"}}, {"type": "Feature", "geometry": {"type": "Point", "coordinates": [-119.3484, 38.6317]}, "properties": {"NAME": "W7N/TR-085", "TITLE": "Wellington Hills", "REGION": "NV-Tahoe Region", "ASSOCIATION": "USA - Nevada", "POINTS": "6", "BONUSPOINTS": "3"}}]}