{"type": "FeatureCollection", "name": "W7N/WC SUMMITS", "features": [{"type": "Feature", "geometry": {"type": "Point", "coordinates": [-119.918, 39.3439]}, "properties": {"NAME": "W7N/WC-001", "TITLE": "Rose, Mount", "REGION": "NV-Washoe County", "ASSOCIATION": "USA - Nevada", "POINTS": "10", "BONUSPOINTS": "3"}}, {"type": "Feature", "geometry": {"type": "Point", "coordinates": [-119.9395, 39.3341]}, "properties": {"NAME": "W7N/WC-002", "TITLE": "Houghton, Mount", "REGION": "NV-Washoe County", "ASSOCIATION": "USA - Nevada", "POINTS": "10", "BONUSPOINTS": "3"}}, {"type": "Feature", "geometry": {"type": "Point", "coordinates": [-119.9216, 39.3183]}, "properties": {"NAME": "W7N/WC-003", "TITLE": "Tamarack Peak", "REGION": "NV-Washoe County", "ASSOCIATION": "USA - Nevada", "POINTS": "10", "BONUSPOINTS": "3"}}, {"type": "Feature", "geometry": {"type": "Point", "coordinates": [-119.8844, 39.3128]}, "properties": {"NAME": "W7N/WC-004", "TITLE": "Slide Mountain", "REGION": "NV-Washoe County", "ASSOCIATION": "USA - Nevada", "POINTS": "10", "BONUSPOINTS": "3"}}, {"type": "Feature", "geometry": {"type": "Point", "coordinates": [-119.8992, 39.2915]}, "properties": {"NAME": "W7N/WC-005", "TITLE": "Chickadee Ridge", "REGION": "NV-Washoe County", "ASSOCIATION": "USA - Nevada", "POINTS": "8", "BONUSPOINTS": "3"}}, {"type": "Feature", "geometry": {"type": "Point", "coordinates": [-119.433, 40.7909]}, "properties": {"NAME": "W7N/WC-006", "TITLE": "Granite Peak", "REGION": "NV-Washoe County", "ASSOCIATION": "USA - Nevada", "POINTS": "8", "BONUSPOINTS": "3"}}, {"type": "Feature", "geometry": {"type": "Point", "coordinates": [-119.4306, 40.8141]}, "properties": {"NAME": "W7N/WC-007", "TITLE": "Granite Benchmark", "REGION": "NV-Washoe County", "ASSOCIATION": "USA - Nevada", "POINTS": "8", "BONUSPOINTS": "3"}}, {"type": "Feature", "geometry": {"type": "Point", "coordinates": [-119.9106, 39.2032]}, "properties": {"NAME": "W7N/WC-008", "TITLE": "Herlan Peak", "REGION": "NV-Washoe County", "ASSOCIATION": "USA - Nevada", "POINTS": "8", "BONUSPOINTS": "3"}}, {"type": "Feature", "geometry": {"type": "Point", "coordinates": [-119.7441, 39.9761]}, "properties": {"NAME": "W7N/WC-009", "TITLE": "Tule Peak", "REGION": "NV-Washoe County", "ASSOCIATION": "USA - Nevada", "POINTS": "8", "BONUSPOINTS": "3"}}, {"type": "Feature", "geometry": {"type": "Point", "coordinates": [-119.4613, 39.7555]}, "properties": {"NAME": "W7N/WC-010", "TITLE": "Virginia Peak", "REGION": "NV-Washoe County", "ASSOCIATION": "USA - Nevada", "POINTS": "6", "BONUSPOINTS": "3"}}, {"type": "Feature", "geometry": {"type": "Point", "coordinates": [-119.932, 39.5868]}, "properties": {"NAME": "W7N/WC-011", "TITLE": "Peavine Peak", "REGION": "NV-Washoe County", "ASSOCIATION": "USA - Nevada", "POINTS": "6", "BONUSPOINTS": "3"}}, {"type": "Feature", "geometry": {"type": "Point", "coordinates": [-119.4553, 40.1793]}, "properties": {"NAME": "W7N/WC-012", "TITLE": "Tohakum Peak", "REGION": "NV-Washoe County", "ASSOCIATION": "USA - Nevada", "POINTS": "6", "BONUSPOINTS": "3"}}, {"type": "Feature", "geometry": {"type": "Point", "coordinates": [-119.5583, 41.0254]}, "properties": {"NAME": "W7N/WC-013", "TITLE": "Fox Mountain", "REGION": "NV-Washoe County", "ASSOCIATION": "USA - Nevada", "POINTS": "6", "BONUSPOINTS": "3"}}, {"type": "Feature", "geometry": {"type": "Point", "coordinates": [-119.4638, 39.6519]}, "properties": {"NAME": "W7N/WC-014", "TITLE": "Pond Peak", "REGION": "NV-Washoe County", "ASSOCIATION": "USA - Nevada", "POINTS": "6", "BONUSPOINTS": "3"}}, {"type": "Feature", "geometry": {"type": "Point", "coordinates": [-119.9792, 40.0299]}, "properties": {"NAME": "W7N/WC-015", "TITLE": "State Line Peak", "REGION": "NV-Washoe County", "ASSOCIATION": "USA - Nevada", "POINTS": "6", "BONUSPOINTS": "3"}}, {"type": "Feature", "geometry": {"type": "Point", "coordinates": [-119.8275, 40.0271]}, "properties": {"NAME": "W7N/WC-016", "TITLE": "7948", "REGION": "NV-Washoe County", "ASSOCIATION": "USA - Nevada", "POINTS": "6", "BONUSPOINTS": "3"}}, {"type": "Feature", "geometry": {"type": "Point", "coordinates": [-119.9341, 41.2734]}, "properties": {"NAME": "W7N/WC-017", "TITLE": "Hays Canyon Peak", "REGION": "NV-Washoe County", "ASSOCIATION": "USA - Nevada", "POINTS": "6", "BONUSPOINTS": "3"}}, {"type": "Feature", "geometry": {"type": "Point", "coordinates": [-119.9762, 39.7959]}, "properties": {"NAME": "W7N/WC-018", "TITLE": "Petersen Mountain", "REGION": "NV-Washoe County", "ASSOCIATION": "USA - Nevada", "POINTS": "6", "BONUSPOINTS": "3"}}, {"type": "Feature", "geometry": {"type": "Point", "coordinates": [-119.4265, 41.1084]}, "properties": {"NAME": "W7N/WC-019", "TITLE": "Hog Ranch Mountain", "REGION": "NV-Washoe County", "ASSOCIATION": "USA - Nevada", "POINTS": "6", "BONUSPOINTS": "3"}}, {"type": "Feature", "geometry": {"type": "Point", "coordinates": [-119.9071, 41.331]}, "properties": {"NAME": "W7N/WC-020", "TITLE": "7686", "REGION": "NV-Washoe County", "ASSOCIATION": "USA - Nevada", "POINTS": "6", "BONUSPOINTS": "3"}}, {"type": "Feature", "geometry": {"type": "Point", "coordinates": [-119.4287, 41.074]}, "properties": {"NAME": "W7N/WC-021", "TITLE": "7663", "REGION": "NV-Washoe County", "ASSOCIATION": "USA - Nevada", "POINTS": "6", "BONUSPOINTS": "3"}}, {"type": "Feature", "geometry": {"type": "Point", "coordinates": [-119.4862, 40.8889]}, "properties": {"NAME": "W7N/WC-022", "TITLE": "Wagon Tire Mountain", "REGION": "NV-Washoe County", "ASSOCIATION": "USA - Nevada", "POINTS": "6", "BONUSPOINTS": "3"}}, {"type": "Feature", "geometry": {"type": "Point", "coordinates": [-119.5754, 40.3905]}, "properties": {"NAME": "W7N/WC-023", "TITLE": "Pah-Rum Peak", "REGION": "NV-Washoe County", "ASSOCIATION": "USA - Nevada", "POINTS": "6", "BONUSPOINTS": "3"}}, {"type": "Feature", "geometry": {"type": "Point", "coordinates": [-119.4507, 40.1118]}, "properties": {"NAME": "W7N/WC-024", "TITLE": "7574", "REGION": "NV-Washoe County", "ASSOCIATION": "USA - Nevada", "POINTS": "6", "BONUSPOINTS": "3"}}, {"type": "Feature", "geometry": {"type": "Point", "coordinates": [-119.9348, 41.5522]}, "properties": {"NAME": "W7N/WC-025", "TITLE": "Fortynine Mountain", "REGION": "NV-Washoe County", "ASSOCIATION": "USA - Nevada", "POINTS": "6", "BONUSPOINTS": "3"}}, {"type": "Feature", "geometry": {"type": "Point", "coordinates": [-119.7906, 39.8925]}, "properties": {"NAME": "W7N/WC-026", "TITLE": "Dogskin Mountain", "REGION": "NV-Washoe County", "ASSOCIATION": "USA - Nevada", "POINTS": "4", "BONUSPOINTS": "3"}}, {"type": "Feature", "geometry": {"type": "Point", "coordinates": [-119.5507, 39.8324]}, "properties": {"NAME": "W7N/WC-027", "TITLE": "Monte Benchmark", "REGION": "NV-Washoe County", "ASSOCIATION": "USA - Nevada", "POINTS": "4", "BONUSPOINTS": "3"}}, {"type": "Feature", "geometry": {"type": "Point", "coordinates": [-119.7052, 39.2619]}, "properties": {"NAME": "W7N/WC-028", "TITLE": "Scott, Mount", "REGION": "NV-Washoe County", "ASSOCIATION": "USA - Nevada", "POINTS": "4", "BONUSPOINTS": "3"}}, {"type": "Feature", "geometry": {"type": "Point", "coordinates": [-119.8066, 40.0358]}, "properties": {"NAME": "W7N/WC-029", "TITLE": "7460", "REGION": "NV-Washoe County", "ASSOCIATION": "USA - Nevada", "POINTS": "4", "BONUSPOINTS": "3"}}, {"type": "Feature", "geometry": {"type": "Point", "coordinates": [-119.5787, 39.6491]}, "properties": {"NAME": "W7N/WC-030", "TITLE": "Spanish Springs Peak", "REGION": "NV-Washoe County", "ASSOCIATION": "USA - Nevada", "POINTS": "4", "BONUSPOINTS": "3"}}, {"type": "Feature", "geometry": {"type": "Point", "coordinates": [-119.4744, 40.1837]}, "properties": {"NAME": "W7N/WC-031", "TITLE": "7309", "REGION": "NV-Washoe County", "ASSOCIATION": "USA - Nevada", "POINTS": "4", "BONUSPOINTS": "3"}}, {"type": "Feature", "geometry": {"type": "Point", "coordinates": [-119.7883, 41.3075]}, "properties": {"NAME": "W7N/WC-032", "TITLE": "Boulder Mountain", "REGION": "NV-Washoe County", "ASSOCIATION": "USA - Nevada", "POINTS": "4", "BONUSPOINTS": "3"}}, {"type": "Feature", "geometry": {"type": "Point", "coordinates": [-119.6038, 40.393]}, "properties": {"NAME": "W7N/WC-033", "TITLE": "7300", "REGION": "NV-Washoe County", "ASSOCIATION": "USA - Nevada", "POINTS": "4", "BONUSPOINTS": "3"}}, {"type": "Feature", "geometry": {"type": "Point", "coordinates": [-119.3892, 41.849]}, "properties": {"NAME": "W7N/WC-034", "TITLE": "Catnip Mountain", "REGION": "NV-Washoe County", "ASSOCIATION": "USA - Nevada", "POINTS": "4", "BONUSPOINTS": "3"}}, {"type": "Feature", "geometry": {"type": "Point", "coordinates": [-119.569, 40.4375]}, "properties": {"NAME": "W7N/WC-035", "TITLE": "7226", "REGION": "NV-Washoe County", "ASSOCIATION": "USA - Nevada", "POINTS": "4", "BONUSPOINTS": "3"}}, {"type": "Feature", "geometry": {"type": "Point", "coordinates": [-119.92, 41.6333]}, "properties": {"NAME": "W7N/WC-036", "TITLE": "Metzker Peak", "REGION": "NV-Washoe County", "ASSOCIATION": "USA - Nevada", "POINTS": "4", "BONUSPOINTS": "3"}}, {"type": "Feature", "geometry": {"type": "Point", "coordinates": [-119.625, 41.836]}, "properties": {"NAME": "W7N/WC-037", "TITLE": "Yellow Peak", "REGION": "NV-Washoe County", "ASSOCIATION": "USA - Nevada", "POINTS": "4", "BONUSPOINTS": "3"}}, {"type": "Feature", "geometry": {"type": "Point", "coordinates": [-119.3328, 41.615]}, "properties": {"NAME": "W7N/WC-038", "TITLE": "Badger Mountain", "REGION": "NV-Washoe County", "ASSOCIATION": "USA - Nevada", "POINTS": "4", "BONUSPOINTS": "3"}}, {"type": "Feature", "geometry": {"type": "Point", "coordinates": [-119.8533, 39.779]}, "properties": {"NAME": "W7N/WC-039", "TITLE": "Freds Mountain", "REGION": "NV-Washoe County", "ASSOCIATION": "USA - Nevada", "POINTS": "4", "BONUSPOINTS": "3"}}, {"type": "Feature", "geometry": {"type": "Point", "coordinates": [-119.9351, 41.5841]}, "properties": {"NAME": "W7N/WC-040", "TITLE": "7148", "REGION": "NV-Washoe County", "ASSOCIATION": "USA - Nevada", "POINTS": "4", "BONUSPOINTS": "3"}}, {"type": "Feature", "geometry": {"type": "Point", "coordinates": [-119.853, 41.9415]}, "properties": {"NAME": "W7N/WC-041", "TITLE": "7143", "REGION": "NV-Washoe County", "ASSOCIATION": "USA - Nevada", "POINTS": "4", "BONUSPOINTS": "3"}}, {"type": "Feature", "geometry": {"type": "Point", "coordinates": [-119.4686, 40.2483]}, "properties": {"NAME": "W7N/WC-042", "TITLE": "Sweetwater Benchmark", "REGION": "NV-Washoe County", "ASSOCIATION": "USA - Nevada", "POINTS": "4", "BONUSPOINTS": "3"}}, {"type": "Feature", "geometry": {"type": "Point", "coordinates": [-119.3337, 41.7463]}, "properties": {"NAME": "W7N/WC-043", "TITLE": "Fish Creek Mountain", "REGION": "NV-Washoe County", "ASSOCIATION": "USA - Nevada", "POINTS": "4", "BONUSPOINTS": "3"}}, {"type": "Feature", "geometry": {"type": "Point", "coordinates": [-119.6368, 41.518]}, "properties": {"NAME": "W7N/WC-044", "TITLE": "Lone Spring Mountain", "REGION": "NV-Washoe County", "ASSOCIATION": "USA - Nevada", "POINTS": "4", "BONUSPOINTS": "3"}}, {"type": "Feature", "geometry": {"type": "Point", "coordinates": [-119.4737, 41.2972]}, "properties": {"NAME": "W7N/WC-045", "TITLE": "Mahogany Mountain", "REGION": "NV-Washoe County", "ASSOCIATION": "USA - Nevada", "POINTS": "4", "BONUSPOINTS": "3"}}, {"type": "Feature", "geometry": {"type": "Point", "coordinates": [-119.4565, 41.5908]}, "properties": {"NAME": "W7N/WC-046", "TITLE": "Nut Mountain", "REGION": "NV-Washoe County", "ASSOCIATION": "USA - Nevada", "POINTS": "4", "BONUSPOINTS": "3"}}, {"type": "Feature", "geometry": {"type": "Point", "coordinates": [-119.9465, 40.8551]}, "properties": {"NAME": "W7N/WC-047", "TITLE": "Rowland Mountain", "REGION": "NV-Washoe County", "ASSOCIATION": "USA - Nevada", "POINTS": "4", "BONUSPOINTS": "3"}}, {"type": "Feature", "geometry": {"type": "Point", "coordinates": [-119.746, 41.147]}, "properties": {"NAME": "W7N/WC-048", "TITLE": "Cherry Mountain", "REGION": "NV-Washoe County", "ASSOCIATION": "USA - Nevada", "POINTS": "4", "BONUSPOINTS": "3"}}, {"type": "Feature", "geometry": {"type": "Point", "coordinates": [-119.4939, 40.9232]}, "properties": {"NAME": "W7N/WC-049", "TITLE": "6895", "REGION": "NV-Washoe County", "ASSOCIATION": "USA - Nevada", "POINTS": "4", "BONUSPOINTS": "3"}}, {"type": "Feature", "geometry": {"type": "Point", "coordinates": [-119.9482, 41.4538]}, "properties": {"NAME": "W7N/WC-050", "TITLE": "Big Hat Mountain", "REGION": "NV-Washoe County", "ASSOCIATION": "USA - Nevada", "POINTS": "4", "BONUSPOINTS": "3"}}, {"type": "Feature", "geometry": {"type": "Point", "coordinates": [-119.6645, 39.4096]}, "properties": {"NAME": "W7N/WC-051", "TITLE": "Louse Benchmark", "REGION": "NV-Washoe County", "ASSOCIATION": "USA - Nevada", "POINTS": "4", "BONUSPOINTS": "3"}}, {"type": "Feature", "geometry": {"type": "Point", "coordinates": [-119.3333, 41.1367]}, "properties": {"NAME": "W7N/WC-052", "TITLE": "Sheep Peaks North", "REGION": "NV-Washoe County", "ASSOCIATION": "USA - Nevada", "POINTS": "4", "BONUSPOINTS": "3"}}, {"type": "Feature", "geometry": {"type": "Point", "coordinates": [-119.5589, 40.4591]}, "properties": {"NAME": "W7N/WC-053", "TITLE": "6849", "REGION": "NV-Washoe County", "ASSOCIATION": "USA - Nevada", "POINTS": "4", "BONUSPOINTS": "3"}}, {"type": "Feature", "geometry": {"type": "Point", "coordinates": [-119.6483, 40.8102]}, "properties": {"NAME": "W7N/WC-054", "TITLE": "Poodle Mountain", "REGION": "NV-Washoe County", "ASSOCIATION": "USA - Nevada", "POINTS": "4", "BONUSPOINTS": "3"}}, {"type": "Feature", "geometry": {"type": "Point", "coordinates": [-119.6137, 41.3962]}, "properties": {"NAME": "W7N/WC-055", "TITLE": "Nellie Spring Mountain", "REGION": "NV-Washoe County", "ASSOCIATION": "USA - Nevada", "POINTS": "4", "BONUSPOINTS": "3"}}, {"type": "Feature", "geometry": {"type": "Point", "coordinates": [-119.7375, 41.9676]}, "properties": {"NAME": "W7N/WC-056", "TITLE": "Coleman Benchmark", "REGION": "NV-Washoe County", "ASSOCIATION": "USA - Nevada", "POINTS": "4", "BONUSPOINTS": "3"}}, {"type": "Feature", "geometry": {"type": "Point", "coordinates": [-119.5856, 41.2829]}, "properties": {"NAME": "W7N/WC-057", "TITLE": "Hart Mountain", "REGION": "NV-Washoe County", "ASSOCIATION": "USA - Nevada", "POINTS": "4", "BONUSPOINTS": "3"}}, {"type": "Feature", "geometry": {"type": "Point", "coordinates": [-119.4335, 40.0513]}, "properties": {"NAME": "W7N/WC-058", "TITLE": "6774", "REGION": "NV-Washoe County", "ASSOCIATION": "USA - Nevada", "POINTS": "4", "BONUSPOINTS": "3"}}, {"type": "Feature", "geometry": {"type": "Point", "coordinates": [-119.4412, 40.0249]}, "properties": {"NAME": "W7N/WC-059", "TITLE": "6766", "REGION": "NV-Washoe County", "ASSOCIATION": "USA - Nevada", "POINTS": "4", "BONUSPOINTS": "3"}}, {"type": "Feature", "geometry": {"type": "Point", "coordinates": [-119.7185, 40.7379]}, "properties": {"NAME": "W7N/WC-060", "TITLE": "Burnt Mountain", "REGION": "NV-Washoe County", "ASSOCIATION": "USA - Nevada", "POINTS": "4", "BONUSPOINTS": "3"}}, {"type": "Feature", "geometry": {"type": "Point", "coordinates": [-119.5722, 40.5026]}, "properties": {"NAME": "W7N/WC-061", "TITLE": "6737", "REGION": "NV-Washoe County", "ASSOCIATION": "USA - Nevada", "POINTS": "4", "BONUSPOINTS": "3"}}, {"type": "Feature", "geometry": {"type": "Point", "coordinates": [-119.6538, 41.3066]}, "properties": {"NAME": "W7N/WC-062", "TITLE": "Pinto Peak", "REGION": "NV-Washoe County", "ASSOCIATION": "USA - Nevada", "POINTS": "4", "BONUSPOINTS": "3"}}, {"type": "Feature", "geometry": {"type": "Point", "coordinates": [-119.7389, 41.8759]}, "properties": {"NAME": "W7N/WC-063", "TITLE": "6672", "REGION": "NV-Washoe County", "ASSOCIATION": "USA - Nevada", "POINTS": "4", "BONUSPOINTS": "3"}}, {"type": "Feature", "geometry": {"type": "Point", "coordinates": [-119.9216, 39.7712]}, "properties": {"NAME": "W7N/WC-064", "TITLE": "6607", "REGION": "NV-Washoe County", "ASSOCIATION": "USA - Nevada", "POINTS": "4", "BONUSPOINTS": "3"}}, {"type": "Feature", "geometry": {"type": "Point", "coordinates": [-119.8925, 40.6416]}, "properties": {"NAME": "W7N/WC-065", "TITLE": "Twin Peaks North", "REGION": "NV-Washoe County", "ASSOCIATION": "USA - Nevada", "POINTS": "4", "BONUSPOINTS": "3"}}, {"type": "Feature", "geometry": {"type": "Point", "coordinates": [-119.5372, 41.6672]}, "properties": {"NAME": "W7N/WC-066", "TITLE": "Table Butte", "REGION": "NV-Washoe County", "ASSOCIATION": "USA - Nevada", "POINTS": "4", "BONUSPOINTS": "3"}}, {"type": "Feature", "geometry": {"type": "Point", "coordinates": [-119.2358, 39.9966]}, "properties": {"NAME": "W7N/WC-067", "TITLE": "Nache Peak", "REGION": "NV-Washoe County", "ASSOCIATION": "USA - Nevada", "POINTS": "4", "BONUSPOINTS": "3"}}, {"type": "Feature", "geometry": {"type": "Point", "coordinates": [-119.7864, 41.9044]}, "properties": {"NAME": "W7N/WC-068", "TITLE": "6549", "REGION": "NV-Washoe County", "ASSOCIATION": "USA - Nevada", "POINTS": "4", "BONUSPOINTS": "3"}}, {"type": "Feature", "geometry": {"type": "Point", "coordinates": [-119.407, 41.2133]}, "properties": {"NAME": "W7N/WC-069", "TITLE": "Willow Benchmark", "REGION": "NV-Washoe County", "ASSOCIATION": "USA - Nevada", "POINTS": "4", "BONUSPOINTS": "3"}}, {"type": "Feature", "geometry": {"type": "Point", "coordinates": [-119.4251, 40.2529]}, "properties": {"NAME": "W7N/WC-070", "TITLE": "6511", "REGION": "NV-Washoe County", "ASSOCIATION": "USA - Nevada", "POINTS": "4", "BONUSPOINTS": "3"}}, {"type": "Feature", "geometry": {"type": "Point", "coordinates": [-119.8065, 41.9006]}, "properties": {"NAME": "W7N/WC-071", "TITLE": "6434", "REGION": "NV-Washoe County", "ASSOCIATION": "USA - Nevada", "POINTS": "2", "BONUSPOINTS": "0"}}, {"type": "Feature", "geometry": {"type": "Point", "coordinates": [-119.3879, 41.5418]}, "properties": {"NAME": "W7N/WC-072", "TITLE": "Wall Benchmark", "REGION": "NV-Washoe County", "ASSOCIATION": "USA - Nevada", "POINTS": "2", "BONUSPOINTS": "0"}}, {"type": "Feature", "geometry": {"type": "Point", "coordinates": [-119.4652, 39.997]}, "properties": {"NAME": "W7N/WC-073", "TITLE": "Cui Ui Benchmark", "REGION": "NV-Washoe County", "ASSOCIATION": "USA - Nevada", "POINTS": "2", "BONUSPOINTS": "0"}}, {"type": "Feature", "geometry": {"type": "Point", "coordinates": [-119.3424, 40.7507]}, "properties": {"NAME": "W7N/WC-074", "TITLE": "6347", "REGION": "NV-Washoe County", "ASSOCIATION": "USA - Nevada", "POINTS": "2", "BONUSPOINTS": "0"}}, {"type": "Feature", "geometry": {"type": "Point", "coordinates": [-119.2441, 39.913]}, "properties": {"NAME": "W7N/WC-075", "TITLE": "Black Warrior Peak", "REGION": "NV-Washoe County", "ASSOCIATION": "USA - Nevada", "POINTS": "2", "BONUSPOINTS": "0"}}, {"type": "Feature", "geometry": {"type": "Point", "coordinates": [-119.6984, 41.5926]}, "properties": {"NAME": "W7N/WC-076", "TITLE": "Painted Point", "REGION": "NV-Washoe County", "ASSOCIATION": "USA - Nevada", "POINTS": "2", "BONUSPOINTS": "0"}}, {"type": "Feature", "geometry": {"type": "Point", "coordinates": [-119.3608, 40.4038]}, "properties": {"NAME": "W7N/WC-077", "TITLE": "Wind Benchmark", "REGION": "NV-Washoe County", "ASSOCIATION": "USA - Nevada", "POINTS": "2", "BONUSPOINTS": "0"}}, {"type": "Feature", "geometry": {"type": "Point", "coordinates": [-119.4115, 39.6122]}, "properties": {"NAME": "W7N/WC-078", "TITLE": "6253", "REGION": "NV-Washoe County", "ASSOCIATION": "USA - Nevada", "POINTS": "2", "BONUSPOINTS": "0"}}, {"type": "Feature", "geometry": {"type": "Point", "coordinates": [-119.8193, 41.1981]}, "properties": {"NAME": "W7N/WC-079", "TITLE": "6253", "REGION": "NV-Washoe County", "ASSOCIATION": "USA - Nevada", "POINTS": "2", "BONUSPOINTS": "0"}}, {"type": "Feature", "geometry": {"type": "Point", "coordinates": [-119.2217, 39.8486]}, "properties": {"NAME": "W7N/WC-080", "TITLE": "6228", "REGION": "NV-Washoe County", "ASSOCIATION": "USA - Nevada", "POINTS": "2", "BONUSPOINTS": "0"}}, {"type": "Feature", "geometry": {"type": "Point", "coordinates": [-119.9095, 40.3935]}, "properties": {"NAME": "W7N/WC-081", "TITLE": "6221", "REGION": "NV-Washoe County", "ASSOCIATION": "USA - Nevada", "POINTS": "2", "BONUSPOINTS": "0"}}, {"type": "Feature", "geometry": {"type": "Point", "coordinates": [-119.9382, 40.5193]}, "properties": {"NAME": "W7N/WC-082", "TITLE": "Smoke Benchmark", "REGION": "NV-Washoe County", "ASSOCIATION": "USA - Nevada", "POINTS": "2", "BONUSPOINTS": "0"}}, {"type": "Feature", "geometry": {"type": "Point", "coordinates": [-119.79, 39.3671]}, "properties": {"NAME": "W7N/WC-083", "TITLE": "Steamboat Hills", "REGION": "NV-Washoe County", "ASSOCIATION": "USA - Nevada", "POINTS": "2", "BONUSPOINTS": "0"}}, {"type": "Feature", "geometry": {"type": "Point", "coordinates": [-119.7691, 39.6507]}, "properties": {"NAME": "W7N/WC-084", "TITLE": "Spanish Benchmark", "REGION": "NV-Washoe County", "ASSOCIATION": "USA - Nevada", "POINTS": "2", "BONUSPOINTS": "0"}}, {"type": "Feature", "geometry": {"type": "Point", "coordinates": [-119.3649, 41.4566]}, "properties": {"NAME": "W7N/WC-085", "TITLE": "Yellow Hills", "REGION": "NV-Washoe County", "ASSOCIATION": "USA - Nevada", "POINTS": "2", "BONUSPOINTS": "0"}}, {"type": "Feature", "geometry": {"type": "Point", "coordinates": [-119.8853, 40.5538]}, "properties": {"NAME": "W7N/WC-086", "TITLE": "Burro Mountain", "REGION": "NV-Washoe County", "ASSOCIATION": "USA - Nevada", "POINTS": "2", "BONUSPOINTS": "0"}}, {"type": "Feature", "geometry": {"type": "Point", "coordinates": [-119.7006, 39.4669]}, "properties": {"NAME": "W7N/WC-087", "TITLE": "6075", "REGION": "NV-Washoe County", "ASSOCIATION": "USA - Nevada", "POINTS": "2", "BONUSPOINTS": "0"}}, {"type": "Feature", "geometry": {"type": "Point", "coordinates": [-119.9418, 39.915]}, "properties": {"NAME": "W7N/WC-088", "TITLE": "Seven Lakes Mountain", "REGION": "NV-Washoe County", "ASSOCIATION": "USA - Nevada", "POINTS": "2", "BONUSPOINTS": "0"}}, {"type": "Feature", "geometry": {"type": "Point", "coordinates": [-119.7671, 39.7954]}, "properties": {"NAME": "W7N/WC-089", "TITLE": "Warm Springs Mountain", "REGION": "NV-Washoe County", "ASSOCIATION": "USA - Nevada", "POINTS": "2", "BONUSPOINTS": "0"}}, {"type": "Feature", "geometry": {"type": "Point", "coordinates": [-119.8418, 39.7142]}, "properties": {"NAME": "W7N/WC-090", "TITLE": "Juniper Ridge", "REGION": "NV-Washoe County", "ASSOCIATION": "USA - Nevada", "POINTS": "2", "BONUSPOINTS": "0"}}, {"type": "Feature", "geometry": {"type": "Point", "coordinates": [-119.7091, 39.7414]}, "properties": {"NAME": "W7N/WC-091", "TITLE": "Hungry Ridge North", "REGION": "NV-Washoe County", "ASSOCIATION": "USA - Nevada", "POINTS": "2", "BONUSPOINTS": "0"}}, {"type": "Feature", "geometry": {"type": "Point", "coordinates": [-119.8183, 39.7225]}, "properties": {"NAME": "W7N/WC-092", "TITLE": "Coyote Ridge", "REGION": "NV-Washoe County", "ASSOCIATION": "USA - Nevada", "POINTS": "2", "BONUSPOINTS": "0"}}, {"type": "Feature", "geometry": {"type": "Point", "coordinates": [-119.939, 39.6509]}, "properties": {"NAME": "W7N/WC-093", "TITLE": "Granite Hills", "REGION": "NV-Washoe County", "ASSOCIATION": "USA - Nevada", "POINTS": "2", "BONUSPOINTS": "0"}}, {"type": "Feature", "geometry": {"type": "Point", "coordinates": [-119.2076, 39.676]}, "properties": {"NAME": "W7N/WC-094", "TITLE": "5964", "REGION": "NV-Washoe County", "ASSOCIATION": "USA - Nevada", "POINTS": "2", "BONUSPOINTS": "0"}}, {"type": "Feature", "geometry": {"type": "Point", "coordinates": [-119.7892, 39.7514]}, "properties": {"NAME": "W7N/WC-095", "TITLE": "Hungry Mountain", "REGION": "NV-Washoe County", "ASSOCIATION": "USA - Nevada", "POINTS": "2", "BONUSPOINTS": "0"}}, {"type": "Feature", "geometry": {"type": "Point", "coordinates": [-119.6561, 39.5313]}, "properties": {"NAME": "W7N/WC-096", "TITLE": "5950", "REGION": "NV-Washoe County", "ASSOCIATION": "USA - Nevada", "POINTS": "2", "BONUSPOINTS": "0"}}, {"type": "Feature", "geometry": {"type": "Point", "coordinates": [-119.8655, 40.6339]}, "properties": {"NAME": "W7N/WC-097", "TITLE": "5941", "REGION": "NV-Washoe County", "ASSOCIATION": "USA - Nevada", "POINTS": "2", "BONUSPOINTS": "0"}}, {"type": "Feature", "geometry": {"type": "Point", "coordinates": [-119.8945, 40.2591]}, "properties": {"NAME": "W7N/WC-098", "TITLE": "Sand Benchmark", "REGION": "NV-Washoe County", "ASSOCIATION": "USA - Nevada", "POINTS": "2", "BONUSPOINTS": "0"}}, {"type": "Feature", "geometry": {"type": "Point", "coordinates": [-119.9683, 41.022]}, "properties": {"NAME": "W7N/WC-099", "TITLE": "5812", "REGION": "NV-Washoe County", "ASSOCIATION": "USA - Nevada", "POINTS": "2", "BONUSPOINTS": "0"}}, {"type": "Feature", "geometry": {"type": "Point", "coordinates": [-119.2819, 39.7443]}, "properties": {"NAME": "W7N/WC-100", "TITLE": "Black Mountain", "REGION": "NV-Washoe County", "ASSOCIATION": "USA - Nevada", "POINTS": "2", "BONUSPOINTS": "0"}}, {"type": "Feature", "geometry": {"type": "Point", "coordinates": [-119.8506, 40.2762]}, "properties": {"NAME": "W7N/WC-101", "TITLE": "Mission Peak", "REGION": "NV-Washoe County", "ASSOCIATION": "USA - Nevada", "POINTS": "2", "BONUSPOINTS": "0"}}, {"type": "Feature", "geometry": {"type": "Point", "coordinates": [-119.2862, 39.8215]}, "properties": {"NAME": "W7N/WC-102", "TITLE": "Agency Benchmark", "REGION": "NV-Washoe County", "ASSOCIATION": "USA - Nevada", "POINTS": "2", "BONUSPOINTS": "0"}}, {"type": "Feature", "geometry": {"type": "Point", "coordinates": [-119.7305, 40.224]}, "properties": {"NAME": "W7N/WC-103", "TITLE": "Terraced Hills", "REGION": "NV-Washoe County", "ASSOCIATION": "USA - Nevada", "POINTS": "2", "BONUSPOINTS": "0"}}, {"type": "Feature", "geometry": {"type": "Point", "coordinates": [-119.3767, 40.3382]}, "properties": {"NAME": "W7N/WC-104", "TITLE": "5478", "REGION": "NV-Washoe County", "ASSOCIATION": "USA - Nevada", "POINTS": "2", "BONUSPOINTS": "0"}}, {"type": "Feature", "geometry": {"type": "Point", "coordinates": [-119.4898, 40.5951]}, "properties": {"NAME": "W7N/WC-105", "TITLE": "5474", "REGION": "NV-Washoe County", "ASSOCIATION": "USA - Nevada", "POINTS": "2", "BONUSPOINTS": "0"}}, {"type": "Feature", "geometry": {"type": "Point", "coordinates": [-119.8637, 40.2173]}, "properties": {"NAME": "W7N/WC-106", "TITLE": "5346", "REGION": "NV-Washoe County", "ASSOCIATION": "USA - Nevada", "POINTS": "2", "BONUSPOINTS": "0"}}, {"type": "Feature", "geometry": {"type": "Point", "coordinates": [-119.2828, 39.9457]}, "properties": {"NAME": "W7N/WC-107", "TITLE": "5223", "REGION": "NV-Washoe County", "ASSOCIATION": "USA - Nevada", "POINTS": "2", "BONUSPOINTS": "0"}}, {"type": "Feature", "geometry": {"type": "Point", "coordinates": [-119.671, 40.2331]}, "properties": {"NAME": "W7N/WC-108", "TITLE": "5204", "REGION": "NV-Washoe County", "ASSOCIATION": "USA - Nevada", "POINTS": "2", "BONUSPOINTS": "0"}}, {"type": "Feature", "geometry": {"type": "Point", "coordinates": [-119.6852, 39.7935]}, "properties": {"NAME": "W7N/WC-109", "TITLE": "Kimberly Hill", "REGION": "NV-Washoe County", "ASSOCIATION": "USA - Nevada", "POINTS": "2", "BONUSPOINTS": "0"}}, {"type": "Feature", "geometry": {"type": "Point", "coordinates": [-119.5614, 39.8845]}, "properties": {"NAME": "W7N/WC-110", "TITLE": "Jackass Peak", "REGION": "NV-Washoe County", "ASSOCIATION": "USA - Nevada", "POINTS": "2", "BONUSPOINTS": "0"}}, {"type": "Feature", "geometry": {"type": "Point", "coordinates": [-119.7581, 39.4723]}, "properties": {"NAME": "W7N/WC-111", "TITLE": "Rattlesnake Mountain", "REGION": "NV-Washoe County", "ASSOCIATION": "USA - Nevada", "POINTS": "2", "BONUSPOINTS": "0"}}, {"type": "Feature", "geometry": {"type": "Point", "coordinates": [-119.7008, 40.2958]}, "properties": {"NAME": "W7N/WC-112", "TITLE": "4903", "REGION": "NV-Washoe County", "ASSOCIATION": "USA - Nevada", "POINTS": "1", "BONUSPOINTS": "0"}}, {"type": "Feature", "geometry": {"type": "Point", "coordinates": [-119.3842, 39.8734]}, "properties": {"NAME": "W7N/WC-113", "TITLE": "Marble Bluff", "REGION": "NV-Washoe County", "ASSOCIATION": "USA - Nevada", "POINTS": "1", "BONUSPOINTS": "0"}}, {"type": "Feature", "geometry": {"type": "Point", "coordinates": [-119.4286, 40.6348]}, "properties": {"NAME": "W7N/WC-114", "TITLE": "Godeys Rock", "REGION": "NV-Washoe County", "ASSOCIATION": "USA - Nevada", "POINTS": "1", "BONUSPOINTS": "0"}}, {"type": "Feature", "geometry": {"type": "Point", "coordinates": [-119.5139, 39.9514]}, "properties": {"NAME": "W7N/WC-115", "TITLE": "Anaho Island", "REGION": "NV-Washoe County", "ASSOCIATION": "USA - Nevada", "POINTS": "1", "BONUSPOINTS": "0"}}, {"type": "Feature", "geometry": {"type": "Point", "coordinates": [-119.396, 40.7416]}, "properties": {"NAME": "W7N/WC-116", "TITLE": "7772", "REGION": "NV-Washoe County", "ASSOCIATION": "USA - Nevada", "POINTS": "6", "BONUSPOINTS": "3"}}, {"type": "Feature", "geometry": {"type": "Point", "coordinates": [-119.9302, 41.5793]}, "properties": {"NAME": "W7N/WC-117", "TITLE": "7173", "REGION": "NV-Washoe County", "ASSOCIATION": "USA - Nevada", "POINTS": "4", "BONUSPOINTS": "3"}}, {"type": "Feature", "geometry": {"type": "Point", "coordinates": [-119.6408, 41.4656]}, "properties": {"NAME": "W7N/WC-118", "TITLE": "6995", "REGION": "NV-Washoe County", "ASSOCIATION": "USA - Nevada", "POINTS": "4", "BONUSPOINTS": "3"}}, {"type": "Feature", "geometry": {"type": "Point", "coordinates": [-119.4335, 40.0368]}, "properties": {"NAME": "W7N/WC-119", "TITLE": "6636", "REGION": "NV-Washoe County", "ASSOCIATION": "USA - Nevada", "POINTS": "4", "BONUSPOINTS": "3"}}, {"type": "Feature", "geometry": {"type": "Point", "coordinates": [-119.4044, 41.7559]}, "properties": {"NAME": "W7N/WC-120", "TITLE": "Fish Benchmark", "REGION": "NV-Washoe County", "ASSOCIATION": "USA - Nevada", "POINTS": "4", "BONUSPOINTS": "3"}}]}