{"type": "FeatureCollection", "name": "W7N/EN SUMMITS", "features": [{"type": "Feature", "geometry": {"type": "Point", "coordinates": [-115.3743, 41.8107]}, "properties": {"NAME": "W7N/EN-001", "TITLE": "Matterhorn", "REGION": "NV-Elko North", "ASSOCIATION": "USA - Nevada", "POINTS": "10", "BONUSPOINTS": "3"}}, {"type": "Feature", "geometry": {"type": "Point", "coordinates": [-115.3903, 41.8404]}, "properties": {"NAME": "W7N/EN-002", "TITLE": "Jarbidge Peak", "REGION": "NV-Elko North", "ASSOCIATION": "USA - Nevada", "POINTS": "10", "BONUSPOINTS": "3"}}, {"type": "Feature", "geometry": {"type": "Point", "coordinates": [-114.0773, 41.0211]}, "properties": {"NAME": "W7N/EN-003", "TITLE": "Pilot Peak", "REGION": "NV-Elko North", "ASSOCIATION": "USA - Nevada", "POINTS": "10", "BONUSPOINTS": "3"}}, {"type": "Feature", "geometry": {"type": "Point", "coordinates": [-115.1049, 41.0237]}, "properties": {"NAME": "W7N/EN-004", "TITLE": "Greys Peak", "REGION": "NV-Elko North", "ASSOCIATION": "USA - Nevada", "POINTS": "10", "BONUSPOINTS": "3"}}, {"type": "Feature", "geometry": {"type": "Point", "coordinates": [-115.3613, 41.7593]}, "properties": {"NAME": "W7N/EN-005", "TITLE": "Marys River Peak", "REGION": "NV-Elko North", "ASSOCIATION": "USA - Nevada", "POINTS": "10", "BONUSPOINTS": "3"}}, {"type": "Feature", "geometry": {"type": "Point", "coordinates": [-115.3671, 41.7927]}, "properties": {"NAME": "W7N/EN-006", "TITLE": "Cougar Peak", "REGION": "NV-Elko North", "ASSOCIATION": "USA - Nevada", "POINTS": "10", "BONUSPOINTS": "3"}}, {"type": "Feature", "geometry": {"type": "Point", "coordinates": [-115.9734, 41.5216]}, "properties": {"NAME": "W7N/EN-007", "TITLE": "McAfee Peak", "REGION": "NV-Elko North", "ASSOCIATION": "USA - Nevada", "POINTS": "10", "BONUSPOINTS": "3"}}, {"type": "Feature", "geometry": {"type": "Point", "coordinates": [-115.3516, 41.7962]}, "properties": {"NAME": "W7N/EN-008", "TITLE": "Prospect Peak", "REGION": "NV-Elko North", "ASSOCIATION": "USA - Nevada", "POINTS": "10", "BONUSPOINTS": "3"}}, {"type": "Feature", "geometry": {"type": "Point", "coordinates": [-116.0062, 41.4866]}, "properties": {"NAME": "W7N/EN-009", "TITLE": "Jacks Peak", "REGION": "NV-Elko North", "ASSOCIATION": "USA - Nevada", "POINTS": "10", "BONUSPOINTS": "3"}}, {"type": "Feature", "geometry": {"type": "Point", "coordinates": [-115.2904, 41.7902]}, "properties": {"NAME": "W7N/EN-010", "TITLE": "Gods Pocket Peak", "REGION": "NV-Elko North", "ASSOCIATION": "USA - Nevada", "POINTS": "10", "BONUSPOINTS": "3"}}, {"type": "Feature", "geometry": {"type": "Point", "coordinates": [-115.5209, 41.7707]}, "properties": {"NAME": "W7N/EN-011", "TITLE": "Copper Mountain", "REGION": "NV-Elko North", "ASSOCIATION": "USA - Nevada", "POINTS": "10", "BONUSPOINTS": "3"}}, {"type": "Feature", "geometry": {"type": "Point", "coordinates": [-115.9851, 41.4623]}, "properties": {"NAME": "W7N/EN-012", "TITLE": "9734", "REGION": "NV-Elko North", "ASSOCIATION": "USA - Nevada", "POINTS": "10", "BONUSPOINTS": "3"}}, {"type": "Feature", "geometry": {"type": "Point", "coordinates": [-115.4195, 41.7852]}, "properties": {"NAME": "W7N/EN-013", "TITLE": "Fox Creek Peak", "REGION": "NV-Elko North", "ASSOCIATION": "USA - Nevada", "POINTS": "10", "BONUSPOINTS": "3"}}, {"type": "Feature", "geometry": {"type": "Point", "coordinates": [-115.3253, 41.7193]}, "properties": {"NAME": "W7N/EN-014", "TITLE": "9537", "REGION": "NV-Elko North", "ASSOCIATION": "USA - Nevada", "POINTS": "10", "BONUSPOINTS": "3"}}, {"type": "Feature", "geometry": {"type": "Point", "coordinates": [-115.337, 41.7308]}, "properties": {"NAME": "W7N/EN-015", "TITLE": "9518", "REGION": "NV-Elko North", "ASSOCIATION": "USA - Nevada", "POINTS": "10", "BONUSPOINTS": "3"}}, {"type": "Feature", "geometry": {"type": "Point", "coordinates": [-115.4686, 41.8081]}, "properties": {"NAME": "W7N/EN-016", "TITLE": "Coon Creek Peak", "REGION": "NV-Elko North", "ASSOCIATION": "USA - Nevada", "POINTS": "10", "BONUSPOINTS": "3"}}, {"type": "Feature", "geometry": {"type": "Point", "coordinates": [-115.2405, 41.7989]}, "properties": {"NAME": "W7N/EN-017", "TITLE": "9498", "REGION": "NV-Elko North", "ASSOCIATION": "USA - Nevada", "POINTS": "8", "BONUSPOINTS": "3"}}, {"type": "Feature", "geometry": {"type": "Point", "coordinates": [-115.4261, 41.7639]}, "properties": {"NAME": "W7N/EN-018", "TITLE": "9352", "REGION": "NV-Elko North", "ASSOCIATION": "USA - Nevada", "POINTS": "8", "BONUSPOINTS": "3"}}, {"type": "Feature", "geometry": {"type": "Point", "coordinates": [-116.1369, 41.6811]}, "properties": {"NAME": "W7N/EN-019", "TITLE": "Porter Peak", "REGION": "NV-Elko North", "ASSOCIATION": "USA - Nevada", "POINTS": "8", "BONUSPOINTS": "3"}}, {"type": "Feature", "geometry": {"type": "Point", "coordinates": [-115.3353, 41.6967]}, "properties": {"NAME": "W7N/EN-020", "TITLE": "9235", "REGION": "NV-Elko North", "ASSOCIATION": "USA - Nevada", "POINTS": "8", "BONUSPOINTS": "3"}}, {"type": "Feature", "geometry": {"type": "Point", "coordinates": [-115.3575, 41.6812]}, "properties": {"NAME": "W7N/EN-021", "TITLE": "9181", "REGION": "NV-Elko North", "ASSOCIATION": "USA - Nevada", "POINTS": "8", "BONUSPOINTS": "3"}}, {"type": "Feature", "geometry": {"type": "Point", "coordinates": [-115.2605, 41.7512]}, "properties": {"NAME": "W7N/EN-022", "TITLE": "9132", "REGION": "NV-Elko North", "ASSOCIATION": "USA - Nevada", "POINTS": "8", "BONUSPOINTS": "3"}}, {"type": "Feature", "geometry": {"type": "Point", "coordinates": [-116.074, 41.7383]}, "properties": {"NAME": "W7N/EN-023", "TITLE": "Pennsylvania Hill", "REGION": "NV-Elko North", "ASSOCIATION": "USA - Nevada", "POINTS": "8", "BONUSPOINTS": "3"}}, {"type": "Feature", "geometry": {"type": "Point", "coordinates": [-116.0286, 41.2934]}, "properties": {"NAME": "W7N/EN-024", "TITLE": "Wheeler Mountain", "REGION": "NV-Elko North", "ASSOCIATION": "USA - Nevada", "POINTS": "8", "BONUSPOINTS": "3"}}, {"type": "Feature", "geometry": {"type": "Point", "coordinates": [-116.0319, 41.4567]}, "properties": {"NAME": "W7N/EN-025", "TITLE": "9020", "REGION": "NV-Elko North", "ASSOCIATION": "USA - Nevada", "POINTS": "8", "BONUSPOINTS": "3"}}, {"type": "Feature", "geometry": {"type": "Point", "coordinates": [-115.4335, 41.7334]}, "properties": {"NAME": "W7N/EN-026", "TITLE": "8941", "REGION": "NV-Elko North", "ASSOCIATION": "USA - Nevada", "POINTS": "8", "BONUSPOINTS": "3"}}, {"type": "Feature", "geometry": {"type": "Point", "coordinates": [-115.9768, 41.6]}, "properties": {"NAME": "W7N/EN-027", "TITLE": "Rocky Bluff", "REGION": "NV-Elko North", "ASSOCIATION": "USA - Nevada", "POINTS": "8", "BONUSPOINTS": "3"}}, {"type": "Feature", "geometry": {"type": "Point", "coordinates": [-115.0098, 41.4465]}, "properties": {"NAME": "W7N/EN-028", "TITLE": "Tabor Benchmark", "REGION": "NV-Elko North", "ASSOCIATION": "USA - Nevada", "POINTS": "8", "BONUSPOINTS": "3"}}, {"type": "Feature", "geometry": {"type": "Point", "coordinates": [-116.0198, 41.3222]}, "properties": {"NAME": "W7N/EN-029", "TITLE": "8860", "REGION": "NV-Elko North", "ASSOCIATION": "USA - Nevada", "POINTS": "8", "BONUSPOINTS": "3"}}, {"type": "Feature", "geometry": {"type": "Point", "coordinates": [-115.061, 41.9623]}, "properties": {"NAME": "W7N/EN-030", "TITLE": "Elk Mountain", "REGION": "NV-Elko North", "ASSOCIATION": "USA - Nevada", "POINTS": "8", "BONUSPOINTS": "3"}}, {"type": "Feature", "geometry": {"type": "Point", "coordinates": [-115.8406, 41.8687]}, "properties": {"NAME": "W7N/EN-031", "TITLE": "Merritt Mountain", "REGION": "NV-Elko North", "ASSOCIATION": "USA - Nevada", "POINTS": "8", "BONUSPOINTS": "3"}}, {"type": "Feature", "geometry": {"type": "Point", "coordinates": [-116.2542, 41.0759]}, "properties": {"NAME": "W7N/EN-032", "TITLE": "Beaver Peak", "REGION": "NV-Elko North", "ASSOCIATION": "USA - Nevada", "POINTS": "8", "BONUSPOINTS": "3"}}, {"type": "Feature", "geometry": {"type": "Point", "coordinates": [-114.9784, 41.323]}, "properties": {"NAME": "W7N/EN-033", "TITLE": "Antelope Peak", "REGION": "NV-Elko North", "ASSOCIATION": "USA - Nevada", "POINTS": "8", "BONUSPOINTS": "3"}}, {"type": "Feature", "geometry": {"type": "Point", "coordinates": [-115.9765, 41.1263]}, "properties": {"NAME": "W7N/EN-034", "TITLE": "Nannies Peak", "REGION": "NV-Elko North", "ASSOCIATION": "USA - Nevada", "POINTS": "8", "BONUSPOINTS": "3"}}, {"type": "Feature", "geometry": {"type": "Point", "coordinates": [-115.2966, 41.6878]}, "properties": {"NAME": "W7N/EN-035", "TITLE": "8764", "REGION": "NV-Elko North", "ASSOCIATION": "USA - Nevada", "POINTS": "8", "BONUSPOINTS": "3"}}, {"type": "Feature", "geometry": {"type": "Point", "coordinates": [-114.6322, 41.6194]}, "properties": {"NAME": "W7N/EN-036", "TITLE": "Knoll Mountain", "REGION": "NV-Elko North", "ASSOCIATION": "USA - Nevada", "POINTS": "8", "BONUSPOINTS": "3"}}, {"type": "Feature", "geometry": {"type": "Point", "coordinates": [-114.9923, 41.4374]}, "properties": {"NAME": "W7N/EN-037", "TITLE": "Loomis Mountain", "REGION": "NV-Elko North", "ASSOCIATION": "USA - Nevada", "POINTS": "8", "BONUSPOINTS": "3"}}, {"type": "Feature", "geometry": {"type": "Point", "coordinates": [-115.9831, 41.6238]}, "properties": {"NAME": "W7N/EN-038", "TITLE": "Red Mountain", "REGION": "NV-Elko North", "ASSOCIATION": "USA - Nevada", "POINTS": "8", "BONUSPOINTS": "3"}}, {"type": "Feature", "geometry": {"type": "Point", "coordinates": [-115.3739, 41.7184]}, "properties": {"NAME": "W7N/EN-039", "TITLE": "8687", "REGION": "NV-Elko North", "ASSOCIATION": "USA - Nevada", "POINTS": "8", "BONUSPOINTS": "3"}}, {"type": "Feature", "geometry": {"type": "Point", "coordinates": [-115.0508, 41.5327]}, "properties": {"NAME": "W7N/EN-040", "TITLE": "8672", "REGION": "NV-Elko North", "ASSOCIATION": "USA - Nevada", "POINTS": "8", "BONUSPOINTS": "3"}}, {"type": "Feature", "geometry": {"type": "Point", "coordinates": [-116.2875, 41.0603]}, "properties": {"NAME": "W7N/EN-041", "TITLE": "8660", "REGION": "NV-Elko North", "ASSOCIATION": "USA - Nevada", "POINTS": "8", "BONUSPOINTS": "3"}}, {"type": "Feature", "geometry": {"type": "Point", "coordinates": [-115.6162, 41.7697]}, "properties": {"NAME": "W7N/EN-042", "TITLE": "Pine Mountain", "REGION": "NV-Elko North", "ASSOCIATION": "USA - Nevada", "POINTS": "8", "BONUSPOINTS": "3"}}, {"type": "Feature", "geometry": {"type": "Point", "coordinates": [-114.8403, 41.7852]}, "properties": {"NAME": "W7N/EN-043", "TITLE": "Ellen D Mountain", "REGION": "NV-Elko North", "ASSOCIATION": "USA - Nevada", "POINTS": "8", "BONUSPOINTS": "3"}}, {"type": "Feature", "geometry": {"type": "Point", "coordinates": [-115.0981, 41.5013]}, "properties": {"NAME": "W7N/EN-044", "TITLE": "Stormy Peak", "REGION": "NV-Elko North", "ASSOCIATION": "USA - Nevada", "POINTS": "8", "BONUSPOINTS": "3"}}, {"type": "Feature", "geometry": {"type": "Point", "coordinates": [-115.0331, 41.4599]}, "properties": {"NAME": "W7N/EN-045", "TITLE": "Forleen Butte", "REGION": "NV-Elko North", "ASSOCIATION": "USA - Nevada", "POINTS": "8", "BONUSPOINTS": "3"}}, {"type": "Feature", "geometry": {"type": "Point", "coordinates": [-116.3126, 41.3544]}, "properties": {"NAME": "W7N/EN-046", "TITLE": "McCann Creek Mountain", "REGION": "NV-Elko North", "ASSOCIATION": "USA - Nevada", "POINTS": "8", "BONUSPOINTS": "3"}}, {"type": "Feature", "geometry": {"type": "Point", "coordinates": [-115.9581, 41.386]}, "properties": {"NAME": "W7N/EN-047", "TITLE": "California Mountain", "REGION": "NV-Elko North", "ASSOCIATION": "USA - Nevada", "POINTS": "8", "BONUSPOINTS": "3"}}, {"type": "Feature", "geometry": {"type": "Point", "coordinates": [-116.192, 41.6119]}, "properties": {"NAME": "W7N/EN-048", "TITLE": "Wilson Peak", "REGION": "NV-Elko North", "ASSOCIATION": "USA - Nevada", "POINTS": "8", "BONUSPOINTS": "3"}}, {"type": "Feature", "geometry": {"type": "Point", "coordinates": [-116.1023, 41.7695]}, "properties": {"NAME": "W7N/EN-049", "TITLE": "8426", "REGION": "NV-Elko North", "ASSOCIATION": "USA - Nevada", "POINTS": "6", "BONUSPOINTS": "3"}}, {"type": "Feature", "geometry": {"type": "Point", "coordinates": [-116.017, 41.3461]}, "properties": {"NAME": "W7N/EN-050", "TITLE": "8425", "REGION": "NV-Elko North", "ASSOCIATION": "USA - Nevada", "POINTS": "6", "BONUSPOINTS": "3"}}, {"type": "Feature", "geometry": {"type": "Point", "coordinates": [-116.3539, 41.3089]}, "properties": {"NAME": "W7N/EN-051", "TITLE": "8420", "REGION": "NV-Elko North", "ASSOCIATION": "USA - Nevada", "POINTS": "6", "BONUSPOINTS": "3"}}, {"type": "Feature", "geometry": {"type": "Point", "coordinates": [-116.0001, 41.5639]}, "properties": {"NAME": "W7N/EN-052", "TITLE": "Summit Benchmark", "REGION": "NV-Elko North", "ASSOCIATION": "USA - Nevada", "POINTS": "6", "BONUSPOINTS": "3"}}, {"type": "Feature", "geometry": {"type": "Point", "coordinates": [-116.0548, 41.7072]}, "properties": {"NAME": "W7N/EN-053", "TITLE": "8409", "REGION": "NV-Elko North", "ASSOCIATION": "USA - Nevada", "POINTS": "6", "BONUSPOINTS": "3"}}, {"type": "Feature", "geometry": {"type": "Point", "coordinates": [-116.9415, 41.2805]}, "properties": {"NAME": "W7N/EN-054", "TITLE": "Kelly Creek Mountain", "REGION": "NV-Elko North", "ASSOCIATION": "USA - Nevada", "POINTS": "6", "BONUSPOINTS": "3"}}, {"type": "Feature", "geometry": {"type": "Point", "coordinates": [-115.9697, 41.36]}, "properties": {"NAME": "W7N/EN-055", "TITLE": "8397", "REGION": "NV-Elko North", "ASSOCIATION": "USA - Nevada", "POINTS": "6", "BONUSPOINTS": "3"}}, {"type": "Feature", "geometry": {"type": "Point", "coordinates": [-116.3604, 41.3687]}, "properties": {"NAME": "W7N/EN-056", "TITLE": "Dry Creek Mountain", "REGION": "NV-Elko North", "ASSOCIATION": "USA - Nevada", "POINTS": "6", "BONUSPOINTS": "3"}}, {"type": "Feature", "geometry": {"type": "Point", "coordinates": [-115.9637, 41.6521]}, "properties": {"NAME": "W7N/EN-057", "TITLE": "8390", "REGION": "NV-Elko North", "ASSOCIATION": "USA - Nevada", "POINTS": "6", "BONUSPOINTS": "3"}}, {"type": "Feature", "geometry": {"type": "Point", "coordinates": [-116.9059, 41.218]}, "properties": {"NAME": "W7N/EN-058", "TITLE": "Jake Creek Mountain", "REGION": "NV-Elko North", "ASSOCIATION": "USA - Nevada", "POINTS": "6", "BONUSPOINTS": "3"}}, {"type": "Feature", "geometry": {"type": "Point", "coordinates": [-115.9669, 41.3234]}, "properties": {"NAME": "W7N/EN-059", "TITLE": "8367", "REGION": "NV-Elko North", "ASSOCIATION": "USA - Nevada", "POINTS": "6", "BONUSPOINTS": "3"}}, {"type": "Feature", "geometry": {"type": "Point", "coordinates": [-114.751, 41.6973]}, "properties": {"NAME": "W7N/EN-060", "TITLE": "China Mountain", "REGION": "NV-Elko North", "ASSOCIATION": "USA - Nevada", "POINTS": "6", "BONUSPOINTS": "3"}}, {"type": "Feature", "geometry": {"type": "Point", "coordinates": [-116.0882, 41.7058]}, "properties": {"NAME": "W7N/EN-061", "TITLE": "8350", "REGION": "NV-Elko North", "ASSOCIATION": "USA - Nevada", "POINTS": "6", "BONUSPOINTS": "3"}}, {"type": "Feature", "geometry": {"type": "Point", "coordinates": [-115.6699, 41.7944]}, "properties": {"NAME": "W7N/EN-062", "TITLE": "Tennessee Mountain", "REGION": "NV-Elko North", "ASSOCIATION": "USA - Nevada", "POINTS": "6", "BONUSPOINTS": "3"}}, {"type": "Feature", "geometry": {"type": "Point", "coordinates": [-114.5673, 41.0109]}, "properties": {"NAME": "W7N/EN-063", "TITLE": "8333", "REGION": "NV-Elko North", "ASSOCIATION": "USA - Nevada", "POINTS": "6", "BONUSPOINTS": "3"}}, {"type": "Feature", "geometry": {"type": "Point", "coordinates": [-114.832, 41.0133]}, "properties": {"NAME": "W7N/EN-064", "TITLE": "Little Cedar Mountain", "REGION": "NV-Elko North", "ASSOCIATION": "USA - Nevada", "POINTS": "6", "BONUSPOINTS": "3"}}, {"type": "Feature", "geometry": {"type": "Point", "coordinates": [-114.3664, 41.2213]}, "properties": {"NAME": "W7N/EN-065", "TITLE": "Murdock Mountain", "REGION": "NV-Elko North", "ASSOCIATION": "USA - Nevada", "POINTS": "6", "BONUSPOINTS": "3"}}, {"type": "Feature", "geometry": {"type": "Point", "coordinates": [-115.5371, 41.9135]}, "properties": {"NAME": "W7N/EN-066", "TITLE": "Klondyke Benchmark", "REGION": "NV-Elko North", "ASSOCIATION": "USA - Nevada", "POINTS": "6", "BONUSPOINTS": "3"}}, {"type": "Feature", "geometry": {"type": "Point", "coordinates": [-114.5676, 41.122]}, "properties": {"NAME": "W7N/EN-067", "TITLE": "Rocky Point", "REGION": "NV-Elko North", "ASSOCIATION": "USA - Nevada", "POINTS": "6", "BONUSPOINTS": "3"}}, {"type": "Feature", "geometry": {"type": "Point", "coordinates": [-116.0785, 41.7938]}, "properties": {"NAME": "W7N/EN-068", "TITLE": "8269", "REGION": "NV-Elko North", "ASSOCIATION": "USA - Nevada", "POINTS": "6", "BONUSPOINTS": "3"}}, {"type": "Feature", "geometry": {"type": "Point", "coordinates": [-115.101, 41.574]}, "properties": {"NAME": "W7N/EN-069", "TITLE": "8237", "REGION": "NV-Elko North", "ASSOCIATION": "USA - Nevada", "POINTS": "6", "BONUSPOINTS": "3"}}, {"type": "Feature", "geometry": {"type": "Point", "coordinates": [-114.7257, 41.6889]}, "properties": {"NAME": "W7N/EN-070", "TITLE": "Hanks Peak", "REGION": "NV-Elko North", "ASSOCIATION": "USA - Nevada", "POINTS": "6", "BONUSPOINTS": "3"}}, {"type": "Feature", "geometry": {"type": "Point", "coordinates": [-114.6641, 41.6835]}, "properties": {"NAME": "W7N/EN-071", "TITLE": "Blanchard Mountain", "REGION": "NV-Elko North", "ASSOCIATION": "USA - Nevada", "POINTS": "6", "BONUSPOINTS": "3"}}, {"type": "Feature", "geometry": {"type": "Point", "coordinates": [-115.9819, 41.412]}, "properties": {"NAME": "W7N/EN-072", "TITLE": "8216", "REGION": "NV-Elko North", "ASSOCIATION": "USA - Nevada", "POINTS": "6", "BONUSPOINTS": "3"}}, {"type": "Feature", "geometry": {"type": "Point", "coordinates": [-115.4532, 41.4085]}, "properties": {"NAME": "W7N/EN-073", "TITLE": "Stag Mountain", "REGION": "NV-Elko North", "ASSOCIATION": "USA - Nevada", "POINTS": "6", "BONUSPOINTS": "3"}}, {"type": "Feature", "geometry": {"type": "Point", "coordinates": [-115.6403, 41.6582]}, "properties": {"NAME": "W7N/EN-074", "TITLE": "Haystack Mountain", "REGION": "NV-Elko North", "ASSOCIATION": "USA - Nevada", "POINTS": "6", "BONUSPOINTS": "3"}}, {"type": "Feature", "geometry": {"type": "Point", "coordinates": [-115.8251, 41.9368]}, "properties": {"NAME": "W7N/EN-075", "TITLE": "Hicks Mountain", "REGION": "NV-Elko North", "ASSOCIATION": "USA - Nevada", "POINTS": "6", "BONUSPOINTS": "3"}}, {"type": "Feature", "geometry": {"type": "Point", "coordinates": [-115.3643, 41.5038]}, "properties": {"NAME": "W7N/EN-076", "TITLE": "Mareys Benchmark", "REGION": "NV-Elko North", "ASSOCIATION": "USA - Nevada", "POINTS": "6", "BONUSPOINTS": "3"}}, {"type": "Feature", "geometry": {"type": "Point", "coordinates": [-114.4322, 41.8778]}, "properties": {"NAME": "W7N/EN-077", "TITLE": "Gollaher Mountain", "REGION": "NV-Elko North", "ASSOCIATION": "USA - Nevada", "POINTS": "6", "BONUSPOINTS": "3"}}, {"type": "Feature", "geometry": {"type": "Point", "coordinates": [-115.7084, 41.4252]}, "properties": {"NAME": "W7N/EN-078", "TITLE": "Double Mountain", "REGION": "NV-Elko North", "ASSOCIATION": "USA - Nevada", "POINTS": "6", "BONUSPOINTS": "3"}}, {"type": "Feature", "geometry": {"type": "Point", "coordinates": [-115.7084, 41.1137]}, "properties": {"NAME": "W7N/EN-079", "TITLE": "Adobe Range HP", "REGION": "NV-Elko North", "ASSOCIATION": "USA - Nevada", "POINTS": "6", "BONUSPOINTS": "3"}}, {"type": "Feature", "geometry": {"type": "Point", "coordinates": [-116.2565, 41.3366]}, "properties": {"NAME": "W7N/EN-080", "TITLE": "Blitzen, Mount", "REGION": "NV-Elko North", "ASSOCIATION": "USA - Nevada", "POINTS": "6", "BONUSPOINTS": "3"}}, {"type": "Feature", "geometry": {"type": "Point", "coordinates": [-115.9121, 41.6826]}, "properties": {"NAME": "W7N/EN-081", "TITLE": "Wildhorse Benchmark", "REGION": "NV-Elko North", "ASSOCIATION": "USA - Nevada", "POINTS": "6", "BONUSPOINTS": "3"}}, {"type": "Feature", "geometry": {"type": "Point", "coordinates": [-114.9681, 41.6769]}, "properties": {"NAME": "W7N/EN-082", "TITLE": "Cold Springs Mountain", "REGION": "NV-Elko North", "ASSOCIATION": "USA - Nevada", "POINTS": "6", "BONUSPOINTS": "3"}}, {"type": "Feature", "geometry": {"type": "Point", "coordinates": [-114.651, 41.8072]}, "properties": {"NAME": "W7N/EN-083", "TITLE": "Middle Stack Mountain", "REGION": "NV-Elko North", "ASSOCIATION": "USA - Nevada", "POINTS": "6", "BONUSPOINTS": "3"}}, {"type": "Feature", "geometry": {"type": "Point", "coordinates": [-114.6887, 41.704]}, "properties": {"NAME": "W7N/EN-084", "TITLE": "Granite Peak", "REGION": "NV-Elko North", "ASSOCIATION": "USA - Nevada", "POINTS": "6", "BONUSPOINTS": "3"}}, {"type": "Feature", "geometry": {"type": "Point", "coordinates": [-115.9358, 41.5888]}, "properties": {"NAME": "W7N/EN-085", "TITLE": "8055", "REGION": "NV-Elko North", "ASSOCIATION": "USA - Nevada", "POINTS": "6", "BONUSPOINTS": "3"}}, {"type": "Feature", "geometry": {"type": "Point", "coordinates": [-115.0427, 41.937]}, "properties": {"NAME": "W7N/EN-086", "TITLE": "Wrangle Mountain", "REGION": "NV-Elko North", "ASSOCIATION": "USA - Nevada", "POINTS": "6", "BONUSPOINTS": "3"}}, {"type": "Feature", "geometry": {"type": "Point", "coordinates": [-115.9198, 41.6455]}, "properties": {"NAME": "W7N/EN-087", "TITLE": "8020", "REGION": "NV-Elko North", "ASSOCIATION": "USA - Nevada", "POINTS": "6", "BONUSPOINTS": "3"}}, {"type": "Feature", "geometry": {"type": "Point", "coordinates": [-115.9131, 41.6592]}, "properties": {"NAME": "W7N/EN-088", "TITLE": "8001", "REGION": "NV-Elko North", "ASSOCIATION": "USA - Nevada", "POINTS": "6", "BONUSPOINTS": "3"}}, {"type": "Feature", "geometry": {"type": "Point", "coordinates": [-116.0134, 41.6086]}, "properties": {"NAME": "W7N/EN-089", "TITLE": "7992", "REGION": "NV-Elko North", "ASSOCIATION": "USA - Nevada", "POINTS": "6", "BONUSPOINTS": "3"}}, {"type": "Feature", "geometry": {"type": "Point", "coordinates": [-114.2896, 41.0703]}, "properties": {"NAME": "W7N/EN-090", "TITLE": "North Toano Benchmark", "REGION": "NV-Elko North", "ASSOCIATION": "USA - Nevada", "POINTS": "6", "BONUSPOINTS": "3"}}, {"type": "Feature", "geometry": {"type": "Point", "coordinates": [-116.0485, 41.5757]}, "properties": {"NAME": "W7N/EN-091", "TITLE": "7980", "REGION": "NV-Elko North", "ASSOCIATION": "USA - Nevada", "POINTS": "6", "BONUSPOINTS": "3"}}, {"type": "Feature", "geometry": {"type": "Point", "coordinates": [-116.2075, 41.128]}, "properties": {"NAME": "W7N/EN-092", "TITLE": "Lake Mountain", "REGION": "NV-Elko North", "ASSOCIATION": "USA - Nevada", "POINTS": "6", "BONUSPOINTS": "3"}}, {"type": "Feature", "geometry": {"type": "Point", "coordinates": [-115.6107, 41.5992]}, "properties": {"NAME": "W7N/EN-093", "TITLE": "Ichabod, Mount", "REGION": "NV-Elko North", "ASSOCIATION": "USA - Nevada", "POINTS": "6", "BONUSPOINTS": "3"}}, {"type": "Feature", "geometry": {"type": "Point", "coordinates": [-115.0449, 41.9236]}, "properties": {"NAME": "W7N/EN-094", "TITLE": "Quartzite Butte", "REGION": "NV-Elko North", "ASSOCIATION": "USA - Nevada", "POINTS": "6", "BONUSPOINTS": "3"}}, {"type": "Feature", "geometry": {"type": "Point", "coordinates": [-115.5938, 41.6828]}, "properties": {"NAME": "W7N/EN-095", "TITLE": "Rough Hills", "REGION": "NV-Elko North", "ASSOCIATION": "USA - Nevada", "POINTS": "6", "BONUSPOINTS": "3"}}, {"type": "Feature", "geometry": {"type": "Point", "coordinates": [-115.6391, 41.708]}, "properties": {"NAME": "W7N/EN-096", "TITLE": "7890", "REGION": "NV-Elko North", "ASSOCIATION": "USA - Nevada", "POINTS": "6", "BONUSPOINTS": "3"}}, {"type": "Feature", "geometry": {"type": "Point", "coordinates": [-114.36, 41.2746]}, "properties": {"NAME": "W7N/EN-097", "TITLE": "Lewis Benchmark", "REGION": "NV-Elko North", "ASSOCIATION": "USA - Nevada", "POINTS": "6", "BONUSPOINTS": "3"}}, {"type": "Feature", "geometry": {"type": "Point", "coordinates": [-114.7153, 41.2802]}, "properties": {"NAME": "W7N/EN-098", "TITLE": "Black Mountain", "REGION": "NV-Elko North", "ASSOCIATION": "USA - Nevada", "POINTS": "6", "BONUSPOINTS": "3"}}, {"type": "Feature", "geometry": {"type": "Point", "coordinates": [-114.968, 41.7291]}, "properties": {"NAME": "W7N/EN-099", "TITLE": "Black Mountain", "REGION": "NV-Elko North", "ASSOCIATION": "USA - Nevada", "POINTS": "6", "BONUSPOINTS": "3"}}, {"type": "Feature", "geometry": {"type": "Point", "coordinates": [-114.2642, 41.6183]}, "properties": {"NAME": "W7N/EN-100", "TITLE": "Delano Peak", "REGION": "NV-Elko North", "ASSOCIATION": "USA - Nevada", "POINTS": "6", "BONUSPOINTS": "3"}}, {"type": "Feature", "geometry": {"type": "Point", "coordinates": [-114.3378, 41.1996]}, "properties": {"NAME": "W7N/EN-101", "TITLE": "7832", "REGION": "NV-Elko North", "ASSOCIATION": "USA - Nevada", "POINTS": "6", "BONUSPOINTS": "3"}}, {"type": "Feature", "geometry": {"type": "Point", "coordinates": [-116.328, 41.4233]}, "properties": {"NAME": "W7N/EN-102", "TITLE": "Wood Benchmark", "REGION": "NV-Elko North", "ASSOCIATION": "USA - Nevada", "POINTS": "6", "BONUSPOINTS": "3"}}, {"type": "Feature", "geometry": {"type": "Point", "coordinates": [-116.1025, 41.8308]}, "properties": {"NAME": "W7N/EN-103", "TITLE": "Ungina Wongo", "REGION": "NV-Elko North", "ASSOCIATION": "USA - Nevada", "POINTS": "6", "BONUSPOINTS": "3"}}, {"type": "Feature", "geometry": {"type": "Point", "coordinates": [-115.705, 41.4006]}, "properties": {"NAME": "W7N/EN-104", "TITLE": "7818", "REGION": "NV-Elko North", "ASSOCIATION": "USA - Nevada", "POINTS": "6", "BONUSPOINTS": "3"}}, {"type": "Feature", "geometry": {"type": "Point", "coordinates": [-116.4107, 41.3883]}, "properties": {"NAME": "W7N/EN-105", "TITLE": "7786", "REGION": "NV-Elko North", "ASSOCIATION": "USA - Nevada", "POINTS": "6", "BONUSPOINTS": "3"}}, {"type": "Feature", "geometry": {"type": "Point", "coordinates": [-116.8188, 41.2728]}, "properties": {"NAME": "W7N/EN-106", "TITLE": "7784", "REGION": "NV-Elko North", "ASSOCIATION": "USA - Nevada", "POINTS": "6", "BONUSPOINTS": "3"}}, {"type": "Feature", "geometry": {"type": "Point", "coordinates": [-114.7306, 41.2502]}, "properties": {"NAME": "W7N/EN-107", "TITLE": "7780", "REGION": "NV-Elko North", "ASSOCIATION": "USA - Nevada", "POINTS": "6", "BONUSPOINTS": "3"}}, {"type": "Feature", "geometry": {"type": "Point", "coordinates": [-115.9898, 41.9942]}, "properties": {"NAME": "W7N/EN-108", "TITLE": "Reservation Benchmark", "REGION": "NV-Elko North", "ASSOCIATION": "USA - Nevada", "POINTS": "6", "BONUSPOINTS": "3"}}, {"type": "Feature", "geometry": {"type": "Point", "coordinates": [-115.715, 41.5981]}, "properties": {"NAME": "W7N/EN-109", "TITLE": "7771", "REGION": "NV-Elko North", "ASSOCIATION": "USA - Nevada", "POINTS": "6", "BONUSPOINTS": "3"}}, {"type": "Feature", "geometry": {"type": "Point", "coordinates": [-116.1462, 41.2022]}, "properties": {"NAME": "W7N/EN-110", "TITLE": "7771", "REGION": "NV-Elko North", "ASSOCIATION": "USA - Nevada", "POINTS": "6", "BONUSPOINTS": "3"}}, {"type": "Feature", "geometry": {"type": "Point", "coordinates": [-116.8011, 41.296]}, "properties": {"NAME": "W7N/EN-111", "TITLE": "Castle Ridge", "REGION": "NV-Elko North", "ASSOCIATION": "USA - Nevada", "POINTS": "6", "BONUSPOINTS": "3"}}, {"type": "Feature", "geometry": {"type": "Point", "coordinates": [-116.9731, 41.3399]}, "properties": {"NAME": "W7N/EN-112", "TITLE": "Snowstorm Mountain", "REGION": "NV-Elko North", "ASSOCIATION": "USA - Nevada", "POINTS": "6", "BONUSPOINTS": "3"}}, {"type": "Feature", "geometry": {"type": "Point", "coordinates": [-114.2907, 41.03]}, "properties": {"NAME": "W7N/EN-113", "TITLE": "7734", "REGION": "NV-Elko North", "ASSOCIATION": "USA - Nevada", "POINTS": "6", "BONUSPOINTS": "3"}}, {"type": "Feature", "geometry": {"type": "Point", "coordinates": [-114.8147, 41.1759]}, "properties": {"NAME": "W7N/EN-114", "TITLE": "Wells Peak", "REGION": "NV-Elko North", "ASSOCIATION": "USA - Nevada", "POINTS": "6", "BONUSPOINTS": "3"}}, {"type": "Feature", "geometry": {"type": "Point", "coordinates": [-115.9451, 41.9069]}, "properties": {"NAME": "W7N/EN-115", "TITLE": "Miller Benchmark", "REGION": "NV-Elko North", "ASSOCIATION": "USA - Nevada", "POINTS": "6", "BONUSPOINTS": "3"}}, {"type": "Feature", "geometry": {"type": "Point", "coordinates": [-115.9023, 41.9052]}, "properties": {"NAME": "W7N/EN-116", "TITLE": "Winter Ridge", "REGION": "NV-Elko North", "ASSOCIATION": "USA - Nevada", "POINTS": "6", "BONUSPOINTS": "3"}}, {"type": "Feature", "geometry": {"type": "Point", "coordinates": [-115.6556, 41.1855]}, "properties": {"NAME": "W7N/EN-117", "TITLE": "Tower Mountain", "REGION": "NV-Elko North", "ASSOCIATION": "USA - Nevada", "POINTS": "6", "BONUSPOINTS": "3"}}, {"type": "Feature", "geometry": {"type": "Point", "coordinates": [-115.8863, 41.6719]}, "properties": {"NAME": "W7N/EN-118", "TITLE": "7695", "REGION": "NV-Elko North", "ASSOCIATION": "USA - Nevada", "POINTS": "6", "BONUSPOINTS": "3"}}, {"type": "Feature", "geometry": {"type": "Point", "coordinates": [-115.7906, 41.8178]}, "properties": {"NAME": "W7N/EN-119", "TITLE": "7668", "REGION": "NV-Elko North", "ASSOCIATION": "USA - Nevada", "POINTS": "6", "BONUSPOINTS": "3"}}, {"type": "Feature", "geometry": {"type": "Point", "coordinates": [-116.4163, 41.3335]}, "properties": {"NAME": "W7N/EN-120", "TITLE": "Walker Mountain", "REGION": "NV-Elko North", "ASSOCIATION": "USA - Nevada", "POINTS": "6", "BONUSPOINTS": "3"}}, {"type": "Feature", "geometry": {"type": "Point", "coordinates": [-115.6604, 41.1608]}, "properties": {"NAME": "W7N/EN-121", "TITLE": "7638", "REGION": "NV-Elko North", "ASSOCIATION": "USA - Nevada", "POINTS": "6", "BONUSPOINTS": "3"}}, {"type": "Feature", "geometry": {"type": "Point", "coordinates": [-114.3115, 41.3508]}, "properties": {"NAME": "W7N/EN-122", "TITLE": "7636", "REGION": "NV-Elko North", "ASSOCIATION": "USA - Nevada", "POINTS": "6", "BONUSPOINTS": "3"}}, {"type": "Feature", "geometry": {"type": "Point", "coordinates": [-115.7357, 41.0509]}, "properties": {"NAME": "W7N/EN-123", "TITLE": "7631", "REGION": "NV-Elko North", "ASSOCIATION": "USA - Nevada", "POINTS": "6", "BONUSPOINTS": "3"}}, {"type": "Feature", "geometry": {"type": "Point", "coordinates": [-115.6172, 41.5214]}, "properties": {"NAME": "W7N/EN-124", "TITLE": "Wild Horse Mountain", "REGION": "NV-Elko North", "ASSOCIATION": "USA - Nevada", "POINTS": "6", "BONUSPOINTS": "3"}}, {"type": "Feature", "geometry": {"type": "Point", "coordinates": [-115.465, 41.7159]}, "properties": {"NAME": "W7N/EN-125", "TITLE": "7630", "REGION": "NV-Elko North", "ASSOCIATION": "USA - Nevada", "POINTS": "6", "BONUSPOINTS": "3"}}, {"type": "Feature", "geometry": {"type": "Point", "coordinates": [-116.5074, 41.4271]}, "properties": {"NAME": "W7N/EN-126", "TITLE": "Prospect Benchmark", "REGION": "NV-Elko North", "ASSOCIATION": "USA - Nevada", "POINTS": "6", "BONUSPOINTS": "3"}}, {"type": "Feature", "geometry": {"type": "Point", "coordinates": [-115.6054, 41.6377]}, "properties": {"NAME": "W7N/EN-127", "TITLE": "7607", "REGION": "NV-Elko North", "ASSOCIATION": "USA - Nevada", "POINTS": "6", "BONUSPOINTS": "3"}}, {"type": "Feature", "geometry": {"type": "Point", "coordinates": [-114.0696, 41.7439]}, "properties": {"NAME": "W7N/EN-128", "TITLE": "White Rock Mountain", "REGION": "NV-Elko North", "ASSOCIATION": "USA - Nevada", "POINTS": "6", "BONUSPOINTS": "3"}}, {"type": "Feature", "geometry": {"type": "Point", "coordinates": [-115.0111, 41.0464]}, "properties": {"NAME": "W7N/EN-129", "TITLE": "7601", "REGION": "NV-Elko North", "ASSOCIATION": "USA - Nevada", "POINTS": "6", "BONUSPOINTS": "3"}}, {"type": "Feature", "geometry": {"type": "Point", "coordinates": [-115.7734, 41.5001]}, "properties": {"NAME": "W7N/EN-130", "TITLE": "Divide Benchmark", "REGION": "NV-Elko North", "ASSOCIATION": "USA - Nevada", "POINTS": "6", "BONUSPOINTS": "3"}}, {"type": "Feature", "geometry": {"type": "Point", "coordinates": [-116.0345, 41.0304]}, "properties": {"NAME": "W7N/EN-131", "TITLE": "Maggie Benchmark", "REGION": "NV-Elko North", "ASSOCIATION": "USA - Nevada", "POINTS": "6", "BONUSPOINTS": "3"}}, {"type": "Feature", "geometry": {"type": "Point", "coordinates": [-115.8428, 41.7839]}, "properties": {"NAME": "W7N/EN-132", "TITLE": "Rough Mountain", "REGION": "NV-Elko North", "ASSOCIATION": "USA - Nevada", "POINTS": "6", "BONUSPOINTS": "3"}}, {"type": "Feature", "geometry": {"type": "Point", "coordinates": [-116.0482, 41.8278]}, "properties": {"NAME": "W7N/EN-133", "TITLE": "Wonga Douya", "REGION": "NV-Elko North", "ASSOCIATION": "USA - Nevada", "POINTS": "6", "BONUSPOINTS": "3"}}, {"type": "Feature", "geometry": {"type": "Point", "coordinates": [-116.3864, 41.29]}, "properties": {"NAME": "W7N/EN-134", "TITLE": "7548", "REGION": "NV-Elko North", "ASSOCIATION": "USA - Nevada", "POINTS": "6", "BONUSPOINTS": "3"}}, {"type": "Feature", "geometry": {"type": "Point", "coordinates": [-114.4826, 41.7609]}, "properties": {"NAME": "W7N/EN-135", "TITLE": "Cave Benchmark", "REGION": "NV-Elko North", "ASSOCIATION": "USA - Nevada", "POINTS": "6", "BONUSPOINTS": "3"}}, {"type": "Feature", "geometry": {"type": "Point", "coordinates": [-116.1021, 41.5365]}, "properties": {"NAME": "W7N/EN-136", "TITLE": "Deep Benchmark", "REGION": "NV-Elko North", "ASSOCIATION": "USA - Nevada", "POINTS": "6", "BONUSPOINTS": "3"}}, {"type": "Feature", "geometry": {"type": "Point", "coordinates": [-114.1087, 41.6996]}, "properties": {"NAME": "W7N/EN-137", "TITLE": "Rock Benchmark", "REGION": "NV-Elko North", "ASSOCIATION": "USA - Nevada", "POINTS": "6", "BONUSPOINTS": "3"}}, {"type": "Feature", "geometry": {"type": "Point", "coordinates": [-116.4354, 41.439]}, "properties": {"NAME": "W7N/EN-138", "TITLE": "7523", "REGION": "NV-Elko North", "ASSOCIATION": "USA - Nevada", "POINTS": "6", "BONUSPOINTS": "3"}}, {"type": "Feature", "geometry": {"type": "Point", "coordinates": [-114.0734, 41.5827]}, "properties": {"NAME": "W7N/EN-139", "TITLE": "7511", "REGION": "NV-Elko North", "ASSOCIATION": "USA - Nevada", "POINTS": "6", "BONUSPOINTS": "3"}}, {"type": "Feature", "geometry": {"type": "Point", "coordinates": [-115.8229, 41.7637]}, "properties": {"NAME": "W7N/EN-140", "TITLE": "Cold Springs Mountain", "REGION": "NV-Elko North", "ASSOCIATION": "USA - Nevada", "POINTS": "6", "BONUSPOINTS": "3"}}, {"type": "Feature", "geometry": {"type": "Point", "coordinates": [-116.8462, 41.0194]}, "properties": {"NAME": "W7N/EN-141", "TITLE": "Sixmile Hill", "REGION": "NV-Elko North", "ASSOCIATION": "USA - Nevada", "POINTS": "4", "BONUSPOINTS": "3"}}, {"type": "Feature", "geometry": {"type": "Point", "coordinates": [-115.5606, 41.5535]}, "properties": {"NAME": "W7N/EN-142", "TITLE": "Mason Mountain", "REGION": "NV-Elko North", "ASSOCIATION": "USA - Nevada", "POINTS": "4", "BONUSPOINTS": "3"}}, {"type": "Feature", "geometry": {"type": "Point", "coordinates": [-114.9336, 41.1873]}, "properties": {"NAME": "W7N/EN-143", "TITLE": "Oxley Peak", "REGION": "NV-Elko North", "ASSOCIATION": "USA - Nevada", "POINTS": "4", "BONUSPOINTS": "3"}}, {"type": "Feature", "geometry": {"type": "Point", "coordinates": [-115.9348, 41.2898]}, "properties": {"NAME": "W7N/EN-144", "TITLE": "7460", "REGION": "NV-Elko North", "ASSOCIATION": "USA - Nevada", "POINTS": "4", "BONUSPOINTS": "3"}}, {"type": "Feature", "geometry": {"type": "Point", "coordinates": [-115.5621, 41.9526]}, "properties": {"NAME": "W7N/EN-145", "TITLE": "Bearpaw Mountain", "REGION": "NV-Elko North", "ASSOCIATION": "USA - Nevada", "POINTS": "4", "BONUSPOINTS": "3"}}, {"type": "Feature", "geometry": {"type": "Point", "coordinates": [-115.1814, 41.6023]}, "properties": {"NAME": "W7N/EN-146", "TITLE": "Wildcat Benchmark", "REGION": "NV-Elko North", "ASSOCIATION": "USA - Nevada", "POINTS": "4", "BONUSPOINTS": "3"}}, {"type": "Feature", "geometry": {"type": "Point", "coordinates": [-114.8084, 41.1971]}, "properties": {"NAME": "W7N/EN-147", "TITLE": "7424", "REGION": "NV-Elko North", "ASSOCIATION": "USA - Nevada", "POINTS": "4", "BONUSPOINTS": "3"}}, {"type": "Feature", "geometry": {"type": "Point", "coordinates": [-115.5981, 41.9217]}, "properties": {"NAME": "W7N/EN-148", "TITLE": "7396", "REGION": "NV-Elko North", "ASSOCIATION": "USA - Nevada", "POINTS": "4", "BONUSPOINTS": "3"}}, {"type": "Feature", "geometry": {"type": "Point", "coordinates": [-114.9131, 41.2351]}, "properties": {"NAME": "W7N/EN-149", "TITLE": "7388", "REGION": "NV-Elko North", "ASSOCIATION": "USA - Nevada", "POINTS": "4", "BONUSPOINTS": "3"}}, {"type": "Feature", "geometry": {"type": "Point", "coordinates": [-114.9479, 41.2653]}, "properties": {"NAME": "W7N/EN-150", "TITLE": "7374", "REGION": "NV-Elko North", "ASSOCIATION": "USA - Nevada", "POINTS": "4", "BONUSPOINTS": "3"}}, {"type": "Feature", "geometry": {"type": "Point", "coordinates": [-116.0331, 41.6769]}, "properties": {"NAME": "W7N/EN-151", "TITLE": "7362", "REGION": "NV-Elko North", "ASSOCIATION": "USA - Nevada", "POINTS": "4", "BONUSPOINTS": "3"}}, {"type": "Feature", "geometry": {"type": "Point", "coordinates": [-114.9321, 41.3066]}, "properties": {"NAME": "W7N/EN-152", "TITLE": "7354", "REGION": "NV-Elko North", "ASSOCIATION": "USA - Nevada", "POINTS": "4", "BONUSPOINTS": "3"}}, {"type": "Feature", "geometry": {"type": "Point", "coordinates": [-114.4666, 41.4639]}, "properties": {"NAME": "W7N/EN-153", "TITLE": "Ninemile Mountain", "REGION": "NV-Elko North", "ASSOCIATION": "USA - Nevada", "POINTS": "4", "BONUSPOINTS": "3"}}, {"type": "Feature", "geometry": {"type": "Point", "coordinates": [-115.6869, 41.3934]}, "properties": {"NAME": "W7N/EN-154", "TITLE": "7330", "REGION": "NV-Elko North", "ASSOCIATION": "USA - Nevada", "POINTS": "4", "BONUSPOINTS": "3"}}, {"type": "Feature", "geometry": {"type": "Point", "coordinates": [-115.7661, 41.7546]}, "properties": {"NAME": "W7N/EN-155", "TITLE": "Jenkins Peaks", "REGION": "NV-Elko North", "ASSOCIATION": "USA - Nevada", "POINTS": "4", "BONUSPOINTS": "3"}}, {"type": "Feature", "geometry": {"type": "Point", "coordinates": [-115.9986, 41.8052]}, "properties": {"NAME": "W7N/EN-156", "TITLE": "Bald Mountain", "REGION": "NV-Elko North", "ASSOCIATION": "USA - Nevada", "POINTS": "4", "BONUSPOINTS": "3"}}, {"type": "Feature", "geometry": {"type": "Point", "coordinates": [-114.2759, 41.3915]}, "properties": {"NAME": "W7N/EN-157", "TITLE": "7309", "REGION": "NV-Elko North", "ASSOCIATION": "USA - Nevada", "POINTS": "4", "BONUSPOINTS": "3"}}, {"type": "Feature", "geometry": {"type": "Point", "coordinates": [-115.1342, 41.6054]}, "properties": {"NAME": "W7N/EN-158", "TITLE": "7303", "REGION": "NV-Elko North", "ASSOCIATION": "USA - Nevada", "POINTS": "4", "BONUSPOINTS": "3"}}, {"type": "Feature", "geometry": {"type": "Point", "coordinates": [-114.3021, 41.942]}, "properties": {"NAME": "W7N/EN-159", "TITLE": "Eclipse Rock", "REGION": "NV-Elko North", "ASSOCIATION": "USA - Nevada", "POINTS": "4", "BONUSPOINTS": "3"}}, {"type": "Feature", "geometry": {"type": "Point", "coordinates": [-115.4851, 41.6455]}, "properties": {"NAME": "W7N/EN-160", "TITLE": "7264", "REGION": "NV-Elko North", "ASSOCIATION": "USA - Nevada", "POINTS": "4", "BONUSPOINTS": "3"}}, {"type": "Feature", "geometry": {"type": "Point", "coordinates": [-114.221, 41.5982]}, "properties": {"NAME": "W7N/EN-161", "TITLE": "Grassy Hill", "REGION": "NV-Elko North", "ASSOCIATION": "USA - Nevada", "POINTS": "4", "BONUSPOINTS": "3"}}, {"type": "Feature", "geometry": {"type": "Point", "coordinates": [-115.724, 41.8199]}, "properties": {"NAME": "W7N/EN-162", "TITLE": "Keas Peak", "REGION": "NV-Elko North", "ASSOCIATION": "USA - Nevada", "POINTS": "4", "BONUSPOINTS": "3"}}, {"type": "Feature", "geometry": {"type": "Point", "coordinates": [-115.7709, 41.7295]}, "properties": {"NAME": "W7N/EN-163", "TITLE": "7201", "REGION": "NV-Elko North", "ASSOCIATION": "USA - Nevada", "POINTS": "4", "BONUSPOINTS": "3"}}, {"type": "Feature", "geometry": {"type": "Point", "coordinates": [-116.0224, 41.1657]}, "properties": {"NAME": "W7N/EN-164", "TITLE": "7174", "REGION": "NV-Elko North", "ASSOCIATION": "USA - Nevada", "POINTS": "4", "BONUSPOINTS": "3"}}, {"type": "Feature", "geometry": {"type": "Point", "coordinates": [-116.588, 41.3889]}, "properties": {"NAME": "W7N/EN-165", "TITLE": "7168", "REGION": "NV-Elko North", "ASSOCIATION": "USA - Nevada", "POINTS": "4", "BONUSPOINTS": "3"}}, {"type": "Feature", "geometry": {"type": "Point", "coordinates": [-115.4717, 41.6144]}, "properties": {"NAME": "W7N/EN-166", "TITLE": "7147", "REGION": "NV-Elko North", "ASSOCIATION": "USA - Nevada", "POINTS": "4", "BONUSPOINTS": "3"}}, {"type": "Feature", "geometry": {"type": "Point", "coordinates": [-116.3378, 41.5153]}, "properties": {"NAME": "W7N/EN-167", "TITLE": "Cornucopia Ridge", "REGION": "NV-Elko North", "ASSOCIATION": "USA - Nevada", "POINTS": "4", "BONUSPOINTS": "3"}}, {"type": "Feature", "geometry": {"type": "Point", "coordinates": [-115.0663, 41.0791]}, "properties": {"NAME": "W7N/EN-168", "TITLE": "7103", "REGION": "NV-Elko North", "ASSOCIATION": "USA - Nevada", "POINTS": "4", "BONUSPOINTS": "3"}}, {"type": "Feature", "geometry": {"type": "Point", "coordinates": [-114.0759, 41.5245]}, "properties": {"NAME": "W7N/EN-169", "TITLE": "China Jim Mountain", "REGION": "NV-Elko North", "ASSOCIATION": "USA - Nevada", "POINTS": "4", "BONUSPOINTS": "3"}}, {"type": "Feature", "geometry": {"type": "Point", "coordinates": [-115.8988, 41.756]}, "properties": {"NAME": "W7N/EN-170", "TITLE": "7061", "REGION": "NV-Elko North", "ASSOCIATION": "USA - Nevada", "POINTS": "4", "BONUSPOINTS": "3"}}, {"type": "Feature", "geometry": {"type": "Point", "coordinates": [-116.7218, 41.3234]}, "properties": {"NAME": "W7N/EN-171", "TITLE": "Black Cliff Benchmark", "REGION": "NV-Elko North", "ASSOCIATION": "USA - Nevada", "POINTS": "4", "BONUSPOINTS": "3"}}, {"type": "Feature", "geometry": {"type": "Point", "coordinates": [-116.2845, 41.4637]}, "properties": {"NAME": "W7N/EN-172", "TITLE": "7033", "REGION": "NV-Elko North", "ASSOCIATION": "USA - Nevada", "POINTS": "4", "BONUSPOINTS": "3"}}, {"type": "Feature", "geometry": {"type": "Point", "coordinates": [-114.3178, 41.3826]}, "properties": {"NAME": "W7N/EN-173", "TITLE": "7019", "REGION": "NV-Elko North", "ASSOCIATION": "USA - Nevada", "POINTS": "4", "BONUSPOINTS": "3"}}, {"type": "Feature", "geometry": {"type": "Point", "coordinates": [-115.0711, 41.3562]}, "properties": {"NAME": "W7N/EN-174", "TITLE": "Black Butte", "REGION": "NV-Elko North", "ASSOCIATION": "USA - Nevada", "POINTS": "4", "BONUSPOINTS": "3"}}, {"type": "Feature", "geometry": {"type": "Point", "coordinates": [-116.1925, 41.566]}, "properties": {"NAME": "W7N/EN-175", "TITLE": "Lime Mountain", "REGION": "NV-Elko North", "ASSOCIATION": "USA - Nevada", "POINTS": "4", "BONUSPOINTS": "3"}}, {"type": "Feature", "geometry": {"type": "Point", "coordinates": [-114.8287, 41.3834]}, "properties": {"NAME": "W7N/EN-176", "TITLE": "6990", "REGION": "NV-Elko North", "ASSOCIATION": "USA - Nevada", "POINTS": "4", "BONUSPOINTS": "3"}}, {"type": "Feature", "geometry": {"type": "Point", "coordinates": [-116.5118, 41.1622]}, "properties": {"NAME": "W7N/EN-177", "TITLE": "6987", "REGION": "NV-Elko North", "ASSOCIATION": "USA - Nevada", "POINTS": "4", "BONUSPOINTS": "3"}}, {"type": "Feature", "geometry": {"type": "Point", "coordinates": [-114.7964, 41.0915]}, "properties": {"NAME": "W7N/EN-178", "TITLE": "Over Benchmark", "REGION": "NV-Elko North", "ASSOCIATION": "USA - Nevada", "POINTS": "4", "BONUSPOINTS": "3"}}, {"type": "Feature", "geometry": {"type": "Point", "coordinates": [-116.5659, 41.185]}, "properties": {"NAME": "W7N/EN-179", "TITLE": "6977", "REGION": "NV-Elko North", "ASSOCIATION": "USA - Nevada", "POINTS": "4", "BONUSPOINTS": "3"}}, {"type": "Feature", "geometry": {"type": "Point", "coordinates": [-116.5406, 41.2015]}, "properties": {"NAME": "W7N/EN-180", "TITLE": "Willow Benchmark", "REGION": "NV-Elko North", "ASSOCIATION": "USA - Nevada", "POINTS": "4", "BONUSPOINTS": "3"}}, {"type": "Feature", "geometry": {"type": "Point", "coordinates": [-116.188, 41.4903]}, "properties": {"NAME": "W7N/EN-181", "TITLE": "6980", "REGION": "NV-Elko North", "ASSOCIATION": "USA - Nevada", "POINTS": "4", "BONUSPOINTS": "3"}}, {"type": "Feature", "geometry": {"type": "Point", "coordinates": [-116.1887, 41.5195]}, "properties": {"NAME": "W7N/EN-182", "TITLE": "6940", "REGION": "NV-Elko North", "ASSOCIATION": "USA - Nevada", "POINTS": "4", "BONUSPOINTS": "3"}}, {"type": "Feature", "geometry": {"type": "Point", "coordinates": [-116.567, 41.1466]}, "properties": {"NAME": "W7N/EN-183", "TITLE": "Big Butte", "REGION": "NV-Elko North", "ASSOCIATION": "USA - Nevada", "POINTS": "4", "BONUSPOINTS": "3"}}, {"type": "Feature", "geometry": {"type": "Point", "coordinates": [-115.885, 41.7899]}, "properties": {"NAME": "W7N/EN-184", "TITLE": "Haystack Mountain", "REGION": "NV-Elko North", "ASSOCIATION": "USA - Nevada", "POINTS": "4", "BONUSPOINTS": "3"}}, {"type": "Feature", "geometry": {"type": "Point", "coordinates": [-115.4581, 41.1252]}, "properties": {"NAME": "W7N/EN-185", "TITLE": "Peko Peak", "REGION": "NV-Elko North", "ASSOCIATION": "USA - Nevada", "POINTS": "4", "BONUSPOINTS": "3"}}, {"type": "Feature", "geometry": {"type": "Point", "coordinates": [-116.8188, 41.0661]}, "properties": {"NAME": "W7N/EN-186", "TITLE": "6697", "REGION": "NV-Elko North", "ASSOCIATION": "USA - Nevada", "POINTS": "4", "BONUSPOINTS": "3"}}, {"type": "Feature", "geometry": {"type": "Point", "coordinates": [-116.8964, 41.1269]}, "properties": {"NAME": "W7N/EN-187", "TITLE": "Clover Benchmark", "REGION": "NV-Elko North", "ASSOCIATION": "USA - Nevada", "POINTS": "4", "BONUSPOINTS": "3"}}, {"type": "Feature", "geometry": {"type": "Point", "coordinates": [-115.8576, 41.2009]}, "properties": {"NAME": "W7N/EN-188", "TITLE": "6690", "REGION": "NV-Elko North", "ASSOCIATION": "USA - Nevada", "POINTS": "4", "BONUSPOINTS": "3"}}, {"type": "Feature", "geometry": {"type": "Point", "coordinates": [-116.7527, 41.1215]}, "properties": {"NAME": "W7N/EN-189", "TITLE": "Squaw Benchmark", "REGION": "NV-Elko North", "ASSOCIATION": "USA - Nevada", "POINTS": "4", "BONUSPOINTS": "3"}}, {"type": "Feature", "geometry": {"type": "Point", "coordinates": [-115.9195, 41.815]}, "properties": {"NAME": "W7N/EN-190", "TITLE": "Quartzite Hill", "REGION": "NV-Elko North", "ASSOCIATION": "USA - Nevada", "POINTS": "4", "BONUSPOINTS": "3"}}, {"type": "Feature", "geometry": {"type": "Point", "coordinates": [-114.5163, 41.6146]}, "properties": {"NAME": "W7N/EN-191", "TITLE": "6630", "REGION": "NV-Elko North", "ASSOCIATION": "USA - Nevada", "POINTS": "4", "BONUSPOINTS": "3"}}, {"type": "Feature", "geometry": {"type": "Point", "coordinates": [-116.0959, 41.8875]}, "properties": {"NAME": "W7N/EN-192", "TITLE": "6628", "REGION": "NV-Elko North", "ASSOCIATION": "USA - Nevada", "POINTS": "4", "BONUSPOINTS": "3"}}, {"type": "Feature", "geometry": {"type": "Point", "coordinates": [-114.6824, 41.3563]}, "properties": {"NAME": "W7N/EN-193", "TITLE": "6628", "REGION": "NV-Elko North", "ASSOCIATION": "USA - Nevada", "POINTS": "4", "BONUSPOINTS": "3"}}, {"type": "Feature", "geometry": {"type": "Point", "coordinates": [-114.1964, 41.6425]}, "properties": {"NAME": "W7N/EN-194", "TITLE": "6492", "REGION": "NV-Elko North", "ASSOCIATION": "USA - Nevada", "POINTS": "2", "BONUSPOINTS": "0"}}, {"type": "Feature", "geometry": {"type": "Point", "coordinates": [-115.6919, 41.9726]}, "properties": {"NAME": "W7N/EN-195", "TITLE": "Scott Table", "REGION": "NV-Elko North", "ASSOCIATION": "USA - Nevada", "POINTS": "2", "BONUSPOINTS": "0"}}, {"type": "Feature", "geometry": {"type": "Point", "coordinates": [-116.8485, 41.1852]}, "properties": {"NAME": "W7N/EN-196", "TITLE": "6349", "REGION": "NV-Elko North", "ASSOCIATION": "USA - Nevada", "POINTS": "2", "BONUSPOINTS": "0"}}, {"type": "Feature", "geometry": {"type": "Point", "coordinates": [-114.5353, 41.5555]}, "properties": {"NAME": "W7N/EN-197", "TITLE": "6348", "REGION": "NV-Elko North", "ASSOCIATION": "USA - Nevada", "POINTS": "2", "BONUSPOINTS": "0"}}, {"type": "Feature", "geometry": {"type": "Point", "coordinates": [-116.6579, 41.4609]}, "properties": {"NAME": "W7N/EN-198", "TITLE": "Burner Hills", "REGION": "NV-Elko North", "ASSOCIATION": "USA - Nevada", "POINTS": "2", "BONUSPOINTS": "0"}}, {"type": "Feature", "geometry": {"type": "Point", "coordinates": [-116.8597, 41.1728]}, "properties": {"NAME": "W7N/EN-199", "TITLE": "Horseshoe Mountain", "REGION": "NV-Elko North", "ASSOCIATION": "USA - Nevada", "POINTS": "2", "BONUSPOINTS": "0"}}, {"type": "Feature", "geometry": {"type": "Point", "coordinates": [-116.2988, 41.9834]}, "properties": {"NAME": "W7N/EN-200", "TITLE": "Dry Lake Benchmark", "REGION": "NV-Elko North", "ASSOCIATION": "USA - Nevada", "POINTS": "2", "BONUSPOINTS": "0"}}, {"type": "Feature", "geometry": {"type": "Point", "coordinates": [-114.2128, 41.4914]}, "properties": {"NAME": "W7N/EN-201", "TITLE": "Rocky Knob Benchmark", "REGION": "NV-Elko North", "ASSOCIATION": "USA - Nevada", "POINTS": "2", "BONUSPOINTS": "0"}}, {"type": "Feature", "geometry": {"type": "Point", "coordinates": [-116.3018, 41.7917]}, "properties": {"NAME": "W7N/EN-202", "TITLE": "Red Benchmark", "REGION": "NV-Elko North", "ASSOCIATION": "USA - Nevada", "POINTS": "2", "BONUSPOINTS": "0"}}, {"type": "Feature", "geometry": {"type": "Point", "coordinates": [-116.3919, 41.9057]}, "properties": {"NAME": "W7N/EN-203", "TITLE": "Hat Peak", "REGION": "NV-Elko North", "ASSOCIATION": "USA - Nevada", "POINTS": "2", "BONUSPOINTS": "0"}}, {"type": "Feature", "geometry": {"type": "Point", "coordinates": [-114.5152, 41.5123]}, "properties": {"NAME": "W7N/EN-204", "TITLE": "6015", "REGION": "NV-Elko North", "ASSOCIATION": "USA - Nevada", "POINTS": "2", "BONUSPOINTS": "0"}}, {"type": "Feature", "geometry": {"type": "Point", "coordinates": [-114.1454, 41.39]}, "properties": {"NAME": "W7N/EN-205", "TITLE": "5808", "REGION": "NV-Elko North", "ASSOCIATION": "USA - Nevada", "POINTS": "2", "BONUSPOINTS": "0"}}, {"type": "Feature", "geometry": {"type": "Point", "coordinates": [-116.8573, 41.9263]}, "properties": {"NAME": "W7N/EN-206", "TITLE": "Star Valley Ridge", "REGION": "NV-Elko North", "ASSOCIATION": "USA - Nevada", "POINTS": "2", "BONUSPOINTS": "0"}}, {"type": "Feature", "geometry": {"type": "Point", "coordinates": [-115.977, 41.1296]}, "properties": {"NAME": "W7N/EN-207", "TITLE": "Lone Mountain", "REGION": "NV-Elko North", "ASSOCIATION": "USA - Nevada", "POINTS": "8", "BONUSPOINTS": "3"}}, {"type": "Feature", "geometry": {"type": "Point", "coordinates": [-115.0559, 41.563]}, "properties": {"NAME": "W7N/EN-208", "TITLE": "8597", "REGION": "NV-Elko North", "ASSOCIATION": "USA - Nevada", "POINTS": "8", "BONUSPOINTS": "3"}}, {"type": "Feature", "geometry": {"type": "Point", "coordinates": [-115.8479, 41.9347]}, "properties": {"NAME": "W7N/EN-209", "TITLE": "Copper Mountain", "REGION": "NV-Elko North", "ASSOCIATION": "USA - Nevada", "POINTS": "6", "BONUSPOINTS": "3"}}, {"type": "Feature", "geometry": {"type": "Point", "coordinates": [-115.9103, 41.907]}, "properties": {"NAME": "W7N/EN-210", "TITLE": "Winter Ridge", "REGION": "NV-Elko North", "ASSOCIATION": "USA - Nevada", "POINTS": "6", "BONUSPOINTS": "3"}}, {"type": "Feature", "geometry": {"type": "Point", "coordinates": [-115.8627, 41.676]}, "properties": {"NAME": "W7N/EN-211", "TITLE": "7498", "REGION": "NV-Elko North", "ASSOCIATION": "USA - Nevada", "POINTS": "4", "BONUSPOINTS": "3"}}, {"type": "Feature", "geometry": {"type": "Point", "coordinates": [-115.7004, 41.6162]}, "properties": {"NAME": "W7N/EN-212", "TITLE": "7473", "REGION": "NV-Elko North", "ASSOCIATION": "USA - Nevada", "POINTS": "4", "BONUSPOINTS": "3"}}, {"type": "Feature", "geometry": {"type": "Point", "coordinates": [-116.0687, 41.2475]}, "properties": {"NAME": "W7N/EN-213", "TITLE": "7081", "REGION": "NV-Elko North", "ASSOCIATION": "USA - Nevada", "POINTS": "4", "BONUSPOINTS": "3"}}, {"type": "Feature", "geometry": {"type": "Point", "coordinates": [-116.505, 41.3333]}, "properties": {"NAME": "W7N/EN-214", "TITLE": "6477", "REGION": "NV-Elko North", "ASSOCIATION": "USA - Nevada", "POINTS": "2", "BONUSPOINTS": "0"}}, {"type": "Feature", "geometry": {"type": "Point", "coordinates": [-115.2952, 41.2187]}, "properties": {"NAME": "W7N/EN-215", "TITLE": "Twin Buttes, North", "REGION": "NV-Elko North", "ASSOCIATION": "USA - Nevada", "POINTS": "2", "BONUSPOINTS": "0"}}]}