{"type": "FeatureCollection", "name": "W7N/WP SUMMITS", "features": [{"type": "Feature", "geometry": {"type": "Point", "coordinates": [-114.314, 38.9857]}, "properties": {"NAME": "W7N/WP-001", "TITLE": "Wheeler Peak", "REGION": "NV-White Pine", "ASSOCIATION": "USA - Nevada", "POINTS": "10", "BONUSPOINTS": "3"}}, {"type": "Feature", "geometry": {"type": "Point", "coordinates": [-114.1988, 39.2731]}, "properties": {"NAME": "W7N/WP-002", "TITLE": "Moriah, Mount", "REGION": "NV-White Pine", "ASSOCIATION": "USA - Nevada", "POINTS": "10", "BONUSPOINTS": "3"}}, {"type": "Feature", "geometry": {"type": "Point", "coordinates": [-114.2953, 38.9486]}, "properties": {"NAME": "W7N/WP-003", "TITLE": "Pyramid Peak", "REGION": "NV-White Pine", "ASSOCIATION": "USA - Nevada", "POINTS": "10", "BONUSPOINTS": "3"}}, {"type": "Feature", "geometry": {"type": "Point", "coordinates": [-114.5997, 39.4132]}, "properties": {"NAME": "W7N/WP-004", "TITLE": "North Schell Peak", "REGION": "NV-White Pine", "ASSOCIATION": "USA - Nevada", "POINTS": "10", "BONUSPOINTS": "3"}}, {"type": "Feature", "geometry": {"type": "Point", "coordinates": [-114.5952, 39.3902]}, "properties": {"NAME": "W7N/WP-005", "TITLE": "Middle Schell Peak", "REGION": "NV-White Pine", "ASSOCIATION": "USA - Nevada", "POINTS": "10", "BONUSPOINTS": "3"}}, {"type": "Feature", "geometry": {"type": "Point", "coordinates": [-114.5781, 39.3243]}, "properties": {"NAME": "W7N/WP-006", "TITLE": "11768", "REGION": "NV-White Pine", "ASSOCIATION": "USA - Nevada", "POINTS": "10", "BONUSPOINTS": "3"}}, {"type": "Feature", "geometry": {"type": "Point", "coordinates": [-114.6001, 39.3364]}, "properties": {"NAME": "W7N/WP-007", "TITLE": "South Schell Peak", "REGION": "NV-White Pine", "ASSOCIATION": "USA - Nevada", "POINTS": "10", "BONUSPOINTS": "3"}}, {"type": "Feature", "geometry": {"type": "Point", "coordinates": [-114.3091, 38.9144]}, "properties": {"NAME": "W7N/WP-008", "TITLE": "Washington, Mount", "REGION": "NV-White Pine", "ASSOCIATION": "USA - Nevada", "POINTS": "10", "BONUSPOINTS": "3"}}, {"type": "Feature", "geometry": {"type": "Point", "coordinates": [-114.2971, 38.8828]}, "properties": {"NAME": "W7N/WP-009", "TITLE": "Lincoln Peak", "REGION": "NV-White Pine", "ASSOCIATION": "USA - Nevada", "POINTS": "10", "BONUSPOINTS": "3"}}, {"type": "Feature", "geometry": {"type": "Point", "coordinates": [-114.3227, 39.02]}, "properties": {"NAME": "W7N/WP-010", "TITLE": "Bald Mountain", "REGION": "NV-White Pine", "ASSOCIATION": "USA - Nevada", "POINTS": "10", "BONUSPOINTS": "3"}}, {"type": "Feature", "geometry": {"type": "Point", "coordinates": [-115.4247, 38.9097]}, "properties": {"NAME": "W7N/WP-011", "TITLE": "Currant Mountain", "REGION": "NV-White Pine", "ASSOCIATION": "USA - Nevada", "POINTS": "10", "BONUSPOINTS": "3"}}, {"type": "Feature", "geometry": {"type": "Point", "coordinates": [-114.2111, 39.2413]}, "properties": {"NAME": "W7N/WP-012", "TITLE": "11470", "REGION": "NV-White Pine", "ASSOCIATION": "USA - Nevada", "POINTS": "10", "BONUSPOINTS": "3"}}, {"type": "Feature", "geometry": {"type": "Point", "coordinates": [-114.195, 39.2181]}, "properties": {"NAME": "W7N/WP-013", "TITLE": "11450", "REGION": "NV-White Pine", "ASSOCIATION": "USA - Nevada", "POINTS": "10", "BONUSPOINTS": "3"}}, {"type": "Feature", "geometry": {"type": "Point", "coordinates": [-114.2557, 38.8439]}, "properties": {"NAME": "W7N/WP-014", "TITLE": "Granite Peak", "REGION": "NV-White Pine", "ASSOCIATION": "USA - Nevada", "POINTS": "10", "BONUSPOINTS": "3"}}, {"type": "Feature", "geometry": {"type": "Point", "coordinates": [-114.1575, 39.2068]}, "properties": {"NAME": "W7N/WP-015", "TITLE": "11064", "REGION": "NV-White Pine", "ASSOCIATION": "USA - Nevada", "POINTS": "10", "BONUSPOINTS": "3"}}, {"type": "Feature", "geometry": {"type": "Point", "coordinates": [-114.2485, 38.8814]}, "properties": {"NAME": "W7N/WP-016", "TITLE": "Central Peak", "REGION": "NV-White Pine", "ASSOCIATION": "USA - Nevada", "POINTS": "10", "BONUSPOINTS": "3"}}, {"type": "Feature", "geometry": {"type": "Point", "coordinates": [-114.7425, 38.6922]}, "properties": {"NAME": "W7N/WP-017", "TITLE": "Grafton, Mount", "REGION": "NV-White Pine", "ASSOCIATION": "USA - Nevada", "POINTS": "10", "BONUSPOINTS": "3"}}, {"type": "Feature", "geometry": {"type": "Point", "coordinates": [-114.6072, 39.5148]}, "properties": {"NAME": "W7N/WP-018", "TITLE": "Mummys Nose", "REGION": "NV-White Pine", "ASSOCIATION": "USA - Nevada", "POINTS": "10", "BONUSPOINTS": "3"}}, {"type": "Feature", "geometry": {"type": "Point", "coordinates": [-114.6463, 39.2604]}, "properties": {"NAME": "W7N/WP-019", "TITLE": "Cleve Creek Baldy", "REGION": "NV-White Pine", "ASSOCIATION": "USA - Nevada", "POINTS": "10", "BONUSPOINTS": "3"}}, {"type": "Feature", "geometry": {"type": "Point", "coordinates": [-114.9205, 39.1002]}, "properties": {"NAME": "W7N/WP-020", "TITLE": "Ward Mountain", "REGION": "NV-White Pine", "ASSOCIATION": "USA - Nevada", "POINTS": "10", "BONUSPOINTS": "3"}}, {"type": "Feature", "geometry": {"type": "Point", "coordinates": [-114.3142, 38.8642]}, "properties": {"NAME": "W7N/WP-021", "TITLE": "Acrapolis Peak", "REGION": "NV-White Pine", "ASSOCIATION": "USA - Nevada", "POINTS": "10", "BONUSPOINTS": "3"}}, {"type": "Feature", "geometry": {"type": "Point", "coordinates": [-114.5911, 39.4532]}, "properties": {"NAME": "W7N/WP-022", "TITLE": "10862", "REGION": "NV-White Pine", "ASSOCIATION": "USA - Nevada", "POINTS": "10", "BONUSPOINTS": "3"}}, {"type": "Feature", "geometry": {"type": "Point", "coordinates": [-114.223, 38.9465]}, "properties": {"NAME": "W7N/WP-023", "TITLE": "Eagle Benchmark", "REGION": "NV-White Pine", "ASSOCIATION": "USA - Nevada", "POINTS": "10", "BONUSPOINTS": "3"}}, {"type": "Feature", "geometry": {"type": "Point", "coordinates": [-115.5413, 39.2323]}, "properties": {"NAME": "W7N/WP-024", "TITLE": "Hamilton, Mount", "REGION": "NV-White Pine", "ASSOCIATION": "USA - Nevada", "POINTS": "10", "BONUSPOINTS": "3"}}, {"type": "Feature", "geometry": {"type": "Point", "coordinates": [-114.6147, 39.1611]}, "properties": {"NAME": "W7N/WP-025", "TITLE": "Cave Mountain", "REGION": "NV-White Pine", "ASSOCIATION": "USA - Nevada", "POINTS": "10", "BONUSPOINTS": "3"}}, {"type": "Feature", "geometry": {"type": "Point", "coordinates": [-114.31, 38.8402]}, "properties": {"NAME": "W7N/WP-026", "TITLE": "10721", "REGION": "NV-White Pine", "ASSOCIATION": "USA - Nevada", "POINTS": "10", "BONUSPOINTS": "3"}}, {"type": "Feature", "geometry": {"type": "Point", "coordinates": [-114.8958, 39.9661]}, "properties": {"NAME": "W7N/WP-027", "TITLE": "Cherry Creek Benchmark", "REGION": "NV-White Pine", "ASSOCIATION": "USA - Nevada", "POINTS": "10", "BONUSPOINTS": "3"}}, {"type": "Feature", "geometry": {"type": "Point", "coordinates": [-114.2541, 38.9485]}, "properties": {"NAME": "W7N/WP-028", "TITLE": "10496", "REGION": "NV-White Pine", "ASSOCIATION": "USA - Nevada", "POINTS": "10", "BONUSPOINTS": "3"}}, {"type": "Feature", "geometry": {"type": "Point", "coordinates": [-114.8797, 40.0661]}, "properties": {"NAME": "W7N/WP-029", "TITLE": "10459", "REGION": "NV-White Pine", "ASSOCIATION": "USA - Nevada", "POINTS": "10", "BONUSPOINTS": "3"}}, {"type": "Feature", "geometry": {"type": "Point", "coordinates": [-114.8978, 39.9836]}, "properties": {"NAME": "W7N/WP-030", "TITLE": "10360", "REGION": "NV-White Pine", "ASSOCIATION": "USA - Nevada", "POINTS": "10", "BONUSPOINTS": "3"}}, {"type": "Feature", "geometry": {"type": "Point", "coordinates": [-115.5865, 40.1192]}, "properties": {"NAME": "W7N/WP-031", "TITLE": "Sherman Mountain", "REGION": "NV-White Pine", "ASSOCIATION": "USA - Nevada", "POINTS": "10", "BONUSPOINTS": "3"}}, {"type": "Feature", "geometry": {"type": "Point", "coordinates": [-114.3193, 38.8081]}, "properties": {"NAME": "W7N/WP-032", "TITLE": "Murphy Benchmark", "REGION": "NV-White Pine", "ASSOCIATION": "USA - Nevada", "POINTS": "10", "BONUSPOINTS": "3"}}, {"type": "Feature", "geometry": {"type": "Point", "coordinates": [-114.9133, 39.0477]}, "properties": {"NAME": "W7N/WP-033", "TITLE": "Willow Benchmark", "REGION": "NV-White Pine", "ASSOCIATION": "USA - Nevada", "POINTS": "10", "BONUSPOINTS": "3"}}, {"type": "Feature", "geometry": {"type": "Point", "coordinates": [-114.7332, 39.2624]}, "properties": {"NAME": "W7N/WP-034", "TITLE": "Duck Creek Range HP", "REGION": "NV-White Pine", "ASSOCIATION": "USA - Nevada", "POINTS": "10", "BONUSPOINTS": "3"}}, {"type": "Feature", "geometry": {"type": "Point", "coordinates": [-114.6248, 39.699]}, "properties": {"NAME": "W7N/WP-035", "TITLE": "10285", "REGION": "NV-White Pine", "ASSOCIATION": "USA - Nevada", "POINTS": "10", "BONUSPOINTS": "3"}}, {"type": "Feature", "geometry": {"type": "Point", "coordinates": [-114.8508, 40.0442]}, "properties": {"NAME": "W7N/WP-036", "TITLE": "10275", "REGION": "NV-White Pine", "ASSOCIATION": "USA - Nevada", "POINTS": "10", "BONUSPOINTS": "3"}}, {"type": "Feature", "geometry": {"type": "Point", "coordinates": [-115.4438, 38.9807]}, "properties": {"NAME": "W7N/WP-037", "TITLE": "10180", "REGION": "NV-White Pine", "ASSOCIATION": "USA - Nevada", "POINTS": "10", "BONUSPOINTS": "3"}}, {"type": "Feature", "geometry": {"type": "Point", "coordinates": [-114.8725, 39.7441]}, "properties": {"NAME": "W7N/WP-038", "TITLE": "Telegraph Hill", "REGION": "NV-White Pine", "ASSOCIATION": "USA - Nevada", "POINTS": "10", "BONUSPOINTS": "3"}}, {"type": "Feature", "geometry": {"type": "Point", "coordinates": [-114.3686, 39.0616]}, "properties": {"NAME": "W7N/WP-039", "TITLE": "Windy Peak", "REGION": "NV-White Pine", "ASSOCIATION": "USA - Nevada", "POINTS": "10", "BONUSPOINTS": "3"}}, {"type": "Feature", "geometry": {"type": "Point", "coordinates": [-114.937, 39.0466]}, "properties": {"NAME": "W7N/WP-040", "TITLE": "10140", "REGION": "NV-White Pine", "ASSOCIATION": "USA - Nevada", "POINTS": "10", "BONUSPOINTS": "3"}}, {"type": "Feature", "geometry": {"type": "Point", "coordinates": [-114.8936, 38.932]}, "properties": {"NAME": "W7N/WP-041", "TITLE": "Egan Benchmark", "REGION": "NV-White Pine", "ASSOCIATION": "USA - Nevada", "POINTS": "10", "BONUSPOINTS": "3"}}, {"type": "Feature", "geometry": {"type": "Point", "coordinates": [-114.288, 39.4458]}, "properties": {"NAME": "W7N/WP-042", "TITLE": "O'Neal Peak", "REGION": "NV-White Pine", "ASSOCIATION": "USA - Nevada", "POINTS": "10", "BONUSPOINTS": "3"}}, {"type": "Feature", "geometry": {"type": "Point", "coordinates": [-114.3487, 39.0523]}, "properties": {"NAME": "W7N/WP-043", "TITLE": "10088", "REGION": "NV-White Pine", "ASSOCIATION": "USA - Nevada", "POINTS": "10", "BONUSPOINTS": "3"}}, {"type": "Feature", "geometry": {"type": "Point", "coordinates": [-114.7169, 39.237]}, "properties": {"NAME": "W7N/WP-044", "TITLE": "Camel Peak", "REGION": "NV-White Pine", "ASSOCIATION": "USA - Nevada", "POINTS": "10", "BONUSPOINTS": "3"}}, {"type": "Feature", "geometry": {"type": "Point", "coordinates": [-114.8963, 38.9565]}, "properties": {"NAME": "W7N/WP-045", "TITLE": "10042", "REGION": "NV-White Pine", "ASSOCIATION": "USA - Nevada", "POINTS": "10", "BONUSPOINTS": "3"}}, {"type": "Feature", "geometry": {"type": "Point", "coordinates": [-114.6028, 39.9718]}, "properties": {"NAME": "W7N/WP-046", "TITLE": "Becky Peak", "REGION": "NV-White Pine", "ASSOCIATION": "USA - Nevada", "POINTS": "10", "BONUSPOINTS": "3"}}, {"type": "Feature", "geometry": {"type": "Point", "coordinates": [-114.8709, 39.7148]}, "properties": {"NAME": "W7N/WP-047", "TITLE": "10016", "REGION": "NV-White Pine", "ASSOCIATION": "USA - Nevada", "POINTS": "10", "BONUSPOINTS": "3"}}, {"type": "Feature", "geometry": {"type": "Point", "coordinates": [-114.2014, 38.8186]}, "properties": {"NAME": "W7N/WP-048", "TITLE": "9962", "REGION": "NV-White Pine", "ASSOCIATION": "USA - Nevada", "POINTS": "10", "BONUSPOINTS": "3"}}, {"type": "Feature", "geometry": {"type": "Point", "coordinates": [-114.6276, 38.9051]}, "properties": {"NAME": "W7N/WP-049", "TITLE": "Major Benchmark", "REGION": "NV-White Pine", "ASSOCIATION": "USA - Nevada", "POINTS": "10", "BONUSPOINTS": "3"}}, {"type": "Feature", "geometry": {"type": "Point", "coordinates": [-114.1215, 39.3088]}, "properties": {"NAME": "W7N/WP-050", "TITLE": "9940", "REGION": "NV-White Pine", "ASSOCIATION": "USA - Nevada", "POINTS": "10", "BONUSPOINTS": "3"}}, {"type": "Feature", "geometry": {"type": "Point", "coordinates": [-114.9195, 39.0304]}, "properties": {"NAME": "W7N/WP-051", "TITLE": "9933", "REGION": "NV-White Pine", "ASSOCIATION": "USA - Nevada", "POINTS": "10", "BONUSPOINTS": "3"}}, {"type": "Feature", "geometry": {"type": "Point", "coordinates": [-114.9036, 39.6906]}, "properties": {"NAME": "W7N/WP-052", "TITLE": "Telegraph Peak", "REGION": "NV-White Pine", "ASSOCIATION": "USA - Nevada", "POINTS": "10", "BONUSPOINTS": "3"}}, {"type": "Feature", "geometry": {"type": "Point", "coordinates": [-114.6601, 39.6115]}, "properties": {"NAME": "W7N/WP-053", "TITLE": "9885", "REGION": "NV-White Pine", "ASSOCIATION": "USA - Nevada", "POINTS": "10", "BONUSPOINTS": "3"}}, {"type": "Feature", "geometry": {"type": "Point", "coordinates": [-114.2817, 39.2438]}, "properties": {"NAME": "W7N/WP-054", "TITLE": "9876", "REGION": "NV-White Pine", "ASSOCIATION": "USA - Nevada", "POINTS": "10", "BONUSPOINTS": "3"}}, {"type": "Feature", "geometry": {"type": "Point", "coordinates": [-114.6754, 39.5877]}, "properties": {"NAME": "W7N/WP-055", "TITLE": "9872", "REGION": "NV-White Pine", "ASSOCIATION": "USA - Nevada", "POINTS": "10", "BONUSPOINTS": "3"}}, {"type": "Feature", "geometry": {"type": "Point", "coordinates": [-114.2598, 39.2573]}, "properties": {"NAME": "W7N/WP-056", "TITLE": "9860", "REGION": "NV-White Pine", "ASSOCIATION": "USA - Nevada", "POINTS": "10", "BONUSPOINTS": "3"}}, {"type": "Feature", "geometry": {"type": "Point", "coordinates": [-114.1264, 39.6641]}, "properties": {"NAME": "W7N/WP-057", "TITLE": "Kern Mountains HP", "REGION": "NV-White Pine", "ASSOCIATION": "USA - Nevada", "POINTS": "10", "BONUSPOINTS": "3"}}, {"type": "Feature", "geometry": {"type": "Point", "coordinates": [-114.2159, 39.7061]}, "properties": {"NAME": "W7N/WP-058", "TITLE": "9660", "REGION": "NV-White Pine", "ASSOCIATION": "USA - Nevada", "POINTS": "10", "BONUSPOINTS": "3"}}, {"type": "Feature", "geometry": {"type": "Point", "coordinates": [-114.6497, 39.8588]}, "properties": {"NAME": "W7N/WP-059", "TITLE": "North Lovell Peak", "REGION": "NV-White Pine", "ASSOCIATION": "USA - Nevada", "POINTS": "10", "BONUSPOINTS": "3"}}, {"type": "Feature", "geometry": {"type": "Point", "coordinates": [-115.4265, 38.9746]}, "properties": {"NAME": "W7N/WP-060", "TITLE": "Corduroy Mountain", "REGION": "NV-White Pine", "ASSOCIATION": "USA - Nevada", "POINTS": "10", "BONUSPOINTS": "3"}}, {"type": "Feature", "geometry": {"type": "Point", "coordinates": [-114.2777, 39.342]}, "properties": {"NAME": "W7N/WP-061", "TITLE": "9622", "REGION": "NV-White Pine", "ASSOCIATION": "USA - Nevada", "POINTS": "10", "BONUSPOINTS": "3"}}, {"type": "Feature", "geometry": {"type": "Point", "coordinates": [-114.9553, 38.7819]}, "properties": {"NAME": "W7N/WP-062", "TITLE": "9580", "REGION": "NV-White Pine", "ASSOCIATION": "USA - Nevada", "POINTS": "10", "BONUSPOINTS": "3"}}, {"type": "Feature", "geometry": {"type": "Point", "coordinates": [-115.4321, 39.0846]}, "properties": {"NAME": "W7N/WP-063", "TITLE": "White Pine Range Wilderness HP", "REGION": "NV-White Pine", "ASSOCIATION": "USA - Nevada", "POINTS": "10", "BONUSPOINTS": "3"}}, {"type": "Feature", "geometry": {"type": "Point", "coordinates": [-114.8272, 40.0758]}, "properties": {"NAME": "W7N/WP-064", "TITLE": "9570", "REGION": "NV-White Pine", "ASSOCIATION": "USA - Nevada", "POINTS": "10", "BONUSPOINTS": "3"}}, {"type": "Feature", "geometry": {"type": "Point", "coordinates": [-114.957, 39.4786]}, "properties": {"NAME": "W7N/WP-065", "TITLE": "Bristlecone Wilderness HP", "REGION": "NV-White Pine", "ASSOCIATION": "USA - Nevada", "POINTS": "10", "BONUSPOINTS": "3"}}, {"type": "Feature", "geometry": {"type": "Point", "coordinates": [-114.593, 39.5856]}, "properties": {"NAME": "W7N/WP-066", "TITLE": "9530", "REGION": "NV-White Pine", "ASSOCIATION": "USA - Nevada", "POINTS": "10", "BONUSPOINTS": "3"}}, {"type": "Feature", "geometry": {"type": "Point", "coordinates": [-114.6472, 39.647]}, "properties": {"NAME": "W7N/WP-067", "TITLE": "9517", "REGION": "NV-White Pine", "ASSOCIATION": "USA - Nevada", "POINTS": "10", "BONUSPOINTS": "3"}}, {"type": "Feature", "geometry": {"type": "Point", "coordinates": [-114.9236, 38.8897]}, "properties": {"NAME": "W7N/WP-068", "TITLE": "Sawmill Peak", "REGION": "NV-White Pine", "ASSOCIATION": "USA - Nevada", "POINTS": "8", "BONUSPOINTS": "3"}}, {"type": "Feature", "geometry": {"type": "Point", "coordinates": [-114.1451, 39.6671]}, "properties": {"NAME": "W7N/WP-069", "TITLE": "9465", "REGION": "NV-White Pine", "ASSOCIATION": "USA - Nevada", "POINTS": "8", "BONUSPOINTS": "3"}}, {"type": "Feature", "geometry": {"type": "Point", "coordinates": [-115.5933, 40.0898]}, "properties": {"NAME": "W7N/WP-070", "TITLE": "9461", "REGION": "NV-White Pine", "ASSOCIATION": "USA - Nevada", "POINTS": "8", "BONUSPOINTS": "3"}}, {"type": "Feature", "geometry": {"type": "Point", "coordinates": [-114.6182, 39.6759]}, "properties": {"NAME": "W7N/WP-071", "TITLE": "9452", "REGION": "NV-White Pine", "ASSOCIATION": "USA - Nevada", "POINTS": "8", "BONUSPOINTS": "3"}}, {"type": "Feature", "geometry": {"type": "Point", "coordinates": [-114.9279, 39.6765]}, "properties": {"NAME": "W7N/WP-072", "TITLE": "9432", "REGION": "NV-White Pine", "ASSOCIATION": "USA - Nevada", "POINTS": "8", "BONUSPOINTS": "3"}}, {"type": "Feature", "geometry": {"type": "Point", "coordinates": [-114.6546, 39.0912]}, "properties": {"NAME": "W7N/WP-073", "TITLE": "Taylor Peak", "REGION": "NV-White Pine", "ASSOCIATION": "USA - Nevada", "POINTS": "8", "BONUSPOINTS": "3"}}, {"type": "Feature", "geometry": {"type": "Point", "coordinates": [-114.8768, 39.4066]}, "properties": {"NAME": "W7N/WP-074", "TITLE": "Heusser Mountain", "REGION": "NV-White Pine", "ASSOCIATION": "USA - Nevada", "POINTS": "8", "BONUSPOINTS": "3"}}, {"type": "Feature", "geometry": {"type": "Point", "coordinates": [-115.3889, 39.1938]}, "properties": {"NAME": "W7N/WP-075", "TITLE": "Shellback Wilderness HP", "REGION": "NV-White Pine", "ASSOCIATION": "USA - Nevada", "POINTS": "8", "BONUSPOINTS": "3"}}, {"type": "Feature", "geometry": {"type": "Point", "coordinates": [-115.4811, 39.2345]}, "properties": {"NAME": "W7N/WP-076", "TITLE": "Treasure Hill", "REGION": "NV-White Pine", "ASSOCIATION": "USA - Nevada", "POINTS": "8", "BONUSPOINTS": "3"}}, {"type": "Feature", "geometry": {"type": "Point", "coordinates": [-114.3965, 39.9642]}, "properties": {"NAME": "W7N/WP-077", "TITLE": "Baldy Peak", "REGION": "NV-White Pine", "ASSOCIATION": "USA - Nevada", "POINTS": "8", "BONUSPOINTS": "3"}}, {"type": "Feature", "geometry": {"type": "Point", "coordinates": [-114.6394, 39.1585]}, "properties": {"NAME": "W7N/WP-078", "TITLE": "Cooper Summit", "REGION": "NV-White Pine", "ASSOCIATION": "USA - Nevada", "POINTS": "8", "BONUSPOINTS": "3"}}, {"type": "Feature", "geometry": {"type": "Point", "coordinates": [-114.1094, 39.3525]}, "properties": {"NAME": "W7N/WP-079", "TITLE": "Central Peak", "REGION": "NV-White Pine", "ASSOCIATION": "USA - Nevada", "POINTS": "8", "BONUSPOINTS": "3"}}, {"type": "Feature", "geometry": {"type": "Point", "coordinates": [-115.4011, 39.0891]}, "properties": {"NAME": "W7N/WP-080", "TITLE": "Indian Garden Mountain", "REGION": "NV-White Pine", "ASSOCIATION": "USA - Nevada", "POINTS": "8", "BONUSPOINTS": "3"}}, {"type": "Feature", "geometry": {"type": "Point", "coordinates": [-114.6644, 38.9319]}, "properties": {"NAME": "W7N/WP-081", "TITLE": "9336", "REGION": "NV-White Pine", "ASSOCIATION": "USA - Nevada", "POINTS": "8", "BONUSPOINTS": "3"}}, {"type": "Feature", "geometry": {"type": "Point", "coordinates": [-114.1568, 39.3865]}, "properties": {"NAME": "W7N/WP-082", "TITLE": "9331", "REGION": "NV-White Pine", "ASSOCIATION": "USA - Nevada", "POINTS": "8", "BONUSPOINTS": "3"}}, {"type": "Feature", "geometry": {"type": "Point", "coordinates": [-115.3546, 38.8972]}, "properties": {"NAME": "W7N/WP-083", "TITLE": "Red Mountain", "REGION": "NV-White Pine", "ASSOCIATION": "USA - Nevada", "POINTS": "8", "BONUSPOINTS": "3"}}, {"type": "Feature", "geometry": {"type": "Point", "coordinates": [-115.5614, 39.9653]}, "properties": {"NAME": "W7N/WP-084", "TITLE": "Big Bald Mountain", "REGION": "NV-White Pine", "ASSOCIATION": "USA - Nevada", "POINTS": "8", "BONUSPOINTS": "3"}}, {"type": "Feature", "geometry": {"type": "Point", "coordinates": [-115.4417, 39.2187]}, "properties": {"NAME": "W7N/WP-085", "TITLE": "Cristo Benchmark", "REGION": "NV-White Pine", "ASSOCIATION": "USA - Nevada", "POINTS": "8", "BONUSPOINTS": "3"}}, {"type": "Feature", "geometry": {"type": "Point", "coordinates": [-115.467, 39.2625]}, "properties": {"NAME": "W7N/WP-086", "TITLE": "9286", "REGION": "NV-White Pine", "ASSOCIATION": "USA - Nevada", "POINTS": "8", "BONUSPOINTS": "3"}}, {"type": "Feature", "geometry": {"type": "Point", "coordinates": [-114.8655, 38.9587]}, "properties": {"NAME": "W7N/WP-087", "TITLE": "9272", "REGION": "NV-White Pine", "ASSOCIATION": "USA - Nevada", "POINTS": "8", "BONUSPOINTS": "3"}}, {"type": "Feature", "geometry": {"type": "Point", "coordinates": [-114.3136, 39.1899]}, "properties": {"NAME": "W7N/WP-088", "TITLE": "9255", "REGION": "NV-White Pine", "ASSOCIATION": "USA - Nevada", "POINTS": "8", "BONUSPOINTS": "3"}}, {"type": "Feature", "geometry": {"type": "Point", "coordinates": [-114.2078, 38.8503]}, "properties": {"NAME": "W7N/WP-089", "TITLE": "9251", "REGION": "NV-White Pine", "ASSOCIATION": "USA - Nevada", "POINTS": "8", "BONUSPOINTS": "3"}}, {"type": "Feature", "geometry": {"type": "Point", "coordinates": [-115.0174, 39.8211]}, "properties": {"NAME": "W7N/WP-090", "TITLE": "Ray Benchmark", "REGION": "NV-White Pine", "ASSOCIATION": "USA - Nevada", "POINTS": "8", "BONUSPOINTS": "3"}}, {"type": "Feature", "geometry": {"type": "Point", "coordinates": [-114.2068, 38.8685]}, "properties": {"NAME": "W7N/WP-091", "TITLE": "9247", "REGION": "NV-White Pine", "ASSOCIATION": "USA - Nevada", "POINTS": "8", "BONUSPOINTS": "3"}}, {"type": "Feature", "geometry": {"type": "Point", "coordinates": [-114.6705, 39.1]}, "properties": {"NAME": "W7N/WP-092", "TITLE": "9242", "REGION": "NV-White Pine", "ASSOCIATION": "USA - Nevada", "POINTS": "8", "BONUSPOINTS": "3"}}, {"type": "Feature", "geometry": {"type": "Point", "coordinates": [-114.3161, 39.1758]}, "properties": {"NAME": "W7N/WP-093", "TITLE": "9239", "REGION": "NV-White Pine", "ASSOCIATION": "USA - Nevada", "POINTS": "8", "BONUSPOINTS": "3"}}, {"type": "Feature", "geometry": {"type": "Point", "coordinates": [-115.0864, 39.3087]}, "properties": {"NAME": "W7N/WP-094", "TITLE": "South Ridge Benchmark", "REGION": "NV-White Pine", "ASSOCIATION": "USA - Nevada", "POINTS": "8", "BONUSPOINTS": "3"}}, {"type": "Feature", "geometry": {"type": "Point", "coordinates": [-114.6362, 39.9001]}, "properties": {"NAME": "W7N/WP-095", "TITLE": "9179", "REGION": "NV-White Pine", "ASSOCIATION": "USA - Nevada", "POINTS": "8", "BONUSPOINTS": "3"}}, {"type": "Feature", "geometry": {"type": "Point", "coordinates": [-115.6267, 39.6606]}, "properties": {"NAME": "W7N/WP-096", "TITLE": "Buck Mountain", "REGION": "NV-White Pine", "ASSOCIATION": "USA - Nevada", "POINTS": "8", "BONUSPOINTS": "3"}}, {"type": "Feature", "geometry": {"type": "Point", "coordinates": [-114.9533, 39.6388]}, "properties": {"NAME": "W7N/WP-097", "TITLE": "9137", "REGION": "NV-White Pine", "ASSOCIATION": "USA - Nevada", "POINTS": "8", "BONUSPOINTS": "3"}}, {"type": "Feature", "geometry": {"type": "Point", "coordinates": [-114.4234, 39.8975]}, "properties": {"NAME": "W7N/WP-098", "TITLE": "9134", "REGION": "NV-White Pine", "ASSOCIATION": "USA - Nevada", "POINTS": "8", "BONUSPOINTS": "3"}}, {"type": "Feature", "geometry": {"type": "Point", "coordinates": [-115.0252, 39.4457]}, "properties": {"NAME": "W7N/WP-099", "TITLE": "9125", "REGION": "NV-White Pine", "ASSOCIATION": "USA - Nevada", "POINTS": "8", "BONUSPOINTS": "3"}}, {"type": "Feature", "geometry": {"type": "Point", "coordinates": [-114.9479, 39.7088]}, "properties": {"NAME": "W7N/WP-100", "TITLE": "9104", "REGION": "NV-White Pine", "ASSOCIATION": "USA - Nevada", "POINTS": "8", "BONUSPOINTS": "3"}}, {"type": "Feature", "geometry": {"type": "Point", "coordinates": [-114.699, 39.1489]}, "properties": {"NAME": "W7N/WP-101", "TITLE": "9094", "REGION": "NV-White Pine", "ASSOCIATION": "USA - Nevada", "POINTS": "8", "BONUSPOINTS": "3"}}, {"type": "Feature", "geometry": {"type": "Point", "coordinates": [-114.6714, 39.1607]}, "properties": {"NAME": "W7N/WP-102", "TITLE": "9071", "REGION": "NV-White Pine", "ASSOCIATION": "USA - Nevada", "POINTS": "8", "BONUSPOINTS": "3"}}, {"type": "Feature", "geometry": {"type": "Point", "coordinates": [-115.5548, 39.9272]}, "properties": {"NAME": "W7N/WP-103", "TITLE": "Little Bald Mountain", "REGION": "NV-White Pine", "ASSOCIATION": "USA - Nevada", "POINTS": "8", "BONUSPOINTS": "3"}}, {"type": "Feature", "geometry": {"type": "Point", "coordinates": [-115.2698, 39.8776]}, "properties": {"NAME": "W7N/WP-104", "TITLE": "Butte Mountains HP", "REGION": "NV-White Pine", "ASSOCIATION": "USA - Nevada", "POINTS": "8", "BONUSPOINTS": "3"}}, {"type": "Feature", "geometry": {"type": "Point", "coordinates": [-115.4273, 39.0219]}, "properties": {"NAME": "W7N/WP-105", "TITLE": "9026", "REGION": "NV-White Pine", "ASSOCIATION": "USA - Nevada", "POINTS": "8", "BONUSPOINTS": "3"}}, {"type": "Feature", "geometry": {"type": "Point", "coordinates": [-114.6285, 39.9269]}, "properties": {"NAME": "W7N/WP-106", "TITLE": "9019", "REGION": "NV-White Pine", "ASSOCIATION": "USA - Nevada", "POINTS": "8", "BONUSPOINTS": "3"}}, {"type": "Feature", "geometry": {"type": "Point", "coordinates": [-114.7417, 38.8933]}, "properties": {"NAME": "W7N/WP-107", "TITLE": "8996", "REGION": "NV-White Pine", "ASSOCIATION": "USA - Nevada", "POINTS": "8", "BONUSPOINTS": "3"}}, {"type": "Feature", "geometry": {"type": "Point", "coordinates": [-114.6608, 38.984]}, "properties": {"NAME": "W7N/WP-108", "TITLE": "8994", "REGION": "NV-White Pine", "ASSOCIATION": "USA - Nevada", "POINTS": "8", "BONUSPOINTS": "3"}}, {"type": "Feature", "geometry": {"type": "Point", "coordinates": [-115.2704, 39.7136]}, "properties": {"NAME": "W7N/WP-109", "TITLE": "Robber Benchmark", "REGION": "NV-White Pine", "ASSOCIATION": "USA - Nevada", "POINTS": "8", "BONUSPOINTS": "3"}}, {"type": "Feature", "geometry": {"type": "Point", "coordinates": [-115.0355, 39.8332]}, "properties": {"NAME": "W7N/WP-110", "TITLE": "8930", "REGION": "NV-White Pine", "ASSOCIATION": "USA - Nevada", "POINTS": "8", "BONUSPOINTS": "3"}}, {"type": "Feature", "geometry": {"type": "Point", "coordinates": [-114.6211, 39.9429]}, "properties": {"NAME": "W7N/WP-111", "TITLE": "8930", "REGION": "NV-White Pine", "ASSOCIATION": "USA - Nevada", "POINTS": "8", "BONUSPOINTS": "3"}}, {"type": "Feature", "geometry": {"type": "Point", "coordinates": [-114.8874, 39.3861]}, "properties": {"NAME": "W7N/WP-112", "TITLE": "8926", "REGION": "NV-White Pine", "ASSOCIATION": "USA - Nevada", "POINTS": "8", "BONUSPOINTS": "3"}}, {"type": "Feature", "geometry": {"type": "Point", "coordinates": [-115.3751, 38.9746]}, "properties": {"NAME": "W7N/WP-113", "TITLE": "8900", "REGION": "NV-White Pine", "ASSOCIATION": "USA - Nevada", "POINTS": "8", "BONUSPOINTS": "3"}}, {"type": "Feature", "geometry": {"type": "Point", "coordinates": [-114.9672, 39.5621]}, "properties": {"NAME": "W7N/WP-114", "TITLE": "8897", "REGION": "NV-White Pine", "ASSOCIATION": "USA - Nevada", "POINTS": "8", "BONUSPOINTS": "3"}}, {"type": "Feature", "geometry": {"type": "Point", "coordinates": [-114.6722, 39.1409]}, "properties": {"NAME": "W7N/WP-115", "TITLE": "8877", "REGION": "NV-White Pine", "ASSOCIATION": "USA - Nevada", "POINTS": "8", "BONUSPOINTS": "3"}}, {"type": "Feature", "geometry": {"type": "Point", "coordinates": [-115.3556, 39.2901]}, "properties": {"NAME": "W7N/WP-116", "TITLE": "Moorman Ridge", "REGION": "NV-White Pine", "ASSOCIATION": "USA - Nevada", "POINTS": "8", "BONUSPOINTS": "3"}}, {"type": "Feature", "geometry": {"type": "Point", "coordinates": [-115.3178, 39.0818]}, "properties": {"NAME": "W7N/WP-117", "TITLE": "Bald Mountain", "REGION": "NV-White Pine", "ASSOCIATION": "USA - Nevada", "POINTS": "8", "BONUSPOINTS": "3"}}, {"type": "Feature", "geometry": {"type": "Point", "coordinates": [-114.5805, 39.6275]}, "properties": {"NAME": "W7N/WP-118", "TITLE": "8832", "REGION": "NV-White Pine", "ASSOCIATION": "USA - Nevada", "POINTS": "8", "BONUSPOINTS": "3"}}, {"type": "Feature", "geometry": {"type": "Point", "coordinates": [-115.8081, 39.5236]}, "properties": {"NAME": "W7N/WP-119", "TITLE": "Newark Mountain", "REGION": "NV-White Pine", "ASSOCIATION": "USA - Nevada", "POINTS": "8", "BONUSPOINTS": "3"}}, {"type": "Feature", "geometry": {"type": "Point", "coordinates": [-115.2878, 39.6872]}, "properties": {"NAME": "W7N/WP-120", "TITLE": "8818", "REGION": "NV-White Pine", "ASSOCIATION": "USA - Nevada", "POINTS": "8", "BONUSPOINTS": "3"}}, {"type": "Feature", "geometry": {"type": "Point", "coordinates": [-115.0622, 39.4273]}, "properties": {"NAME": "W7N/WP-121", "TITLE": "Robinson Benchmark", "REGION": "NV-White Pine", "ASSOCIATION": "USA - Nevada", "POINTS": "8", "BONUSPOINTS": "3"}}, {"type": "Feature", "geometry": {"type": "Point", "coordinates": [-115.4171, 39.1922]}, "properties": {"NAME": "W7N/WP-122", "TITLE": "Mokomoke Hill", "REGION": "NV-White Pine", "ASSOCIATION": "USA - Nevada", "POINTS": "8", "BONUSPOINTS": "3"}}, {"type": "Feature", "geometry": {"type": "Point", "coordinates": [-115.0395, 39.8772]}, "properties": {"NAME": "W7N/WP-123", "TITLE": "8740", "REGION": "NV-White Pine", "ASSOCIATION": "USA - Nevada", "POINTS": "8", "BONUSPOINTS": "3"}}, {"type": "Feature", "geometry": {"type": "Point", "coordinates": [-115.0657, 39.4592]}, "properties": {"NAME": "W7N/WP-124", "TITLE": "8740", "REGION": "NV-White Pine", "ASSOCIATION": "USA - Nevada", "POINTS": "8", "BONUSPOINTS": "3"}}, {"type": "Feature", "geometry": {"type": "Point", "coordinates": [-115.0272, 39.7718]}, "properties": {"NAME": "W7N/WP-125", "TITLE": "8720", "REGION": "NV-White Pine", "ASSOCIATION": "USA - Nevada", "POINTS": "8", "BONUSPOINTS": "3"}}, {"type": "Feature", "geometry": {"type": "Point", "coordinates": [-114.9011, 39.7521]}, "properties": {"NAME": "W7N/WP-126", "TITLE": "8702", "REGION": "NV-White Pine", "ASSOCIATION": "USA - Nevada", "POINTS": "8", "BONUSPOINTS": "3"}}, {"type": "Feature", "geometry": {"type": "Point", "coordinates": [-114.6708, 39.7082]}, "properties": {"NAME": "W7N/WP-127", "TITLE": "8684", "REGION": "NV-White Pine", "ASSOCIATION": "USA - Nevada", "POINTS": "8", "BONUSPOINTS": "3"}}, {"type": "Feature", "geometry": {"type": "Point", "coordinates": [-114.9068, 39.8116]}, "properties": {"NAME": "W7N/WP-128", "TITLE": "Cocomongo Mountain", "REGION": "NV-White Pine", "ASSOCIATION": "USA - Nevada", "POINTS": "8", "BONUSPOINTS": "3"}}, {"type": "Feature", "geometry": {"type": "Point", "coordinates": [-114.9344, 38.9791]}, "properties": {"NAME": "W7N/WP-129", "TITLE": "Red Butte", "REGION": "NV-White Pine", "ASSOCIATION": "USA - Nevada", "POINTS": "8", "BONUSPOINTS": "3"}}, {"type": "Feature", "geometry": {"type": "Point", "coordinates": [-115.0646, 39.7421]}, "properties": {"NAME": "W7N/WP-130", "TITLE": "8635", "REGION": "NV-White Pine", "ASSOCIATION": "USA - Nevada", "POINTS": "8", "BONUSPOINTS": "3"}}, {"type": "Feature", "geometry": {"type": "Point", "coordinates": [-115.4698, 39.3574]}, "properties": {"NAME": "W7N/WP-131", "TITLE": "Buster Mountain", "REGION": "NV-White Pine", "ASSOCIATION": "USA - Nevada", "POINTS": "8", "BONUSPOINTS": "3"}}, {"type": "Feature", "geometry": {"type": "Point", "coordinates": [-114.725, 39.4521]}, "properties": {"NAME": "W7N/WP-132", "TITLE": "8615", "REGION": "NV-White Pine", "ASSOCIATION": "USA - Nevada", "POINTS": "8", "BONUSPOINTS": "3"}}, {"type": "Feature", "geometry": {"type": "Point", "coordinates": [-114.4686, 39.8374]}, "properties": {"NAME": "W7N/WP-133", "TITLE": "8592", "REGION": "NV-White Pine", "ASSOCIATION": "USA - Nevada", "POINTS": "8", "BONUSPOINTS": "3"}}, {"type": "Feature", "geometry": {"type": "Point", "coordinates": [-115.8975, 39.4507]}, "properties": {"NAME": "W7N/WP-134", "TITLE": "Woodpeckers Peak", "REGION": "NV-White Pine", "ASSOCIATION": "USA - Nevada", "POINTS": "8", "BONUSPOINTS": "3"}}, {"type": "Feature", "geometry": {"type": "Point", "coordinates": [-114.7545, 39.3844]}, "properties": {"NAME": "W7N/WP-135", "TITLE": "McGill Benchmark", "REGION": "NV-White Pine", "ASSOCIATION": "USA - Nevada", "POINTS": "8", "BONUSPOINTS": "3"}}, {"type": "Feature", "geometry": {"type": "Point", "coordinates": [-115.8844, 39.4179]}, "properties": {"NAME": "W7N/WP-136", "TITLE": "Leader Mountain", "REGION": "NV-White Pine", "ASSOCIATION": "USA - Nevada", "POINTS": "8", "BONUSPOINTS": "3"}}, {"type": "Feature", "geometry": {"type": "Point", "coordinates": [-115.0466, 39.7878]}, "properties": {"NAME": "W7N/WP-137", "TITLE": "8513", "REGION": "NV-White Pine", "ASSOCIATION": "USA - Nevada", "POINTS": "8", "BONUSPOINTS": "3"}}, {"type": "Feature", "geometry": {"type": "Point", "coordinates": [-114.9224, 38.7504]}, "properties": {"NAME": "W7N/WP-138", "TITLE": "8500", "REGION": "NV-White Pine", "ASSOCIATION": "USA - Nevada", "POINTS": "8", "BONUSPOINTS": "3"}}, {"type": "Feature", "geometry": {"type": "Point", "coordinates": [-114.2743, 38.7463]}, "properties": {"NAME": "W7N/WP-139", "TITLE": "8468", "REGION": "NV-White Pine", "ASSOCIATION": "USA - Nevada", "POINTS": "6", "BONUSPOINTS": "3"}}, {"type": "Feature", "geometry": {"type": "Point", "coordinates": [-115.8783, 39.4334]}, "properties": {"NAME": "W7N/WP-140", "TITLE": "Sentinel Mountain", "REGION": "NV-White Pine", "ASSOCIATION": "USA - Nevada", "POINTS": "6", "BONUSPOINTS": "3"}}, {"type": "Feature", "geometry": {"type": "Point", "coordinates": [-115.3538, 39.1791]}, "properties": {"NAME": "W7N/WP-141", "TITLE": "8460", "REGION": "NV-White Pine", "ASSOCIATION": "USA - Nevada", "POINTS": "6", "BONUSPOINTS": "3"}}, {"type": "Feature", "geometry": {"type": "Point", "coordinates": [-115.4446, 39.1336]}, "properties": {"NAME": "W7N/WP-142", "TITLE": "8429", "REGION": "NV-White Pine", "ASSOCIATION": "USA - Nevada", "POINTS": "6", "BONUSPOINTS": "3"}}, {"type": "Feature", "geometry": {"type": "Point", "coordinates": [-115.4212, 39.279]}, "properties": {"NAME": "W7N/WP-143", "TITLE": "8420", "REGION": "NV-White Pine", "ASSOCIATION": "USA - Nevada", "POINTS": "6", "BONUSPOINTS": "3"}}, {"type": "Feature", "geometry": {"type": "Point", "coordinates": [-115.5201, 39.9001]}, "properties": {"NAME": "W7N/WP-144", "TITLE": "8420", "REGION": "NV-White Pine", "ASSOCIATION": "USA - Nevada", "POINTS": "6", "BONUSPOINTS": "3"}}, {"type": "Feature", "geometry": {"type": "Point", "coordinates": [-115.4964, 39.8132]}, "properties": {"NAME": "W7N/WP-145", "TITLE": "Alligator Ridge", "REGION": "NV-White Pine", "ASSOCIATION": "USA - Nevada", "POINTS": "6", "BONUSPOINTS": "3"}}, {"type": "Feature", "geometry": {"type": "Point", "coordinates": [-114.3894, 39.1409]}, "properties": {"NAME": "W7N/WP-146", "TITLE": "Osceola Benchmark", "REGION": "NV-White Pine", "ASSOCIATION": "USA - Nevada", "POINTS": "6", "BONUSPOINTS": "3"}}, {"type": "Feature", "geometry": {"type": "Point", "coordinates": [-115.0145, 39.4797]}, "properties": {"NAME": "W7N/WP-147", "TITLE": "8340", "REGION": "NV-White Pine", "ASSOCIATION": "USA - Nevada", "POINTS": "6", "BONUSPOINTS": "3"}}, {"type": "Feature", "geometry": {"type": "Point", "coordinates": [-115.3378, 39.145]}, "properties": {"NAME": "W7N/WP-148", "TITLE": "Limestone Peak", "REGION": "NV-White Pine", "ASSOCIATION": "USA - Nevada", "POINTS": "6", "BONUSPOINTS": "3"}}, {"type": "Feature", "geometry": {"type": "Point", "coordinates": [-114.1484, 39.795]}, "properties": {"NAME": "W7N/WP-149", "TITLE": "8280", "REGION": "NV-White Pine", "ASSOCIATION": "USA - Nevada", "POINTS": "6", "BONUSPOINTS": "3"}}, {"type": "Feature", "geometry": {"type": "Point", "coordinates": [-114.7976, 38.8229]}, "properties": {"NAME": "W7N/WP-150", "TITLE": "Mollys Nipples South", "REGION": "NV-White Pine", "ASSOCIATION": "USA - Nevada", "POINTS": "6", "BONUSPOINTS": "3"}}, {"type": "Feature", "geometry": {"type": "Point", "coordinates": [-115.469, 39.0322]}, "properties": {"NAME": "W7N/WP-151", "TITLE": "8272", "REGION": "NV-White Pine", "ASSOCIATION": "USA - Nevada", "POINTS": "6", "BONUSPOINTS": "3"}}, {"type": "Feature", "geometry": {"type": "Point", "coordinates": [-115.19, 39.5182]}, "properties": {"NAME": "W7N/WP-152", "TITLE": "Sy Cairn Benchmark", "REGION": "NV-White Pine", "ASSOCIATION": "USA - Nevada", "POINTS": "6", "BONUSPOINTS": "3"}}, {"type": "Feature", "geometry": {"type": "Point", "coordinates": [-114.7107, 39.5048]}, "properties": {"NAME": "W7N/WP-153", "TITLE": "8251", "REGION": "NV-White Pine", "ASSOCIATION": "USA - Nevada", "POINTS": "6", "BONUSPOINTS": "3"}}, {"type": "Feature", "geometry": {"type": "Point", "coordinates": [-115.1015, 39.2611]}, "properties": {"NAME": "W7N/WP-154", "TITLE": "8226", "REGION": "NV-White Pine", "ASSOCIATION": "USA - Nevada", "POINTS": "6", "BONUSPOINTS": "3"}}, {"type": "Feature", "geometry": {"type": "Point", "coordinates": [-115.1899, 39.9928]}, "properties": {"NAME": "W7N/WP-155", "TITLE": "8225", "REGION": "NV-White Pine", "ASSOCIATION": "USA - Nevada", "POINTS": "6", "BONUSPOINTS": "3"}}, {"type": "Feature", "geometry": {"type": "Point", "coordinates": [-115.4352, 39.4029]}, "properties": {"NAME": "W7N/WP-156", "TITLE": "8220", "REGION": "NV-White Pine", "ASSOCIATION": "USA - Nevada", "POINTS": "6", "BONUSPOINTS": "3"}}, {"type": "Feature", "geometry": {"type": "Point", "coordinates": [-115.8451, 39.5062]}, "properties": {"NAME": "W7N/WP-157", "TITLE": "Pinto Benchmark", "REGION": "NV-White Pine", "ASSOCIATION": "USA - Nevada", "POINTS": "6", "BONUSPOINTS": "3"}}, {"type": "Feature", "geometry": {"type": "Point", "coordinates": [-114.2089, 39.7533]}, "properties": {"NAME": "W7N/WP-158", "TITLE": "8218", "REGION": "NV-White Pine", "ASSOCIATION": "USA - Nevada", "POINTS": "6", "BONUSPOINTS": "3"}}, {"type": "Feature", "geometry": {"type": "Point", "coordinates": [-115.3473, 39.9909]}, "properties": {"NAME": "W7N/WP-159", "TITLE": "Murry Benchmark", "REGION": "NV-White Pine", "ASSOCIATION": "USA - Nevada", "POINTS": "6", "BONUSPOINTS": "3"}}, {"type": "Feature", "geometry": {"type": "Point", "coordinates": [-115.5578, 39.9021]}, "properties": {"NAME": "W7N/WP-160", "TITLE": "8189", "REGION": "NV-White Pine", "ASSOCIATION": "USA - Nevada", "POINTS": "6", "BONUSPOINTS": "3"}}, {"type": "Feature", "geometry": {"type": "Point", "coordinates": [-115.4429, 39.9295]}, "properties": {"NAME": "W7N/WP-161", "TITLE": "8182", "REGION": "NV-White Pine", "ASSOCIATION": "USA - Nevada", "POINTS": "6", "BONUSPOINTS": "3"}}, {"type": "Feature", "geometry": {"type": "Point", "coordinates": [-114.3565, 39.2293]}, "properties": {"NAME": "W7N/WP-162", "TITLE": "Noggin Benchmark", "REGION": "NV-White Pine", "ASSOCIATION": "USA - Nevada", "POINTS": "6", "BONUSPOINTS": "3"}}, {"type": "Feature", "geometry": {"type": "Point", "coordinates": [-114.1987, 39.4864]}, "properties": {"NAME": "W7N/WP-163", "TITLE": "Government Peak Wilderness HP", "REGION": "NV-White Pine", "ASSOCIATION": "USA - Nevada", "POINTS": "6", "BONUSPOINTS": "3"}}, {"type": "Feature", "geometry": {"type": "Point", "coordinates": [-115.3431, 38.9889]}, "properties": {"NAME": "W7N/WP-164", "TITLE": "8140", "REGION": "NV-White Pine", "ASSOCIATION": "USA - Nevada", "POINTS": "6", "BONUSPOINTS": "3"}}, {"type": "Feature", "geometry": {"type": "Point", "coordinates": [-115.0019, 39.2447]}, "properties": {"NAME": "W7N/WP-165", "TITLE": "Rib Hill", "REGION": "NV-White Pine", "ASSOCIATION": "USA - Nevada", "POINTS": "6", "BONUSPOINTS": "3"}}, {"type": "Feature", "geometry": {"type": "Point", "coordinates": [-115.2944, 40.0815]}, "properties": {"NAME": "W7N/WP-166", "TITLE": "Fort Benchmark", "REGION": "NV-White Pine", "ASSOCIATION": "USA - Nevada", "POINTS": "6", "BONUSPOINTS": "3"}}, {"type": "Feature", "geometry": {"type": "Point", "coordinates": [-114.9024, 39.2654]}, "properties": {"NAME": "W7N/WP-167", "TITLE": "Ely Benchmark", "REGION": "NV-White Pine", "ASSOCIATION": "USA - Nevada", "POINTS": "6", "BONUSPOINTS": "3"}}, {"type": "Feature", "geometry": {"type": "Point", "coordinates": [-115.3189, 39.0278]}, "properties": {"NAME": "W7N/WP-168", "TITLE": "7996", "REGION": "NV-White Pine", "ASSOCIATION": "USA - Nevada", "POINTS": "6", "BONUSPOINTS": "3"}}, {"type": "Feature", "geometry": {"type": "Point", "coordinates": [-114.9509, 39.239]}, "properties": {"NAME": "W7N/WP-169", "TITLE": "7994", "REGION": "NV-White Pine", "ASSOCIATION": "USA - Nevada", "POINTS": "6", "BONUSPOINTS": "3"}}, {"type": "Feature", "geometry": {"type": "Point", "coordinates": [-114.9311, 39.8983]}, "properties": {"NAME": "W7N/WP-170", "TITLE": "Cherry Benchmark", "REGION": "NV-White Pine", "ASSOCIATION": "USA - Nevada", "POINTS": "6", "BONUSPOINTS": "3"}}, {"type": "Feature", "geometry": {"type": "Point", "coordinates": [-115.4864, 39.4196]}, "properties": {"NAME": "W7N/WP-171", "TITLE": "Antelope Mountain South", "REGION": "NV-White Pine", "ASSOCIATION": "USA - Nevada", "POINTS": "6", "BONUSPOINTS": "3"}}, {"type": "Feature", "geometry": {"type": "Point", "coordinates": [-115.433, 39.3601]}, "properties": {"NAME": "W7N/WP-172", "TITLE": "7935", "REGION": "NV-White Pine", "ASSOCIATION": "USA - Nevada", "POINTS": "6", "BONUSPOINTS": "3"}}, {"type": "Feature", "geometry": {"type": "Point", "coordinates": [-115.5248, 39.089]}, "properties": {"NAME": "W7N/WP-173", "TITLE": "7904", "REGION": "NV-White Pine", "ASSOCIATION": "USA - Nevada", "POINTS": "6", "BONUSPOINTS": "3"}}, {"type": "Feature", "geometry": {"type": "Point", "coordinates": [-115.3879, 39.453]}, "properties": {"NAME": "W7N/WP-174", "TITLE": "7891", "REGION": "NV-White Pine", "ASSOCIATION": "USA - Nevada", "POINTS": "6", "BONUSPOINTS": "3"}}, {"type": "Feature", "geometry": {"type": "Point", "coordinates": [-115.504, 39.0218]}, "properties": {"NAME": "W7N/WP-175", "TITLE": "7881", "REGION": "NV-White Pine", "ASSOCIATION": "USA - Nevada", "POINTS": "6", "BONUSPOINTS": "3"}}, {"type": "Feature", "geometry": {"type": "Point", "coordinates": [-114.1531, 39.5227]}, "properties": {"NAME": "W7N/WP-176", "TITLE": "Government Peak", "REGION": "NV-White Pine", "ASSOCIATION": "USA - Nevada", "POINTS": "6", "BONUSPOINTS": "3"}}, {"type": "Feature", "geometry": {"type": "Point", "coordinates": [-115.5202, 39.132]}, "properties": {"NAME": "W7N/WP-177", "TITLE": "7860", "REGION": "NV-White Pine", "ASSOCIATION": "USA - Nevada", "POINTS": "6", "BONUSPOINTS": "3"}}, {"type": "Feature", "geometry": {"type": "Point", "coordinates": [-115.5825, 39.6531]}, "properties": {"NAME": "W7N/WP-178", "TITLE": "7854", "REGION": "NV-White Pine", "ASSOCIATION": "USA - Nevada", "POINTS": "6", "BONUSPOINTS": "3"}}, {"type": "Feature", "geometry": {"type": "Point", "coordinates": [-115.5702, 39.6726]}, "properties": {"NAME": "W7N/WP-179", "TITLE": "7841", "REGION": "NV-White Pine", "ASSOCIATION": "USA - Nevada", "POINTS": "6", "BONUSPOINTS": "3"}}, {"type": "Feature", "geometry": {"type": "Point", "coordinates": [-115.5513, 39.7932]}, "properties": {"NAME": "W7N/WP-180", "TITLE": "7829", "REGION": "NV-White Pine", "ASSOCIATION": "USA - Nevada", "POINTS": "6", "BONUSPOINTS": "3"}}, {"type": "Feature", "geometry": {"type": "Point", "coordinates": [-115.322, 38.8576]}, "properties": {"NAME": "W7N/WP-181", "TITLE": "7826", "REGION": "NV-White Pine", "ASSOCIATION": "USA - Nevada", "POINTS": "6", "BONUSPOINTS": "3"}}, {"type": "Feature", "geometry": {"type": "Point", "coordinates": [-115.1586, 39.3786]}, "properties": {"NAME": "W7N/WP-182", "TITLE": "7816", "REGION": "NV-White Pine", "ASSOCIATION": "USA - Nevada", "POINTS": "6", "BONUSPOINTS": "3"}}, {"type": "Feature", "geometry": {"type": "Point", "coordinates": [-114.4743, 40.029]}, "properties": {"NAME": "W7N/WP-183", "TITLE": "7782", "REGION": "NV-White Pine", "ASSOCIATION": "USA - Nevada", "POINTS": "6", "BONUSPOINTS": "3"}}, {"type": "Feature", "geometry": {"type": "Point", "coordinates": [-114.3552, 39.9578]}, "properties": {"NAME": "W7N/WP-184", "TITLE": "7781", "REGION": "NV-White Pine", "ASSOCIATION": "USA - Nevada", "POINTS": "6", "BONUSPOINTS": "3"}}, {"type": "Feature", "geometry": {"type": "Point", "coordinates": [-115.3403, 39.3715]}, "properties": {"NAME": "W7N/WP-185", "TITLE": "Illipah Benchmark", "REGION": "NV-White Pine", "ASSOCIATION": "USA - Nevada", "POINTS": "6", "BONUSPOINTS": "3"}}, {"type": "Feature", "geometry": {"type": "Point", "coordinates": [-115.1705, 40.045]}, "properties": {"NAME": "W7N/WP-186", "TITLE": "7755", "REGION": "NV-White Pine", "ASSOCIATION": "USA - Nevada", "POINTS": "6", "BONUSPOINTS": "3"}}, {"type": "Feature", "geometry": {"type": "Point", "coordinates": [-115.8627, 39.3938]}, "properties": {"NAME": "W7N/WP-187", "TITLE": "Century Peak", "REGION": "NV-White Pine", "ASSOCIATION": "USA - Nevada", "POINTS": "6", "BONUSPOINTS": "3"}}, {"type": "Feature", "geometry": {"type": "Point", "coordinates": [-114.1601, 39.4992]}, "properties": {"NAME": "W7N/WP-188", "TITLE": "7740", "REGION": "NV-White Pine", "ASSOCIATION": "USA - Nevada", "POINTS": "6", "BONUSPOINTS": "3"}}, {"type": "Feature", "geometry": {"type": "Point", "coordinates": [-115.3553, 39.4054]}, "properties": {"NAME": "W7N/WP-189", "TITLE": "7740", "REGION": "NV-White Pine", "ASSOCIATION": "USA - Nevada", "POINTS": "6", "BONUSPOINTS": "3"}}, {"type": "Feature", "geometry": {"type": "Point", "coordinates": [-115.489, 39.4487]}, "properties": {"NAME": "W7N/WP-190", "TITLE": "Antelope Mountain North", "REGION": "NV-White Pine", "ASSOCIATION": "USA - Nevada", "POINTS": "6", "BONUSPOINTS": "3"}}, {"type": "Feature", "geometry": {"type": "Point", "coordinates": [-114.1306, 39.7402]}, "properties": {"NAME": "W7N/WP-191", "TITLE": "7724", "REGION": "NV-White Pine", "ASSOCIATION": "USA - Nevada", "POINTS": "6", "BONUSPOINTS": "3"}}, {"type": "Feature", "geometry": {"type": "Point", "coordinates": [-115.2441, 39.4807]}, "properties": {"NAME": "W7N/WP-192", "TITLE": "7691", "REGION": "NV-White Pine", "ASSOCIATION": "USA - Nevada", "POINTS": "6", "BONUSPOINTS": "3"}}, {"type": "Feature", "geometry": {"type": "Point", "coordinates": [-115.6476, 39.1737]}, "properties": {"NAME": "W7N/WP-193", "TITLE": "7690", "REGION": "NV-White Pine", "ASSOCIATION": "USA - Nevada", "POINTS": "6", "BONUSPOINTS": "3"}}, {"type": "Feature", "geometry": {"type": "Point", "coordinates": [-115.6392, 39.2015]}, "properties": {"NAME": "W7N/WP-194", "TITLE": "7690", "REGION": "NV-White Pine", "ASSOCIATION": "USA - Nevada", "POINTS": "6", "BONUSPOINTS": "3"}}, {"type": "Feature", "geometry": {"type": "Point", "coordinates": [-115.6952, 39.3698]}, "properties": {"NAME": "W7N/WP-195", "TITLE": "Pantoo Benchmark", "REGION": "NV-White Pine", "ASSOCIATION": "USA - Nevada", "POINTS": "6", "BONUSPOINTS": "3"}}, {"type": "Feature", "geometry": {"type": "Point", "coordinates": [-115.4711, 39.8805]}, "properties": {"NAME": "W7N/WP-196", "TITLE": "7673", "REGION": "NV-White Pine", "ASSOCIATION": "USA - Nevada", "POINTS": "6", "BONUSPOINTS": "3"}}, {"type": "Feature", "geometry": {"type": "Point", "coordinates": [-115.312, 39.4605]}, "properties": {"NAME": "W7N/WP-197", "TITLE": "7660", "REGION": "NV-White Pine", "ASSOCIATION": "USA - Nevada", "POINTS": "6", "BONUSPOINTS": "3"}}, {"type": "Feature", "geometry": {"type": "Point", "coordinates": [-115.0867, 39.8566]}, "properties": {"NAME": "W7N/WP-198", "TITLE": "Black Mountain", "REGION": "NV-White Pine", "ASSOCIATION": "USA - Nevada", "POINTS": "6", "BONUSPOINTS": "3"}}, {"type": "Feature", "geometry": {"type": "Point", "coordinates": [-114.5139, 38.6839]}, "properties": {"NAME": "W7N/WP-199", "TITLE": "7610", "REGION": "NV-White Pine", "ASSOCIATION": "USA - Nevada", "POINTS": "6", "BONUSPOINTS": "3"}}, {"type": "Feature", "geometry": {"type": "Point", "coordinates": [-115.516, 39.5845]}, "properties": {"NAME": "W7N/WP-200", "TITLE": "Dry Mountain", "REGION": "NV-White Pine", "ASSOCIATION": "USA - Nevada", "POINTS": "6", "BONUSPOINTS": "3"}}, {"type": "Feature", "geometry": {"type": "Point", "coordinates": [-115.7471, 39.3411]}, "properties": {"NAME": "W7N/WP-201", "TITLE": "7570", "REGION": "NV-White Pine", "ASSOCIATION": "USA - Nevada", "POINTS": "6", "BONUSPOINTS": "3"}}, {"type": "Feature", "geometry": {"type": "Point", "coordinates": [-114.9909, 39.9537]}, "properties": {"NAME": "W7N/WP-202", "TITLE": "7529", "REGION": "NV-White Pine", "ASSOCIATION": "USA - Nevada", "POINTS": "6", "BONUSPOINTS": "3"}}, {"type": "Feature", "geometry": {"type": "Point", "coordinates": [-114.1491, 39.4581]}, "properties": {"NAME": "W7N/WP-203", "TITLE": "7525", "REGION": "NV-White Pine", "ASSOCIATION": "USA - Nevada", "POINTS": "6", "BONUSPOINTS": "3"}}, {"type": "Feature", "geometry": {"type": "Point", "coordinates": [-115.7682, 39.2404]}, "properties": {"NAME": "W7N/WP-204", "TITLE": "7510", "REGION": "NV-White Pine", "ASSOCIATION": "USA - Nevada", "POINTS": "6", "BONUSPOINTS": "3"}}, {"type": "Feature", "geometry": {"type": "Point", "coordinates": [-115.2941, 38.8868]}, "properties": {"NAME": "W7N/WP-205", "TITLE": "7510", "REGION": "NV-White Pine", "ASSOCIATION": "USA - Nevada", "POINTS": "6", "BONUSPOINTS": "3"}}, {"type": "Feature", "geometry": {"type": "Point", "coordinates": [-115.7992, 39.2562]}, "properties": {"NAME": "W7N/WP-206", "TITLE": "7490", "REGION": "NV-White Pine", "ASSOCIATION": "USA - Nevada", "POINTS": "4", "BONUSPOINTS": "3"}}, {"type": "Feature", "geometry": {"type": "Point", "coordinates": [-114.3504, 39.6468]}, "properties": {"NAME": "W7N/WP-207", "TITLE": "Red Hills", "REGION": "NV-White Pine", "ASSOCIATION": "USA - Nevada", "POINTS": "4", "BONUSPOINTS": "3"}}, {"type": "Feature", "geometry": {"type": "Point", "coordinates": [-114.0856, 39.5561]}, "properties": {"NAME": "W7N/WP-208", "TITLE": "Tin Springs Mountain", "REGION": "NV-White Pine", "ASSOCIATION": "USA - Nevada", "POINTS": "4", "BONUSPOINTS": "3"}}, {"type": "Feature", "geometry": {"type": "Point", "coordinates": [-115.6829, 39.4013]}, "properties": {"NAME": "W7N/WP-209", "TITLE": "7466", "REGION": "NV-White Pine", "ASSOCIATION": "USA - Nevada", "POINTS": "4", "BONUSPOINTS": "3"}}, {"type": "Feature", "geometry": {"type": "Point", "coordinates": [-115.163, 39.0568]}, "properties": {"NAME": "W7N/WP-210", "TITLE": "7284", "REGION": "NV-White Pine", "ASSOCIATION": "USA - Nevada", "POINTS": "4", "BONUSPOINTS": "3"}}, {"type": "Feature", "geometry": {"type": "Point", "coordinates": [-115.1568, 38.8079]}, "properties": {"NAME": "W7N/WP-211", "TITLE": "7258", "REGION": "NV-White Pine", "ASSOCIATION": "USA - Nevada", "POINTS": "4", "BONUSPOINTS": "3"}}, {"type": "Feature", "geometry": {"type": "Point", "coordinates": [-115.8094, 39.1651]}, "properties": {"NAME": "W7N/WP-212", "TITLE": "Rogues Benchmark", "REGION": "NV-White Pine", "ASSOCIATION": "USA - Nevada", "POINTS": "4", "BONUSPOINTS": "3"}}, {"type": "Feature", "geometry": {"type": "Point", "coordinates": [-115.7043, 39.4208]}, "properties": {"NAME": "W7N/WP-213", "TITLE": "7116", "REGION": "NV-White Pine", "ASSOCIATION": "USA - Nevada", "POINTS": "4", "BONUSPOINTS": "3"}}, {"type": "Feature", "geometry": {"type": "Point", "coordinates": [-115.6806, 39.1523]}, "properties": {"NAME": "W7N/WP-214", "TITLE": "7090", "REGION": "NV-White Pine", "ASSOCIATION": "USA - Nevada", "POINTS": "4", "BONUSPOINTS": "3"}}, {"type": "Feature", "geometry": {"type": "Point", "coordinates": [-114.2058, 40.0615]}, "properties": {"NAME": "W7N/WP-215", "TITLE": "7017", "REGION": "NV-White Pine", "ASSOCIATION": "USA - Nevada", "POINTS": "4", "BONUSPOINTS": "3"}}, {"type": "Feature", "geometry": {"type": "Point", "coordinates": [-114.982, 39.9874]}, "properties": {"NAME": "W7N/WP-216", "TITLE": "Red Butte", "REGION": "NV-White Pine", "ASSOCIATION": "USA - Nevada", "POINTS": "4", "BONUSPOINTS": "3"}}, {"type": "Feature", "geometry": {"type": "Point", "coordinates": [-115.7127, 39.0834]}, "properties": {"NAME": "W7N/WP-217", "TITLE": "Bully Benchmark", "REGION": "NV-White Pine", "ASSOCIATION": "USA - Nevada", "POINTS": "4", "BONUSPOINTS": "3"}}, {"type": "Feature", "geometry": {"type": "Point", "coordinates": [-114.3092, 38.9687]}, "properties": {"NAME": "W7N/WP-218", "TITLE": "12305", "REGION": "NV-White Pine", "ASSOCIATION": "USA - Nevada", "POINTS": "10", "BONUSPOINTS": "3"}}, {"type": "Feature", "geometry": {"type": "Point", "coordinates": [-115.4297, 38.9368]}, "properties": {"NAME": "W7N/WP-219", "TITLE": "Duckwater Peak", "REGION": "NV-White Pine", "ASSOCIATION": "USA - Nevada", "POINTS": "10", "BONUSPOINTS": "3"}}, {"type": "Feature", "geometry": {"type": "Point", "coordinates": [-114.6658, 38.9808]}, "properties": {"NAME": "W7N/WP-220", "TITLE": "9022", "REGION": "NV-White Pine", "ASSOCIATION": "USA - Nevada", "POINTS": "8", "BONUSPOINTS": "3"}}, {"type": "Feature", "geometry": {"type": "Point", "coordinates": [-114.6377, 39.506]}, "properties": {"NAME": "W7N/WP-221", "TITLE": "8910", "REGION": "NV-White Pine", "ASSOCIATION": "USA - Nevada", "POINTS": "8", "BONUSPOINTS": "3"}}, {"type": "Feature", "geometry": {"type": "Point", "coordinates": [-115.2742, 39.6717]}, "properties": {"NAME": "W7N/WP-222", "TITLE": "8750", "REGION": "NV-White Pine", "ASSOCIATION": "USA - Nevada", "POINTS": "8", "BONUSPOINTS": "3"}}, {"type": "Feature", "geometry": {"type": "Point", "coordinates": [-115.362, 38.9977]}, "properties": {"NAME": "W7N/WP-223", "TITLE": "8540", "REGION": "NV-White Pine", "ASSOCIATION": "USA - Nevada", "POINTS": "8", "BONUSPOINTS": "3"}}, {"type": "Feature", "geometry": {"type": "Point", "coordinates": [-114.9624, 39.9228]}, "properties": {"NAME": "W7N/WP-224", "TITLE": "7696", "REGION": "NV-White Pine", "ASSOCIATION": "USA - Nevada", "POINTS": "6", "BONUSPOINTS": "3"}}, {"type": "Feature", "geometry": {"type": "Point", "coordinates": [-114.1501, 39.4496]}, "properties": {"NAME": "W7N/WP-225", "TITLE": "7540", "REGION": "NV-White Pine", "ASSOCIATION": "USA - Nevada", "POINTS": "6", "BONUSPOINTS": "3"}}]}