{"type": "FeatureCollection", "name": "W7N/PC SUMMITS", "features": [{"type": "Feature", "geometry": {"type": "Point", "coordinates": [-117.759, 39.3653]}, "properties": {"NAME": "W7N/PC-001", "TITLE": "Desatoya Peak", "REGION": "NV-Pershing-Churchill", "ASSOCIATION": "USA - Nevada", "POINTS": "10", "BONUSPOINTS": "3"}}, {"type": "Feature", "geometry": {"type": "Point", "coordinates": [-117.9194, 39.5398]}, "properties": {"NAME": "W7N/PC-002", "TITLE": "Augusta, Mount", "REGION": "NV-Pershing-Churchill", "ASSOCIATION": "USA - Nevada", "POINTS": "10", "BONUSPOINTS": "3"}}, {"type": "Feature", "geometry": {"type": "Point", "coordinates": [-118.1707, 40.5225]}, "properties": {"NAME": "W7N/PC-003", "TITLE": "Star Peak", "REGION": "NV-Pershing-Churchill", "ASSOCIATION": "USA - Nevada", "POINTS": "10", "BONUSPOINTS": "3"}}, {"type": "Feature", "geometry": {"type": "Point", "coordinates": [-117.5261, 40.3765]}, "properties": {"NAME": "W7N/PC-004", "TITLE": "Tobin, Mount", "REGION": "NV-Pershing-Churchill", "ASSOCIATION": "USA - Nevada", "POINTS": "10", "BONUSPOINTS": "3"}}, {"type": "Feature", "geometry": {"type": "Point", "coordinates": [-118.1818, 40.4725]}, "properties": {"NAME": "W7N/PC-005", "TITLE": "9031", "REGION": "NV-Pershing-Churchill", "ASSOCIATION": "USA - Nevada", "POINTS": "8", "BONUSPOINTS": "3"}}, {"type": "Feature", "geometry": {"type": "Point", "coordinates": [-118.1885, 40.423]}, "properties": {"NAME": "W7N/PC-006", "TITLE": "9020", "REGION": "NV-Pershing-Churchill", "ASSOCIATION": "USA - Nevada", "POINTS": "8", "BONUSPOINTS": "3"}}, {"type": "Feature", "geometry": {"type": "Point", "coordinates": [-117.4837, 39.6474]}, "properties": {"NAME": "W7N/PC-007", "TITLE": "New Pass Peak", "REGION": "NV-Pershing-Churchill", "ASSOCIATION": "USA - Nevada", "POINTS": "8", "BONUSPOINTS": "3"}}, {"type": "Feature", "geometry": {"type": "Point", "coordinates": [-118.1837, 40.3821]}, "properties": {"NAME": "W7N/PC-008", "TITLE": "8980", "REGION": "NV-Pershing-Churchill", "ASSOCIATION": "USA - Nevada", "POINTS": "8", "BONUSPOINTS": "3"}}, {"type": "Feature", "geometry": {"type": "Point", "coordinates": [-117.7565, 39.281]}, "properties": {"NAME": "W7N/PC-009", "TITLE": "Bald Mountain", "REGION": "NV-Pershing-Churchill", "ASSOCIATION": "USA - Nevada", "POINTS": "8", "BONUSPOINTS": "3"}}, {"type": "Feature", "geometry": {"type": "Point", "coordinates": [-117.7738, 39.4067]}, "properties": {"NAME": "W7N/PC-010", "TITLE": "8956", "REGION": "NV-Pershing-Churchill", "ASSOCIATION": "USA - Nevada", "POINTS": "8", "BONUSPOINTS": "3"}}, {"type": "Feature", "geometry": {"type": "Point", "coordinates": [-118.1895, 40.5031]}, "properties": {"NAME": "W7N/PC-011", "TITLE": "8940", "REGION": "NV-Pershing-Churchill", "ASSOCIATION": "USA - Nevada", "POINTS": "8", "BONUSPOINTS": "3"}}, {"type": "Feature", "geometry": {"type": "Point", "coordinates": [-117.4971, 40.4645]}, "properties": {"NAME": "W7N/PC-012", "TITLE": "8870", "REGION": "NV-Pershing-Churchill", "ASSOCIATION": "USA - Nevada", "POINTS": "8", "BONUSPOINTS": "3"}}, {"type": "Feature", "geometry": {"type": "Point", "coordinates": [-117.8068, 39.6852]}, "properties": {"NAME": "W7N/PC-013", "TITLE": "Healy Peak", "REGION": "NV-Pershing-Churchill", "ASSOCIATION": "USA - Nevada", "POINTS": "8", "BONUSPOINTS": "3"}}, {"type": "Feature", "geometry": {"type": "Point", "coordinates": [-117.4636, 40.565]}, "properties": {"NAME": "W7N/PC-014", "TITLE": "China Mountain", "REGION": "NV-Pershing-Churchill", "ASSOCIATION": "USA - Nevada", "POINTS": "8", "BONUSPOINTS": "3"}}, {"type": "Feature", "geometry": {"type": "Point", "coordinates": [-117.8615, 39.6161]}, "properties": {"NAME": "W7N/PC-015", "TITLE": "Shaley Peak", "REGION": "NV-Pershing-Churchill", "ASSOCIATION": "USA - Nevada", "POINTS": "8", "BONUSPOINTS": "3"}}, {"type": "Feature", "geometry": {"type": "Point", "coordinates": [-117.6652, 39.4512]}, "properties": {"NAME": "W7N/PC-016", "TITLE": "8808", "REGION": "NV-Pershing-Churchill", "ASSOCIATION": "USA - Nevada", "POINTS": "8", "BONUSPOINTS": "3"}}, {"type": "Feature", "geometry": {"type": "Point", "coordinates": [-117.4437, 40.5767]}, "properties": {"NAME": "W7N/PC-017", "TITLE": "8802", "REGION": "NV-Pershing-Churchill", "ASSOCIATION": "USA - Nevada", "POINTS": "8", "BONUSPOINTS": "3"}}, {"type": "Feature", "geometry": {"type": "Point", "coordinates": [-118.2354, 39.5832]}, "properties": {"NAME": "W7N/PC-018", "TITLE": "Job Peak", "REGION": "NV-Pershing-Churchill", "ASSOCIATION": "USA - Nevada", "POINTS": "8", "BONUSPOINTS": "3"}}, {"type": "Feature", "geometry": {"type": "Point", "coordinates": [-117.8938, 39.579]}, "properties": {"NAME": "W7N/PC-019", "TITLE": "Railroad Ridge", "REGION": "NV-Pershing-Churchill", "ASSOCIATION": "USA - Nevada", "POINTS": "8", "BONUSPOINTS": "3"}}, {"type": "Feature", "geometry": {"type": "Point", "coordinates": [-117.6588, 39.4252]}, "properties": {"NAME": "W7N/PC-020", "TITLE": "8667", "REGION": "NV-Pershing-Churchill", "ASSOCIATION": "USA - Nevada", "POINTS": "8", "BONUSPOINTS": "3"}}, {"type": "Feature", "geometry": {"type": "Point", "coordinates": [-117.8283, 39.6073]}, "properties": {"NAME": "W7N/PC-021", "TITLE": "8647", "REGION": "NV-Pershing-Churchill", "ASSOCIATION": "USA - Nevada", "POINTS": "8", "BONUSPOINTS": "3"}}, {"type": "Feature", "geometry": {"type": "Point", "coordinates": [-117.8403, 39.5978]}, "properties": {"NAME": "W7N/PC-022", "TITLE": "8622", "REGION": "NV-Pershing-Churchill", "ASSOCIATION": "USA - Nevada", "POINTS": "8", "BONUSPOINTS": "3"}}, {"type": "Feature", "geometry": {"type": "Point", "coordinates": [-118.2632, 39.5494]}, "properties": {"NAME": "W7N/PC-023", "TITLE": "Lincoln, Mount", "REGION": "NV-Pershing-Churchill", "ASSOCIATION": "USA - Nevada", "POINTS": "8", "BONUSPOINTS": "3"}}, {"type": "Feature", "geometry": {"type": "Point", "coordinates": [-117.5889, 39.5023]}, "properties": {"NAME": "W7N/PC-024", "TITLE": "8536", "REGION": "NV-Pershing-Churchill", "ASSOCIATION": "USA - Nevada", "POINTS": "8", "BONUSPOINTS": "3"}}, {"type": "Feature", "geometry": {"type": "Point", "coordinates": [-117.7206, 39.2298]}, "properties": {"NAME": "W7N/PC-025", "TITLE": "8500", "REGION": "NV-Pershing-Churchill", "ASSOCIATION": "USA - Nevada", "POINTS": "8", "BONUSPOINTS": "3"}}, {"type": "Feature", "geometry": {"type": "Point", "coordinates": [-117.9427, 39.5961]}, "properties": {"NAME": "W7N/PC-026", "TITLE": "8469", "REGION": "NV-Pershing-Churchill", "ASSOCIATION": "USA - Nevada", "POINTS": "6", "BONUSPOINTS": "3"}}, {"type": "Feature", "geometry": {"type": "Point", "coordinates": [-117.8171, 40.2803]}, "properties": {"NAME": "W7N/PC-027", "TITLE": "Granite Mountain", "REGION": "NV-Pershing-Churchill", "ASSOCIATION": "USA - Nevada", "POINTS": "6", "BONUSPOINTS": "3"}}, {"type": "Feature", "geometry": {"type": "Point", "coordinates": [-117.5434, 40.024]}, "properties": {"NAME": "W7N/PC-028", "TITLE": "Cain Mountain", "REGION": "NV-Pershing-Churchill", "ASSOCIATION": "USA - Nevada", "POINTS": "6", "BONUSPOINTS": "3"}}, {"type": "Feature", "geometry": {"type": "Point", "coordinates": [-117.7766, 39.6618]}, "properties": {"NAME": "W7N/PC-029", "TITLE": "8365", "REGION": "NV-Pershing-Churchill", "ASSOCIATION": "USA - Nevada", "POINTS": "6", "BONUSPOINTS": "3"}}, {"type": "Feature", "geometry": {"type": "Point", "coordinates": [-117.7661, 39.699]}, "properties": {"NAME": "W7N/PC-030", "TITLE": "8340", "REGION": "NV-Pershing-Churchill", "ASSOCIATION": "USA - Nevada", "POINTS": "6", "BONUSPOINTS": "3"}}, {"type": "Feature", "geometry": {"type": "Point", "coordinates": [-118.2988, 39.5413]}, "properties": {"NAME": "W7N/PC-031", "TITLE": "Table Mountain", "REGION": "NV-Pershing-Churchill", "ASSOCIATION": "USA - Nevada", "POINTS": "6", "BONUSPOINTS": "3"}}, {"type": "Feature", "geometry": {"type": "Point", "coordinates": [-118.1524, 39.225]}, "properties": {"NAME": "W7N/PC-032", "TITLE": "Fairview Peak", "REGION": "NV-Pershing-Churchill", "ASSOCIATION": "USA - Nevada", "POINTS": "6", "BONUSPOINTS": "3"}}, {"type": "Feature", "geometry": {"type": "Point", "coordinates": [-117.9153, 40.535]}, "properties": {"NAME": "W7N/PC-033", "TITLE": "Tholen Benchmark", "REGION": "NV-Pershing-Churchill", "ASSOCIATION": "USA - Nevada", "POINTS": "6", "BONUSPOINTS": "3"}}, {"type": "Feature", "geometry": {"type": "Point", "coordinates": [-119.2631, 40.4061]}, "properties": {"NAME": "W7N/PC-034", "TITLE": "Kumiva Peak", "REGION": "NV-Pershing-Churchill", "ASSOCIATION": "USA - Nevada", "POINTS": "6", "BONUSPOINTS": "3"}}, {"type": "Feature", "geometry": {"type": "Point", "coordinates": [-118.1293, 40.2227]}, "properties": {"NAME": "W7N/PC-035", "TITLE": "Buffalo Mountain", "REGION": "NV-Pershing-Churchill", "ASSOCIATION": "USA - Nevada", "POINTS": "6", "BONUSPOINTS": "3"}}, {"type": "Feature", "geometry": {"type": "Point", "coordinates": [-118.2827, 39.5484]}, "properties": {"NAME": "W7N/PC-036", "TITLE": "Shaly Peak", "REGION": "NV-Pershing-Churchill", "ASSOCIATION": "USA - Nevada", "POINTS": "6", "BONUSPOINTS": "3"}}, {"type": "Feature", "geometry": {"type": "Point", "coordinates": [-117.4629, 40.5257]}, "properties": {"NAME": "W7N/PC-037", "TITLE": "8113", "REGION": "NV-Pershing-Churchill", "ASSOCIATION": "USA - Nevada", "POINTS": "6", "BONUSPOINTS": "3"}}, {"type": "Feature", "geometry": {"type": "Point", "coordinates": [-117.7665, 40.3378]}, "properties": {"NAME": "W7N/PC-038", "TITLE": "7987", "REGION": "NV-Pershing-Churchill", "ASSOCIATION": "USA - Nevada", "POINTS": "6", "BONUSPOINTS": "3"}}, {"type": "Feature", "geometry": {"type": "Point", "coordinates": [-117.7369, 39.4329]}, "properties": {"NAME": "W7N/PC-039", "TITLE": "7972", "REGION": "NV-Pershing-Churchill", "ASSOCIATION": "USA - Nevada", "POINTS": "6", "BONUSPOINTS": "3"}}, {"type": "Feature", "geometry": {"type": "Point", "coordinates": [-117.7264, 39.7186]}, "properties": {"NAME": "W7N/PC-040", "TITLE": "7955", "REGION": "NV-Pershing-Churchill", "ASSOCIATION": "USA - Nevada", "POINTS": "6", "BONUSPOINTS": "3"}}, {"type": "Feature", "geometry": {"type": "Point", "coordinates": [-118.0324, 39.9741]}, "properties": {"NAME": "W7N/PC-041", "TITLE": "Cotton Benchmark", "REGION": "NV-Pershing-Churchill", "ASSOCIATION": "USA - Nevada", "POINTS": "6", "BONUSPOINTS": "3"}}, {"type": "Feature", "geometry": {"type": "Point", "coordinates": [-118.8219, 40.5178]}, "properties": {"NAME": "W7N/PC-042", "TITLE": "Seven Troughs Range HP", "REGION": "NV-Pershing-Churchill", "ASSOCIATION": "USA - Nevada", "POINTS": "6", "BONUSPOINTS": "3"}}, {"type": "Feature", "geometry": {"type": "Point", "coordinates": [-118.0035, 39.9895]}, "properties": {"NAME": "W7N/PC-043", "TITLE": "7780", "REGION": "NV-Pershing-Churchill", "ASSOCIATION": "USA - Nevada", "POINTS": "6", "BONUSPOINTS": "3"}}, {"type": "Feature", "geometry": {"type": "Point", "coordinates": [-118.7873, 40.546]}, "properties": {"NAME": "W7N/PC-044", "TITLE": "7772", "REGION": "NV-Pershing-Churchill", "ASSOCIATION": "USA - Nevada", "POINTS": "6", "BONUSPOINTS": "3"}}, {"type": "Feature", "geometry": {"type": "Point", "coordinates": [-118.1236, 39.8598]}, "properties": {"NAME": "W7N/PC-045", "TITLE": "7766", "REGION": "NV-Pershing-Churchill", "ASSOCIATION": "USA - Nevada", "POINTS": "6", "BONUSPOINTS": "3"}}, {"type": "Feature", "geometry": {"type": "Point", "coordinates": [-117.7895, 40.4219]}, "properties": {"NAME": "W7N/PC-046", "TITLE": "7739", "REGION": "NV-Pershing-Churchill", "ASSOCIATION": "USA - Nevada", "POINTS": "6", "BONUSPOINTS": "3"}}, {"type": "Feature", "geometry": {"type": "Point", "coordinates": [-117.7049, 39.7208]}, "properties": {"NAME": "W7N/PC-047", "TITLE": "7697", "REGION": "NV-Pershing-Churchill", "ASSOCIATION": "USA - Nevada", "POINTS": "6", "BONUSPOINTS": "3"}}, {"type": "Feature", "geometry": {"type": "Point", "coordinates": [-118.068, 39.8897]}, "properties": {"NAME": "W7N/PC-048", "TITLE": "7665", "REGION": "NV-Pershing-Churchill", "ASSOCIATION": "USA - Nevada", "POINTS": "6", "BONUSPOINTS": "3"}}, {"type": "Feature", "geometry": {"type": "Point", "coordinates": [-117.5067, 40.3153]}, "properties": {"NAME": "W7N/PC-049", "TITLE": "Needle Peak", "REGION": "NV-Pershing-Churchill", "ASSOCIATION": "USA - Nevada", "POINTS": "6", "BONUSPOINTS": "3"}}, {"type": "Feature", "geometry": {"type": "Point", "coordinates": [-117.8391, 40.0491]}, "properties": {"NAME": "W7N/PC-050", "TITLE": "7651", "REGION": "NV-Pershing-Churchill", "ASSOCIATION": "USA - Nevada", "POINTS": "6", "BONUSPOINTS": "3"}}, {"type": "Feature", "geometry": {"type": "Point", "coordinates": [-117.8068, 39.146]}, "properties": {"NAME": "W7N/PC-051", "TITLE": "Buffalo Mountain", "REGION": "NV-Pershing-Churchill", "ASSOCIATION": "USA - Nevada", "POINTS": "6", "BONUSPOINTS": "3"}}, {"type": "Feature", "geometry": {"type": "Point", "coordinates": [-118.1853, 40.8361]}, "properties": {"NAME": "W7N/PC-052", "TITLE": "Eugene Mountains HP", "REGION": "NV-Pershing-Churchill", "ASSOCIATION": "USA - Nevada", "POINTS": "6", "BONUSPOINTS": "3"}}, {"type": "Feature", "geometry": {"type": "Point", "coordinates": [-118.2105, 39.758]}, "properties": {"NAME": "W7N/PC-053", "TITLE": "Hot Benchmark", "REGION": "NV-Pershing-Churchill", "ASSOCIATION": "USA - Nevada", "POINTS": "6", "BONUSPOINTS": "3"}}, {"type": "Feature", "geometry": {"type": "Point", "coordinates": [-117.7205, 39.6863]}, "properties": {"NAME": "W7N/PC-054", "TITLE": "Tungsten Mountain", "REGION": "NV-Pershing-Churchill", "ASSOCIATION": "USA - Nevada", "POINTS": "6", "BONUSPOINTS": "3"}}, {"type": "Feature", "geometry": {"type": "Point", "coordinates": [-118.1562, 39.8412]}, "properties": {"NAME": "W7N/PC-055", "TITLE": "Cloud Benchmark", "REGION": "NV-Pershing-Churchill", "ASSOCIATION": "USA - Nevada", "POINTS": "6", "BONUSPOINTS": "3"}}, {"type": "Feature", "geometry": {"type": "Point", "coordinates": [-117.8888, 39.1974]}, "properties": {"NAME": "W7N/PC-056", "TITLE": "Grayback", "REGION": "NV-Pershing-Churchill", "ASSOCIATION": "USA - Nevada", "POINTS": "6", "BONUSPOINTS": "3"}}, {"type": "Feature", "geometry": {"type": "Point", "coordinates": [-118.0044, 40.0168]}, "properties": {"NAME": "W7N/PC-057", "TITLE": "Cornish Peak", "REGION": "NV-Pershing-Churchill", "ASSOCIATION": "USA - Nevada", "POINTS": "4", "BONUSPOINTS": "3"}}, {"type": "Feature", "geometry": {"type": "Point", "coordinates": [-119.0742, 40.2345]}, "properties": {"NAME": "W7N/PC-058", "TITLE": "Juniper Mountain", "REGION": "NV-Pershing-Churchill", "ASSOCIATION": "USA - Nevada", "POINTS": "4", "BONUSPOINTS": "3"}}, {"type": "Feature", "geometry": {"type": "Point", "coordinates": [-118.8192, 40.4689]}, "properties": {"NAME": "W7N/PC-059", "TITLE": "Seven Troughs Mountain", "REGION": "NV-Pershing-Churchill", "ASSOCIATION": "USA - Nevada", "POINTS": "4", "BONUSPOINTS": "3"}}, {"type": "Feature", "geometry": {"type": "Point", "coordinates": [-118.3496, 39.1055]}, "properties": {"NAME": "W7N/PC-060", "TITLE": "Sand Springs Range Cairn", "REGION": "NV-Pershing-Churchill", "ASSOCIATION": "USA - Nevada", "POINTS": "4", "BONUSPOINTS": "3"}}, {"type": "Feature", "geometry": {"type": "Point", "coordinates": [-117.8619, 40.5968]}, "properties": {"NAME": "W7N/PC-061", "TITLE": "7460", "REGION": "NV-Pershing-Churchill", "ASSOCIATION": "USA - Nevada", "POINTS": "4", "BONUSPOINTS": "3"}}, {"type": "Feature", "geometry": {"type": "Point", "coordinates": [-118.1781, 39.8182]}, "properties": {"NAME": "W7N/PC-062", "TITLE": "7444", "REGION": "NV-Pershing-Churchill", "ASSOCIATION": "USA - Nevada", "POINTS": "4", "BONUSPOINTS": "3"}}, {"type": "Feature", "geometry": {"type": "Point", "coordinates": [-117.8923, 40.8008]}, "properties": {"NAME": "W7N/PC-063", "TITLE": "Dun Glen Peak", "REGION": "NV-Pershing-Churchill", "ASSOCIATION": "USA - Nevada", "POINTS": "4", "BONUSPOINTS": "3"}}, {"type": "Feature", "geometry": {"type": "Point", "coordinates": [-117.5873, 40.2687]}, "properties": {"NAME": "W7N/PC-064", "TITLE": "7420", "REGION": "NV-Pershing-Churchill", "ASSOCIATION": "USA - Nevada", "POINTS": "4", "BONUSPOINTS": "3"}}, {"type": "Feature", "geometry": {"type": "Point", "coordinates": [-119.2835, 40.4894]}, "properties": {"NAME": "W7N/PC-065", "TITLE": "Luxor Peak", "REGION": "NV-Pershing-Churchill", "ASSOCIATION": "USA - Nevada", "POINTS": "4", "BONUSPOINTS": "3"}}, {"type": "Feature", "geometry": {"type": "Point", "coordinates": [-119.2831, 40.3477]}, "properties": {"NAME": "W7N/PC-066", "TITLE": "Purgatory Peak", "REGION": "NV-Pershing-Churchill", "ASSOCIATION": "USA - Nevada", "POINTS": "4", "BONUSPOINTS": "3"}}, {"type": "Feature", "geometry": {"type": "Point", "coordinates": [-118.5163, 40.645]}, "properties": {"NAME": "W7N/PC-067", "TITLE": "Majuba Mountains HP", "REGION": "NV-Pershing-Churchill", "ASSOCIATION": "USA - Nevada", "POINTS": "4", "BONUSPOINTS": "3"}}, {"type": "Feature", "geometry": {"type": "Point", "coordinates": [-117.8811, 40.7436]}, "properties": {"NAME": "W7N/PC-068", "TITLE": "Auld Lang Syne Peak", "REGION": "NV-Pershing-Churchill", "ASSOCIATION": "USA - Nevada", "POINTS": "4", "BONUSPOINTS": "3"}}, {"type": "Feature", "geometry": {"type": "Point", "coordinates": [-117.7549, 40.5029]}, "properties": {"NAME": "W7N/PC-069", "TITLE": "Table Mountain", "REGION": "NV-Pershing-Churchill", "ASSOCIATION": "USA - Nevada", "POINTS": "4", "BONUSPOINTS": "3"}}, {"type": "Feature", "geometry": {"type": "Point", "coordinates": [-118.1684, 39.1725]}, "properties": {"NAME": "W7N/PC-070", "TITLE": "7387", "REGION": "NV-Pershing-Churchill", "ASSOCIATION": "USA - Nevada", "POINTS": "4", "BONUSPOINTS": "3"}}, {"type": "Feature", "geometry": {"type": "Point", "coordinates": [-118.2422, 39.7069]}, "properties": {"NAME": "W7N/PC-071", "TITLE": "Silver Hill", "REGION": "NV-Pershing-Churchill", "ASSOCIATION": "USA - Nevada", "POINTS": "4", "BONUSPOINTS": "3"}}, {"type": "Feature", "geometry": {"type": "Point", "coordinates": [-118.7455, 40.2324]}, "properties": {"NAME": "W7N/PC-072", "TITLE": "Trinity Peak", "REGION": "NV-Pershing-Churchill", "ASSOCIATION": "USA - Nevada", "POINTS": "4", "BONUSPOINTS": "3"}}, {"type": "Feature", "geometry": {"type": "Point", "coordinates": [-117.8988, 39.2172]}, "properties": {"NAME": "W7N/PC-073", "TITLE": "7310", "REGION": "NV-Pershing-Churchill", "ASSOCIATION": "USA - Nevada", "POINTS": "4", "BONUSPOINTS": "3"}}, {"type": "Feature", "geometry": {"type": "Point", "coordinates": [-117.8501, 40.6517]}, "properties": {"NAME": "W7N/PC-074", "TITLE": "Organ Peak", "REGION": "NV-Pershing-Churchill", "ASSOCIATION": "USA - Nevada", "POINTS": "4", "BONUSPOINTS": "3"}}, {"type": "Feature", "geometry": {"type": "Point", "coordinates": [-118.1539, 40.2839]}, "properties": {"NAME": "W7N/PC-075", "TITLE": "Nenzel Hill", "REGION": "NV-Pershing-Churchill", "ASSOCIATION": "USA - Nevada", "POINTS": "4", "BONUSPOINTS": "3"}}, {"type": "Feature", "geometry": {"type": "Point", "coordinates": [-117.832, 40.1242]}, "properties": {"NAME": "W7N/PC-076", "TITLE": "Fencemaker", "REGION": "NV-Pershing-Churchill", "ASSOCIATION": "USA - Nevada", "POINTS": "4", "BONUSPOINTS": "3"}}, {"type": "Feature", "geometry": {"type": "Point", "coordinates": [-117.8419, 40.5678]}, "properties": {"NAME": "W7N/PC-077", "TITLE": "Lee Peak", "REGION": "NV-Pershing-Churchill", "ASSOCIATION": "USA - Nevada", "POINTS": "4", "BONUSPOINTS": "3"}}, {"type": "Feature", "geometry": {"type": "Point", "coordinates": [-117.4808, 39.722]}, "properties": {"NAME": "W7N/PC-078", "TITLE": "7211", "REGION": "NV-Pershing-Churchill", "ASSOCIATION": "USA - Nevada", "POINTS": "4", "BONUSPOINTS": "3"}}, {"type": "Feature", "geometry": {"type": "Point", "coordinates": [-119.1834, 39.7955]}, "properties": {"NAME": "W7N/PC-079", "TITLE": "Juniper Peak", "REGION": "NV-Pershing-Churchill", "ASSOCIATION": "USA - Nevada", "POINTS": "4", "BONUSPOINTS": "3"}}, {"type": "Feature", "geometry": {"type": "Point", "coordinates": [-118.0855, 39.1635]}, "properties": {"NAME": "W7N/PC-080", "TITLE": "Bell Mountain", "REGION": "NV-Pershing-Churchill", "ASSOCIATION": "USA - Nevada", "POINTS": "4", "BONUSPOINTS": "3"}}, {"type": "Feature", "geometry": {"type": "Point", "coordinates": [-118.206, 39.109]}, "properties": {"NAME": "W7N/PC-081", "TITLE": "Slate Mountain", "REGION": "NV-Pershing-Churchill", "ASSOCIATION": "USA - Nevada", "POINTS": "4", "BONUSPOINTS": "3"}}, {"type": "Feature", "geometry": {"type": "Point", "coordinates": [-118.0571, 39.4094]}, "properties": {"NAME": "W7N/PC-082", "TITLE": "Twin Peaks West", "REGION": "NV-Pershing-Churchill", "ASSOCIATION": "USA - Nevada", "POINTS": "4", "BONUSPOINTS": "3"}}, {"type": "Feature", "geometry": {"type": "Point", "coordinates": [-119.2662, 40.6059]}, "properties": {"NAME": "W7N/PC-083", "TITLE": "Selenite Peak", "REGION": "NV-Pershing-Churchill", "ASSOCIATION": "USA - Nevada", "POINTS": "4", "BONUSPOINTS": "3"}}, {"type": "Feature", "geometry": {"type": "Point", "coordinates": [-118.0291, 39.4126]}, "properties": {"NAME": "W7N/PC-084", "TITLE": "7101", "REGION": "NV-Pershing-Churchill", "ASSOCIATION": "USA - Nevada", "POINTS": "4", "BONUSPOINTS": "3"}}, {"type": "Feature", "geometry": {"type": "Point", "coordinates": [-117.5735, 39.7936]}, "properties": {"NAME": "W7N/PC-085", "TITLE": "McCoy Benchmark", "REGION": "NV-Pershing-Churchill", "ASSOCIATION": "USA - Nevada", "POINTS": "4", "BONUSPOINTS": "3"}}, {"type": "Feature", "geometry": {"type": "Point", "coordinates": [-119.1661, 39.7167]}, "properties": {"NAME": "W7N/PC-086", "TITLE": "Two Tips East", "REGION": "NV-Pershing-Churchill", "ASSOCIATION": "USA - Nevada", "POINTS": "4", "BONUSPOINTS": "3"}}, {"type": "Feature", "geometry": {"type": "Point", "coordinates": [-117.9239, 40.6112]}, "properties": {"NAME": "W7N/PC-087", "TITLE": "7081", "REGION": "NV-Pershing-Churchill", "ASSOCIATION": "USA - Nevada", "POINTS": "4", "BONUSPOINTS": "3"}}, {"type": "Feature", "geometry": {"type": "Point", "coordinates": [-118.5476, 40.3764]}, "properties": {"NAME": "W7N/PC-088", "TITLE": "7047", "REGION": "NV-Pershing-Churchill", "ASSOCIATION": "USA - Nevada", "POINTS": "4", "BONUSPOINTS": "3"}}, {"type": "Feature", "geometry": {"type": "Point", "coordinates": [-118.9789, 40.5358]}, "properties": {"NAME": "W7N/PC-089", "TITLE": "Hannan Range HP", "REGION": "NV-Pershing-Churchill", "ASSOCIATION": "USA - Nevada", "POINTS": "4", "BONUSPOINTS": "3"}}, {"type": "Feature", "geometry": {"type": "Point", "coordinates": [-118.7428, 40.1069]}, "properties": {"NAME": "W7N/PC-090", "TITLE": "Toulon Peak", "REGION": "NV-Pershing-Churchill", "ASSOCIATION": "USA - Nevada", "POINTS": "4", "BONUSPOINTS": "3"}}, {"type": "Feature", "geometry": {"type": "Point", "coordinates": [-118.1962, 40.3275]}, "properties": {"NAME": "W7N/PC-091", "TITLE": "Lone Mountain", "REGION": "NV-Pershing-Churchill", "ASSOCIATION": "USA - Nevada", "POINTS": "4", "BONUSPOINTS": "3"}}, {"type": "Feature", "geometry": {"type": "Point", "coordinates": [-119.2838, 40.4493]}, "properties": {"NAME": "W7N/PC-092", "TITLE": "6975", "REGION": "NV-Pershing-Churchill", "ASSOCIATION": "USA - Nevada", "POINTS": "4", "BONUSPOINTS": "3"}}, {"type": "Feature", "geometry": {"type": "Point", "coordinates": [-119.1685, 39.8115]}, "properties": {"NAME": "W7N/PC-093", "TITLE": "6949", "REGION": "NV-Pershing-Churchill", "ASSOCIATION": "USA - Nevada", "POINTS": "4", "BONUSPOINTS": "3"}}, {"type": "Feature", "geometry": {"type": "Point", "coordinates": [-119.2463, 40.0448]}, "properties": {"NAME": "W7N/PC-094", "TITLE": "Nightingale Mountains HP", "REGION": "NV-Pershing-Churchill", "ASSOCIATION": "USA - Nevada", "POINTS": "4", "BONUSPOINTS": "3"}}, {"type": "Feature", "geometry": {"type": "Point", "coordinates": [-117.8183, 40.1752]}, "properties": {"NAME": "W7N/PC-095", "TITLE": "6940", "REGION": "NV-Pershing-Churchill", "ASSOCIATION": "USA - Nevada", "POINTS": "4", "BONUSPOINTS": "3"}}, {"type": "Feature", "geometry": {"type": "Point", "coordinates": [-117.6055, 40.6682]}, "properties": {"NAME": "W7N/PC-096", "TITLE": "6940", "REGION": "NV-Pershing-Churchill", "ASSOCIATION": "USA - Nevada", "POINTS": "4", "BONUSPOINTS": "3"}}, {"type": "Feature", "geometry": {"type": "Point", "coordinates": [-117.6202, 40.2554]}, "properties": {"NAME": "W7N/PC-097", "TITLE": "Miller Benchmark", "REGION": "NV-Pershing-Churchill", "ASSOCIATION": "USA - Nevada", "POINTS": "4", "BONUSPOINTS": "3"}}, {"type": "Feature", "geometry": {"type": "Point", "coordinates": [-117.9593, 39.3846]}, "properties": {"NAME": "W7N/PC-098", "TITLE": "6895", "REGION": "NV-Pershing-Churchill", "ASSOCIATION": "USA - Nevada", "POINTS": "4", "BONUSPOINTS": "3"}}, {"type": "Feature", "geometry": {"type": "Point", "coordinates": [-118.1089, 39.1869]}, "properties": {"NAME": "W7N/PC-099", "TITLE": "6894", "REGION": "NV-Pershing-Churchill", "ASSOCIATION": "USA - Nevada", "POINTS": "4", "BONUSPOINTS": "3"}}, {"type": "Feature", "geometry": {"type": "Point", "coordinates": [-118.4698, 40.674]}, "properties": {"NAME": "W7N/PC-100", "TITLE": "Majuba Mountain", "REGION": "NV-Pershing-Churchill", "ASSOCIATION": "USA - Nevada", "POINTS": "4", "BONUSPOINTS": "3"}}, {"type": "Feature", "geometry": {"type": "Point", "coordinates": [-119.212, 40.1698]}, "properties": {"NAME": "W7N/PC-101", "TITLE": "Horse Benchmark", "REGION": "NV-Pershing-Churchill", "ASSOCIATION": "USA - Nevada", "POINTS": "4", "BONUSPOINTS": "3"}}, {"type": "Feature", "geometry": {"type": "Point", "coordinates": [-118.1886, 40.2983]}, "properties": {"NAME": "W7N/PC-102", "TITLE": "Golden Gate Hill", "REGION": "NV-Pershing-Churchill", "ASSOCIATION": "USA - Nevada", "POINTS": "4", "BONUSPOINTS": "3"}}, {"type": "Feature", "geometry": {"type": "Point", "coordinates": [-118.7457, 40.1335]}, "properties": {"NAME": "W7N/PC-103", "TITLE": "6761", "REGION": "NV-Pershing-Churchill", "ASSOCIATION": "USA - Nevada", "POINTS": "4", "BONUSPOINTS": "3"}}, {"type": "Feature", "geometry": {"type": "Point", "coordinates": [-118.5678, 40.7175]}, "properties": {"NAME": "W7N/PC-104", "TITLE": "6735", "REGION": "NV-Pershing-Churchill", "ASSOCIATION": "USA - Nevada", "POINTS": "4", "BONUSPOINTS": "3"}}, {"type": "Feature", "geometry": {"type": "Point", "coordinates": [-119.2333, 40.0826]}, "properties": {"NAME": "W7N/PC-105", "TITLE": "6729", "REGION": "NV-Pershing-Churchill", "ASSOCIATION": "USA - Nevada", "POINTS": "4", "BONUSPOINTS": "3"}}, {"type": "Feature", "geometry": {"type": "Point", "coordinates": [-117.874, 39.2842]}, "properties": {"NAME": "W7N/PC-106", "TITLE": "6690", "REGION": "NV-Pershing-Churchill", "ASSOCIATION": "USA - Nevada", "POINTS": "4", "BONUSPOINTS": "3"}}, {"type": "Feature", "geometry": {"type": "Point", "coordinates": [-117.837, 39.3298]}, "properties": {"NAME": "W7N/PC-107", "TITLE": "6683", "REGION": "NV-Pershing-Churchill", "ASSOCIATION": "USA - Nevada", "POINTS": "4", "BONUSPOINTS": "3"}}, {"type": "Feature", "geometry": {"type": "Point", "coordinates": [-118.78, 40.5994]}, "properties": {"NAME": "W7N/PC-108", "TITLE": "6673", "REGION": "NV-Pershing-Churchill", "ASSOCIATION": "USA - Nevada", "POINTS": "4", "BONUSPOINTS": "3"}}, {"type": "Feature", "geometry": {"type": "Point", "coordinates": [-119.252, 40.5457]}, "properties": {"NAME": "W7N/PC-109", "TITLE": "6647", "REGION": "NV-Pershing-Churchill", "ASSOCIATION": "USA - Nevada", "POINTS": "4", "BONUSPOINTS": "3"}}, {"type": "Feature", "geometry": {"type": "Point", "coordinates": [-118.0925, 39.4094]}, "properties": {"NAME": "W7N/PC-110", "TITLE": "Crown Peak", "REGION": "NV-Pershing-Churchill", "ASSOCIATION": "USA - Nevada", "POINTS": "4", "BONUSPOINTS": "3"}}, {"type": "Feature", "geometry": {"type": "Point", "coordinates": [-119.0355, 40.3703]}, "properties": {"NAME": "W7N/PC-111", "TITLE": "Black Mountain", "REGION": "NV-Pershing-Churchill", "ASSOCIATION": "USA - Nevada", "POINTS": "4", "BONUSPOINTS": "3"}}, {"type": "Feature", "geometry": {"type": "Point", "coordinates": [-117.9904, 39.9468]}, "properties": {"NAME": "W7N/PC-112", "TITLE": "6598", "REGION": "NV-Pershing-Churchill", "ASSOCIATION": "USA - Nevada", "POINTS": "4", "BONUSPOINTS": "3"}}, {"type": "Feature", "geometry": {"type": "Point", "coordinates": [-118.9124, 40.691]}, "properties": {"NAME": "W7N/PC-113", "TITLE": "Sheephead Mountains HP", "REGION": "NV-Pershing-Churchill", "ASSOCIATION": "USA - Nevada", "POINTS": "4", "BONUSPOINTS": "3"}}, {"type": "Feature", "geometry": {"type": "Point", "coordinates": [-119.2657, 40.0887]}, "properties": {"NAME": "W7N/PC-114", "TITLE": "Sage Benchmark", "REGION": "NV-Pershing-Churchill", "ASSOCIATION": "USA - Nevada", "POINTS": "4", "BONUSPOINTS": "3"}}, {"type": "Feature", "geometry": {"type": "Point", "coordinates": [-118.1938, 39.7855]}, "properties": {"NAME": "W7N/PC-115", "TITLE": "6556", "REGION": "NV-Pershing-Churchill", "ASSOCIATION": "USA - Nevada", "POINTS": "4", "BONUSPOINTS": "3"}}, {"type": "Feature", "geometry": {"type": "Point", "coordinates": [-118.199, 39.8257]}, "properties": {"NAME": "W7N/PC-116", "TITLE": "6537", "REGION": "NV-Pershing-Churchill", "ASSOCIATION": "USA - Nevada", "POINTS": "4", "BONUSPOINTS": "3"}}, {"type": "Feature", "geometry": {"type": "Point", "coordinates": [-119.0871, 40.6664]}, "properties": {"NAME": "W7N/PC-117", "TITLE": "Dry Mountain", "REGION": "NV-Pershing-Churchill", "ASSOCIATION": "USA - Nevada", "POINTS": "4", "BONUSPOINTS": "3"}}, {"type": "Feature", "geometry": {"type": "Point", "coordinates": [-117.7574, 39.7734]}, "properties": {"NAME": "W7N/PC-118", "TITLE": "Clan Benchmark", "REGION": "NV-Pershing-Churchill", "ASSOCIATION": "USA - Nevada", "POINTS": "4", "BONUSPOINTS": "3"}}, {"type": "Feature", "geometry": {"type": "Point", "coordinates": [-118.9933, 40.5755]}, "properties": {"NAME": "W7N/PC-119", "TITLE": "6512", "REGION": "NV-Pershing-Churchill", "ASSOCIATION": "USA - Nevada", "POINTS": "4", "BONUSPOINTS": "3"}}, {"type": "Feature", "geometry": {"type": "Point", "coordinates": [-117.611, 40.3132]}, "properties": {"NAME": "W7N/PC-120", "TITLE": "6500", "REGION": "NV-Pershing-Churchill", "ASSOCIATION": "USA - Nevada", "POINTS": "4", "BONUSPOINTS": "3"}}, {"type": "Feature", "geometry": {"type": "Point", "coordinates": [-118.6692, 40.8194]}, "properties": {"NAME": "W7N/PC-121", "TITLE": "Rosebud Peak", "REGION": "NV-Pershing-Churchill", "ASSOCIATION": "USA - Nevada", "POINTS": "2", "BONUSPOINTS": "3"}}, {"type": "Feature", "geometry": {"type": "Point", "coordinates": [-118.4705, 40.7694]}, "properties": {"NAME": "W7N/PC-122", "TITLE": "6489", "REGION": "NV-Pershing-Churchill", "ASSOCIATION": "USA - Nevada", "POINTS": "2", "BONUSPOINTS": "3"}}, {"type": "Feature", "geometry": {"type": "Point", "coordinates": [-117.5859, 40.6066]}, "properties": {"NAME": "W7N/PC-123", "TITLE": "6462", "REGION": "NV-Pershing-Churchill", "ASSOCIATION": "USA - Nevada", "POINTS": "2", "BONUSPOINTS": "3"}}, {"type": "Feature", "geometry": {"type": "Point", "coordinates": [-117.5487, 40.6513]}, "properties": {"NAME": "W7N/PC-124", "TITLE": "6456", "REGION": "NV-Pershing-Churchill", "ASSOCIATION": "USA - Nevada", "POINTS": "2", "BONUSPOINTS": "3"}}, {"type": "Feature", "geometry": {"type": "Point", "coordinates": [-118.8353, 40.3997]}, "properties": {"NAME": "W7N/PC-125", "TITLE": "6440", "REGION": "NV-Pershing-Churchill", "ASSOCIATION": "USA - Nevada", "POINTS": "2", "BONUSPOINTS": "3"}}, {"type": "Feature", "geometry": {"type": "Point", "coordinates": [-118.3813, 39.1698]}, "properties": {"NAME": "W7N/PC-126", "TITLE": "Aplite Ridge", "REGION": "NV-Pershing-Churchill", "ASSOCIATION": "USA - Nevada", "POINTS": "2", "BONUSPOINTS": "3"}}, {"type": "Feature", "geometry": {"type": "Point", "coordinates": [-118.8318, 39.2119]}, "properties": {"NAME": "W7N/PC-127", "TITLE": "Desert Peak", "REGION": "NV-Pershing-Churchill", "ASSOCIATION": "USA - Nevada", "POINTS": "2", "BONUSPOINTS": "3"}}, {"type": "Feature", "geometry": {"type": "Point", "coordinates": [-118.6636, 40.77]}, "properties": {"NAME": "W7N/PC-128", "TITLE": "6387", "REGION": "NV-Pershing-Churchill", "ASSOCIATION": "USA - Nevada", "POINTS": "2", "BONUSPOINTS": "3"}}, {"type": "Feature", "geometry": {"type": "Point", "coordinates": [-118.3356, 40.1161]}, "properties": {"NAME": "W7N/PC-129", "TITLE": "West Humboldt Range HP", "REGION": "NV-Pershing-Churchill", "ASSOCIATION": "USA - Nevada", "POINTS": "2", "BONUSPOINTS": "3"}}, {"type": "Feature", "geometry": {"type": "Point", "coordinates": [-118.8203, 40.4354]}, "properties": {"NAME": "W7N/PC-130", "TITLE": "6358", "REGION": "NV-Pershing-Churchill", "ASSOCIATION": "USA - Nevada", "POINTS": "2", "BONUSPOINTS": "3"}}, {"type": "Feature", "geometry": {"type": "Point", "coordinates": [-118.3115, 40.1855]}, "properties": {"NAME": "W7N/PC-131", "TITLE": "6348", "REGION": "NV-Pershing-Churchill", "ASSOCIATION": "USA - Nevada", "POINTS": "2", "BONUSPOINTS": "3"}}, {"type": "Feature", "geometry": {"type": "Point", "coordinates": [-118.7778, 40.0436]}, "properties": {"NAME": "W7N/PC-132", "TITLE": "Ragged Top Mountain", "REGION": "NV-Pershing-Churchill", "ASSOCIATION": "USA - Nevada", "POINTS": "2", "BONUSPOINTS": "3"}}, {"type": "Feature", "geometry": {"type": "Point", "coordinates": [-118.2132, 39.5475]}, "properties": {"NAME": "W7N/PC-133", "TITLE": "6345", "REGION": "NV-Pershing-Churchill", "ASSOCIATION": "USA - Nevada", "POINTS": "2", "BONUSPOINTS": "3"}}, {"type": "Feature", "geometry": {"type": "Point", "coordinates": [-118.2603, 40.266]}, "properties": {"NAME": "W7N/PC-134", "TITLE": "6344", "REGION": "NV-Pershing-Churchill", "ASSOCIATION": "USA - Nevada", "POINTS": "2", "BONUSPOINTS": "3"}}, {"type": "Feature", "geometry": {"type": "Point", "coordinates": [-118.5115, 40.8227]}, "properties": {"NAME": "W7N/PC-135", "TITLE": "Long Benchmark", "REGION": "NV-Pershing-Churchill", "ASSOCIATION": "USA - Nevada", "POINTS": "2", "BONUSPOINTS": "3"}}, {"type": "Feature", "geometry": {"type": "Point", "coordinates": [-118.6439, 40.5797]}, "properties": {"NAME": "W7N/PC-136", "TITLE": "6302", "REGION": "NV-Pershing-Churchill", "ASSOCIATION": "USA - Nevada", "POINTS": "2", "BONUSPOINTS": "3"}}, {"type": "Feature", "geometry": {"type": "Point", "coordinates": [-118.7631, 40.4876]}, "properties": {"NAME": "W7N/PC-137", "TITLE": "6295", "REGION": "NV-Pershing-Churchill", "ASSOCIATION": "USA - Nevada", "POINTS": "2", "BONUSPOINTS": "3"}}, {"type": "Feature", "geometry": {"type": "Point", "coordinates": [-119.2026, 39.9436]}, "properties": {"NAME": "W7N/PC-138", "TITLE": "Flat Benchmark", "REGION": "NV-Pershing-Churchill", "ASSOCIATION": "USA - Nevada", "POINTS": "2", "BONUSPOINTS": "3"}}, {"type": "Feature", "geometry": {"type": "Point", "coordinates": [-117.5268, 40.5825]}, "properties": {"NAME": "W7N/PC-139", "TITLE": "6260", "REGION": "NV-Pershing-Churchill", "ASSOCIATION": "USA - Nevada", "POINTS": "2", "BONUSPOINTS": "3"}}, {"type": "Feature", "geometry": {"type": "Point", "coordinates": [-118.4922, 39.1286]}, "properties": {"NAME": "W7N/PC-140", "TITLE": "Barnett Hills", "REGION": "NV-Pershing-Churchill", "ASSOCIATION": "USA - Nevada", "POINTS": "2", "BONUSPOINTS": "3"}}, {"type": "Feature", "geometry": {"type": "Point", "coordinates": [-118.7592, 40.0363]}, "properties": {"NAME": "W7N/PC-141", "TITLE": "6236", "REGION": "NV-Pershing-Churchill", "ASSOCIATION": "USA - Nevada", "POINTS": "2", "BONUSPOINTS": "3"}}, {"type": "Feature", "geometry": {"type": "Point", "coordinates": [-117.8722, 39.6853]}, "properties": {"NAME": "W7N/PC-142", "TITLE": "6260", "REGION": "NV-Pershing-Churchill", "ASSOCIATION": "USA - Nevada", "POINTS": "2", "BONUSPOINTS": "3"}}, {"type": "Feature", "geometry": {"type": "Point", "coordinates": [-119.2602, 40.1087]}, "properties": {"NAME": "W7N/PC-143", "TITLE": "6212", "REGION": "NV-Pershing-Churchill", "ASSOCIATION": "USA - Nevada", "POINTS": "2", "BONUSPOINTS": "3"}}, {"type": "Feature", "geometry": {"type": "Point", "coordinates": [-118.3658, 40.0557]}, "properties": {"NAME": "W7N/PC-144", "TITLE": "Wildhorse Benchmark", "REGION": "NV-Pershing-Churchill", "ASSOCIATION": "USA - Nevada", "POINTS": "2", "BONUSPOINTS": "3"}}, {"type": "Feature", "geometry": {"type": "Point", "coordinates": [-119.2668, 40.0199]}, "properties": {"NAME": "W7N/PC-145", "TITLE": "6190", "REGION": "NV-Pershing-Churchill", "ASSOCIATION": "USA - Nevada", "POINTS": "2", "BONUSPOINTS": "3"}}, {"type": "Feature", "geometry": {"type": "Point", "coordinates": [-118.6609, 40.8508]}, "properties": {"NAME": "W7N/PC-146", "TITLE": "6181", "REGION": "NV-Pershing-Churchill", "ASSOCIATION": "USA - Nevada", "POINTS": "2", "BONUSPOINTS": "3"}}, {"type": "Feature", "geometry": {"type": "Point", "coordinates": [-117.6005, 40.3362]}, "properties": {"NAME": "W7N/PC-147", "TITLE": "Rim Peak", "REGION": "NV-Pershing-Churchill", "ASSOCIATION": "USA - Nevada", "POINTS": "2", "BONUSPOINTS": "3"}}, {"type": "Feature", "geometry": {"type": "Point", "coordinates": [-118.6397, 40.7971]}, "properties": {"NAME": "W7N/PC-148", "TITLE": "6141", "REGION": "NV-Pershing-Churchill", "ASSOCIATION": "USA - Nevada", "POINTS": "2", "BONUSPOINTS": "3"}}, {"type": "Feature", "geometry": {"type": "Point", "coordinates": [-118.5378, 39.2107]}, "properties": {"NAME": "W7N/PC-149", "TITLE": "Alkali Benchmark", "REGION": "NV-Pershing-Churchill", "ASSOCIATION": "USA - Nevada", "POINTS": "2", "BONUSPOINTS": "3"}}, {"type": "Feature", "geometry": {"type": "Point", "coordinates": [-118.7622, 40.7257]}, "properties": {"NAME": "W7N/PC-150", "TITLE": "6099", "REGION": "NV-Pershing-Churchill", "ASSOCIATION": "USA - Nevada", "POINTS": "2", "BONUSPOINTS": "3"}}, {"type": "Feature", "geometry": {"type": "Point", "coordinates": [-117.3704, 40.6672]}, "properties": {"NAME": "W7N/PC-151", "TITLE": "6091", "REGION": "NV-Pershing-Churchill", "ASSOCIATION": "USA - Nevada", "POINTS": "2", "BONUSPOINTS": "3"}}, {"type": "Feature", "geometry": {"type": "Point", "coordinates": [-118.5654, 40.5253]}, "properties": {"NAME": "W7N/PC-152", "TITLE": "Rocky Benchmark", "REGION": "NV-Pershing-Churchill", "ASSOCIATION": "USA - Nevada", "POINTS": "2", "BONUSPOINTS": "3"}}, {"type": "Feature", "geometry": {"type": "Point", "coordinates": [-119.2441, 40.6724]}, "properties": {"NAME": "W7N/PC-153", "TITLE": "6021", "REGION": "NV-Pershing-Churchill", "ASSOCIATION": "USA - Nevada", "POINTS": "2", "BONUSPOINTS": "3"}}, {"type": "Feature", "geometry": {"type": "Point", "coordinates": [-118.3176, 40.2434]}, "properties": {"NAME": "W7N/PC-154", "TITLE": "6020", "REGION": "NV-Pershing-Churchill", "ASSOCIATION": "USA - Nevada", "POINTS": "2", "BONUSPOINTS": "3"}}, {"type": "Feature", "geometry": {"type": "Point", "coordinates": [-118.5544, 39.142]}, "properties": {"NAME": "W7N/PC-155", "TITLE": "6020", "REGION": "NV-Pershing-Churchill", "ASSOCIATION": "USA - Nevada", "POINTS": "2", "BONUSPOINTS": "3"}}, {"type": "Feature", "geometry": {"type": "Point", "coordinates": [-118.4054, 39.3649]}, "properties": {"NAME": "W7N/PC-156", "TITLE": "6015", "REGION": "NV-Pershing-Churchill", "ASSOCIATION": "USA - Nevada", "POINTS": "2", "BONUSPOINTS": "3"}}, {"type": "Feature", "geometry": {"type": "Point", "coordinates": [-119.0922, 39.8211]}, "properties": {"NAME": "W7N/PC-157", "TITLE": "5972", "REGION": "NV-Pershing-Churchill", "ASSOCIATION": "USA - Nevada", "POINTS": "2", "BONUSPOINTS": "3"}}, {"type": "Feature", "geometry": {"type": "Point", "coordinates": [-117.4647, 39.8843]}, "properties": {"NAME": "W7N/PC-158", "TITLE": "5921", "REGION": "NV-Pershing-Churchill", "ASSOCIATION": "USA - Nevada", "POINTS": "2", "BONUSPOINTS": "3"}}, {"type": "Feature", "geometry": {"type": "Point", "coordinates": [-118.4478, 39.3438]}, "properties": {"NAME": "W7N/PC-159", "TITLE": "5875", "REGION": "NV-Pershing-Churchill", "ASSOCIATION": "USA - Nevada", "POINTS": "2", "BONUSPOINTS": "3"}}, {"type": "Feature", "geometry": {"type": "Point", "coordinates": [-119.0954, 40.5514]}, "properties": {"NAME": "W7N/PC-160", "TITLE": "Lava Benchmark", "REGION": "NV-Pershing-Churchill", "ASSOCIATION": "USA - Nevada", "POINTS": "2", "BONUSPOINTS": "3"}}, {"type": "Feature", "geometry": {"type": "Point", "coordinates": [-119.2424, 40.942]}, "properties": {"NAME": "W7N/PC-161", "TITLE": "5734", "REGION": "NV-Pershing-Churchill", "ASSOCIATION": "USA - Nevada", "POINTS": "2", "BONUSPOINTS": "3"}}, {"type": "Feature", "geometry": {"type": "Point", "coordinates": [-117.9516, 39.9545]}, "properties": {"NAME": "W7N/PC-162", "TITLE": "5714", "REGION": "NV-Pershing-Churchill", "ASSOCIATION": "USA - Nevada", "POINTS": "2", "BONUSPOINTS": "3"}}, {"type": "Feature", "geometry": {"type": "Point", "coordinates": [-118.2202, 40.7435]}, "properties": {"NAME": "W7N/PC-163", "TITLE": "5700", "REGION": "NV-Pershing-Churchill", "ASSOCIATION": "USA - Nevada", "POINTS": "2", "BONUSPOINTS": "3"}}, {"type": "Feature", "geometry": {"type": "Point", "coordinates": [-118.2944, 40.2258]}, "properties": {"NAME": "W7N/PC-164", "TITLE": "5660", "REGION": "NV-Pershing-Churchill", "ASSOCIATION": "USA - Nevada", "POINTS": "2", "BONUSPOINTS": "3"}}, {"type": "Feature", "geometry": {"type": "Point", "coordinates": [-119.1424, 40.7448]}, "properties": {"NAME": "W7N/PC-165", "TITLE": "Old Razorback Mountain", "REGION": "NV-Pershing-Churchill", "ASSOCIATION": "USA - Nevada", "POINTS": "2", "BONUSPOINTS": "3"}}, {"type": "Feature", "geometry": {"type": "Point", "coordinates": [-118.6474, 39.9008]}, "properties": {"NAME": "W7N/PC-166", "TITLE": "5576", "REGION": "NV-Pershing-Churchill", "ASSOCIATION": "USA - Nevada", "POINTS": "2", "BONUSPOINTS": "3"}}, {"type": "Feature", "geometry": {"type": "Point", "coordinates": [-119.2752, 40.2396]}, "properties": {"NAME": "W7N/PC-167", "TITLE": "5564", "REGION": "NV-Pershing-Churchill", "ASSOCIATION": "USA - Nevada", "POINTS": "2", "BONUSPOINTS": "3"}}, {"type": "Feature", "geometry": {"type": "Point", "coordinates": [-119.2305, 40.2572]}, "properties": {"NAME": "W7N/PC-168", "TITLE": "5538", "REGION": "NV-Pershing-Churchill", "ASSOCIATION": "USA - Nevada", "POINTS": "2", "BONUSPOINTS": "3"}}, {"type": "Feature", "geometry": {"type": "Point", "coordinates": [-118.9912, 39.6993]}, "properties": {"NAME": "W7N/PC-169", "TITLE": "Rocky 2 Benchmark", "REGION": "NV-Pershing-Churchill", "ASSOCIATION": "USA - Nevada", "POINTS": "2", "BONUSPOINTS": "3"}}, {"type": "Feature", "geometry": {"type": "Point", "coordinates": [-118.8862, 39.9274]}, "properties": {"NAME": "W7N/PC-170", "TITLE": "Jessup Benchmark", "REGION": "NV-Pershing-Churchill", "ASSOCIATION": "USA - Nevada", "POINTS": "2", "BONUSPOINTS": "3"}}, {"type": "Feature", "geometry": {"type": "Point", "coordinates": [-119.02, 39.6603]}, "properties": {"NAME": "W7N/PC-171", "TITLE": "5495", "REGION": "NV-Pershing-Churchill", "ASSOCIATION": "USA - Nevada", "POINTS": "2", "BONUSPOINTS": "3"}}, {"type": "Feature", "geometry": {"type": "Point", "coordinates": [-118.4034, 40.4893]}, "properties": {"NAME": "W7N/PC-172", "TITLE": "5494", "REGION": "NV-Pershing-Churchill", "ASSOCIATION": "USA - Nevada", "POINTS": "2", "BONUSPOINTS": "3"}}, {"type": "Feature", "geometry": {"type": "Point", "coordinates": [-118.4629, 39.3284]}, "properties": {"NAME": "W7N/PC-173", "TITLE": "Pony Bob Peak", "REGION": "NV-Pershing-Churchill", "ASSOCIATION": "USA - Nevada", "POINTS": "2", "BONUSPOINTS": "3"}}, {"type": "Feature", "geometry": {"type": "Point", "coordinates": [-117.4971, 40.127]}, "properties": {"NAME": "W7N/PC-174", "TITLE": "5446", "REGION": "NV-Pershing-Churchill", "ASSOCIATION": "USA - Nevada", "POINTS": "2", "BONUSPOINTS": "3"}}, {"type": "Feature", "geometry": {"type": "Point", "coordinates": [-118.123, 39.3202]}, "properties": {"NAME": "W7N/PC-175", "TITLE": "Chalk Mountain", "REGION": "NV-Pershing-Churchill", "ASSOCIATION": "USA - Nevada", "POINTS": "2", "BONUSPOINTS": "3"}}, {"type": "Feature", "geometry": {"type": "Point", "coordinates": [-119.0093, 40.3285]}, "properties": {"NAME": "W7N/PC-176", "TITLE": "5419", "REGION": "NV-Pershing-Churchill", "ASSOCIATION": "USA - Nevada", "POINTS": "2", "BONUSPOINTS": "3"}}, {"type": "Feature", "geometry": {"type": "Point", "coordinates": [-119.0152, 39.4077]}, "properties": {"NAME": "W7N/PC-177", "TITLE": "Lahontan Benchmark", "REGION": "NV-Pershing-Churchill", "ASSOCIATION": "USA - Nevada", "POINTS": "2", "BONUSPOINTS": "3"}}, {"type": "Feature", "geometry": {"type": "Point", "coordinates": [-118.3145, 40.8118]}, "properties": {"NAME": "W7N/PC-178", "TITLE": "Alpha Mountain", "REGION": "NV-Pershing-Churchill", "ASSOCIATION": "USA - Nevada", "POINTS": "2", "BONUSPOINTS": "3"}}, {"type": "Feature", "geometry": {"type": "Point", "coordinates": [-118.9377, 39.7861]}, "properties": {"NAME": "W7N/PC-179", "TITLE": "Desert Peak", "REGION": "NV-Pershing-Churchill", "ASSOCIATION": "USA - Nevada", "POINTS": "2", "BONUSPOINTS": "3"}}, {"type": "Feature", "geometry": {"type": "Point", "coordinates": [-118.9978, 40.7764]}, "properties": {"NAME": "W7N/PC-180", "TITLE": "Pahsupp Mountain", "REGION": "NV-Pershing-Churchill", "ASSOCIATION": "USA - Nevada", "POINTS": "2", "BONUSPOINTS": "3"}}, {"type": "Feature", "geometry": {"type": "Point", "coordinates": [-118.9729, 39.3886]}, "properties": {"NAME": "W7N/PC-181", "TITLE": "Red Mountain", "REGION": "NV-Pershing-Churchill", "ASSOCIATION": "USA - Nevada", "POINTS": "2", "BONUSPOINTS": "3"}}, {"type": "Feature", "geometry": {"type": "Point", "coordinates": [-118.3842, 39.2883]}, "properties": {"NAME": "W7N/PC-182", "TITLE": "5330", "REGION": "NV-Pershing-Churchill", "ASSOCIATION": "USA - Nevada", "POINTS": "2", "BONUSPOINTS": "3"}}, {"type": "Feature", "geometry": {"type": "Point", "coordinates": [-118.7881, 39.9684]}, "properties": {"NAME": "W7N/PC-183", "TITLE": "5322", "REGION": "NV-Pershing-Churchill", "ASSOCIATION": "USA - Nevada", "POINTS": "2", "BONUSPOINTS": "3"}}, {"type": "Feature", "geometry": {"type": "Point", "coordinates": [-117.7272, 40.1432]}, "properties": {"NAME": "W7N/PC-184", "TITLE": "Sou Hills", "REGION": "NV-Pershing-Churchill", "ASSOCIATION": "USA - Nevada", "POINTS": "2", "BONUSPOINTS": "3"}}, {"type": "Feature", "geometry": {"type": "Point", "coordinates": [-118.6563, 39.1924]}, "properties": {"NAME": "W7N/PC-185", "TITLE": "Blow Sand Mountains HP", "REGION": "NV-Pershing-Churchill", "ASSOCIATION": "USA - Nevada", "POINTS": "2", "BONUSPOINTS": "3"}}, {"type": "Feature", "geometry": {"type": "Point", "coordinates": [-118.4847, 39.9894]}, "properties": {"NAME": "W7N/PC-186", "TITLE": "Humboldt Benchmark", "REGION": "NV-Pershing-Churchill", "ASSOCIATION": "USA - Nevada", "POINTS": "2", "BONUSPOINTS": "3"}}, {"type": "Feature", "geometry": {"type": "Point", "coordinates": [-118.4266, 39.5091]}, "properties": {"NAME": "W7N/PC-187", "TITLE": "5226", "REGION": "NV-Pershing-Churchill", "ASSOCIATION": "USA - Nevada", "POINTS": "2", "BONUSPOINTS": "3"}}, {"type": "Feature", "geometry": {"type": "Point", "coordinates": [-118.1526, 40.014]}, "properties": {"NAME": "W7N/PC-188", "TITLE": "Buena Vista Hills", "REGION": "NV-Pershing-Churchill", "ASSOCIATION": "USA - Nevada", "POINTS": "2", "BONUSPOINTS": "3"}}, {"type": "Feature", "geometry": {"type": "Point", "coordinates": [-118.0572, 40.6648]}, "properties": {"NAME": "W7N/PC-189", "TITLE": "Mill Benchmark", "REGION": "NV-Pershing-Churchill", "ASSOCIATION": "USA - Nevada", "POINTS": "2", "BONUSPOINTS": "3"}}, {"type": "Feature", "geometry": {"type": "Point", "coordinates": [-118.723, 39.2465]}, "properties": {"NAME": "W7N/PC-190", "TITLE": "White Throne Mountains HP", "REGION": "NV-Pershing-Churchill", "ASSOCIATION": "USA - Nevada", "POINTS": "1", "BONUSPOINTS": "3"}}, {"type": "Feature", "geometry": {"type": "Point", "coordinates": [-118.7144, 39.8785]}, "properties": {"NAME": "W7N/PC-191", "TITLE": "Mopung Hills", "REGION": "NV-Pershing-Churchill", "ASSOCIATION": "USA - Nevada", "POINTS": "1", "BONUSPOINTS": "3"}}, {"type": "Feature", "geometry": {"type": "Point", "coordinates": [-118.6115, 39.301]}, "properties": {"NAME": "W7N/PC-192", "TITLE": "Wheat Peak", "REGION": "NV-Pershing-Churchill", "ASSOCIATION": "USA - Nevada", "POINTS": "1", "BONUSPOINTS": "3"}}, {"type": "Feature", "geometry": {"type": "Point", "coordinates": [-118.544, 39.4139]}, "properties": {"NAME": "W7N/PC-193", "TITLE": "Rainbow Mountain", "REGION": "NV-Pershing-Churchill", "ASSOCIATION": "USA - Nevada", "POINTS": "1", "BONUSPOINTS": "3"}}, {"type": "Feature", "geometry": {"type": "Point", "coordinates": [-118.5303, 40.1948]}, "properties": {"NAME": "W7N/PC-194", "TITLE": "Lone Mountain", "REGION": "NV-Pershing-Churchill", "ASSOCIATION": "USA - Nevada", "POINTS": "1", "BONUSPOINTS": "3"}}, {"type": "Feature", "geometry": {"type": "Point", "coordinates": [-118.2362, 39.6824]}, "properties": {"NAME": "W7N/PC-195", "TITLE": "7340", "REGION": "NV-Pershing-Churchill", "ASSOCIATION": "USA - Nevada", "POINTS": "4", "BONUSPOINTS": "3"}}, {"type": "Feature", "geometry": {"type": "Point", "coordinates": [-118.1299, 40.2905]}, "properties": {"NAME": "W7N/PC-196", "TITLE": "6851", "REGION": "NV-Pershing-Churchill", "ASSOCIATION": "USA - Nevada", "POINTS": "4", "BONUSPOINTS": "3"}}, {"type": "Feature", "geometry": {"type": "Point", "coordinates": [-117.5255, 39.5606]}, "properties": {"NAME": "W7N/PC-197", "TITLE": "6746", "REGION": "NV-Pershing-Churchill", "ASSOCIATION": "USA - Nevada", "POINTS": "4", "BONUSPOINTS": "3"}}, {"type": "Feature", "geometry": {"type": "Point", "coordinates": [-119.2474, 40.2053]}, "properties": {"NAME": "W7N/PC-198", "TITLE": "Spring Benchmark", "REGION": "NV-Pershing-Churchill", "ASSOCIATION": "USA - Nevada", "POINTS": "2", "BONUSPOINTS": "3"}}, {"type": "Feature", "geometry": {"type": "Point", "coordinates": [-118.687, 40.2222]}, "properties": {"NAME": "W7N/PC-199", "TITLE": "6074", "REGION": "NV-Pershing-Churchill", "ASSOCIATION": "USA - Nevada", "POINTS": "2", "BONUSPOINTS": "3"}}, {"type": "Feature", "geometry": {"type": "Point", "coordinates": [-118.3604, 39.2244]}, "properties": {"NAME": "W7N/PC-200", "TITLE": "5820", "REGION": "NV-Pershing-Churchill", "ASSOCIATION": "USA - Nevada", "POINTS": "2", "BONUSPOINTS": "3"}}, {"type": "Feature", "geometry": {"type": "Point", "coordinates": [-119.0058, 40.7642]}, "properties": {"NAME": "W7N/PC-201", "TITLE": "Pahsupp Mountain", "REGION": "NV-Pershing-Churchill", "ASSOCIATION": "USA - Nevada", "POINTS": "2", "BONUSPOINTS": "3"}}, {"type": "Feature", "geometry": {"type": "Point", "coordinates": [-118.8079, 39.9844]}, "properties": {"NAME": "W7N/PC-202", "TITLE": "5314", "REGION": "NV-Pershing-Churchill", "ASSOCIATION": "USA - Nevada", "POINTS": "2", "BONUSPOINTS": "3"}}, {"type": "Feature", "geometry": {"type": "Point", "coordinates": [-118.6073, 40.2355]}, "properties": {"NAME": "W7N/PC-203", "TITLE": "5190", "REGION": "NV-Pershing-Churchill", "ASSOCIATION": "USA - Nevada", "POINTS": "2", "BONUSPOINTS": "3"}}]}