{"type": "FeatureCollection", "name": "W7N/CK SUMMITS", "features": [{"type": "Feature", "geometry": {"type": "Point", "coordinates": [-115.6956, 36.2715]}, "properties": {"NAME": "W7N/CK-001", "TITLE": "Charleston Peak", "REGION": "NV-Clark", "ASSOCIATION": "USA - Nevada", "POINTS": "10", "BONUSPOINTS": "3"}}, {"type": "Feature", "geometry": {"type": "Point", "coordinates": [-115.6495, 36.2993]}, "properties": {"NAME": "W7N/CK-002", "TITLE": "Mummy Mountain", "REGION": "NV-Clark", "ASSOCIATION": "USA - Nevada", "POINTS": "10", "BONUSPOINTS": "3"}}, {"type": "Feature", "geometry": {"type": "Point", "coordinates": [-115.7256, 36.3414]}, "properties": {"NAME": "W7N/CK-003", "TITLE": "McFarland Peak", "REGION": "NV-Clark", "ASSOCIATION": "USA - Nevada", "POINTS": "10", "BONUSPOINTS": "3"}}, {"type": "Feature", "geometry": {"type": "Point", "coordinates": [-115.7472, 36.3594]}, "properties": {"NAME": "W7N/CK-004", "TITLE": "Bonanza Peak", "REGION": "NV-Clark", "ASSOCIATION": "USA - Nevada", "POINTS": "10", "BONUSPOINTS": "3"}}, {"type": "Feature", "geometry": {"type": "Point", "coordinates": [-115.6838, 36.3308]}, "properties": {"NAME": "W7N/CK-005", "TITLE": "Sisters South, The", "REGION": "NV-Clark", "ASSOCIATION": "USA - Nevada", "POINTS": "10", "BONUSPOINTS": "3"}}, {"type": "Feature", "geometry": {"type": "Point", "coordinates": [-115.7258, 36.2725]}, "properties": {"NAME": "W7N/CK-006", "TITLE": "Clinton Peak", "REGION": "NV-Clark", "ASSOCIATION": "USA - Nevada", "POINTS": "10", "BONUSPOINTS": "3"}}, {"type": "Feature", "geometry": {"type": "Point", "coordinates": [-115.6973, 36.3506]}, "properties": {"NAME": "W7N/CK-007", "TITLE": "Macks Peak", "REGION": "NV-Clark", "ASSOCIATION": "USA - Nevada", "POINTS": "10", "BONUSPOINTS": "3"}}, {"type": "Feature", "geometry": {"type": "Point", "coordinates": [-115.6115, 36.2414]}, "properties": {"NAME": "W7N/CK-008", "TITLE": "Harris Mountain", "REGION": "NV-Clark", "ASSOCIATION": "USA - Nevada", "POINTS": "10", "BONUSPOINTS": "3"}}, {"type": "Feature", "geometry": {"type": "Point", "coordinates": [-115.2008, 36.6578]}, "properties": {"NAME": "W7N/CK-009", "TITLE": "Hayford Peak", "REGION": "NV-Clark", "ASSOCIATION": "USA - Nevada", "POINTS": "10", "BONUSPOINTS": "3"}}, {"type": "Feature", "geometry": {"type": "Point", "coordinates": [-115.1836, 36.696]}, "properties": {"NAME": "W7N/CK-010", "TITLE": "Big John", "REGION": "NV-Clark", "ASSOCIATION": "USA - Nevada", "POINTS": "10", "BONUSPOINTS": "3"}}, {"type": "Feature", "geometry": {"type": "Point", "coordinates": [-115.2488, 36.5829]}, "properties": {"NAME": "W7N/CK-011", "TITLE": "Sheep Peak", "REGION": "NV-Clark", "ASSOCIATION": "USA - Nevada", "POINTS": "10", "BONUSPOINTS": "3"}}, {"type": "Feature", "geometry": {"type": "Point", "coordinates": [-115.242, 36.6012]}, "properties": {"NAME": "W7N/CK-012", "TITLE": "9678", "REGION": "NV-Clark", "ASSOCIATION": "USA - Nevada", "POINTS": "10", "BONUSPOINTS": "3"}}, {"type": "Feature", "geometry": {"type": "Point", "coordinates": [-115.2299, 36.6367]}, "properties": {"NAME": "W7N/CK-013", "TITLE": "Hidden Forest Ridge", "REGION": "NV-Clark", "ASSOCIATION": "USA - Nevada", "POINTS": "8", "BONUSPOINTS": "3"}}, {"type": "Feature", "geometry": {"type": "Point", "coordinates": [-115.8105, 36.4215]}, "properties": {"NAME": "W7N/CK-014", "TITLE": "Wheeler Benchmark", "REGION": "NV-Clark", "ASSOCIATION": "USA - Nevada", "POINTS": "8", "BONUSPOINTS": "3"}}, {"type": "Feature", "geometry": {"type": "Point", "coordinates": [-115.5751, 36.3184]}, "properties": {"NAME": "W7N/CK-015", "TITLE": "Angel Peak", "REGION": "NV-Clark", "ASSOCIATION": "USA - Nevada", "POINTS": "8", "BONUSPOINTS": "3"}}, {"type": "Feature", "geometry": {"type": "Point", "coordinates": [-115.8716, 36.3703]}, "properties": {"NAME": "W7N/CK-016", "TITLE": "Spring Peak", "REGION": "NV-Clark", "ASSOCIATION": "USA - Nevada", "POINTS": "8", "BONUSPOINTS": "3"}}, {"type": "Feature", "geometry": {"type": "Point", "coordinates": [-115.5015, 35.9656]}, "properties": {"NAME": "W7N/CK-017", "TITLE": "Potosi Mountain", "REGION": "NV-Clark", "ASSOCIATION": "USA - Nevada", "POINTS": "8", "BONUSPOINTS": "3"}}, {"type": "Feature", "geometry": {"type": "Point", "coordinates": [-115.8692, 36.3287]}, "properties": {"NAME": "W7N/CK-018", "TITLE": "Horse Benchmark", "REGION": "NV-Clark", "ASSOCIATION": "USA - Nevada", "POINTS": "6", "BONUSPOINTS": "3"}}, {"type": "Feature", "geometry": {"type": "Point", "coordinates": [-115.5545, 36.1948]}, "properties": {"NAME": "W7N/CK-019", "TITLE": "Wilson Ridge", "REGION": "NV-Clark", "ASSOCIATION": "USA - Nevada", "POINTS": "6", "BONUSPOINTS": "3"}}, {"type": "Feature", "geometry": {"type": "Point", "coordinates": [-115.1132, 36.8002]}, "properties": {"NAME": "W7N/CK-020", "TITLE": "8340", "REGION": "NV-Clark", "ASSOCIATION": "USA - Nevada", "POINTS": "6", "BONUSPOINTS": "3"}}, {"type": "Feature", "geometry": {"type": "Point", "coordinates": [-115.1047, 36.8211]}, "properties": {"NAME": "W7N/CK-021", "TITLE": "8282", "REGION": "NV-Clark", "ASSOCIATION": "USA - Nevada", "POINTS": "6", "BONUSPOINTS": "3"}}, {"type": "Feature", "geometry": {"type": "Point", "coordinates": [-115.106, 36.8318]}, "properties": {"NAME": "W7N/CK-022", "TITLE": "8242", "REGION": "NV-Clark", "ASSOCIATION": "USA - Nevada", "POINTS": "6", "BONUSPOINTS": "3"}}, {"type": "Feature", "geometry": {"type": "Point", "coordinates": [-115.4591, 36.2124]}, "properties": {"NAME": "W7N/CK-023", "TITLE": "La Madre Mountain", "REGION": "NV-Clark", "ASSOCIATION": "USA - Nevada", "POINTS": "6", "BONUSPOINTS": "3"}}, {"type": "Feature", "geometry": {"type": "Point", "coordinates": [-115.1396, 36.7344]}, "properties": {"NAME": "W7N/CK-024", "TITLE": "8121", "REGION": "NV-Clark", "ASSOCIATION": "USA - Nevada", "POINTS": "6", "BONUSPOINTS": "3"}}, {"type": "Feature", "geometry": {"type": "Point", "coordinates": [-114.1123, 36.6028]}, "properties": {"NAME": "W7N/CK-025", "TITLE": "Virgin Peak", "REGION": "NV-Clark", "ASSOCIATION": "USA - Nevada", "POINTS": "6", "BONUSPOINTS": "3"}}, {"type": "Feature", "geometry": {"type": "Point", "coordinates": [-114.0855, 36.6141]}, "properties": {"NAME": "W7N/CK-026", "TITLE": "Virgin Peak Ridge", "REGION": "NV-Clark", "ASSOCIATION": "USA - Nevada", "POINTS": "6", "BONUSPOINTS": "3"}}, {"type": "Feature", "geometry": {"type": "Point", "coordinates": [-115.1279, 36.7616]}, "properties": {"NAME": "W7N/CK-027", "TITLE": "Refuge Benchmark", "REGION": "NV-Clark", "ASSOCIATION": "USA - Nevada", "POINTS": "6", "BONUSPOINTS": "3"}}, {"type": "Feature", "geometry": {"type": "Point", "coordinates": [-115.5405, 36.1465]}, "properties": {"NAME": "W7N/CK-028", "TITLE": "Tio Grande", "REGION": "NV-Clark", "ASSOCIATION": "USA - Nevada", "POINTS": "6", "BONUSPOINTS": "3"}}, {"type": "Feature", "geometry": {"type": "Point", "coordinates": [-115.5378, 36.1128]}, "properties": {"NAME": "W7N/CK-029", "TITLE": "Cactus Flower Point", "REGION": "NV-Clark", "ASSOCIATION": "USA - Nevada", "POINTS": "4", "BONUSPOINTS": "3"}}, {"type": "Feature", "geometry": {"type": "Point", "coordinates": [-115.6141, 36.1485]}, "properties": {"NAME": "W7N/CK-030", "TITLE": "Mount Alexander", "REGION": "NV-Clark", "ASSOCIATION": "USA - Nevada", "POINTS": "4", "BONUSPOINTS": "3"}}, {"type": "Feature", "geometry": {"type": "Point", "coordinates": [-115.489, 35.9804]}, "properties": {"NAME": "W7N/CK-031", "TITLE": "North Potosi Peak", "REGION": "NV-Clark", "ASSOCIATION": "USA - Nevada", "POINTS": "4", "BONUSPOINTS": "3"}}, {"type": "Feature", "geometry": {"type": "Point", "coordinates": [-115.5455, 35.9881]}, "properties": {"NAME": "W7N/CK-032", "TITLE": "Pas Rump", "REGION": "NV-Clark", "ASSOCIATION": "USA - Nevada", "POINTS": "4", "BONUSPOINTS": "3"}}, {"type": "Feature", "geometry": {"type": "Point", "coordinates": [-115.0979, 36.6228]}, "properties": {"NAME": "W7N/CK-033", "TITLE": "7297", "REGION": "NV-Clark", "ASSOCIATION": "USA - Nevada", "POINTS": "4", "BONUSPOINTS": "3"}}, {"type": "Feature", "geometry": {"type": "Point", "coordinates": [-115.51, 36.0961]}, "properties": {"NAME": "W7N/CK-034", "TITLE": "Oak Creek Overlook", "REGION": "NV-Clark", "ASSOCIATION": "USA - Nevada", "POINTS": "4", "BONUSPOINTS": "3"}}, {"type": "Feature", "geometry": {"type": "Point", "coordinates": [-115.0875, 36.5021]}, "properties": {"NAME": "W7N/CK-035", "TITLE": "Quartzite Mountain", "REGION": "NV-Clark", "ASSOCIATION": "USA - Nevada", "POINTS": "4", "BONUSPOINTS": "3"}}, {"type": "Feature", "geometry": {"type": "Point", "coordinates": [-115.484, 36.0936]}, "properties": {"NAME": "W7N/CK-036", "TITLE": "Wilson, Mount", "REGION": "NV-Clark", "ASSOCIATION": "USA - Nevada", "POINTS": "4", "BONUSPOINTS": "3"}}, {"type": "Feature", "geometry": {"type": "Point", "coordinates": [-115.2632, 36.8033]}, "properties": {"NAME": "W7N/CK-037", "TITLE": "Dead Horse Ridge", "REGION": "NV-Clark", "ASSOCIATION": "USA - Nevada", "POINTS": "4", "BONUSPOINTS": "3"}}, {"type": "Feature", "geometry": {"type": "Point", "coordinates": [-115.4276, 36.226]}, "properties": {"NAME": "W7N/CK-038", "TITLE": "East La Madre Peak", "REGION": "NV-Clark", "ASSOCIATION": "USA - Nevada", "POINTS": "4", "BONUSPOINTS": "3"}}, {"type": "Feature", "geometry": {"type": "Point", "coordinates": [-115.18, 35.6029]}, "properties": {"NAME": "W7N/CK-039", "TITLE": "McCullough Mountain", "REGION": "NV-Clark", "ASSOCIATION": "USA - Nevada", "POINTS": "4", "BONUSPOINTS": "3"}}, {"type": "Feature", "geometry": {"type": "Point", "coordinates": [-115.5014, 36.132]}, "properties": {"NAME": "W7N/CK-040", "TITLE": "Bridge Mountain", "REGION": "NV-Clark", "ASSOCIATION": "USA - Nevada", "POINTS": "4", "BONUSPOINTS": "3"}}, {"type": "Feature", "geometry": {"type": "Point", "coordinates": [-115.4248, 36.2025]}, "properties": {"NAME": "W7N/CK-041", "TITLE": "Damsel Peak", "REGION": "NV-Clark", "ASSOCIATION": "USA - Nevada", "POINTS": "4", "BONUSPOINTS": "3"}}, {"type": "Feature", "geometry": {"type": "Point", "coordinates": [-115.7521, 36.1821]}, "properties": {"NAME": "W7N/CK-042", "TITLE": "6958", "REGION": "NV-Clark", "ASSOCIATION": "USA - Nevada", "POINTS": "4", "BONUSPOINTS": "3"}}, {"type": "Feature", "geometry": {"type": "Point", "coordinates": [-115.1804, 36.4007]}, "properties": {"NAME": "W7N/CK-043", "TITLE": "Gass Peak", "REGION": "NV-Clark", "ASSOCIATION": "USA - Nevada", "POINTS": "4", "BONUSPOINTS": "3"}}, {"type": "Feature", "geometry": {"type": "Point", "coordinates": [-115.4968, 36.1097]}, "properties": {"NAME": "W7N/CK-044", "TITLE": "Rainbow Wall", "REGION": "NV-Clark", "ASSOCIATION": "USA - Nevada", "POINTS": "4", "BONUSPOINTS": "3"}}, {"type": "Feature", "geometry": {"type": "Point", "coordinates": [-114.0951, 36.6438]}, "properties": {"NAME": "W7N/CK-045", "TITLE": "Cabin Canyon Spur", "REGION": "NV-Clark", "ASSOCIATION": "USA - Nevada", "POINTS": "4", "BONUSPOINTS": "3"}}, {"type": "Feature", "geometry": {"type": "Point", "coordinates": [-115.1773, 35.5706]}, "properties": {"NAME": "W7N/CK-046", "TITLE": "6841", "REGION": "NV-Clark", "ASSOCIATION": "USA - Nevada", "POINTS": "4", "BONUSPOINTS": "3"}}, {"type": "Feature", "geometry": {"type": "Point", "coordinates": [-115.6454, 36.1563]}, "properties": {"NAME": "W7N/CK-047", "TITLE": "6830", "REGION": "NV-Clark", "ASSOCIATION": "USA - Nevada", "POINTS": "4", "BONUSPOINTS": "3"}}, {"type": "Feature", "geometry": {"type": "Point", "coordinates": [-115.5527, 36.8265]}, "properties": {"NAME": "W7N/CK-048", "TITLE": "6804", "REGION": "NV-Clark", "ASSOCIATION": "USA - Nevada", "POINTS": "4", "BONUSPOINTS": "3"}}, {"type": "Feature", "geometry": {"type": "Point", "coordinates": [-115.5251, 35.9066]}, "properties": {"NAME": "W7N/CK-049", "TITLE": "Ridge View Peak", "REGION": "NV-Clark", "ASSOCIATION": "USA - Nevada", "POINTS": "4", "BONUSPOINTS": "3"}}, {"type": "Feature", "geometry": {"type": "Point", "coordinates": [-115.4824, 36.0359]}, "properties": {"NAME": "W7N/CK-050", "TITLE": "Mountain Spring Benchmark", "REGION": "NV-Clark", "ASSOCIATION": "USA - Nevada", "POINTS": "4", "BONUSPOINTS": "3"}}, {"type": "Feature", "geometry": {"type": "Point", "coordinates": [-115.6713, 36.1346]}, "properties": {"NAME": "W7N/CK-051", "TITLE": "6601", "REGION": "NV-Clark", "ASSOCIATION": "USA - Nevada", "POINTS": "4", "BONUSPOINTS": "3"}}, {"type": "Feature", "geometry": {"type": "Point", "coordinates": [-115.3371, 36.8335]}, "properties": {"NAME": "W7N/CK-052", "TITLE": "6574", "REGION": "NV-Clark", "ASSOCIATION": "USA - Nevada", "POINTS": "4", "BONUSPOINTS": "3"}}, {"type": "Feature", "geometry": {"type": "Point", "coordinates": [-115.4956, 36.1686]}, "properties": {"NAME": "W7N/CK-053", "TITLE": "White Rock Hills", "REGION": "NV-Clark", "ASSOCIATION": "USA - Nevada", "POINTS": "2", "BONUSPOINTS": "3"}}, {"type": "Feature", "geometry": {"type": "Point", "coordinates": [-115.5137, 36.0107]}, "properties": {"NAME": "W7N/CK-054", "TITLE": "Misty Mountain", "REGION": "NV-Clark", "ASSOCIATION": "USA - Nevada", "POINTS": "2", "BONUSPOINTS": "3"}}, {"type": "Feature", "geometry": {"type": "Point", "coordinates": [-115.5964, 36.4511]}, "properties": {"NAME": "W7N/CK-055", "TITLE": "Traction Benchmark", "REGION": "NV-Clark", "ASSOCIATION": "USA - Nevada", "POINTS": "2", "BONUSPOINTS": "3"}}, {"type": "Feature", "geometry": {"type": "Point", "coordinates": [-115.7087, 36.828]}, "properties": {"NAME": "W7N/CK-056", "TITLE": "6412", "REGION": "NV-Clark", "ASSOCIATION": "USA - Nevada", "POINTS": "2", "BONUSPOINTS": "3"}}, {"type": "Feature", "geometry": {"type": "Point", "coordinates": [-115.4459, 36.1802]}, "properties": {"NAME": "W7N/CK-057", "TITLE": "Turtlehead Mountain", "REGION": "NV-Clark", "ASSOCIATION": "USA - Nevada", "POINTS": "2", "BONUSPOINTS": "3"}}, {"type": "Feature", "geometry": {"type": "Point", "coordinates": [-115.4083, 36.2596]}, "properties": {"NAME": "W7N/CK-058", "TITLE": "Ugly Brown Lump", "REGION": "NV-Clark", "ASSOCIATION": "USA - Nevada", "POINTS": "2", "BONUSPOINTS": "3"}}, {"type": "Feature", "geometry": {"type": "Point", "coordinates": [-115.5446, 36.7146]}, "properties": {"NAME": "W7N/CK-059", "TITLE": "Dain Benchmark", "REGION": "NV-Clark", "ASSOCIATION": "USA - Nevada", "POINTS": "2", "BONUSPOINTS": "3"}}, {"type": "Feature", "geometry": {"type": "Point", "coordinates": [-115.376, 36.6732]}, "properties": {"NAME": "W7N/CK-060", "TITLE": "Target Benchmark", "REGION": "NV-Clark", "ASSOCIATION": "USA - Nevada", "POINTS": "2", "BONUSPOINTS": "3"}}, {"type": "Feature", "geometry": {"type": "Point", "coordinates": [-115.5712, 36.0401]}, "properties": {"NAME": "W7N/CK-061", "TITLE": "Mesa Benchmark", "REGION": "NV-Clark", "ASSOCIATION": "USA - Nevada", "POINTS": "2", "BONUSPOINTS": "3"}}, {"type": "Feature", "geometry": {"type": "Point", "coordinates": [-115.1293, 35.4767]}, "properties": {"NAME": "W7N/CK-062", "TITLE": "Crescent Peak", "REGION": "NV-Clark", "ASSOCIATION": "USA - Nevada", "POINTS": "2", "BONUSPOINTS": "3"}}, {"type": "Feature", "geometry": {"type": "Point", "coordinates": [-115.3793, 36.6639]}, "properties": {"NAME": "W7N/CK-063", "TITLE": "5938", "REGION": "NV-Clark", "ASSOCIATION": "USA - Nevada", "POINTS": "2", "BONUSPOINTS": "3"}}, {"type": "Feature", "geometry": {"type": "Point", "coordinates": [-115.3142, 36.8419]}, "properties": {"NAME": "W7N/CK-064", "TITLE": "5913", "REGION": "NV-Clark", "ASSOCIATION": "USA - Nevada", "POINTS": "2", "BONUSPOINTS": "3"}}, {"type": "Feature", "geometry": {"type": "Point", "coordinates": [-115.5731, 36.7077]}, "properties": {"NAME": "W7N/CK-065", "TITLE": "5911", "REGION": "NV-Clark", "ASSOCIATION": "USA - Nevada", "POINTS": "2", "BONUSPOINTS": "3"}}, {"type": "Feature", "geometry": {"type": "Point", "coordinates": [-115.0176, 36.5817]}, "properties": {"NAME": "W7N/CK-066", "TITLE": "Juniper Benchmark", "REGION": "NV-Clark", "ASSOCIATION": "USA - Nevada", "POINTS": "2", "BONUSPOINTS": "3"}}, {"type": "Feature", "geometry": {"type": "Point", "coordinates": [-115.4538, 35.6976]}, "properties": {"NAME": "W7N/CK-067", "TITLE": "Devil Peak", "REGION": "NV-Clark", "ASSOCIATION": "USA - Nevada", "POINTS": "2", "BONUSPOINTS": "3"}}, {"type": "Feature", "geometry": {"type": "Point", "coordinates": [-115.7485, 36.8244]}, "properties": {"NAME": "W7N/CK-068", "TITLE": "5876", "REGION": "NV-Clark", "ASSOCIATION": "USA - Nevada", "POINTS": "2", "BONUSPOINTS": "3"}}, {"type": "Feature", "geometry": {"type": "Point", "coordinates": [-115.5095, 35.8503]}, "properties": {"NAME": "W7N/CK-069", "TITLE": "Shenandoah Peak", "REGION": "NV-Clark", "ASSOCIATION": "USA - Nevada", "POINTS": "2", "BONUSPOINTS": "3"}}, {"type": "Feature", "geometry": {"type": "Point", "coordinates": [-115.8511, 36.6631]}, "properties": {"NAME": "W7N/CK-070", "TITLE": "Pot Benchmark", "REGION": "NV-Clark", "ASSOCIATION": "USA - Nevada", "POINTS": "2", "BONUSPOINTS": "3"}}, {"type": "Feature", "geometry": {"type": "Point", "coordinates": [-115.3862, 36.2211]}, "properties": {"NAME": "W7N/CK-071", "TITLE": "Mount Gottlieb", "REGION": "NV-Clark", "ASSOCIATION": "USA - Nevada", "POINTS": "2", "BONUSPOINTS": "3"}}, {"type": "Feature", "geometry": {"type": "Point", "coordinates": [-115.3711, 36.6955]}, "properties": {"NAME": "W7N/CK-072", "TITLE": "5812", "REGION": "NV-Clark", "ASSOCIATION": "USA - Nevada", "POINTS": "2", "BONUSPOINTS": "3"}}, {"type": "Feature", "geometry": {"type": "Point", "coordinates": [-114.1808, 36.2065]}, "properties": {"NAME": "W7N/CK-073", "TITLE": "Jumbo Peak", "REGION": "NV-Clark", "ASSOCIATION": "USA - Nevada", "POINTS": "2", "BONUSPOINTS": "3"}}, {"type": "Feature", "geometry": {"type": "Point", "coordinates": [-114.1563, 36.2662]}, "properties": {"NAME": "W7N/CK-074", "TITLE": "Mica Peak", "REGION": "NV-Clark", "ASSOCIATION": "USA - Nevada", "POINTS": "2", "BONUSPOINTS": "3"}}, {"type": "Feature", "geometry": {"type": "Point", "coordinates": [-115.4834, 36.35]}, "properties": {"NAME": "W7N/CK-075", "TITLE": "Kyle Benchmark", "REGION": "NV-Clark", "ASSOCIATION": "USA - Nevada", "POINTS": "2", "BONUSPOINTS": "3"}}, {"type": "Feature", "geometry": {"type": "Point", "coordinates": [-114.0645, 36.5123]}, "properties": {"NAME": "W7N/CK-076", "TITLE": "Billy Goat Peak", "REGION": "NV-Clark", "ASSOCIATION": "USA - Nevada", "POINTS": "2", "BONUSPOINTS": "3"}}, {"type": "Feature", "geometry": {"type": "Point", "coordinates": [-115.76, 36.7423]}, "properties": {"NAME": "W7N/CK-077", "TITLE": "5725", "REGION": "NV-Clark", "ASSOCIATION": "USA - Nevada", "POINTS": "2", "BONUSPOINTS": "3"}}, {"type": "Feature", "geometry": {"type": "Point", "coordinates": [-115.2722, 35.5976]}, "properties": {"NAME": "W7N/CK-078", "TITLE": "Adalac Benchmark", "REGION": "NV-Clark", "ASSOCIATION": "USA - Nevada", "POINTS": "2", "BONUSPOINTS": "3"}}, {"type": "Feature", "geometry": {"type": "Point", "coordinates": [-115.3899, 35.8926]}, "properties": {"NAME": "W7N/CK-079", "TITLE": "Bird Spring Range HP", "REGION": "NV-Clark", "ASSOCIATION": "USA - Nevada", "POINTS": "2", "BONUSPOINTS": "3"}}, {"type": "Feature", "geometry": {"type": "Point", "coordinates": [-114.7234, 35.2749]}, "properties": {"NAME": "W7N/CK-080", "TITLE": "Spirit Mountain", "REGION": "NV-Clark", "ASSOCIATION": "USA - Nevada", "POINTS": "2", "BONUSPOINTS": "3"}}, {"type": "Feature", "geometry": {"type": "Point", "coordinates": [-115.2697, 35.6166]}, "properties": {"NAME": "W7N/CK-081", "TITLE": "5626", "REGION": "NV-Clark", "ASSOCIATION": "USA - Nevada", "POINTS": "2", "BONUSPOINTS": "3"}}, {"type": "Feature", "geometry": {"type": "Point", "coordinates": [-114.1733, 36.2017]}, "properties": {"NAME": "W7N/CK-082", "TITLE": "Packard Peak", "REGION": "NV-Clark", "ASSOCIATION": "USA - Nevada", "POINTS": "2", "BONUSPOINTS": "3"}}, {"type": "Feature", "geometry": {"type": "Point", "coordinates": [-115.492, 35.7378]}, "properties": {"NAME": "W7N/CK-083", "TITLE": "Little Devil Peak", "REGION": "NV-Clark", "ASSOCIATION": "USA - Nevada", "POINTS": "2", "BONUSPOINTS": "3"}}, {"type": "Feature", "geometry": {"type": "Point", "coordinates": [-114.0577, 36.4927]}, "properties": {"NAME": "W7N/CK-084", "TITLE": "Whitney Ridge", "REGION": "NV-Clark", "ASSOCIATION": "USA - Nevada", "POINTS": "2", "BONUSPOINTS": "3"}}, {"type": "Feature", "geometry": {"type": "Point", "coordinates": [-115.3367, 36.607]}, "properties": {"NAME": "W7N/CK-085", "TITLE": "5528", "REGION": "NV-Clark", "ASSOCIATION": "USA - Nevada", "POINTS": "2", "BONUSPOINTS": "3"}}, {"type": "Feature", "geometry": {"type": "Point", "coordinates": [-115.3326, 36.7341]}, "properties": {"NAME": "W7N/CK-086", "TITLE": "5515", "REGION": "NV-Clark", "ASSOCIATION": "USA - Nevada", "POINTS": "2", "BONUSPOINTS": "3"}}, {"type": "Feature", "geometry": {"type": "Point", "coordinates": [-115.527, 35.833]}, "properties": {"NAME": "W7N/CK-087", "TITLE": "5482", "REGION": "NV-Clark", "ASSOCIATION": "USA - Nevada", "POINTS": "2", "BONUSPOINTS": "3"}}, {"type": "Feature", "geometry": {"type": "Point", "coordinates": [-115.3407, 36.5942]}, "properties": {"NAME": "W7N/CK-088", "TITLE": "5454", "REGION": "NV-Clark", "ASSOCIATION": "USA - Nevada", "POINTS": "2", "BONUSPOINTS": "3"}}, {"type": "Feature", "geometry": {"type": "Point", "coordinates": [-114.7142, 36.2986]}, "properties": {"NAME": "W7N/CK-089", "TITLE": "Muddy Mountains HP", "REGION": "NV-Clark", "ASSOCIATION": "USA - Nevada", "POINTS": "2", "BONUSPOINTS": "3"}}, {"type": "Feature", "geometry": {"type": "Point", "coordinates": [-115.4504, 35.6817]}, "properties": {"NAME": "W7N/CK-090", "TITLE": "5413", "REGION": "NV-Clark", "ASSOCIATION": "USA - Nevada", "POINTS": "2", "BONUSPOINTS": "3"}}, {"type": "Feature", "geometry": {"type": "Point", "coordinates": [-115.7146, 36.7781]}, "properties": {"NAME": "W7N/CK-091", "TITLE": "5399", "REGION": "NV-Clark", "ASSOCIATION": "USA - Nevada", "POINTS": "2", "BONUSPOINTS": "3"}}, {"type": "Feature", "geometry": {"type": "Point", "coordinates": [-114.6933, 36.2984]}, "properties": {"NAME": "W7N/CK-092", "TITLE": "Muddy Peak", "REGION": "NV-Clark", "ASSOCIATION": "USA - Nevada", "POINTS": "2", "BONUSPOINTS": "3"}}, {"type": "Feature", "geometry": {"type": "Point", "coordinates": [-115.0501, 36.392]}, "properties": {"NAME": "W7N/CK-093", "TITLE": "Marble 2 Benchmark", "REGION": "NV-Clark", "ASSOCIATION": "USA - Nevada", "POINTS": "2", "BONUSPOINTS": "3"}}, {"type": "Feature", "geometry": {"type": "Point", "coordinates": [-115.7969, 36.7608]}, "properties": {"NAME": "W7N/CK-094", "TITLE": "Ranger Mountains HP", "REGION": "NV-Clark", "ASSOCIATION": "USA - Nevada", "POINTS": "2", "BONUSPOINTS": "3"}}, {"type": "Feature", "geometry": {"type": "Point", "coordinates": [-114.2492, 36.1488]}, "properties": {"NAME": "W7N/CK-095", "TITLE": "Bonelli Peak", "REGION": "NV-Clark", "ASSOCIATION": "USA - Nevada", "POINTS": "2", "BONUSPOINTS": "3"}}, {"type": "Feature", "geometry": {"type": "Point", "coordinates": [-115.5651, 35.9125]}, "properties": {"NAME": "W7N/CK-096", "TITLE": "5318", "REGION": "NV-Clark", "ASSOCIATION": "USA - Nevada", "POINTS": "2", "BONUSPOINTS": "3"}}, {"type": "Feature", "geometry": {"type": "Point", "coordinates": [-115.1616, 35.678]}, "properties": {"NAME": "W7N/CK-097", "TITLE": "5302", "REGION": "NV-Clark", "ASSOCIATION": "USA - Nevada", "POINTS": "2", "BONUSPOINTS": "3"}}, {"type": "Feature", "geometry": {"type": "Point", "coordinates": [-115.1314, 35.6576]}, "properties": {"NAME": "W7N/CK-098", "TITLE": "5272", "REGION": "NV-Clark", "ASSOCIATION": "USA - Nevada", "POINTS": "2", "BONUSPOINTS": "3"}}, {"type": "Feature", "geometry": {"type": "Point", "coordinates": [-114.1625, 36.232]}, "properties": {"NAME": "W7N/CK-099", "TITLE": "Playground Peak", "REGION": "NV-Clark", "ASSOCIATION": "USA - Nevada", "POINTS": "2", "BONUSPOINTS": "3"}}, {"type": "Feature", "geometry": {"type": "Point", "coordinates": [-114.1813, 36.3345]}, "properties": {"NAME": "W7N/CK-100", "TITLE": "Tramp Ridge", "REGION": "NV-Clark", "ASSOCIATION": "USA - Nevada", "POINTS": "2", "BONUSPOINTS": "3"}}, {"type": "Feature", "geometry": {"type": "Point", "coordinates": [-115.3189, 36.7376]}, "properties": {"NAME": "W7N/CK-101", "TITLE": "5233", "REGION": "NV-Clark", "ASSOCIATION": "USA - Nevada", "POINTS": "2", "BONUSPOINTS": "3"}}, {"type": "Feature", "geometry": {"type": "Point", "coordinates": [-114.8873, 36.6632]}, "properties": {"NAME": "W7N/CK-102", "TITLE": "Arrow Canyon Range HP", "REGION": "NV-Clark", "ASSOCIATION": "USA - Nevada", "POINTS": "2", "BONUSPOINTS": "3"}}, {"type": "Feature", "geometry": {"type": "Point", "coordinates": [-114.8816, 36.6453]}, "properties": {"NAME": "W7N/CK-103", "TITLE": "South Arrow Peak", "REGION": "NV-Clark", "ASSOCIATION": "USA - Nevada", "POINTS": "2", "BONUSPOINTS": "3"}}, {"type": "Feature", "geometry": {"type": "Point", "coordinates": [-115.4637, 35.7193]}, "properties": {"NAME": "W7N/CK-104", "TITLE": "5219", "REGION": "NV-Clark", "ASSOCIATION": "USA - Nevada", "POINTS": "2", "BONUSPOINTS": "3"}}, {"type": "Feature", "geometry": {"type": "Point", "coordinates": [-114.7147, 35.2908]}, "properties": {"NAME": "W7N/CK-105", "TITLE": "Devils Thumb", "REGION": "NV-Clark", "ASSOCIATION": "USA - Nevada", "POINTS": "2", "BONUSPOINTS": "3"}}, {"type": "Feature", "geometry": {"type": "Point", "coordinates": [-115.5479, 36.772]}, "properties": {"NAME": "W7N/CK-106", "TITLE": "5182", "REGION": "NV-Clark", "ASSOCIATION": "USA - Nevada", "POINTS": "2", "BONUSPOINTS": "3"}}, {"type": "Feature", "geometry": {"type": "Point", "coordinates": [-115.4629, 35.765]}, "properties": {"NAME": "W7N/CK-107", "TITLE": "5180", "REGION": "NV-Clark", "ASSOCIATION": "USA - Nevada", "POINTS": "2", "BONUSPOINTS": "3"}}, {"type": "Feature", "geometry": {"type": "Point", "coordinates": [-115.5855, 35.9024]}, "properties": {"NAME": "W7N/CK-108", "TITLE": "Jagged Peak", "REGION": "NV-Clark", "ASSOCIATION": "USA - Nevada", "POINTS": "2", "BONUSPOINTS": "3"}}, {"type": "Feature", "geometry": {"type": "Point", "coordinates": [-115.8805, 36.7426]}, "properties": {"NAME": "W7N/CK-109", "TITLE": "Ran Benchmark", "REGION": "NV-Clark", "ASSOCIATION": "USA - Nevada", "POINTS": "2", "BONUSPOINTS": "3"}}, {"type": "Feature", "geometry": {"type": "Point", "coordinates": [-115.3636, 36.719]}, "properties": {"NAME": "W7N/CK-110", "TITLE": "5158", "REGION": "NV-Clark", "ASSOCIATION": "USA - Nevada", "POINTS": "2", "BONUSPOINTS": "3"}}, {"type": "Feature", "geometry": {"type": "Point", "coordinates": [-114.8784, 36.7005]}, "properties": {"NAME": "W7N/CK-111", "TITLE": "Broken Arrow Peak", "REGION": "NV-Clark", "ASSOCIATION": "USA - Nevada", "POINTS": "2", "BONUSPOINTS": "3"}}, {"type": "Feature", "geometry": {"type": "Point", "coordinates": [-115.3165, 36.7919]}, "properties": {"NAME": "W7N/CK-112", "TITLE": "5145", "REGION": "NV-Clark", "ASSOCIATION": "USA - Nevada", "POINTS": "2", "BONUSPOINTS": "3"}}, {"type": "Feature", "geometry": {"type": "Point", "coordinates": [-114.1998, 36.2331]}, "properties": {"NAME": "W7N/CK-113", "TITLE": "5108", "REGION": "NV-Clark", "ASSOCIATION": "USA - Nevada", "POINTS": "2", "BONUSPOINTS": "3"}}, {"type": "Feature", "geometry": {"type": "Point", "coordinates": [-115.3839, 36.7281]}, "properties": {"NAME": "W7N/CK-114", "TITLE": "5096", "REGION": "NV-Clark", "ASSOCIATION": "USA - Nevada", "POINTS": "2", "BONUSPOINTS": "3"}}, {"type": "Feature", "geometry": {"type": "Point", "coordinates": [-115.0441, 35.9311]}, "properties": {"NAME": "W7N/CK-115", "TITLE": "Black Mountain", "REGION": "NV-Clark", "ASSOCIATION": "USA - Nevada", "POINTS": "2", "BONUSPOINTS": "3"}}, {"type": "Feature", "geometry": {"type": "Point", "coordinates": [-114.8291, 35.5946]}, "properties": {"NAME": "W7N/CK-116", "TITLE": "Ireteba Peaks South", "REGION": "NV-Clark", "ASSOCIATION": "USA - Nevada", "POINTS": "2", "BONUSPOINTS": "3"}}, {"type": "Feature", "geometry": {"type": "Point", "coordinates": [-115.0447, 35.9051]}, "properties": {"NAME": "W7N/CK-117", "TITLE": "North McCullough Peak", "REGION": "NV-Clark", "ASSOCIATION": "USA - Nevada", "POINTS": "2", "BONUSPOINTS": "3"}}, {"type": "Feature", "geometry": {"type": "Point", "coordinates": [-114.1847, 36.273]}, "properties": {"NAME": "W7N/CK-118", "TITLE": "Gold Butte", "REGION": "NV-Clark", "ASSOCIATION": "USA - Nevada", "POINTS": "2", "BONUSPOINTS": "3"}}, {"type": "Feature", "geometry": {"type": "Point", "coordinates": [-115.8599, 36.7592]}, "properties": {"NAME": "W7N/CK-119", "TITLE": "5043", "REGION": "NV-Clark", "ASSOCIATION": "USA - Nevada", "POINTS": "2", "BONUSPOINTS": "3"}}, {"type": "Feature", "geometry": {"type": "Point", "coordinates": [-115.5842, 35.873]}, "properties": {"NAME": "W7N/CK-120", "TITLE": "Ragged Peak", "REGION": "NV-Clark", "ASSOCIATION": "USA - Nevada", "POINTS": "2", "BONUSPOINTS": "3"}}, {"type": "Feature", "geometry": {"type": "Point", "coordinates": [-115.2537, 35.5668]}, "properties": {"NAME": "W7N/CK-121", "TITLE": "5036", "REGION": "NV-Clark", "ASSOCIATION": "USA - Nevada", "POINTS": "2", "BONUSPOINTS": "3"}}, {"type": "Feature", "geometry": {"type": "Point", "coordinates": [-114.8707, 36.6736]}, "properties": {"NAME": "W7N/CK-122", "TITLE": "Question Mark Peak", "REGION": "NV-Clark", "ASSOCIATION": "USA - Nevada", "POINTS": "2", "BONUSPOINTS": "3"}}, {"type": "Feature", "geometry": {"type": "Point", "coordinates": [-115.395, 36.1024]}, "properties": {"NAME": "W7N/CK-123", "TITLE": "Blue Diamond Hill", "REGION": "NV-Clark", "ASSOCIATION": "USA - Nevada", "POINTS": "1", "BONUSPOINTS": "3"}}, {"type": "Feature", "geometry": {"type": "Point", "coordinates": [-115.0603, 35.6007]}, "properties": {"NAME": "W7N/CK-124", "TITLE": "Highland Mountain", "REGION": "NV-Clark", "ASSOCIATION": "USA - Nevada", "POINTS": "1", "BONUSPOINTS": "3"}}, {"type": "Feature", "geometry": {"type": "Point", "coordinates": [-115.5565, 35.8754]}, "properties": {"NAME": "W7N/CK-125", "TITLE": "4957", "REGION": "NV-Clark", "ASSOCIATION": "USA - Nevada", "POINTS": "1", "BONUSPOINTS": "3"}}, {"type": "Feature", "geometry": {"type": "Point", "coordinates": [-115.7272, 36.7458]}, "properties": {"NAME": "W7N/CK-126", "TITLE": "4945", "REGION": "NV-Clark", "ASSOCIATION": "USA - Nevada", "POINTS": "1", "BONUSPOINTS": "3"}}, {"type": "Feature", "geometry": {"type": "Point", "coordinates": [-115.0327, 35.6117]}, "properties": {"NAME": "W7N/CK-127", "TITLE": "Highland Peak", "REGION": "NV-Clark", "ASSOCIATION": "USA - Nevada", "POINTS": "1", "BONUSPOINTS": "3"}}, {"type": "Feature", "geometry": {"type": "Point", "coordinates": [-114.2154, 36.1951]}, "properties": {"NAME": "W7N/CK-128", "TITLE": "Rattlesnake Peak", "REGION": "NV-Clark", "ASSOCIATION": "USA - Nevada", "POINTS": "1", "BONUSPOINTS": "3"}}, {"type": "Feature", "geometry": {"type": "Point", "coordinates": [-114.7518, 35.2369]}, "properties": {"NAME": "W7N/CK-129", "TITLE": "4921", "REGION": "NV-Clark", "ASSOCIATION": "USA - Nevada", "POINTS": "1", "BONUSPOINTS": "3"}}, {"type": "Feature", "geometry": {"type": "Point", "coordinates": [-114.8904, 35.7018]}, "properties": {"NAME": "W7N/CK-130", "TITLE": "Opal Benchmark", "REGION": "NV-Clark", "ASSOCIATION": "USA - Nevada", "POINTS": "1", "BONUSPOINTS": "3"}}, {"type": "Feature", "geometry": {"type": "Point", "coordinates": [-115.2749, 35.6506]}, "properties": {"NAME": "W7N/CK-131", "TITLE": "4875", "REGION": "NV-Clark", "ASSOCIATION": "USA - Nevada", "POINTS": "1", "BONUSPOINTS": "3"}}, {"type": "Feature", "geometry": {"type": "Point", "coordinates": [-115.6291, 35.9011]}, "properties": {"NAME": "W7N/CK-132", "TITLE": "Green Monster Benchmark", "REGION": "NV-Clark", "ASSOCIATION": "USA - Nevada", "POINTS": "1", "BONUSPOINTS": "3"}}, {"type": "Feature", "geometry": {"type": "Point", "coordinates": [-114.0935, 36.2906]}, "properties": {"NAME": "W7N/CK-133", "TITLE": "Azure Ridge", "REGION": "NV-Clark", "ASSOCIATION": "USA - Nevada", "POINTS": "1", "BONUSPOINTS": "3"}}, {"type": "Feature", "geometry": {"type": "Point", "coordinates": [-115.7877, 36.6025]}, "properties": {"NAME": "W7N/CK-134", "TITLE": "4819", "REGION": "NV-Clark", "ASSOCIATION": "USA - Nevada", "POINTS": "1", "BONUSPOINTS": "3"}}, {"type": "Feature", "geometry": {"type": "Point", "coordinates": [-114.8579, 36.6513]}, "properties": {"NAME": "W7N/CK-135", "TITLE": "4819", "REGION": "NV-Clark", "ASSOCIATION": "USA - Nevada", "POINTS": "1", "BONUSPOINTS": "3"}}, {"type": "Feature", "geometry": {"type": "Point", "coordinates": [-114.9531, 36.6387]}, "properties": {"NAME": "W7N/CK-136", "TITLE": "4650", "REGION": "NV-Clark", "ASSOCIATION": "USA - Nevada", "POINTS": "1", "BONUSPOINTS": "3"}}, {"type": "Feature", "geometry": {"type": "Point", "coordinates": [-115.3192, 35.9117]}, "properties": {"NAME": "W7N/CK-137", "TITLE": "Joshua Tree", "REGION": "NV-Clark", "ASSOCIATION": "USA - Nevada", "POINTS": "1", "BONUSPOINTS": "3"}}, {"type": "Feature", "geometry": {"type": "Point", "coordinates": [-114.2237, 36.1656]}, "properties": {"NAME": "W7N/CK-138", "TITLE": "4478", "REGION": "NV-Clark", "ASSOCIATION": "USA - Nevada", "POINTS": "1", "BONUSPOINTS": "3"}}, {"type": "Feature", "geometry": {"type": "Point", "coordinates": [-114.6641, 36.3627]}, "properties": {"NAME": "W7N/CK-139", "TITLE": "White Basin Overlook", "REGION": "NV-Clark", "ASSOCIATION": "USA - Nevada", "POINTS": "1", "BONUSPOINTS": "3"}}, {"type": "Feature", "geometry": {"type": "Point", "coordinates": [-115.4641, 36.6833]}, "properties": {"NAME": "W7N/CK-140", "TITLE": "4438", "REGION": "NV-Clark", "ASSOCIATION": "USA - Nevada", "POINTS": "1", "BONUSPOINTS": "3"}}, {"type": "Feature", "geometry": {"type": "Point", "coordinates": [-114.8599, 35.5103]}, "properties": {"NAME": "W7N/CK-141", "TITLE": "4432", "REGION": "NV-Clark", "ASSOCIATION": "USA - Nevada", "POINTS": "1", "BONUSPOINTS": "3"}}, {"type": "Feature", "geometry": {"type": "Point", "coordinates": [-115.1112, 35.6557]}, "properties": {"NAME": "W7N/CK-142", "TITLE": "4415", "REGION": "NV-Clark", "ASSOCIATION": "USA - Nevada", "POINTS": "1", "BONUSPOINTS": "3"}}, {"type": "Feature", "geometry": {"type": "Point", "coordinates": [-114.1246, 36.5342]}, "properties": {"NAME": "W7N/CK-143", "TITLE": "4379", "REGION": "NV-Clark", "ASSOCIATION": "USA - Nevada", "POINTS": "1", "BONUSPOINTS": "3"}}, {"type": "Feature", "geometry": {"type": "Point", "coordinates": [-114.255, 36.3026]}, "properties": {"NAME": "W7N/CK-144", "TITLE": "Lime Canyon Wilderness HP", "REGION": "NV-Clark", "ASSOCIATION": "USA - Nevada", "POINTS": "1", "BONUSPOINTS": "3"}}, {"type": "Feature", "geometry": {"type": "Point", "coordinates": [-115.1068, 36.365]}, "properties": {"NAME": "W7N/CK-145", "TITLE": "4403", "REGION": "NV-Clark", "ASSOCIATION": "USA - Nevada", "POINTS": "1", "BONUSPOINTS": "3"}}, {"type": "Feature", "geometry": {"type": "Point", "coordinates": [-115.0355, 35.335]}, "properties": {"NAME": "W7N/CK-146", "TITLE": "4400", "REGION": "NV-Clark", "ASSOCIATION": "USA - Nevada", "POINTS": "1", "BONUSPOINTS": "3"}}, {"type": "Feature", "geometry": {"type": "Point", "coordinates": [-115.2711, 35.5332]}, "properties": {"NAME": "W7N/CK-147", "TITLE": "Desert Benchmark", "REGION": "NV-Clark", "ASSOCIATION": "USA - Nevada", "POINTS": "1", "BONUSPOINTS": "3"}}, {"type": "Feature", "geometry": {"type": "Point", "coordinates": [-114.6961, 35.2853]}, "properties": {"NAME": "W7N/CK-148", "TITLE": "4391", "REGION": "NV-Clark", "ASSOCIATION": "USA - Nevada", "POINTS": "1", "BONUSPOINTS": "3"}}, {"type": "Feature", "geometry": {"type": "Point", "coordinates": [-115.1702, 35.7471]}, "properties": {"NAME": "W7N/CK-149", "TITLE": "4380", "REGION": "NV-Clark", "ASSOCIATION": "USA - Nevada", "POINTS": "1", "BONUSPOINTS": "3"}}, {"type": "Feature", "geometry": {"type": "Point", "coordinates": [-114.9138, 35.4859]}, "properties": {"NAME": "W7N/CK-150", "TITLE": "Morning Glory Mountain", "REGION": "NV-Clark", "ASSOCIATION": "USA - Nevada", "POINTS": "1", "BONUSPOINTS": "3"}}, {"type": "Feature", "geometry": {"type": "Point", "coordinates": [-114.1408, 36.5376]}, "properties": {"NAME": "W7N/CK-151", "TITLE": "4311", "REGION": "NV-Clark", "ASSOCIATION": "USA - Nevada", "POINTS": "1", "BONUSPOINTS": "3"}}, {"type": "Feature", "geometry": {"type": "Point", "coordinates": [-115.1608, 35.7845]}, "properties": {"NAME": "W7N/CK-152", "TITLE": "4292", "REGION": "NV-Clark", "ASSOCIATION": "USA - Nevada", "POINTS": "1", "BONUSPOINTS": "3"}}, {"type": "Feature", "geometry": {"type": "Point", "coordinates": [-114.5989, 36.397]}, "properties": {"NAME": "W7N/CK-153", "TITLE": "4288", "REGION": "NV-Clark", "ASSOCIATION": "USA - Nevada", "POINTS": "1", "BONUSPOINTS": "3"}}, {"type": "Feature", "geometry": {"type": "Point", "coordinates": [-114.7235, 35.2482]}, "properties": {"NAME": "W7N/CK-154", "TITLE": "Space Needle", "REGION": "NV-Clark", "ASSOCIATION": "USA - Nevada", "POINTS": "1", "BONUSPOINTS": "3"}}, {"type": "Feature", "geometry": {"type": "Point", "coordinates": [-115.3289, 35.9378]}, "properties": {"NAME": "W7N/CK-155", "TITLE": "Christmas Gift", "REGION": "NV-Clark", "ASSOCIATION": "USA - Nevada", "POINTS": "1", "BONUSPOINTS": "3"}}, {"type": "Feature", "geometry": {"type": "Point", "coordinates": [-115.0876, 35.8293]}, "properties": {"NAME": "W7N/CK-156", "TITLE": "Hanna Benchmark", "REGION": "NV-Clark", "ASSOCIATION": "USA - Nevada", "POINTS": "1", "BONUSPOINTS": "3"}}, {"type": "Feature", "geometry": {"type": "Point", "coordinates": [-114.7255, 36.3474]}, "properties": {"NAME": "W7N/CK-157", "TITLE": "Colorock Summit", "REGION": "NV-Clark", "ASSOCIATION": "USA - Nevada", "POINTS": "1", "BONUSPOINTS": "3"}}, {"type": "Feature", "geometry": {"type": "Point", "coordinates": [-114.9712, 36.6814]}, "properties": {"NAME": "W7N/CK-158", "TITLE": "Center Benchmark", "REGION": "NV-Clark", "ASSOCIATION": "USA - Nevada", "POINTS": "1", "BONUSPOINTS": "3"}}, {"type": "Feature", "geometry": {"type": "Point", "coordinates": [-114.1584, 36.5462]}, "properties": {"NAME": "W7N/CK-159", "TITLE": "4226", "REGION": "NV-Clark", "ASSOCIATION": "USA - Nevada", "POINTS": "1", "BONUSPOINTS": "3"}}, {"type": "Feature", "geometry": {"type": "Point", "coordinates": [-115.1198, 35.8836]}, "properties": {"NAME": "W7N/CK-160", "TITLE": "Sutor Benchmark", "REGION": "NV-Clark", "ASSOCIATION": "USA - Nevada", "POINTS": "1", "BONUSPOINTS": "3"}}, {"type": "Feature", "geometry": {"type": "Point", "coordinates": [-115.2961, 35.7608]}, "properties": {"NAME": "W7N/CK-161", "TITLE": "Sheep Mountain", "REGION": "NV-Clark", "ASSOCIATION": "USA - Nevada", "POINTS": "1", "BONUSPOINTS": "3"}}, {"type": "Feature", "geometry": {"type": "Point", "coordinates": [-114.0975, 36.239]}, "properties": {"NAME": "W7N/CK-162", "TITLE": "4183", "REGION": "NV-Clark", "ASSOCIATION": "USA - Nevada", "POINTS": "1", "BONUSPOINTS": "3"}}, {"type": "Feature", "geometry": {"type": "Point", "coordinates": [-115.6063, 36.6616]}, "properties": {"NAME": "W7N/CK-163", "TITLE": "4172", "REGION": "NV-Clark", "ASSOCIATION": "USA - Nevada", "POINTS": "1", "BONUSPOINTS": "3"}}, {"type": "Feature", "geometry": {"type": "Point", "coordinates": [-114.8156, 35.6473]}, "properties": {"NAME": "W7N/CK-164", "TITLE": "Aztec Mountain", "REGION": "NV-Clark", "ASSOCIATION": "USA - Nevada", "POINTS": "1", "BONUSPOINTS": "3"}}, {"type": "Feature", "geometry": {"type": "Point", "coordinates": [-115.2911, 35.6833]}, "properties": {"NAME": "W7N/CK-165", "TITLE": "4146", "REGION": "NV-Clark", "ASSOCIATION": "USA - Nevada", "POINTS": "1", "BONUSPOINTS": "3"}}, {"type": "Feature", "geometry": {"type": "Point", "coordinates": [-114.9473, 35.9478]}, "properties": {"NAME": "W7N/CK-166", "TITLE": "Railroad Peak", "REGION": "NV-Clark", "ASSOCIATION": "USA - Nevada", "POINTS": "1", "BONUSPOINTS": "3"}}, {"type": "Feature", "geometry": {"type": "Point", "coordinates": [-114.8912, 36.5721]}, "properties": {"NAME": "W7N/CK-167", "TITLE": "Marble Mountain", "REGION": "NV-Clark", "ASSOCIATION": "USA - Nevada", "POINTS": "1", "BONUSPOINTS": "3"}}, {"type": "Feature", "geometry": {"type": "Point", "coordinates": [-115.5335, 36.6318]}, "properties": {"NAME": "W7N/CK-168", "TITLE": "4123", "REGION": "NV-Clark", "ASSOCIATION": "USA - Nevada", "POINTS": "1", "BONUSPOINTS": "3"}}, {"type": "Feature", "geometry": {"type": "Point", "coordinates": [-114.2535, 36.3255]}, "properties": {"NAME": "W7N/CK-169", "TITLE": "Lime Ridge", "REGION": "NV-Clark", "ASSOCIATION": "USA - Nevada", "POINTS": "1", "BONUSPOINTS": "3"}}, {"type": "Feature", "geometry": {"type": "Point", "coordinates": [-114.9977, 36.3472]}, "properties": {"NAME": "W7N/CK-170", "TITLE": "Dike Benchmark", "REGION": "NV-Clark", "ASSOCIATION": "USA - Nevada", "POINTS": "1", "BONUSPOINTS": "3"}}, {"type": "Feature", "geometry": {"type": "Point", "coordinates": [-115.3914, 36.0405]}, "properties": {"NAME": "W7N/CK-171", "TITLE": "4109", "REGION": "NV-Clark", "ASSOCIATION": "USA - Nevada", "POINTS": "1", "BONUSPOINTS": "3"}}, {"type": "Feature", "geometry": {"type": "Point", "coordinates": [-114.8711, 36.5689]}, "properties": {"NAME": "W7N/CK-172", "TITLE": "Landfill Peak", "REGION": "NV-Clark", "ASSOCIATION": "USA - Nevada", "POINTS": "1", "BONUSPOINTS": "3"}}, {"type": "Feature", "geometry": {"type": "Point", "coordinates": [-114.9789, 36.7015]}, "properties": {"NAME": "W7N/CK-173", "TITLE": "Toy Train Peak", "REGION": "NV-Clark", "ASSOCIATION": "USA - Nevada", "POINTS": "1", "BONUSPOINTS": "3"}}, {"type": "Feature", "geometry": {"type": "Point", "coordinates": [-115.1883, 35.7698]}, "properties": {"NAME": "W7N/CK-174", "TITLE": "4060", "REGION": "NV-Clark", "ASSOCIATION": "USA - Nevada", "POINTS": "1", "BONUSPOINTS": "3"}}, {"type": "Feature", "geometry": {"type": "Point", "coordinates": [-114.9977, 36.1791]}, "properties": {"NAME": "W7N/CK-175", "TITLE": "Frenchman Mountain", "REGION": "NV-Clark", "ASSOCIATION": "USA - Nevada", "POINTS": "1", "BONUSPOINTS": "3"}}, {"type": "Feature", "geometry": {"type": "Point", "coordinates": [-115.2023, 35.8581]}, "properties": {"NAME": "W7N/CK-176", "TITLE": "Dog Skull Mountain", "REGION": "NV-Clark", "ASSOCIATION": "USA - Nevada", "POINTS": "1", "BONUSPOINTS": "3"}}, {"type": "Feature", "geometry": {"type": "Point", "coordinates": [-115.3641, 36.1323]}, "properties": {"NAME": "W7N/CK-177", "TITLE": "Red Benchmark", "REGION": "NV-Clark", "ASSOCIATION": "USA - Nevada", "POINTS": "1", "BONUSPOINTS": "3"}}, {"type": "Feature", "geometry": {"type": "Point", "coordinates": [-114.925, 36.5091]}, "properties": {"NAME": "W7N/CK-178", "TITLE": "Dry Benchmark", "REGION": "NV-Clark", "ASSOCIATION": "USA - Nevada", "POINTS": "1", "BONUSPOINTS": "3"}}, {"type": "Feature", "geometry": {"type": "Point", "coordinates": [-114.1936, 36.6386]}, "properties": {"NAME": "W7N/CK-179", "TITLE": "3990", "REGION": "NV-Clark", "ASSOCIATION": "USA - Nevada", "POINTS": "1", "BONUSPOINTS": "3"}}, {"type": "Feature", "geometry": {"type": "Point", "coordinates": [-115.142, 35.8972]}, "properties": {"NAME": "W7N/CK-180", "TITLE": "3970", "REGION": "NV-Clark", "ASSOCIATION": "USA - Nevada", "POINTS": "1", "BONUSPOINTS": "3"}}, {"type": "Feature", "geometry": {"type": "Point", "coordinates": [-114.5127, 36.3632]}, "properties": {"NAME": "W7N/CK-181", "TITLE": "Fire Benchmark", "REGION": "NV-Clark", "ASSOCIATION": "USA - Nevada", "POINTS": "1", "BONUSPOINTS": "3"}}, {"type": "Feature", "geometry": {"type": "Point", "coordinates": [-114.9981, 36.1881]}, "properties": {"NAME": "W7N/CK-182", "TITLE": "Northwest Frenchman Peak", "REGION": "NV-Clark", "ASSOCIATION": "USA - Nevada", "POINTS": "1", "BONUSPOINTS": "3"}}, {"type": "Feature", "geometry": {"type": "Point", "coordinates": [-114.0915, 36.2206]}, "properties": {"NAME": "W7N/CK-183", "TITLE": "3940", "REGION": "NV-Clark", "ASSOCIATION": "USA - Nevada", "POINTS": "1", "BONUSPOINTS": "3"}}, {"type": "Feature", "geometry": {"type": "Point", "coordinates": [-115.615, 36.7913]}, "properties": {"NAME": "W7N/CK-184", "TITLE": "3924", "REGION": "NV-Clark", "ASSOCIATION": "USA - Nevada", "POINTS": "1", "BONUSPOINTS": "3"}}, {"type": "Feature", "geometry": {"type": "Point", "coordinates": [-114.2667, 36.2083]}, "properties": {"NAME": "W7N/CK-185", "TITLE": "Garrett Butte", "REGION": "NV-Clark", "ASSOCIATION": "USA - Nevada", "POINTS": "1", "BONUSPOINTS": "3"}}, {"type": "Feature", "geometry": {"type": "Point", "coordinates": [-115.0338, 35.9682]}, "properties": {"NAME": "W7N/CK-186", "TITLE": "Rattlesnake Mountain", "REGION": "NV-Clark", "ASSOCIATION": "USA - Nevada", "POINTS": "1", "BONUSPOINTS": "3"}}, {"type": "Feature", "geometry": {"type": "Point", "coordinates": [-115.1976, 35.8909]}, "properties": {"NAME": "W7N/CK-187", "TITLE": "Sloan Peak", "REGION": "NV-Clark", "ASSOCIATION": "USA - Nevada", "POINTS": "1", "BONUSPOINTS": "3"}}, {"type": "Feature", "geometry": {"type": "Point", "coordinates": [-114.8828, 36.7489]}, "properties": {"NAME": "W7N/CK-188", "TITLE": "Birthday Peak", "REGION": "NV-Clark", "ASSOCIATION": "USA - Nevada", "POINTS": "1", "BONUSPOINTS": "3"}}, {"type": "Feature", "geometry": {"type": "Point", "coordinates": [-115.6339, 36.5952]}, "properties": {"NAME": "W7N/CK-189", "TITLE": "Beacon Benchmark", "REGION": "NV-Clark", "ASSOCIATION": "USA - Nevada", "POINTS": "1", "BONUSPOINTS": "3"}}, {"type": "Feature", "geometry": {"type": "Point", "coordinates": [-114.8068, 35.7302]}, "properties": {"NAME": "W7N/CK-190", "TITLE": "Mount Stocker", "REGION": "NV-Clark", "ASSOCIATION": "USA - Nevada", "POINTS": "1", "BONUSPOINTS": "3"}}, {"type": "Feature", "geometry": {"type": "Point", "coordinates": [-114.7937, 36.8472]}, "properties": {"NAME": "W7N/CK-191", "TITLE": "3825", "REGION": "NV-Clark", "ASSOCIATION": "USA - Nevada", "POINTS": "1", "BONUSPOINTS": "3"}}, {"type": "Feature", "geometry": {"type": "Point", "coordinates": [-114.7562, 35.3275]}, "properties": {"NAME": "W7N/CK-192", "TITLE": "3813", "REGION": "NV-Clark", "ASSOCIATION": "USA - Nevada", "POINTS": "1", "BONUSPOINTS": "3"}}, {"type": "Feature", "geometry": {"type": "Point", "coordinates": [-114.8589, 36.0175]}, "properties": {"NAME": "W7N/CK-193", "TITLE": "River Mountain Benchmark", "REGION": "NV-Clark", "ASSOCIATION": "USA - Nevada", "POINTS": "1", "BONUSPOINTS": "3"}}, {"type": "Feature", "geometry": {"type": "Point", "coordinates": [-115.0173, 35.9948]}, "properties": {"NAME": "W7N/CK-194", "TITLE": "Tortoise Shell Peak", "REGION": "NV-Clark", "ASSOCIATION": "USA - Nevada", "POINTS": "1", "BONUSPOINTS": "3"}}, {"type": "Feature", "geometry": {"type": "Point", "coordinates": [-114.4949, 36.3899]}, "properties": {"NAME": "W7N/CK-195", "TITLE": "North Fire Peak", "REGION": "NV-Clark", "ASSOCIATION": "USA - Nevada", "POINTS": "1", "BONUSPOINTS": "3"}}, {"type": "Feature", "geometry": {"type": "Point", "coordinates": [-114.5593, 36.3927]}, "properties": {"NAME": "W7N/CK-196", "TITLE": "3737", "REGION": "NV-Clark", "ASSOCIATION": "USA - Nevada", "POINTS": "1", "BONUSPOINTS": "3"}}, {"type": "Feature", "geometry": {"type": "Point", "coordinates": [-114.5814, 36.4159]}, "properties": {"NAME": "W7N/CK-197", "TITLE": "Thin Peak", "REGION": "NV-Clark", "ASSOCIATION": "USA - Nevada", "POINTS": "1", "BONUSPOINTS": "3"}}, {"type": "Feature", "geometry": {"type": "Point", "coordinates": [-114.9339, 36.5932]}, "properties": {"NAME": "W7N/CK-198", "TITLE": "Hand Peak", "REGION": "NV-Clark", "ASSOCIATION": "USA - Nevada", "POINTS": "1", "BONUSPOINTS": "3"}}, {"type": "Feature", "geometry": {"type": "Point", "coordinates": [-114.9903, 35.967]}, "properties": {"NAME": "W7N/CK-199", "TITLE": "The Queen", "REGION": "NV-Clark", "ASSOCIATION": "USA - Nevada", "POINTS": "1", "BONUSPOINTS": "3"}}, {"type": "Feature", "geometry": {"type": "Point", "coordinates": [-115.2095, 35.9469]}, "properties": {"NAME": "W7N/CK-200", "TITLE": "3660", "REGION": "NV-Clark", "ASSOCIATION": "USA - Nevada", "POINTS": "1", "BONUSPOINTS": "3"}}, {"type": "Feature", "geometry": {"type": "Point", "coordinates": [-114.8116, 36.6568]}, "properties": {"NAME": "W7N/CK-201", "TITLE": "3648", "REGION": "NV-Clark", "ASSOCIATION": "USA - Nevada", "POINTS": "1", "BONUSPOINTS": "3"}}, {"type": "Feature", "geometry": {"type": "Point", "coordinates": [-114.6625, 35.2931]}, "properties": {"NAME": "W7N/CK-202", "TITLE": "Newberry, Mount", "REGION": "NV-Clark", "ASSOCIATION": "USA - Nevada", "POINTS": "1", "BONUSPOINTS": "3"}}, {"type": "Feature", "geometry": {"type": "Point", "coordinates": [-114.0982, 36.1989]}, "properties": {"NAME": "W7N/CK-203", "TITLE": "3589", "REGION": "NV-Clark", "ASSOCIATION": "USA - Nevada", "POINTS": "1", "BONUSPOINTS": "3"}}, {"type": "Feature", "geometry": {"type": "Point", "coordinates": [-115.7215, 35.8829]}, "properties": {"NAME": "W7N/CK-204", "TITLE": "Black Butte", "REGION": "NV-Clark", "ASSOCIATION": "USA - Nevada", "POINTS": "1", "BONUSPOINTS": "3"}}, {"type": "Feature", "geometry": {"type": "Point", "coordinates": [-114.6632, 36.264]}, "properties": {"NAME": "W7N/CK-205", "TITLE": "3550", "REGION": "NV-Clark", "ASSOCIATION": "USA - Nevada", "POINTS": "1", "BONUSPOINTS": "3"}}, {"type": "Feature", "geometry": {"type": "Point", "coordinates": [-114.7769, 35.8]}, "properties": {"NAME": "W7N/CK-206", "TITLE": "3540", "REGION": "NV-Clark", "ASSOCIATION": "USA - Nevada", "POINTS": "1", "BONUSPOINTS": "3"}}, {"type": "Feature", "geometry": {"type": "Point", "coordinates": [-114.9748, 36.3337]}, "properties": {"NAME": "W7N/CK-207", "TITLE": "Game Benchmark", "REGION": "NV-Clark", "ASSOCIATION": "USA - Nevada", "POINTS": "1", "BONUSPOINTS": "3"}}, {"type": "Feature", "geometry": {"type": "Point", "coordinates": [-114.675, 36.2507]}, "properties": {"NAME": "W7N/CK-208", "TITLE": "3537", "REGION": "NV-Clark", "ASSOCIATION": "USA - Nevada", "POINTS": "1", "BONUSPOINTS": "3"}}, {"type": "Feature", "geometry": {"type": "Point", "coordinates": [-114.2239, 36.603]}, "properties": {"NAME": "W7N/CK-209", "TITLE": "Little Virgin Peak", "REGION": "NV-Clark", "ASSOCIATION": "USA - Nevada", "POINTS": "1", "BONUSPOINTS": "3"}}, {"type": "Feature", "geometry": {"type": "Point", "coordinates": [-114.508, 36.2298]}, "properties": {"NAME": "W7N/CK-210", "TITLE": "3510", "REGION": "NV-Clark", "ASSOCIATION": "USA - Nevada", "POINTS": "1", "BONUSPOINTS": "3"}}, {"type": "Feature", "geometry": {"type": "Point", "coordinates": [-114.8015, 35.7533]}, "properties": {"NAME": "W7N/CK-211", "TITLE": "3510", "REGION": "NV-Clark", "ASSOCIATION": "USA - Nevada", "POINTS": "1", "BONUSPOINTS": "3"}}, {"type": "Feature", "geometry": {"type": "Point", "coordinates": [-114.2217, 36.6269]}, "properties": {"NAME": "W7N/CK-212", "TITLE": "Juanita Benchmark", "REGION": "NV-Clark", "ASSOCIATION": "USA - Nevada", "POINTS": "1", "BONUSPOINTS": "3"}}, {"type": "Feature", "geometry": {"type": "Point", "coordinates": [-114.6526, 36.2714]}, "properties": {"NAME": "W7N/CK-213", "TITLE": "3491", "REGION": "NV-Clark", "ASSOCIATION": "USA - Nevada", "POINTS": "1", "BONUSPOINTS": "3"}}, {"type": "Feature", "geometry": {"type": "Point", "coordinates": [-114.9051, 36.5504]}, "properties": {"NAME": "W7N/CK-214", "TITLE": "Painted Prow", "REGION": "NV-Clark", "ASSOCIATION": "USA - Nevada", "POINTS": "1", "BONUSPOINTS": "3"}}, {"type": "Feature", "geometry": {"type": "Point", "coordinates": [-114.8644, 36.3537]}, "properties": {"NAME": "W7N/CK-215", "TITLE": "Garnet Benchmark", "REGION": "NV-Clark", "ASSOCIATION": "USA - Nevada", "POINTS": "1", "BONUSPOINTS": "3"}}, {"type": "Feature", "geometry": {"type": "Point", "coordinates": [-114.6457, 36.2893]}, "properties": {"NAME": "W7N/CK-216", "TITLE": "Bitter Ridge", "REGION": "NV-Clark", "ASSOCIATION": "USA - Nevada", "POINTS": "1", "BONUSPOINTS": "3"}}, {"type": "Feature", "geometry": {"type": "Point", "coordinates": [-114.4928, 36.7662]}, "properties": {"NAME": "W7N/CK-217", "TITLE": "Candy Benchmark", "REGION": "NV-Clark", "ASSOCIATION": "USA - Nevada", "POINTS": "1", "BONUSPOINTS": "3"}}, {"type": "Feature", "geometry": {"type": "Point", "coordinates": [-114.1727, 36.0721]}, "properties": {"NAME": "W7N/CK-218", "TITLE": "Gold Cross Peak", "REGION": "NV-Clark", "ASSOCIATION": "USA - Nevada", "POINTS": "1", "BONUSPOINTS": "3"}}, {"type": "Feature", "geometry": {"type": "Point", "coordinates": [-114.7076, 36.2312]}, "properties": {"NAME": "W7N/CK-219", "TITLE": "Endless Peak", "REGION": "NV-Clark", "ASSOCIATION": "USA - Nevada", "POINTS": "1", "BONUSPOINTS": "3"}}, {"type": "Feature", "geometry": {"type": "Point", "coordinates": [-114.9532, 36.346]}, "properties": {"NAME": "W7N/CK-220", "TITLE": "Hidden Arch Mountain", "REGION": "NV-Clark", "ASSOCIATION": "USA - Nevada", "POINTS": "1", "BONUSPOINTS": "3"}}, {"type": "Feature", "geometry": {"type": "Point", "coordinates": [-114.247, 36.4044]}, "properties": {"NAME": "W7N/CK-221", "TITLE": "3402", "REGION": "NV-Clark", "ASSOCIATION": "USA - Nevada", "POINTS": "1", "BONUSPOINTS": "3"}}, {"type": "Feature", "geometry": {"type": "Point", "coordinates": [-114.8636, 36.5466]}, "properties": {"NAME": "W7N/CK-222", "TITLE": "3399", "REGION": "NV-Clark", "ASSOCIATION": "USA - Nevada", "POINTS": "1", "BONUSPOINTS": "3"}}, {"type": "Feature", "geometry": {"type": "Point", "coordinates": [-114.9575, 36.37]}, "properties": {"NAME": "W7N/CK-223", "TITLE": "Bark Benchmark", "REGION": "NV-Clark", "ASSOCIATION": "USA - Nevada", "POINTS": "1", "BONUSPOINTS": "3"}}, {"type": "Feature", "geometry": {"type": "Point", "coordinates": [-114.7883, 35.8375]}, "properties": {"NAME": "W7N/CK-224", "TITLE": "Pilot Mesa", "REGION": "NV-Clark", "ASSOCIATION": "USA - Nevada", "POINTS": "1", "BONUSPOINTS": "3"}}, {"type": "Feature", "geometry": {"type": "Point", "coordinates": [-114.9769, 36.2244]}, "properties": {"NAME": "W7N/CK-225", "TITLE": "Sunrise Mountain", "REGION": "NV-Clark", "ASSOCIATION": "USA - Nevada", "POINTS": "1", "BONUSPOINTS": "3"}}, {"type": "Feature", "geometry": {"type": "Point", "coordinates": [-115.0072, 36.0073]}, "properties": {"NAME": "W7N/CK-226", "TITLE": "Henderson Benchmark", "REGION": "NV-Clark", "ASSOCIATION": "USA - Nevada", "POINTS": "1", "BONUSPOINTS": "3"}}, {"type": "Feature", "geometry": {"type": "Point", "coordinates": [-115.3152, 36.2382]}, "properties": {"NAME": "W7N/CK-227", "TITLE": "Lone Mountain", "REGION": "NV-Clark", "ASSOCIATION": "USA - Nevada", "POINTS": "1", "BONUSPOINTS": "3"}}, {"type": "Feature", "geometry": {"type": "Point", "coordinates": [-115.1914, 35.9509]}, "properties": {"NAME": "W7N/CK-228", "TITLE": "3339", "REGION": "NV-Clark", "ASSOCIATION": "USA - Nevada", "POINTS": "1", "BONUSPOINTS": "3"}}, {"type": "Feature", "geometry": {"type": "Point", "coordinates": [-114.6281, 36.216]}, "properties": {"NAME": "W7N/CK-229", "TITLE": "Northshore Peak", "REGION": "NV-Clark", "ASSOCIATION": "USA - Nevada", "POINTS": "1", "BONUSPOINTS": "3"}}, {"type": "Feature", "geometry": {"type": "Point", "coordinates": [-114.7832, 35.3812]}, "properties": {"NAME": "W7N/CK-230", "TITLE": "Pinto Benchmark", "REGION": "NV-Clark", "ASSOCIATION": "USA - Nevada", "POINTS": "1", "BONUSPOINTS": "3"}}, {"type": "Feature", "geometry": {"type": "Point", "coordinates": [-114.6451, 36.1787]}, "properties": {"NAME": "W7N/CK-231", "TITLE": "Hamblin Mountain", "REGION": "NV-Clark", "ASSOCIATION": "USA - Nevada", "POINTS": "1", "BONUSPOINTS": "3"}}, {"type": "Feature", "geometry": {"type": "Point", "coordinates": [-114.8397, 36.3942]}, "properties": {"NAME": "W7N/CK-232", "TITLE": "Blissful Peak", "REGION": "NV-Clark", "ASSOCIATION": "USA - Nevada", "POINTS": "1", "BONUSPOINTS": "3"}}, {"type": "Feature", "geometry": {"type": "Point", "coordinates": [-114.6661, 35.2585]}, "properties": {"NAME": "W7N/CK-233", "TITLE": "3296", "REGION": "NV-Clark", "ASSOCIATION": "USA - Nevada", "POINTS": "1", "BONUSPOINTS": "3"}}, {"type": "Feature", "geometry": {"type": "Point", "coordinates": [-114.6164, 36.5]}, "properties": {"NAME": "W7N/CK-234", "TITLE": "Ute Benchmark", "REGION": "NV-Clark", "ASSOCIATION": "USA - Nevada", "POINTS": "1", "BONUSPOINTS": "3"}}, {"type": "Feature", "geometry": {"type": "Point", "coordinates": [-114.2247, 36.4852]}, "properties": {"NAME": "W7N/CK-235", "TITLE": "Bitter Ridge", "REGION": "NV-Clark", "ASSOCIATION": "USA - Nevada", "POINTS": "1", "BONUSPOINTS": "3"}}, {"type": "Feature", "geometry": {"type": "Point", "coordinates": [-114.7691, 36.6618]}, "properties": {"NAME": "W7N/CK-236", "TITLE": "Coburn Benchmark", "REGION": "NV-Clark", "ASSOCIATION": "USA - Nevada", "POINTS": "1", "BONUSPOINTS": "3"}}, {"type": "Feature", "geometry": {"type": "Point", "coordinates": [-114.267, 36.4001]}, "properties": {"NAME": "W7N/CK-237", "TITLE": "Arm Benchmark", "REGION": "NV-Clark", "ASSOCIATION": "USA - Nevada", "POINTS": "1", "BONUSPOINTS": "3"}}, {"type": "Feature", "geometry": {"type": "Point", "coordinates": [-114.7639, 35.5306]}, "properties": {"NAME": "W7N/CK-238", "TITLE": "Copper Mountain East", "REGION": "NV-Clark", "ASSOCIATION": "USA - Nevada", "POINTS": "1", "BONUSPOINTS": "3"}}, {"type": "Feature", "geometry": {"type": "Point", "coordinates": [-114.2756, 36.5767]}, "properties": {"NAME": "W7N/CK-239", "TITLE": "Black Ridge", "REGION": "NV-Clark", "ASSOCIATION": "USA - Nevada", "POINTS": "1", "BONUSPOINTS": "3"}}, {"type": "Feature", "geometry": {"type": "Point", "coordinates": [-114.2837, 36.5599]}, "properties": {"NAME": "W7N/CK-240", "TITLE": "Little Virgin Cairn", "REGION": "NV-Clark", "ASSOCIATION": "USA - Nevada", "POINTS": "1", "BONUSPOINTS": "3"}}, {"type": "Feature", "geometry": {"type": "Point", "coordinates": [-114.5322, 36.3358]}, "properties": {"NAME": "W7N/CK-241", "TITLE": "West Longwell Ridge", "REGION": "NV-Clark", "ASSOCIATION": "USA - Nevada", "POINTS": "1", "BONUSPOINTS": "3"}}, {"type": "Feature", "geometry": {"type": "Point", "coordinates": [-114.5811, 36.5595]}, "properties": {"NAME": "W7N/CK-242", "TITLE": "Weiser Ridge", "REGION": "NV-Clark", "ASSOCIATION": "USA - Nevada", "POINTS": "1", "BONUSPOINTS": "3"}}, {"type": "Feature", "geometry": {"type": "Point", "coordinates": [-114.6036, 36.5781]}, "properties": {"NAME": "W7N/CK-243", "TITLE": "California Ridge", "REGION": "NV-Clark", "ASSOCIATION": "USA - Nevada", "POINTS": "1", "BONUSPOINTS": "3"}}, {"type": "Feature", "geometry": {"type": "Point", "coordinates": [-114.951, 36.4007]}, "properties": {"NAME": "W7N/CK-244", "TITLE": "Divided Peak", "REGION": "NV-Clark", "ASSOCIATION": "USA - Nevada", "POINTS": "1", "BONUSPOINTS": "3"}}, {"type": "Feature", "geometry": {"type": "Point", "coordinates": [-114.5803, 36.1721]}, "properties": {"NAME": "W7N/CK-245", "TITLE": "Boulder Peak", "REGION": "NV-Clark", "ASSOCIATION": "USA - Nevada", "POINTS": "1", "BONUSPOINTS": "3"}}, {"type": "Feature", "geometry": {"type": "Point", "coordinates": [-114.582, 36.5271]}, "properties": {"NAME": "W7N/CK-246", "TITLE": "Weiser Ridge South", "REGION": "NV-Clark", "ASSOCIATION": "USA - Nevada", "POINTS": "1", "BONUSPOINTS": "3"}}, {"type": "Feature", "geometry": {"type": "Point", "coordinates": [-114.9226, 36.4699]}, "properties": {"NAME": "W7N/CK-247", "TITLE": "Dry Lake Peak", "REGION": "NV-Clark", "ASSOCIATION": "USA - Nevada", "POINTS": "1", "BONUSPOINTS": "3"}}, {"type": "Feature", "geometry": {"type": "Point", "coordinates": [-114.8701, 36.376]}, "properties": {"NAME": "W7N/CK-248", "TITLE": "Sneaky Peak", "REGION": "NV-Clark", "ASSOCIATION": "USA - Nevada", "POINTS": "1", "BONUSPOINTS": "3"}}, {"type": "Feature", "geometry": {"type": "Point", "coordinates": [-114.6634, 36.1733]}, "properties": {"NAME": "W7N/CK-249", "TITLE": "3054", "REGION": "NV-Clark", "ASSOCIATION": "USA - Nevada", "POINTS": "1", "BONUSPOINTS": "3"}}, {"type": "Feature", "geometry": {"type": "Point", "coordinates": [-114.5403, 36.1863]}, "properties": {"NAME": "W7N/CK-250", "TITLE": "Pyramid Peak", "REGION": "NV-Clark", "ASSOCIATION": "USA - Nevada", "POINTS": "1", "BONUSPOINTS": "3"}}, {"type": "Feature", "geometry": {"type": "Point", "coordinates": [-114.5852, 36.2159]}, "properties": {"NAME": "W7N/CK-251", "TITLE": "Pinto Ridge", "REGION": "NV-Clark", "ASSOCIATION": "USA - Nevada", "POINTS": "1", "BONUSPOINTS": "3"}}, {"type": "Feature", "geometry": {"type": "Point", "coordinates": [-114.5818, 36.3073]}, "properties": {"NAME": "W7N/CK-252", "TITLE": "3035", "REGION": "NV-Clark", "ASSOCIATION": "USA - Nevada", "POINTS": "1", "BONUSPOINTS": "3"}}, {"type": "Feature", "geometry": {"type": "Point", "coordinates": [-114.5595, 36.2327]}, "properties": {"NAME": "W7N/CK-253", "TITLE": "Mount Graybeard", "REGION": "NV-Clark", "ASSOCIATION": "USA - Nevada", "POINTS": "1", "BONUSPOINTS": "3"}}, {"type": "Feature", "geometry": {"type": "Point", "coordinates": [-114.4684, 36.2158]}, "properties": {"NAME": "W7N/CK-254", "TITLE": "Manganese Peak", "REGION": "NV-Clark", "ASSOCIATION": "USA - Nevada", "POINTS": "1", "BONUSPOINTS": "3"}}, {"type": "Feature", "geometry": {"type": "Point", "coordinates": [-114.7761, 35.5304]}, "properties": {"NAME": "W7N/CK-255", "TITLE": "Copper Mountain West", "REGION": "NV-Clark", "ASSOCIATION": "USA - Nevada", "POINTS": "1", "BONUSPOINTS": "3"}}, {"type": "Feature", "geometry": {"type": "Point", "coordinates": [-114.9719, 36.2131]}, "properties": {"NAME": "W7N/CK-256", "TITLE": "Unity Peak", "REGION": "NV-Clark", "ASSOCIATION": "USA - Nevada", "POINTS": "1", "BONUSPOINTS": "3"}}, {"type": "Feature", "geometry": {"type": "Point", "coordinates": [-114.5102, 36.251]}, "properties": {"NAME": "W7N/CK-257", "TITLE": "Echo Hills", "REGION": "NV-Clark", "ASSOCIATION": "USA - Nevada", "POINTS": "1", "BONUSPOINTS": "3"}}, {"type": "Feature", "geometry": {"type": "Point", "coordinates": [-114.5626, 36.3063]}, "properties": {"NAME": "W7N/CK-258", "TITLE": "3005", "REGION": "NV-Clark", "ASSOCIATION": "USA - Nevada", "POINTS": "1", "BONUSPOINTS": "3"}}, {"type": "Feature", "geometry": {"type": "Point", "coordinates": [-114.5535, 36.4564]}, "properties": {"NAME": "W7N/CK-259", "TITLE": "Duane Peak", "REGION": "NV-Clark", "ASSOCIATION": "USA - Nevada", "POINTS": "1", "BONUSPOINTS": "3"}}, {"type": "Feature", "geometry": {"type": "Point", "coordinates": [-114.5068, 36.7249]}, "properties": {"NAME": "W7N/CK-260", "TITLE": "3001", "REGION": "NV-Clark", "ASSOCIATION": "USA - Nevada", "POINTS": "1", "BONUSPOINTS": "3"}}, {"type": "Feature", "geometry": {"type": "Point", "coordinates": [-114.531, 36.4393]}, "properties": {"NAME": "W7N/CK-261", "TITLE": "Valley of Fire Summit", "REGION": "NV-Clark", "ASSOCIATION": "USA - Nevada", "POINTS": "1", "BONUSPOINTS": "3"}}, {"type": "Feature", "geometry": {"type": "Point", "coordinates": [-114.6408, 35.3106]}, "properties": {"NAME": "W7N/CK-262", "TITLE": "2949", "REGION": "NV-Clark", "ASSOCIATION": "USA - Nevada", "POINTS": "1", "BONUSPOINTS": "3"}}, {"type": "Feature", "geometry": {"type": "Point", "coordinates": [-114.2971, 36.3333]}, "properties": {"NAME": "W7N/CK-263", "TITLE": "2881", "REGION": "NV-Clark", "ASSOCIATION": "USA - Nevada", "POINTS": "1", "BONUSPOINTS": "3"}}, {"type": "Feature", "geometry": {"type": "Point", "coordinates": [-114.7396, 35.8434]}, "properties": {"NAME": "W7N/CK-264", "TITLE": "2867", "REGION": "NV-Clark", "ASSOCIATION": "USA - Nevada", "POINTS": "1", "BONUSPOINTS": "3"}}, {"type": "Feature", "geometry": {"type": "Point", "coordinates": [-114.4277, 36.2701]}, "properties": {"NAME": "W7N/CK-265", "TITLE": "Cathedral Peaks HP", "REGION": "NV-Clark", "ASSOCIATION": "USA - Nevada", "POINTS": "1", "BONUSPOINTS": "3"}}, {"type": "Feature", "geometry": {"type": "Point", "coordinates": [-114.9372, 36.1486]}, "properties": {"NAME": "W7N/CK-266", "TITLE": "Lava Butte", "REGION": "NV-Clark", "ASSOCIATION": "USA - Nevada", "POINTS": "1", "BONUSPOINTS": "3"}}, {"type": "Feature", "geometry": {"type": "Point", "coordinates": [-114.5613, 36.1661]}, "properties": {"NAME": "W7N/CK-267", "TITLE": "Ram Skull Peak", "REGION": "NV-Clark", "ASSOCIATION": "USA - Nevada", "POINTS": "1", "BONUSPOINTS": "3"}}, {"type": "Feature", "geometry": {"type": "Point", "coordinates": [-114.6648, 36.192]}, "properties": {"NAME": "W7N/CK-268", "TITLE": "Hamblin Butte", "REGION": "NV-Clark", "ASSOCIATION": "USA - Nevada", "POINTS": "1", "BONUSPOINTS": "3"}}, {"type": "Feature", "geometry": {"type": "Point", "coordinates": [-114.7455, 35.7852]}, "properties": {"NAME": "W7N/CK-269", "TITLE": "2740", "REGION": "NV-Clark", "ASSOCIATION": "USA - Nevada", "POINTS": "1", "BONUSPOINTS": "3"}}, {"type": "Feature", "geometry": {"type": "Point", "coordinates": [-114.7469, 35.5487]}, "properties": {"NAME": "W7N/CK-270", "TITLE": "Salt and Pepper Mountain", "REGION": "NV-Clark", "ASSOCIATION": "USA - Nevada", "POINTS": "1", "BONUSPOINTS": "3"}}, {"type": "Feature", "geometry": {"type": "Point", "coordinates": [-114.9609, 36.168]}, "properties": {"NAME": "W7N/CK-271", "TITLE": "Walts Ridge", "REGION": "NV-Clark", "ASSOCIATION": "USA - Nevada", "POINTS": "1", "BONUSPOINTS": "3"}}, {"type": "Feature", "geometry": {"type": "Point", "coordinates": [-114.673, 36.2187]}, "properties": {"NAME": "W7N/CK-272", "TITLE": "Murphys Peak", "REGION": "NV-Clark", "ASSOCIATION": "USA - Nevada", "POINTS": "1", "BONUSPOINTS": "3"}}, {"type": "Feature", "geometry": {"type": "Point", "coordinates": [-114.1698, 36.0382]}, "properties": {"NAME": "W7N/CK-273", "TITLE": "N-130 Benchmark", "REGION": "NV-Clark", "ASSOCIATION": "USA - Nevada", "POINTS": "1", "BONUSPOINTS": "3"}}, {"type": "Feature", "geometry": {"type": "Point", "coordinates": [-114.7216, 36.2028]}, "properties": {"NAME": "W7N/CK-274", "TITLE": "Knob Peak", "REGION": "NV-Clark", "ASSOCIATION": "USA - Nevada", "POINTS": "1", "BONUSPOINTS": "3"}}, {"type": "Feature", "geometry": {"type": "Point", "coordinates": [-114.75, 36.2041]}, "properties": {"NAME": "W7N/CK-275", "TITLE": "Knife Peak", "REGION": "NV-Clark", "ASSOCIATION": "USA - Nevada", "POINTS": "1", "BONUSPOINTS": "3"}}, {"type": "Feature", "geometry": {"type": "Point", "coordinates": [-114.7328, 36.2102]}, "properties": {"NAME": "W7N/CK-276", "TITLE": "Slabs Peak", "REGION": "NV-Clark", "ASSOCIATION": "USA - Nevada", "POINTS": "1", "BONUSPOINTS": "3"}}, {"type": "Feature", "geometry": {"type": "Point", "coordinates": [-114.6192, 36.1619]}, "properties": {"NAME": "W7N/CK-277", "TITLE": "Bearing Peak", "REGION": "NV-Clark", "ASSOCIATION": "USA - Nevada", "POINTS": "1", "BONUSPOINTS": "3"}}, {"type": "Feature", "geometry": {"type": "Point", "coordinates": [-114.4263, 36.25]}, "properties": {"NAME": "W7N/CK-278", "TITLE": "2411", "REGION": "NV-Clark", "ASSOCIATION": "USA - Nevada", "POINTS": "1", "BONUSPOINTS": "3"}}, {"type": "Feature", "geometry": {"type": "Point", "coordinates": [-114.6103, 36.1394]}, "properties": {"NAME": "W7N/CK-279", "TITLE": "Canyon Point", "REGION": "NV-Clark", "ASSOCIATION": "USA - Nevada", "POINTS": "1", "BONUSPOINTS": "3"}}, {"type": "Feature", "geometry": {"type": "Point", "coordinates": [-114.7266, 36.1875]}, "properties": {"NAME": "W7N/CK-280", "TITLE": "After-Work Peak", "REGION": "NV-Clark", "ASSOCIATION": "USA - Nevada", "POINTS": "1", "BONUSPOINTS": "3"}}, {"type": "Feature", "geometry": {"type": "Point", "coordinates": [-114.7376, 36.0294]}, "properties": {"NAME": "W7N/CK-281", "TITLE": "Promontory Point", "REGION": "NV-Clark", "ASSOCIATION": "USA - Nevada", "POINTS": "1", "BONUSPOINTS": "3"}}, {"type": "Feature", "geometry": {"type": "Point", "coordinates": [-114.7662, 36.0128]}, "properties": {"NAME": "W7N/CK-282", "TITLE": "Rough Benchmark", "REGION": "NV-Clark", "ASSOCIATION": "USA - Nevada", "POINTS": "1", "BONUSPOINTS": "3"}}, {"type": "Feature", "geometry": {"type": "Point", "coordinates": [-114.7303, 35.7641]}, "properties": {"NAME": "W7N/CK-283", "TITLE": "1963", "REGION": "NV-Clark", "ASSOCIATION": "USA - Nevada", "POINTS": "1", "BONUSPOINTS": "3"}}, {"type": "Feature", "geometry": {"type": "Point", "coordinates": [-114.7508, 36.0059]}, "properties": {"NAME": "W7N/CK-284", "TITLE": "Hoover Peak", "REGION": "NV-Clark", "ASSOCIATION": "USA - Nevada", "POINTS": "1", "BONUSPOINTS": "3"}}, {"type": "Feature", "geometry": {"type": "Point", "coordinates": [-115.4603, 35.7153]}, "properties": {"NAME": "W7N/CK-285", "TITLE": "5282", "REGION": "NV-Clark", "ASSOCIATION": "USA - Nevada", "POINTS": "2", "BONUSPOINTS": "3"}}, {"type": "Feature", "geometry": {"type": "Point", "coordinates": [-114.8314, 35.6068]}, "properties": {"NAME": "W7N/CK-286", "TITLE": "Ireteba Peaks (HP)", "REGION": "NV-Clark", "ASSOCIATION": "USA - Nevada", "POINTS": "2", "BONUSPOINTS": "3"}}, {"type": "Feature", "geometry": {"type": "Point", "coordinates": [-114.8753, 36.6085]}, "properties": {"NAME": "W7N/CK-287", "TITLE": "\"\"Pasture Mountain\"\"", "REGION": "NV-Clark", "ASSOCIATION": "USA - Nevada", "POINTS": "1", "BONUSPOINTS": "3"}}, {"type": "Feature", "geometry": {"type": "Point", "coordinates": [-114.6402, 36.3967]}, "properties": {"NAME": "W7N/CK-288", "TITLE": "\"\"Midridge Peak\"\"", "REGION": "NV-Clark", "ASSOCIATION": "USA - Nevada", "POINTS": "1", "BONUSPOINTS": "3"}}, {"type": "Feature", "geometry": {"type": "Point", "coordinates": [-115.5441, 35.7758]}, "properties": {"NAME": "W7N/CK-289", "TITLE": "Bonanza Hill", "REGION": "NV-Clark", "ASSOCIATION": "USA - Nevada", "POINTS": "1", "BONUSPOINTS": "3"}}, {"type": "Feature", "geometry": {"type": "Point", "coordinates": [-114.5234, 36.3843]}, "properties": {"NAME": "W7N/CK-290", "TITLE": "3757", "REGION": "NV-Clark", "ASSOCIATION": "USA - Nevada", "POINTS": "1", "BONUSPOINTS": "3"}}, {"type": "Feature", "geometry": {"type": "Point", "coordinates": [-114.8189, 36.67]}, "properties": {"NAME": "W7N/CK-291", "TITLE": "3667", "REGION": "NV-Clark", "ASSOCIATION": "USA - Nevada", "POINTS": "1", "BONUSPOINTS": "3"}}, {"type": "Feature", "geometry": {"type": "Point", "coordinates": [-114.7961, 35.801]}, "properties": {"NAME": "W7N/CK-292", "TITLE": "Peeper Benchmark", "REGION": "NV-Clark", "ASSOCIATION": "USA - Nevada", "POINTS": "1", "BONUSPOINTS": "3"}}, {"type": "Feature", "geometry": {"type": "Point", "coordinates": [-114.5038, 36.2337]}, "properties": {"NAME": "W7N/CK-293", "TITLE": "\"\"Redstone Peak\"\"", "REGION": "NV-Clark", "ASSOCIATION": "USA - Nevada", "POINTS": "1", "BONUSPOINTS": "3"}}, {"type": "Feature", "geometry": {"type": "Point", "coordinates": [-114.6104, 36.4965]}, "properties": {"NAME": "W7N/CK-294", "TITLE": "3284", "REGION": "NV-Clark", "ASSOCIATION": "USA - Nevada", "POINTS": "1", "BONUSPOINTS": "3"}}, {"type": "Feature", "geometry": {"type": "Point", "coordinates": [-114.7532, 36.7154]}, "properties": {"NAME": "W7N/CK-295", "TITLE": "\"\"Reale Peak\"\"", "REGION": "NV-Clark", "ASSOCIATION": "USA - Nevada", "POINTS": "1", "BONUSPOINTS": "3"}}, {"type": "Feature", "geometry": {"type": "Point", "coordinates": [-114.4758, 36.2111]}, "properties": {"NAME": "W7N/CK-296", "TITLE": "2740", "REGION": "NV-Clark", "ASSOCIATION": "USA - Nevada", "POINTS": "1", "BONUSPOINTS": "3"}}, {"type": "Feature", "geometry": {"type": "Point", "coordinates": [-114.7661, 36.736]}, "properties": {"NAME": "W7N/CK-297", "TITLE": "\"\"Fossil Peak\"\"", "REGION": "NV-Clark", "ASSOCIATION": "USA - Nevada", "POINTS": "1", "BONUSPOINTS": "3"}}]}