{"type": "FeatureCollection", "name": "W7W/KG SUMMITS", "features": [{"type": "Feature", "geometry": {"type": "Point", "coordinates": [-121.1827, 47.583]}, "properties": {"NAME": "W7W/KG-001", "TITLE": "Dip Top Peak", "REGION": "WA-King", "ASSOCIATION": "USA - Washington", "POINTS": "8", "BONUSPOINTS": "3"}}, {"type": "Feature", "geometry": {"type": "Point", "coordinates": [-121.2566, 47.5296]}, "properties": {"NAME": "W7W/KG-002", "TITLE": "Little Big Chief Mountain", "REGION": "WA-King", "ASSOCIATION": "USA - Washington", "POINTS": "8", "BONUSPOINTS": "3"}}, {"type": "Feature", "geometry": {"type": "Point", "coordinates": [-121.1248, 47.6276]}, "properties": {"NAME": "W7W/KG-003", "TITLE": "Mac Peak", "REGION": "WA-King", "ASSOCIATION": "USA - Washington", "POINTS": "8", "BONUSPOINTS": "3"}}, {"type": "Feature", "geometry": {"type": "Point", "coordinates": [-121.1238, 47.6618]}, "properties": {"NAME": "W7W/KG-004", "TITLE": "Nimbus Mountain", "REGION": "WA-King", "ASSOCIATION": "USA - Washington", "POINTS": "8", "BONUSPOINTS": "3"}}, {"type": "Feature", "geometry": {"type": "Point", "coordinates": [-121.3659, 47.5348]}, "properties": {"NAME": "W7W/KG-005", "TITLE": "Big Snow Mountain", "REGION": "WA-King", "ASSOCIATION": "USA - Washington", "POINTS": "8", "BONUSPOINTS": "3"}}, {"type": "Feature", "geometry": {"type": "Point", "coordinates": [-121.2496, 47.5624]}, "properties": {"NAME": "W7W/KG-006", "TITLE": "La Bohn Peak", "REGION": "WA-King", "ASSOCIATION": "USA - Washington", "POINTS": "8", "BONUSPOINTS": "3"}}, {"type": "Feature", "geometry": {"type": "Point", "coordinates": [-121.3606, 47.4723]}, "properties": {"NAME": "W7W/KG-007", "TITLE": "Mount Thomson", "REGION": "WA-King", "ASSOCIATION": "USA - Washington", "POINTS": "6", "BONUSPOINTS": "3"}}, {"type": "Feature", "geometry": {"type": "Point", "coordinates": [-121.3274, 47.5009]}, "properties": {"NAME": "W7W/KG-008", "TITLE": "Burnt Boot Peak", "REGION": "WA-King", "ASSOCIATION": "USA - Washington", "POINTS": "6", "BONUSPOINTS": "3"}}, {"type": "Feature", "geometry": {"type": "Point", "coordinates": [-121.1974, 47.6218]}, "properties": {"NAME": "W7W/KG-009", "TITLE": "Terrace Mountain", "REGION": "WA-King", "ASSOCIATION": "USA - Washington", "POINTS": "6", "BONUSPOINTS": "3"}}, {"type": "Feature", "geometry": {"type": "Point", "coordinates": [-121.2714, 47.577]}, "properties": {"NAME": "W7W/KG-010", "TITLE": "Otter Benchmark", "REGION": "WA-King", "ASSOCIATION": "USA - Washington", "POINTS": "6", "BONUSPOINTS": "3"}}, {"type": "Feature", "geometry": {"type": "Point", "coordinates": [-121.2853, 47.5537]}, "properties": {"NAME": "W7W/KG-011", "TITLE": "Iron Cap Mountain", "REGION": "WA-King", "ASSOCIATION": "USA - Washington", "POINTS": "6", "BONUSPOINTS": "3"}}, {"type": "Feature", "geometry": {"type": "Point", "coordinates": [-121.1448, 47.6468]}, "properties": {"NAME": "W7W/KG-012", "TITLE": "Surprise Mountain", "REGION": "WA-King", "ASSOCIATION": "USA - Washington", "POINTS": "6", "BONUSPOINTS": "3"}}, {"type": "Feature", "geometry": {"type": "Point", "coordinates": [-121.3343, 47.5523]}, "properties": {"NAME": "W7W/KG-013", "TITLE": "Wild Goat Peak", "REGION": "WA-King", "ASSOCIATION": "USA - Washington", "POINTS": "6", "BONUSPOINTS": "3"}}, {"type": "Feature", "geometry": {"type": "Point", "coordinates": [-121.3319, 47.5712]}, "properties": {"NAME": "W7W/KG-014", "TITLE": "Camp Robber Peak", "REGION": "WA-King", "ASSOCIATION": "USA - Washington", "POINTS": "6", "BONUSPOINTS": "3"}}, {"type": "Feature", "geometry": {"type": "Point", "coordinates": [-121.4165, 47.4587]}, "properties": {"NAME": "W7W/KG-015", "TITLE": "Snoqualmie Mountain", "REGION": "WA-King", "ASSOCIATION": "USA - Washington", "POINTS": "6", "BONUSPOINTS": "3"}}, {"type": "Feature", "geometry": {"type": "Point", "coordinates": [-121.341, 47.6238]}, "properties": {"NAME": "W7W/KG-016", "TITLE": "Malachite Peak", "REGION": "WA-King", "ASSOCIATION": "USA - Washington", "POINTS": "6", "BONUSPOINTS": "3"}}, {"type": "Feature", "geometry": {"type": "Point", "coordinates": [-121.2714, 47.6168]}, "properties": {"NAME": "W7W/KG-017", "TITLE": "Silver Eagle Peak", "REGION": "WA-King", "ASSOCIATION": "USA - Washington", "POINTS": "6", "BONUSPOINTS": "3"}}, {"type": "Feature", "geometry": {"type": "Point", "coordinates": [-121.4781, 47.4625]}, "properties": {"NAME": "W7W/KG-018", "TITLE": "Kaleetan Peak", "REGION": "WA-King", "ASSOCIATION": "USA - Washington", "POINTS": "6", "BONUSPOINTS": "3"}}, {"type": "Feature", "geometry": {"type": "Point", "coordinates": [-121.2255, 47.6244]}, "properties": {"NAME": "W7W/KG-019", "TITLE": "Terrace Mountain West", "REGION": "WA-King", "ASSOCIATION": "USA - Washington", "POINTS": "6", "BONUSPOINTS": "3"}}, {"type": "Feature", "geometry": {"type": "Point", "coordinates": [-121.1141, 47.6871]}, "properties": {"NAME": "W7W/KG-020", "TITLE": "K9", "REGION": "WA-King", "ASSOCIATION": "USA - Washington", "POINTS": "6", "BONUSPOINTS": "3"}}, {"type": "Feature", "geometry": {"type": "Point", "coordinates": [-121.291, 47.6079]}, "properties": {"NAME": "W7W/KG-021", "TITLE": "Bald Eagle Peak", "REGION": "WA-King", "ASSOCIATION": "USA - Washington", "POINTS": "6", "BONUSPOINTS": "3"}}, {"type": "Feature", "geometry": {"type": "Point", "coordinates": [-121.4668, 47.4596]}, "properties": {"NAME": "W7W/KG-022", "TITLE": "Chair Peak", "REGION": "WA-King", "ASSOCIATION": "USA - Washington", "POINTS": "6", "BONUSPOINTS": "3"}}, {"type": "Feature", "geometry": {"type": "Point", "coordinates": [-121.2307, 47.7551]}, "properties": {"NAME": "W7W/KG-023", "TITLE": "Mount Fernow", "REGION": "WA-King", "ASSOCIATION": "USA - Washington", "POINTS": "6", "BONUSPOINTS": "3"}}, {"type": "Feature", "geometry": {"type": "Point", "coordinates": [-121.4357, 47.7793]}, "properties": {"NAME": "W7W/KG-024", "TITLE": "Baring Mountain", "REGION": "WA-King", "ASSOCIATION": "USA - Washington", "POINTS": "6", "BONUSPOINTS": "3"}}, {"type": "Feature", "geometry": {"type": "Point", "coordinates": [-121.5804, 47.7743]}, "properties": {"NAME": "W7W/KG-025", "TITLE": "Mount Index", "REGION": "WA-King", "ASSOCIATION": "USA - Washington", "POINTS": "6", "BONUSPOINTS": "3"}}, {"type": "Feature", "geometry": {"type": "Point", "coordinates": [-121.351, 47.6143]}, "properties": {"NAME": "W7W/KG-026", "TITLE": "Malachite Peak South", "REGION": "WA-King", "ASSOCIATION": "USA - Washington", "POINTS": "6", "BONUSPOINTS": "3"}}, {"type": "Feature", "geometry": {"type": "Point", "coordinates": [-121.519, 47.4987]}, "properties": {"NAME": "W7W/KG-027", "TITLE": "Preacher Mountain", "REGION": "WA-King", "ASSOCIATION": "USA - Washington", "POINTS": "6", "BONUSPOINTS": "3"}}, {"type": "Feature", "geometry": {"type": "Point", "coordinates": [-121.473, 47.6678]}, "properties": {"NAME": "W7W/KG-028", "TITLE": "Lennox Mountain", "REGION": "WA-King", "ASSOCIATION": "USA - Washington", "POINTS": "6", "BONUSPOINTS": "3"}}, {"type": "Feature", "geometry": {"type": "Point", "coordinates": [-121.389, 47.456]}, "properties": {"NAME": "W7W/KG-029", "TITLE": "Red Mountain", "REGION": "WA-King", "ASSOCIATION": "USA - Washington", "POINTS": "6", "BONUSPOINTS": "3"}}, {"type": "Feature", "geometry": {"type": "Point", "coordinates": [-121.5037, 47.4811]}, "properties": {"NAME": "W7W/KG-030", "TITLE": "Caroline Peak", "REGION": "WA-King", "ASSOCIATION": "USA - Washington", "POINTS": "6", "BONUSPOINTS": "3"}}, {"type": "Feature", "geometry": {"type": "Point", "coordinates": [-121.102, 47.7322]}, "properties": {"NAME": "W7W/KG-031", "TITLE": "Cowboy Mountain", "REGION": "WA-King", "ASSOCIATION": "USA - Washington", "POINTS": "6", "BONUSPOINTS": "3"}}, {"type": "Feature", "geometry": {"type": "Point", "coordinates": [-121.4701, 47.5637]}, "properties": {"NAME": "W7W/KG-032", "TITLE": "Treen Peak", "REGION": "WA-King", "ASSOCIATION": "USA - Washington", "POINTS": "6", "BONUSPOINTS": "3"}}, {"type": "Feature", "geometry": {"type": "Point", "coordinates": [-121.1938, 47.7669]}, "properties": {"NAME": "W7W/KG-033", "TITLE": "Captain Point", "REGION": "WA-King", "ASSOCIATION": "USA - Washington", "POINTS": "6", "BONUSPOINTS": "3"}}, {"type": "Feature", "geometry": {"type": "Point", "coordinates": [-121.4757, 47.6371]}, "properties": {"NAME": "W7W/KG-034", "TITLE": "5660 Display Pk", "REGION": "WA-King", "ASSOCIATION": "USA - Washington", "POINTS": "6", "BONUSPOINTS": "3"}}, {"type": "Feature", "geometry": {"type": "Point", "coordinates": [-121.0704, 47.718]}, "properties": {"NAME": "W7W/KG-035", "TITLE": "Lumiere Ridge", "REGION": "WA-King", "ASSOCIATION": "USA - Washington", "POINTS": "6", "BONUSPOINTS": "3"}}, {"type": "Feature", "geometry": {"type": "Point", "coordinates": [-121.1326, 47.7703]}, "properties": {"NAME": "W7W/KG-036", "TITLE": "Spinnaker Peak", "REGION": "WA-King", "ASSOCIATION": "USA - Washington", "POINTS": "6", "BONUSPOINTS": "3"}}, {"type": "Feature", "geometry": {"type": "Point", "coordinates": [-121.4814, 47.4177]}, "properties": {"NAME": "W7W/KG-037", "TITLE": "Granite Mountain", "REGION": "WA-King", "ASSOCIATION": "USA - Washington", "POINTS": "6", "BONUSPOINTS": "3"}}, {"type": "Feature", "geometry": {"type": "Point", "coordinates": [-121.4206, 47.7632]}, "properties": {"NAME": "W7W/KG-038", "TITLE": "Klinger Ridge", "REGION": "WA-King", "ASSOCIATION": "USA - Washington", "POINTS": "6", "BONUSPOINTS": "3"}}, {"type": "Feature", "geometry": {"type": "Point", "coordinates": [-121.3554, 47.7759]}, "properties": {"NAME": "W7W/KG-039", "TITLE": "Eagle Rock", "REGION": "WA-King", "ASSOCIATION": "USA - Washington", "POINTS": "6", "BONUSPOINTS": "3"}}, {"type": "Feature", "geometry": {"type": "Point", "coordinates": [-121.1984, 47.6602]}, "properties": {"NAME": "W7W/KG-040", "TITLE": "East Tonga Ridge", "REGION": "WA-King", "ASSOCIATION": "USA - Washington", "POINTS": "6", "BONUSPOINTS": "3"}}, {"type": "Feature", "geometry": {"type": "Point", "coordinates": [-121.4276, 47.61]}, "properties": {"NAME": "W7W/KG-041", "TITLE": "Cascade Mountain", "REGION": "WA-King", "ASSOCIATION": "USA - Washington", "POINTS": "6", "BONUSPOINTS": "3"}}, {"type": "Feature", "geometry": {"type": "Point", "coordinates": [-121.4084, 47.5037]}, "properties": {"NAME": "W7W/KG-042", "TITLE": "Mount Price", "REGION": "WA-King", "ASSOCIATION": "USA - Washington", "POINTS": "6", "BONUSPOINTS": "3"}}, {"type": "Feature", "geometry": {"type": "Point", "coordinates": [-121.5642, 47.4352]}, "properties": {"NAME": "W7W/KG-043", "TITLE": "Mount Defiance", "REGION": "WA-King", "ASSOCIATION": "USA - Washington", "POINTS": "6", "BONUSPOINTS": "3"}}, {"type": "Feature", "geometry": {"type": "Point", "coordinates": [-121.5484, 47.6149]}, "properties": {"NAME": "W7W/KG-044", "TITLE": "Goat Mountain", "REGION": "WA-King", "ASSOCIATION": "USA - Washington", "POINTS": "6", "BONUSPOINTS": "3"}}, {"type": "Feature", "geometry": {"type": "Point", "coordinates": [-121.5164, 47.7168]}, "properties": {"NAME": "W7W/KG-045", "TITLE": "Red Mountain Benchmark", "REGION": "WA-King", "ASSOCIATION": "USA - Washington", "POINTS": "6", "BONUSPOINTS": "3"}}, {"type": "Feature", "geometry": {"type": "Point", "coordinates": [-121.4172, 47.6295]}, "properties": {"NAME": "W7W/KG-046", "TITLE": "Cascade Mountain North", "REGION": "WA-King", "ASSOCIATION": "USA - Washington", "POINTS": "6", "BONUSPOINTS": "3"}}, {"type": "Feature", "geometry": {"type": "Point", "coordinates": [-121.2985, 47.5743]}, "properties": {"NAME": "W7W/KG-047", "TITLE": "Otter-Angeline", "REGION": "WA-King", "ASSOCIATION": "USA - Washington", "POINTS": "6", "BONUSPOINTS": "3"}}, {"type": "Feature", "geometry": {"type": "Point", "coordinates": [-121.4935, 47.7195]}, "properties": {"NAME": "W7W/KG-048", "TITLE": "Crosby Mountain", "REGION": "WA-King", "ASSOCIATION": "USA - Washington", "POINTS": "6", "BONUSPOINTS": "3"}}, {"type": "Feature", "geometry": {"type": "Point", "coordinates": [-121.5654, 47.6884]}, "properties": {"NAME": "W7W/KG-049", "TITLE": "McClain Peaks", "REGION": "WA-King", "ASSOCIATION": "USA - Washington", "POINTS": "6", "BONUSPOINTS": "3"}}, {"type": "Feature", "geometry": {"type": "Point", "coordinates": [-121.4934, 47.5528]}, "properties": {"NAME": "W7W/KG-050", "TITLE": "Garfield Mountain", "REGION": "WA-King", "ASSOCIATION": "USA - Washington", "POINTS": "6", "BONUSPOINTS": "3"}}, {"type": "Feature", "geometry": {"type": "Point", "coordinates": [-121.4283, 47.1287]}, "properties": {"NAME": "W7W/KG-051", "TITLE": "Pechugh Peak", "REGION": "WA-King", "ASSOCIATION": "USA - Washington", "POINTS": "6", "BONUSPOINTS": "3"}}, {"type": "Feature", "geometry": {"type": "Point", "coordinates": [-121.2243, 47.6669]}, "properties": {"NAME": "W7W/KG-052", "TITLE": "Mount Sawyer", "REGION": "WA-King", "ASSOCIATION": "USA - Washington", "POINTS": "6", "BONUSPOINTS": "3"}}, {"type": "Feature", "geometry": {"type": "Point", "coordinates": [-121.4851, 47.552]}, "properties": {"NAME": "W7W/KG-053", "TITLE": "East Peak", "REGION": "WA-King", "ASSOCIATION": "USA - Washington", "POINTS": "6", "BONUSPOINTS": "3"}}, {"type": "Feature", "geometry": {"type": "Point", "coordinates": [-121.1103, 47.7592]}, "properties": {"NAME": "W7W/KG-054", "TITLE": "Sky Mountain", "REGION": "WA-King", "ASSOCIATION": "USA - Washington", "POINTS": "6", "BONUSPOINTS": "3"}}, {"type": "Feature", "geometry": {"type": "Point", "coordinates": [-121.4484, 47.3043]}, "properties": {"NAME": "W7W/KG-055", "TITLE": "Meadow Mountain", "REGION": "WA-King", "ASSOCIATION": "USA - Washington", "POINTS": "6", "BONUSPOINTS": "3"}}, {"type": "Feature", "geometry": {"type": "Point", "coordinates": [-121.4213, 47.6134]}, "properties": {"NAME": "W7W/KG-056", "TITLE": "Middle Cascade Mountain", "REGION": "WA-King", "ASSOCIATION": "USA - Washington", "POINTS": "6", "BONUSPOINTS": "3"}}, {"type": "Feature", "geometry": {"type": "Point", "coordinates": [-121.5852, 47.4722]}, "properties": {"NAME": "W7W/KG-057", "TITLE": "Revolution Peak", "REGION": "WA-King", "ASSOCIATION": "USA - Washington", "POINTS": "6", "BONUSPOINTS": "3"}}, {"type": "Feature", "geometry": {"type": "Point", "coordinates": [-121.5479, 47.7175]}, "properties": {"NAME": "W7W/KG-058", "TITLE": "Red Mountain", "REGION": "WA-King", "ASSOCIATION": "USA - Washington", "POINTS": "6", "BONUSPOINTS": "3"}}, {"type": "Feature", "geometry": {"type": "Point", "coordinates": [-121.4605, 47.6035]}, "properties": {"NAME": "W7W/KG-059", "TITLE": "Morpheus", "REGION": "WA-King", "ASSOCIATION": "USA - Washington", "POINTS": "6", "BONUSPOINTS": "3"}}, {"type": "Feature", "geometry": {"type": "Point", "coordinates": [-121.4903, 47.1692]}, "properties": {"NAME": "W7W/KG-060", "TITLE": "Kelly Butte", "REGION": "WA-King", "ASSOCIATION": "USA - Washington", "POINTS": "6", "BONUSPOINTS": "3"}}, {"type": "Feature", "geometry": {"type": "Point", "coordinates": [-121.4689, 47.4351]}, "properties": {"NAME": "W7W/KG-061", "TITLE": "Low Mountain", "REGION": "WA-King", "ASSOCIATION": "USA - Washington", "POINTS": "6", "BONUSPOINTS": "3"}}, {"type": "Feature", "geometry": {"type": "Point", "coordinates": [-121.5009, 47.6076]}, "properties": {"NAME": "W7W/KG-062", "TITLE": "Dog Mountain", "REGION": "WA-King", "ASSOCIATION": "USA - Washington", "POINTS": "6", "BONUSPOINTS": "3"}}, {"type": "Feature", "geometry": {"type": "Point", "coordinates": [-121.4546, 47.3492]}, "properties": {"NAME": "W7W/KG-063", "TITLE": "Tinkham Peak West", "REGION": "WA-King", "ASSOCIATION": "USA - Washington", "POINTS": "6", "BONUSPOINTS": "3"}}, {"type": "Feature", "geometry": {"type": "Point", "coordinates": [-121.4304, 47.4693]}, "properties": {"NAME": "W7W/KG-064", "TITLE": "Avalanche Mountain", "REGION": "WA-King", "ASSOCIATION": "USA - Washington", "POINTS": "6", "BONUSPOINTS": "3"}}, {"type": "Feature", "geometry": {"type": "Point", "coordinates": [-121.3122, 47.577]}, "properties": {"NAME": "W7W/KG-065", "TITLE": "Angeline-Heart", "REGION": "WA-King", "ASSOCIATION": "USA - Washington", "POINTS": "6", "BONUSPOINTS": "3"}}, {"type": "Feature", "geometry": {"type": "Point", "coordinates": [-121.5407, 47.5888]}, "properties": {"NAME": "W7W/KG-066", "TITLE": "The Ark", "REGION": "WA-King", "ASSOCIATION": "USA - Washington", "POINTS": "6", "BONUSPOINTS": "3"}}, {"type": "Feature", "geometry": {"type": "Point", "coordinates": [-121.6036, 47.6127]}, "properties": {"NAME": "W7W/KG-067", "TITLE": "South Twin Peaks", "REGION": "WA-King", "ASSOCIATION": "USA - Washington", "POINTS": "6", "BONUSPOINTS": "3"}}, {"type": "Feature", "geometry": {"type": "Point", "coordinates": [-121.4822, 47.496]}, "properties": {"NAME": "W7W/KG-068", "TITLE": "Wild Dare Mountain", "REGION": "WA-King", "ASSOCIATION": "USA - Washington", "POINTS": "6", "BONUSPOINTS": "3"}}, {"type": "Feature", "geometry": {"type": "Point", "coordinates": [-121.424, 47.5896]}, "properties": {"NAME": "W7W/KG-069", "TITLE": "Mile High", "REGION": "WA-King", "ASSOCIATION": "USA - Washington", "POINTS": "6", "BONUSPOINTS": "3"}}, {"type": "Feature", "geometry": {"type": "Point", "coordinates": [-121.4245, 47.6809]}, "properties": {"NAME": "W7W/KG-070", "TITLE": "Cleveland Mountain", "REGION": "WA-King", "ASSOCIATION": "USA - Washington", "POINTS": "6", "BONUSPOINTS": "3"}}, {"type": "Feature", "geometry": {"type": "Point", "coordinates": [-121.4344, 47.5382]}, "properties": {"NAME": "W7W/KG-071", "TITLE": "Galleon Mountain", "REGION": "WA-King", "ASSOCIATION": "USA - Washington", "POINTS": "6", "BONUSPOINTS": "3"}}, {"type": "Feature", "geometry": {"type": "Point", "coordinates": [-121.4102, 47.5353]}, "properties": {"NAME": "W7W/KG-072", "TITLE": "Sorcery Mountain", "REGION": "WA-King", "ASSOCIATION": "USA - Washington", "POINTS": "6", "BONUSPOINTS": "3"}}, {"type": "Feature", "geometry": {"type": "Point", "coordinates": [-121.5378, 47.4154]}, "properties": {"NAME": "W7W/KG-073", "TITLE": "Bandera Mountain", "REGION": "WA-King", "ASSOCIATION": "USA - Washington", "POINTS": "6", "BONUSPOINTS": "3"}}, {"type": "Feature", "geometry": {"type": "Point", "coordinates": [-121.433, 47.151]}, "properties": {"NAME": "W7W/KG-074", "TITLE": "Sawmill Ridge", "REGION": "WA-King", "ASSOCIATION": "USA - Washington", "POINTS": "6", "BONUSPOINTS": "3"}}, {"type": "Feature", "geometry": {"type": "Point", "coordinates": [-121.6136, 47.5974]}, "properties": {"NAME": "W7W/KG-075", "TITLE": "Boomerang Peak", "REGION": "WA-King", "ASSOCIATION": "USA - Washington", "POINTS": "6", "BONUSPOINTS": "3"}}, {"type": "Feature", "geometry": {"type": "Point", "coordinates": [-121.4956, 47.3733]}, "properties": {"NAME": "W7W/KG-076", "TITLE": "Humpback Mountain", "REGION": "WA-King", "ASSOCIATION": "USA - Washington", "POINTS": "6", "BONUSPOINTS": "3"}}, {"type": "Feature", "geometry": {"type": "Point", "coordinates": [-121.4498, 47.5473]}, "properties": {"NAME": "W7W/KG-077", "TITLE": "Floating Rock", "REGION": "WA-King", "ASSOCIATION": "USA - Washington", "POINTS": "6", "BONUSPOINTS": "3"}}, {"type": "Feature", "geometry": {"type": "Point", "coordinates": [-121.4086, 47.4419]}, "properties": {"NAME": "W7W/KG-078", "TITLE": "Guye Peak", "REGION": "WA-King", "ASSOCIATION": "USA - Washington", "POINTS": "6", "BONUSPOINTS": "3"}}, {"type": "Feature", "geometry": {"type": "Point", "coordinates": [-121.6083, 47.5604]}, "properties": {"NAME": "W7W/KG-079", "TITLE": "Bessemer Mountain", "REGION": "WA-King", "ASSOCIATION": "USA - Washington", "POINTS": "6", "BONUSPOINTS": "3"}}, {"type": "Feature", "geometry": {"type": "Point", "coordinates": [-121.6223, 47.4068]}, "properties": {"NAME": "W7W/KG-080", "TITLE": "McClellan Butte", "REGION": "WA-King", "ASSOCIATION": "USA - Washington", "POINTS": "6", "BONUSPOINTS": "3"}}, {"type": "Feature", "geometry": {"type": "Point", "coordinates": [-121.5789, 47.6784]}, "properties": {"NAME": "W7W/KG-081", "TITLE": "Mount Phelps", "REGION": "WA-King", "ASSOCIATION": "USA - Washington", "POINTS": "6", "BONUSPOINTS": "3"}}, {"type": "Feature", "geometry": {"type": "Point", "coordinates": [-121.5893, 47.4956]}, "properties": {"NAME": "W7W/KG-082", "TITLE": "Russian Butte", "REGION": "WA-King", "ASSOCIATION": "USA - Washington", "POINTS": "6", "BONUSPOINTS": "3"}}, {"type": "Feature", "geometry": {"type": "Point", "coordinates": [-121.39, 47.556]}, "properties": {"NAME": "W7W/KG-083", "TITLE": "Little Bulger", "REGION": "WA-King", "ASSOCIATION": "USA - Washington", "POINTS": "6", "BONUSPOINTS": "3"}}, {"type": "Feature", "geometry": {"type": "Point", "coordinates": [-121.5264, 47.4269]}, "properties": {"NAME": "W7W/KG-084", "TITLE": "Pratt Mountain", "REGION": "WA-King", "ASSOCIATION": "USA - Washington", "POINTS": "6", "BONUSPOINTS": "3"}}, {"type": "Feature", "geometry": {"type": "Point", "coordinates": [-121.6179, 47.3904]}, "properties": {"NAME": "W7W/KG-085", "TITLE": "Mount Kent", "REGION": "WA-King", "ASSOCIATION": "USA - Washington", "POINTS": "6", "BONUSPOINTS": "3"}}, {"type": "Feature", "geometry": {"type": "Point", "coordinates": [-121.2816, 47.7357]}, "properties": {"NAME": "W7W/KG-086", "TITLE": "Beckler Peak", "REGION": "WA-King", "ASSOCIATION": "USA - Washington", "POINTS": "6", "BONUSPOINTS": "3"}}, {"type": "Feature", "geometry": {"type": "Point", "coordinates": [-121.5592, 47.7446]}, "properties": {"NAME": "W7W/KG-087", "TITLE": "Frozen Mountain", "REGION": "WA-King", "ASSOCIATION": "USA - Washington", "POINTS": "6", "BONUSPOINTS": "3"}}, {"type": "Feature", "geometry": {"type": "Point", "coordinates": [-121.0897, 47.7085]}, "properties": {"NAME": "W7W/KG-088", "TITLE": "Sopwith Camel Mountain", "REGION": "WA-King", "ASSOCIATION": "USA - Washington", "POINTS": "6", "BONUSPOINTS": "3"}}, {"type": "Feature", "geometry": {"type": "Point", "coordinates": [-121.4843, 47.7348]}, "properties": {"NAME": "W7W/KG-089", "TITLE": "Palmer Mountain", "REGION": "WA-King", "ASSOCIATION": "USA - Washington", "POINTS": "6", "BONUSPOINTS": "3"}}, {"type": "Feature", "geometry": {"type": "Point", "coordinates": [-121.6043, 47.5869]}, "properties": {"NAME": "W7W/KG-090", "TITLE": "Paperboy", "REGION": "WA-King", "ASSOCIATION": "USA - Washington", "POINTS": "6", "BONUSPOINTS": "3"}}, {"type": "Feature", "geometry": {"type": "Point", "coordinates": [-121.6419, 47.5472]}, "properties": {"NAME": "W7W/KG-091", "TITLE": "Moolock Mountain", "REGION": "WA-King", "ASSOCIATION": "USA - Washington", "POINTS": "6", "BONUSPOINTS": "3"}}, {"type": "Feature", "geometry": {"type": "Point", "coordinates": [-121.633, 47.4581]}, "properties": {"NAME": "W7W/KG-092", "TITLE": "West Defiance", "REGION": "WA-King", "ASSOCIATION": "USA - Washington", "POINTS": "6", "BONUSPOINTS": "3"}}, {"type": "Feature", "geometry": {"type": "Point", "coordinates": [-121.5624, 47.1573]}, "properties": {"NAME": "W7W/KG-093", "TITLE": "Huckleberry Mountain", "REGION": "WA-King", "ASSOCIATION": "USA - Washington", "POINTS": "4", "BONUSPOINTS": "0"}}, {"type": "Feature", "geometry": {"type": "Point", "coordinates": [-121.5285, 47.1485]}, "properties": {"NAME": "W7W/KG-094", "TITLE": "Divide Ridge", "REGION": "WA-King", "ASSOCIATION": "USA - Washington", "POINTS": "4", "BONUSPOINTS": "0"}}, {"type": "Feature", "geometry": {"type": "Point", "coordinates": [-121.6951, 47.509]}, "properties": {"NAME": "W7W/KG-095", "TITLE": "Mount Teneriffe", "REGION": "WA-King", "ASSOCIATION": "USA - Washington", "POINTS": "4", "BONUSPOINTS": "0"}}, {"type": "Feature", "geometry": {"type": "Point", "coordinates": [-121.6483, 47.578]}, "properties": {"NAME": "W7W/KG-096", "TITLE": "Hancocks Comb", "REGION": "WA-King", "ASSOCIATION": "USA - Washington", "POINTS": "4", "BONUSPOINTS": "0"}}, {"type": "Feature", "geometry": {"type": "Point", "coordinates": [-121.562, 47.6384]}, "properties": {"NAME": "W7W/KG-097", "TITLE": "Big Kid", "REGION": "WA-King", "ASSOCIATION": "USA - Washington", "POINTS": "4", "BONUSPOINTS": "0"}}, {"type": "Feature", "geometry": {"type": "Point", "coordinates": [-121.5796, 47.5636]}, "properties": {"NAME": "W7W/KG-098", "TITLE": "Quartz Mountain", "REGION": "WA-King", "ASSOCIATION": "USA - Washington", "POINTS": "4", "BONUSPOINTS": "0"}}, {"type": "Feature", "geometry": {"type": "Point", "coordinates": [-121.5403, 47.367]}, "properties": {"NAME": "W7W/KG-099", "TITLE": "Little St. Helens", "REGION": "WA-King", "ASSOCIATION": "USA - Washington", "POINTS": "4", "BONUSPOINTS": "0"}}, {"type": "Feature", "geometry": {"type": "Point", "coordinates": [-121.4765, 47.2617]}, "properties": {"NAME": "W7W/KG-100", "TITLE": "Rumble Mountain", "REGION": "WA-King", "ASSOCIATION": "USA - Washington", "POINTS": "4", "BONUSPOINTS": "0"}}, {"type": "Feature", "geometry": {"type": "Point", "coordinates": [-121.5518, 47.5214]}, "properties": {"NAME": "W7W/KG-101", "TITLE": "The Pulpit", "REGION": "WA-King", "ASSOCIATION": "USA - Washington", "POINTS": "4", "BONUSPOINTS": "0"}}, {"type": "Feature", "geometry": {"type": "Point", "coordinates": [-121.3637, 47.7502]}, "properties": {"NAME": "W7W/KG-102", "TITLE": "Skyhomelyish Mountain", "REGION": "WA-King", "ASSOCIATION": "USA - Washington", "POINTS": "4", "BONUSPOINTS": "0"}}, {"type": "Feature", "geometry": {"type": "Point", "coordinates": [-121.5914, 47.5638]}, "properties": {"NAME": "W7W/KG-103", "TITLE": "Bessequartz", "REGION": "WA-King", "ASSOCIATION": "USA - Washington", "POINTS": "4", "BONUSPOINTS": "0"}}, {"type": "Feature", "geometry": {"type": "Point", "coordinates": [-121.6066, 47.7363]}, "properties": {"NAME": "W7W/KG-104", "TITLE": "Appomattox Spire", "REGION": "WA-King", "ASSOCIATION": "USA - Washington", "POINTS": "4", "BONUSPOINTS": "0"}}, {"type": "Feature", "geometry": {"type": "Point", "coordinates": [-121.569, 47.368]}, "properties": {"NAME": "W7W/KG-105", "TITLE": "Mount Gardner", "REGION": "WA-King", "ASSOCIATION": "USA - Washington", "POINTS": "4", "BONUSPOINTS": "0"}}, {"type": "Feature", "geometry": {"type": "Point", "coordinates": [-121.364, 47.2799]}, "properties": {"NAME": "W7W/KG-106", "TITLE": "Dandy Peak", "REGION": "WA-King", "ASSOCIATION": "USA - Washington", "POINTS": "4", "BONUSPOINTS": "0"}}, {"type": "Feature", "geometry": {"type": "Point", "coordinates": [-121.7956, 47.2038]}, "properties": {"NAME": "W7W/KG-107", "TITLE": "Grass Mountain", "REGION": "WA-King", "ASSOCIATION": "USA - Washington", "POINTS": "4", "BONUSPOINTS": "0"}}, {"type": "Feature", "geometry": {"type": "Point", "coordinates": [-121.7119, 47.1913]}, "properties": {"NAME": "W7W/KG-108", "TITLE": "East Grass Mountain", "REGION": "WA-King", "ASSOCIATION": "USA - Washington", "POINTS": "4", "BONUSPOINTS": "0"}}, {"type": "Feature", "geometry": {"type": "Point", "coordinates": [-121.4485, 47.2482]}, "properties": {"NAME": "W7W/KG-109", "TITLE": "Deconstruction Hill", "REGION": "WA-King", "ASSOCIATION": "USA - Washington", "POINTS": "4", "BONUSPOINTS": "0"}}, {"type": "Feature", "geometry": {"type": "Point", "coordinates": [-121.8497, 47.2504]}, "properties": {"NAME": "W7W/KG-110", "TITLE": "Grass Mountain North", "REGION": "WA-King", "ASSOCIATION": "USA - Washington", "POINTS": "4", "BONUSPOINTS": "0"}}, {"type": "Feature", "geometry": {"type": "Point", "coordinates": [-121.8354, 47.2753]}, "properties": {"NAME": "W7W/KG-111", "TITLE": "Hudson Mountain", "REGION": "WA-King", "ASSOCIATION": "USA - Washington", "POINTS": "4", "BONUSPOINTS": "0"}}, {"type": "Feature", "geometry": {"type": "Point", "coordinates": [-121.8286, 47.3167]}, "properties": {"NAME": "W7W/KG-112", "TITLE": "McDonald Mountain", "REGION": "WA-King", "ASSOCIATION": "USA - Washington", "POINTS": "4", "BONUSPOINTS": "0"}}, {"type": "Feature", "geometry": {"type": "Point", "coordinates": [-121.8037, 47.4512]}, "properties": {"NAME": "W7W/KG-113", "TITLE": "Rattlesnake Mountain", "REGION": "WA-King", "ASSOCIATION": "USA - Washington", "POINTS": "4", "BONUSPOINTS": "0"}}, {"type": "Feature", "geometry": {"type": "Point", "coordinates": [-121.8923, 47.2186]}, "properties": {"NAME": "W7W/KG-114", "TITLE": "Boise Ridge", "REGION": "WA-King", "ASSOCIATION": "USA - Washington", "POINTS": "2", "BONUSPOINTS": "0"}}, {"type": "Feature", "geometry": {"type": "Point", "coordinates": [-121.9468, 47.4884]}, "properties": {"NAME": "W7W/KG-115", "TITLE": "Tiger Mountain", "REGION": "WA-King", "ASSOCIATION": "USA - Washington", "POINTS": "2", "BONUSPOINTS": "0"}}, {"type": "Feature", "geometry": {"type": "Point", "coordinates": [-121.9756, 47.5036]}, "properties": {"NAME": "W7W/KG-116", "TITLE": "West Tiger Mountain", "REGION": "WA-King", "ASSOCIATION": "USA - Washington", "POINTS": "2", "BONUSPOINTS": "0"}}, {"type": "Feature", "geometry": {"type": "Point", "coordinates": [-121.674, 47.7744]}, "properties": {"NAME": "W7W/KG-117", "TITLE": "Gambol Knob", "REGION": "WA-King", "ASSOCIATION": "USA - Washington", "POINTS": "2", "BONUSPOINTS": "0"}}, {"type": "Feature", "geometry": {"type": "Point", "coordinates": [-121.8943, 47.4545]}, "properties": {"NAME": "W7W/KG-118", "TITLE": "Taylor Mountain", "REGION": "WA-King", "ASSOCIATION": "USA - Washington", "POINTS": "2", "BONUSPOINTS": "0"}}, {"type": "Feature", "geometry": {"type": "Point", "coordinates": [-121.7199, 47.6767]}, "properties": {"NAME": "W7W/KG-119", "TITLE": "Deep Devil", "REGION": "WA-King", "ASSOCIATION": "USA - Washington", "POINTS": "2", "BONUSPOINTS": "0"}}, {"type": "Feature", "geometry": {"type": "Point", "coordinates": [-121.718, 47.7121]}, "properties": {"NAME": "W7W/KG-120", "TITLE": "Lynch the Devil", "REGION": "WA-King", "ASSOCIATION": "USA - Washington", "POINTS": "2", "BONUSPOINTS": "0"}}, {"type": "Feature", "geometry": {"type": "Point", "coordinates": [-121.9612, 47.4617]}, "properties": {"NAME": "W7W/KG-121", "TITLE": "South Tiger Mountain", "REGION": "WA-King", "ASSOCIATION": "USA - Washington", "POINTS": "2", "BONUSPOINTS": "0"}}, {"type": "Feature", "geometry": {"type": "Point", "coordinates": [-122.047, 47.5042]}, "properties": {"NAME": "W7W/KG-122", "TITLE": "Squak Mountain", "REGION": "WA-King", "ASSOCIATION": "USA - Washington", "POINTS": "2", "BONUSPOINTS": "0"}}, {"type": "Feature", "geometry": {"type": "Point", "coordinates": [-121.7265, 47.6526]}, "properties": {"NAME": "W7W/KG-123", "TITLE": "Black Devil", "REGION": "WA-King", "ASSOCIATION": "USA - Washington", "POINTS": "2", "BONUSPOINTS": "0"}}, {"type": "Feature", "geometry": {"type": "Point", "coordinates": [-121.7462, 47.5859]}, "properties": {"NAME": "W7W/KG-124", "TITLE": "Fuller Mountain", "REGION": "WA-King", "ASSOCIATION": "USA - Washington", "POINTS": "2", "BONUSPOINTS": "0"}}, {"type": "Feature", "geometry": {"type": "Point", "coordinates": [-121.7187, 47.6192]}, "properties": {"NAME": "W7W/KG-125", "TITLE": "Lions Mane", "REGION": "WA-King", "ASSOCIATION": "USA - Washington", "POINTS": "2", "BONUSPOINTS": "0"}}, {"type": "Feature", "geometry": {"type": "Point", "coordinates": [-121.9734, 47.1738]}, "properties": {"NAME": "W7W/KG-126", "TITLE": "Pinnacle Peak", "REGION": "WA-King", "ASSOCIATION": "USA - Washington", "POINTS": "2", "BONUSPOINTS": "0"}}, {"type": "Feature", "geometry": {"type": "Point", "coordinates": [-121.8931, 47.3015]}, "properties": {"NAME": "W7W/KG-127", "TITLE": "St. Paddys Peak", "REGION": "WA-King", "ASSOCIATION": "USA - Washington", "POINTS": "2", "BONUSPOINTS": "0"}}, {"type": "Feature", "geometry": {"type": "Point", "coordinates": [-121.7626, 47.6659]}, "properties": {"NAME": "W7W/KG-128", "TITLE": "Tokul Hills North", "REGION": "WA-King", "ASSOCIATION": "USA - Washington", "POINTS": "2", "BONUSPOINTS": "0"}}, {"type": "Feature", "geometry": {"type": "Point", "coordinates": [-121.7772, 47.6729]}, "properties": {"NAME": "W7W/KG-129", "TITLE": "1710 Extra Class Mtn", "REGION": "WA-King", "ASSOCIATION": "USA - Washington", "POINTS": "2", "BONUSPOINTS": "0"}}, {"type": "Feature", "geometry": {"type": "Point", "coordinates": [-121.774, 47.6875]}, "properties": {"NAME": "W7W/KG-130", "TITLE": "1690 Hellschreiber Pk", "REGION": "WA-King", "ASSOCIATION": "USA - Washington", "POINTS": "2", "BONUSPOINTS": "0"}}, {"type": "Feature", "geometry": {"type": "Point", "coordinates": [-121.9502, 47.1834]}, "properties": {"NAME": "W7W/KG-131", "TITLE": "Baldy Hill", "REGION": "WA-King", "ASSOCIATION": "USA - Washington", "POINTS": "2", "BONUSPOINTS": "0"}}, {"type": "Feature", "geometry": {"type": "Point", "coordinates": [-122.0933, 47.5201]}, "properties": {"NAME": "W7W/KG-132", "TITLE": "Wilderness Peak", "REGION": "WA-King", "ASSOCIATION": "USA - Washington", "POINTS": "1", "BONUSPOINTS": "0"}}, {"type": "Feature", "geometry": {"type": "Point", "coordinates": [-121.9154, 47.2793]}, "properties": {"NAME": "W7W/KG-133", "TITLE": "Cumbersome Hill", "REGION": "WA-King", "ASSOCIATION": "USA - Washington", "POINTS": "1", "BONUSPOINTS": "0"}}, {"type": "Feature", "geometry": {"type": "Point", "coordinates": [-121.756, 47.4987]}, "properties": {"NAME": "W7W/KG-134", "TITLE": "Little Si", "REGION": "WA-King", "ASSOCIATION": "USA - Washington", "POINTS": "1", "BONUSPOINTS": "0"}}, {"type": "Feature", "geometry": {"type": "Point", "coordinates": [-121.904, 47.3513]}, "properties": {"NAME": "W7W/KG-135", "TITLE": "Sugarloaf Mountain", "REGION": "WA-King", "ASSOCIATION": "USA - Washington", "POINTS": "1", "BONUSPOINTS": "0"}}, {"type": "Feature", "geometry": {"type": "Point", "coordinates": [-121.9158, 47.2976]}, "properties": {"NAME": "W7W/KG-136", "TITLE": "Bayne Existence", "REGION": "WA-King", "ASSOCIATION": "USA - Washington", "POINTS": "1", "BONUSPOINTS": "0"}}, {"type": "Feature", "geometry": {"type": "Point", "coordinates": [-121.9624, 47.5495]}, "properties": {"NAME": "W7W/KG-137", "TITLE": "North Grand Ridge", "REGION": "WA-King", "ASSOCIATION": "USA - Washington", "POINTS": "1", "BONUSPOINTS": "0"}}, {"type": "Feature", "geometry": {"type": "Point", "coordinates": [-121.8273, 47.7272]}, "properties": {"NAME": "W7W/KG-138", "TITLE": "1410 Frequency Peak", "REGION": "WA-King", "ASSOCIATION": "USA - Washington", "POINTS": "1", "BONUSPOINTS": "0"}}, {"type": "Feature", "geometry": {"type": "Point", "coordinates": [-121.9678, 47.3156]}, "properties": {"NAME": "W7W/KG-139", "TITLE": "Black Diamond Hill", "REGION": "WA-King", "ASSOCIATION": "USA - Washington", "POINTS": "1", "BONUSPOINTS": "0"}}, {"type": "Feature", "geometry": {"type": "Point", "coordinates": [-121.9618, 47.3459]}, "properties": {"NAME": "W7W/KG-140", "TITLE": "Mudbog Hill", "REGION": "WA-King", "ASSOCIATION": "USA - Washington", "POINTS": "1", "BONUSPOINTS": "0"}}, {"type": "Feature", "geometry": {"type": "Point", "coordinates": [-121.8625, 47.7394]}, "properties": {"NAME": "W7W/KG-141", "TITLE": "1090 Mt Electric", "REGION": "WA-King", "ASSOCIATION": "USA - Washington", "POINTS": "1", "BONUSPOINTS": "0"}}, {"type": "Feature", "geometry": {"type": "Point", "coordinates": [-121.9851, 47.6626]}, "properties": {"NAME": "W7W/KG-142", "TITLE": "Union Hill", "REGION": "WA-King", "ASSOCIATION": "USA - Washington", "POINTS": "1", "BONUSPOINTS": "0"}}, {"type": "Feature", "geometry": {"type": "Point", "coordinates": [-122.4141, 47.3798]}, "properties": {"NAME": "W7W/KG-143", "TITLE": "Maury Island", "REGION": "WA-King", "ASSOCIATION": "USA - Washington", "POINTS": "1", "BONUSPOINTS": "0"}}, {"type": "Feature", "geometry": {"type": "Point", "coordinates": [-121.2921, 47.5139]}, "properties": {"NAME": "W7W/KG-144", "TITLE": "Overcoat Peak", "REGION": "WA-King", "ASSOCIATION": "USA - Washington", "POINTS": "8", "BONUSPOINTS": "3"}}, {"type": "Feature", "geometry": {"type": "Point", "coordinates": [-121.4799, 47.6512]}, "properties": {"NAME": "W7W/KG-145", "TITLE": "Canoe Peak", "REGION": "WA-King", "ASSOCIATION": "USA - Washington", "POINTS": "6", "BONUSPOINTS": "3"}}, {"type": "Feature", "geometry": {"type": "Point", "coordinates": [-121.4994, 47.349]}, "properties": {"NAME": "W7W/KG-146", "TITLE": "Bearscout Peak", "REGION": "WA-King", "ASSOCIATION": "USA - Washington", "POINTS": "6", "BONUSPOINTS": "3"}}, {"type": "Feature", "geometry": {"type": "Point", "coordinates": [-121.4615, 47.129]}, "properties": {"NAME": "W7W/KG-147", "TITLE": "Colquhoun Peak", "REGION": "WA-King", "ASSOCIATION": "USA - Washington", "POINTS": "6", "BONUSPOINTS": "3"}}, {"type": "Feature", "geometry": {"type": "Point", "coordinates": [-121.4843, 47.3025]}, "properties": {"NAME": "W7W/KG-148", "TITLE": "Psilocybin Hill", "REGION": "WA-King", "ASSOCIATION": "USA - Washington", "POINTS": "6", "BONUSPOINTS": "3"}}, {"type": "Feature", "geometry": {"type": "Point", "coordinates": [-121.543, 47.2856]}, "properties": {"NAME": "W7W/KG-149", "TITLE": "Paranoia Peak", "REGION": "WA-King", "ASSOCIATION": "USA - Washington", "POINTS": "6", "BONUSPOINTS": "3"}}, {"type": "Feature", "geometry": {"type": "Point", "coordinates": [-121.5855, 47.3101]}, "properties": {"NAME": "W7W/KG-150", "TITLE": "4759", "REGION": "WA-King", "ASSOCIATION": "USA - Washington", "POINTS": "4", "BONUSPOINTS": "0"}}, {"type": "Feature", "geometry": {"type": "Point", "coordinates": [-121.641, 47.2654]}, "properties": {"NAME": "W7W/KG-151", "TITLE": "Cougar Mountain", "REGION": "WA-King", "ASSOCIATION": "USA - Washington", "POINTS": "4", "BONUSPOINTS": "0"}}, {"type": "Feature", "geometry": {"type": "Point", "coordinates": [-121.6268, 47.2878]}, "properties": {"NAME": "W7W/KG-152", "TITLE": "4500", "REGION": "WA-King", "ASSOCIATION": "USA - Washington", "POINTS": "4", "BONUSPOINTS": "0"}}, {"type": "Feature", "geometry": {"type": "Point", "coordinates": [-121.6823, 47.3336]}, "properties": {"NAME": "W7W/KG-153", "TITLE": "Mount Lindsay", "REGION": "WA-King", "ASSOCIATION": "USA - Washington", "POINTS": "4", "BONUSPOINTS": "0"}}, {"type": "Feature", "geometry": {"type": "Point", "coordinates": [-121.6314, 47.6863]}, "properties": {"NAME": "W7W/KG-154", "TITLE": "High Devil", "REGION": "WA-King", "ASSOCIATION": "USA - Washington", "POINTS": "4", "BONUSPOINTS": "0"}}, {"type": "Feature", "geometry": {"type": "Point", "coordinates": [-121.752, 47.3859]}, "properties": {"NAME": "W7W/KG-155", "TITLE": "4140", "REGION": "WA-King", "ASSOCIATION": "USA - Washington", "POINTS": "4", "BONUSPOINTS": "0"}}, {"type": "Feature", "geometry": {"type": "Point", "coordinates": [-121.5731, 47.2501]}, "properties": {"NAME": "W7W/KG-156", "TITLE": "Rooster Comb Mountain", "REGION": "WA-King", "ASSOCIATION": "USA - Washington", "POINTS": "4", "BONUSPOINTS": "0"}}, {"type": "Feature", "geometry": {"type": "Point", "coordinates": [-121.7341, 47.3681]}, "properties": {"NAME": "W7W/KG-157", "TITLE": "4060", "REGION": "WA-King", "ASSOCIATION": "USA - Washington", "POINTS": "4", "BONUSPOINTS": "0"}}, {"type": "Feature", "geometry": {"type": "Point", "coordinates": [-121.6981, 47.2446]}, "properties": {"NAME": "W7W/KG-158", "TITLE": "3115", "REGION": "WA-King", "ASSOCIATION": "USA - Washington", "POINTS": "2", "BONUSPOINTS": "0"}}, {"type": "Feature", "geometry": {"type": "Point", "coordinates": [-121.6725, 47.3715]}, "properties": {"NAME": "W7W/KG-159", "TITLE": "Little Mountain", "REGION": "WA-King", "ASSOCIATION": "USA - Washington", "POINTS": "2", "BONUSPOINTS": "0"}}, {"type": "Feature", "geometry": {"type": "Point", "coordinates": [-121.7597, 47.3064]}, "properties": {"NAME": "W7W/KG-160", "TITLE": "2713", "REGION": "WA-King", "ASSOCIATION": "USA - Washington", "POINTS": "2", "BONUSPOINTS": "0"}}, {"type": "Feature", "geometry": {"type": "Point", "coordinates": [-121.8418, 47.414]}, "properties": {"NAME": "W7W/KG-161", "TITLE": "Lookout Mountain", "REGION": "WA-King", "ASSOCIATION": "USA - Washington", "POINTS": "2", "BONUSPOINTS": "0"}}, {"type": "Feature", "geometry": {"type": "Point", "coordinates": [-121.9039, 47.1868]}, "properties": {"NAME": "W7W/KG-162", "TITLE": "Radio Hill", "REGION": "WA-King", "ASSOCIATION": "USA - Washington", "POINTS": "2", "BONUSPOINTS": "0"}}]}