{"type": "FeatureCollection", "name": "W7W/CH SUMMITS", "features": [{"type": "Feature", "geometry": {"type": "Point", "coordinates": [-120.8664, 48.2382]}, "properties": {"NAME": "W7W/CH-001", "TITLE": "Bonanza Peak", "REGION": "WA-Chelan", "ASSOCIATION": "USA - Washington", "POINTS": "10", "BONUSPOINTS": "3"}}, {"type": "Feature", "geometry": {"type": "Point", "coordinates": [-120.9022, 47.4751]}, "properties": {"NAME": "W7W/CH-002", "TITLE": "Mount Stuart", "REGION": "WA-Chelan", "ASSOCIATION": "USA - Washington", "POINTS": "10", "BONUSPOINTS": "3"}}, {"type": "Feature", "geometry": {"type": "Point", "coordinates": [-120.8075, 48.1626]}, "properties": {"NAME": "W7W/CH-003", "TITLE": "Mount Fernow", "REGION": "WA-Chelan", "ASSOCIATION": "USA - Washington", "POINTS": "10", "BONUSPOINTS": "3"}}, {"type": "Feature", "geometry": {"type": "Point", "coordinates": [-120.9113, 48.483]}, "properties": {"NAME": "W7W/CH-004", "TITLE": "Goode Mountain", "REGION": "WA-Chelan", "ASSOCIATION": "USA - Washington", "POINTS": "10", "BONUSPOINTS": "3"}}, {"type": "Feature", "geometry": {"type": "Point", "coordinates": [-120.8037, 48.1376]}, "properties": {"NAME": "W7W/CH-005", "TITLE": "Mount Maude", "REGION": "WA-Chelan", "ASSOCIATION": "USA - Washington", "POINTS": "10", "BONUSPOINTS": "3"}}, {"type": "Feature", "geometry": {"type": "Point", "coordinates": [-120.8035, 48.1749]}, "properties": {"NAME": "W7W/CH-006", "TITLE": "Copper Peak", "REGION": "WA-Chelan", "ASSOCIATION": "USA - Washington", "POINTS": "10", "BONUSPOINTS": "3"}}, {"type": "Feature", "geometry": {"type": "Point", "coordinates": [-120.833, 47.479]}, "properties": {"NAME": "W7W/CH-007", "TITLE": "Dragontail Peak", "REGION": "WA-Chelan", "ASSOCIATION": "USA - Washington", "POINTS": "10", "BONUSPOINTS": "3"}}, {"type": "Feature", "geometry": {"type": "Point", "coordinates": [-120.8464, 47.4783]}, "properties": {"NAME": "W7W/CH-008", "TITLE": "Colchuck Peak", "REGION": "WA-Chelan", "ASSOCIATION": "USA - Washington", "POINTS": "10", "BONUSPOINTS": "3"}}, {"type": "Feature", "geometry": {"type": "Point", "coordinates": [-120.4284, 48.2507]}, "properties": {"NAME": "W7W/CH-009", "TITLE": "Star Peak", "REGION": "WA-Chelan", "ASSOCIATION": "USA - Washington", "POINTS": "10", "BONUSPOINTS": "3"}}, {"type": "Feature", "geometry": {"type": "Point", "coordinates": [-120.8024, 47.5026]}, "properties": {"NAME": "W7W/CH-010", "TITLE": "Cannon Mountain", "REGION": "WA-Chelan", "ASSOCIATION": "USA - Washington", "POINTS": "10", "BONUSPOINTS": "3"}}, {"type": "Feature", "geometry": {"type": "Point", "coordinates": [-120.8886, 47.4717]}, "properties": {"NAME": "W7W/CH-011", "TITLE": "Sherpa Pk", "REGION": "WA-Chelan", "ASSOCIATION": "USA - Washington", "POINTS": "10", "BONUSPOINTS": "3"}}, {"type": "Feature", "geometry": {"type": "Point", "coordinates": [-120.9686, 48.05]}, "properties": {"NAME": "W7W/CH-012", "TITLE": "Clark Mountain", "REGION": "WA-Chelan", "ASSOCIATION": "USA - Washington", "POINTS": "10", "BONUSPOINTS": "3"}}, {"type": "Feature", "geometry": {"type": "Point", "coordinates": [-120.6125, 48.1031]}, "properties": {"NAME": "W7W/CH-013", "TITLE": "Cardinal Peak", "REGION": "WA-Chelan", "ASSOCIATION": "USA - Washington", "POINTS": "10", "BONUSPOINTS": "3"}}, {"type": "Feature", "geometry": {"type": "Point", "coordinates": [-120.912, 48.0936]}, "properties": {"NAME": "W7W/CH-014", "TITLE": "Buck Mountain", "REGION": "WA-Chelan", "ASSOCIATION": "USA - Washington", "POINTS": "10", "BONUSPOINTS": "3"}}, {"type": "Feature", "geometry": {"type": "Point", "coordinates": [-120.8074, 47.4862]}, "properties": {"NAME": "W7W/CH-015", "TITLE": "Enchantment Peaks (HP)", "REGION": "WA-Chelan", "ASSOCIATION": "USA - Washington", "POINTS": "10", "BONUSPOINTS": "3"}}, {"type": "Feature", "geometry": {"type": "Point", "coordinates": [-120.9236, 48.4916]}, "properties": {"NAME": "W7W/CH-016", "TITLE": "Storm King", "REGION": "WA-Chelan", "ASSOCIATION": "USA - Washington", "POINTS": "10", "BONUSPOINTS": "3"}}, {"type": "Feature", "geometry": {"type": "Point", "coordinates": [-120.5632, 48.3723]}, "properties": {"NAME": "W7W/CH-017", "TITLE": "Reynolds Peak", "REGION": "WA-Chelan", "ASSOCIATION": "USA - Washington", "POINTS": "10", "BONUSPOINTS": "3"}}, {"type": "Feature", "geometry": {"type": "Point", "coordinates": [-120.8158, 48.2417]}, "properties": {"NAME": "W7W/CH-018", "TITLE": "Martin Peak", "REGION": "WA-Chelan", "ASSOCIATION": "USA - Washington", "POINTS": "10", "BONUSPOINTS": "3"}}, {"type": "Feature", "geometry": {"type": "Point", "coordinates": [-120.8473, 47.5586]}, "properties": {"NAME": "W7W/CH-019", "TITLE": "Cashmere Mountain", "REGION": "WA-Chelan", "ASSOCIATION": "USA - Washington", "POINTS": "10", "BONUSPOINTS": "3"}}, {"type": "Feature", "geometry": {"type": "Point", "coordinates": [-120.3541, 48.2182]}, "properties": {"NAME": "W7W/CH-020", "TITLE": "Mount Bigelow", "REGION": "WA-Chelan", "ASSOCIATION": "USA - Washington", "POINTS": "10", "BONUSPOINTS": "3"}}, {"type": "Feature", "geometry": {"type": "Point", "coordinates": [-120.8613, 47.4702]}, "properties": {"NAME": "W7W/CH-021", "TITLE": "Argonaut Peak", "REGION": "WA-Chelan", "ASSOCIATION": "USA - Washington", "POINTS": "10", "BONUSPOINTS": "3"}}, {"type": "Feature", "geometry": {"type": "Point", "coordinates": [-120.629, 48.1151]}, "properties": {"NAME": "W7W/CH-022", "TITLE": "Emerald Peak", "REGION": "WA-Chelan", "ASSOCIATION": "USA - Washington", "POINTS": "10", "BONUSPOINTS": "3"}}, {"type": "Feature", "geometry": {"type": "Point", "coordinates": [-120.8587, 48.1801]}, "properties": {"NAME": "W7W/CH-023", "TITLE": "Dumbell Mountain", "REGION": "WA-Chelan", "ASSOCIATION": "USA - Washington", "POINTS": "10", "BONUSPOINTS": "3"}}, {"type": "Feature", "geometry": {"type": "Point", "coordinates": [-120.9848, 48.0607]}, "properties": {"NAME": "W7W/CH-024", "TITLE": "Luahna Peak", "REGION": "WA-Chelan", "ASSOCIATION": "USA - Washington", "POINTS": "10", "BONUSPOINTS": "3"}}, {"type": "Feature", "geometry": {"type": "Point", "coordinates": [-120.6702, 48.1319]}, "properties": {"NAME": "W7W/CH-025", "TITLE": "Pinnacle Mountain", "REGION": "WA-Chelan", "ASSOCIATION": "USA - Washington", "POINTS": "10", "BONUSPOINTS": "3"}}, {"type": "Feature", "geometry": {"type": "Point", "coordinates": [-120.8508, 48.1854]}, "properties": {"NAME": "W7W/CH-026", "TITLE": "Greenwood Mountain", "REGION": "WA-Chelan", "ASSOCIATION": "USA - Washington", "POINTS": "10", "BONUSPOINTS": "3"}}, {"type": "Feature", "geometry": {"type": "Point", "coordinates": [-120.6424, 48.1122]}, "properties": {"NAME": "W7W/CH-027", "TITLE": "Saska Peak", "REGION": "WA-Chelan", "ASSOCIATION": "USA - Washington", "POINTS": "10", "BONUSPOINTS": "3"}}, {"type": "Feature", "geometry": {"type": "Point", "coordinates": [-120.7597, 48.1265]}, "properties": {"NAME": "W7W/CH-028", "TITLE": "South Spectacle Butte", "REGION": "WA-Chelan", "ASSOCIATION": "USA - Washington", "POINTS": "10", "BONUSPOINTS": "3"}}, {"type": "Feature", "geometry": {"type": "Point", "coordinates": [-120.4434, 48.2607]}, "properties": {"NAME": "W7W/CH-029", "TITLE": "Courtney Peak", "REGION": "WA-Chelan", "ASSOCIATION": "USA - Washington", "POINTS": "10", "BONUSPOINTS": "3"}}, {"type": "Feature", "geometry": {"type": "Point", "coordinates": [-120.7649, 48.2765]}, "properties": {"NAME": "W7W/CH-030", "TITLE": "Devore Peak", "REGION": "WA-Chelan", "ASSOCIATION": "USA - Washington", "POINTS": "10", "BONUSPOINTS": "3"}}, {"type": "Feature", "geometry": {"type": "Point", "coordinates": [-120.3509, 48.1885]}, "properties": {"NAME": "W7W/CH-031", "TITLE": "Martin Peak", "REGION": "WA-Chelan", "ASSOCIATION": "USA - Washington", "POINTS": "10", "BONUSPOINTS": "3"}}, {"type": "Feature", "geometry": {"type": "Point", "coordinates": [-120.7858, 47.4702]}, "properties": {"NAME": "W7W/CH-032", "TITLE": "McClellan Peak", "REGION": "WA-Chelan", "ASSOCIATION": "USA - Washington", "POINTS": "10", "BONUSPOINTS": "3"}}, {"type": "Feature", "geometry": {"type": "Point", "coordinates": [-120.7507, 48.297]}, "properties": {"NAME": "W7W/CH-033", "TITLE": "Tupshin Peak", "REGION": "WA-Chelan", "ASSOCIATION": "USA - Washington", "POINTS": "10", "BONUSPOINTS": "3"}}, {"type": "Feature", "geometry": {"type": "Point", "coordinates": [-120.6956, 48.2432]}, "properties": {"NAME": "W7W/CH-034", "TITLE": "Flora Mountain", "REGION": "WA-Chelan", "ASSOCIATION": "USA - Washington", "POINTS": "10", "BONUSPOINTS": "3"}}, {"type": "Feature", "geometry": {"type": "Point", "coordinates": [-120.9766, 48.475]}, "properties": {"NAME": "W7W/CH-035", "TITLE": "Booker Mountain", "REGION": "WA-Chelan", "ASSOCIATION": "USA - Washington", "POINTS": "10", "BONUSPOINTS": "3"}}, {"type": "Feature", "geometry": {"type": "Point", "coordinates": [-121.0376, 48.4101]}, "properties": {"NAME": "W7W/CH-036", "TITLE": "Spider Mountain", "REGION": "WA-Chelan", "ASSOCIATION": "USA - Washington", "POINTS": "10", "BONUSPOINTS": "3"}}, {"type": "Feature", "geometry": {"type": "Point", "coordinates": [-120.7696, 47.4904]}, "properties": {"NAME": "W7W/CH-037", "TITLE": "The Temple", "REGION": "WA-Chelan", "ASSOCIATION": "USA - Washington", "POINTS": "10", "BONUSPOINTS": "3"}}, {"type": "Feature", "geometry": {"type": "Point", "coordinates": [-120.7686, 48.2551]}, "properties": {"NAME": "W7W/CH-038", "TITLE": "Wy East Mountain", "REGION": "WA-Chelan", "ASSOCIATION": "USA - Washington", "POINTS": "10", "BONUSPOINTS": "3"}}, {"type": "Feature", "geometry": {"type": "Point", "coordinates": [-120.3489, 48.1967]}, "properties": {"NAME": "W7W/CH-039", "TITLE": "Cheops", "REGION": "WA-Chelan", "ASSOCIATION": "USA - Washington", "POINTS": "10", "BONUSPOINTS": "3"}}, {"type": "Feature", "geometry": {"type": "Point", "coordinates": [-120.5679, 48.0796]}, "properties": {"NAME": "W7W/CH-040", "TITLE": "Pyramid Mountain", "REGION": "WA-Chelan", "ASSOCIATION": "USA - Washington", "POINTS": "10", "BONUSPOINTS": "3"}}, {"type": "Feature", "geometry": {"type": "Point", "coordinates": [-120.7385, 48.2277]}, "properties": {"NAME": "W7W/CH-041", "TITLE": "West Riddle Peaks", "REGION": "WA-Chelan", "ASSOCIATION": "USA - Washington", "POINTS": "10", "BONUSPOINTS": "3"}}, {"type": "Feature", "geometry": {"type": "Point", "coordinates": [-120.9943, 48.3067]}, "properties": {"NAME": "W7W/CH-042", "TITLE": "Gunsight Peak", "REGION": "WA-Chelan", "ASSOCIATION": "USA - Washington", "POINTS": "8", "BONUSPOINTS": "3"}}, {"type": "Feature", "geometry": {"type": "Point", "coordinates": [-120.6928, 48.2574]}, "properties": {"NAME": "W7W/CH-043", "TITLE": "Castle Rock", "REGION": "WA-Chelan", "ASSOCIATION": "USA - Washington", "POINTS": "8", "BONUSPOINTS": "3"}}, {"type": "Feature", "geometry": {"type": "Point", "coordinates": [-120.6104, 48.3941]}, "properties": {"NAME": "W7W/CH-044", "TITLE": "Mount Gibbs", "REGION": "WA-Chelan", "ASSOCIATION": "USA - Washington", "POINTS": "8", "BONUSPOINTS": "3"}}, {"type": "Feature", "geometry": {"type": "Point", "coordinates": [-120.7656, 48.1651]}, "properties": {"NAME": "W7W/CH-045", "TITLE": "Buckskin Mountain", "REGION": "WA-Chelan", "ASSOCIATION": "USA - Washington", "POINTS": "8", "BONUSPOINTS": "3"}}, {"type": "Feature", "geometry": {"type": "Point", "coordinates": [-120.7982, 48.4082]}, "properties": {"NAME": "W7W/CH-046", "TITLE": "McGregor Mountain", "REGION": "WA-Chelan", "ASSOCIATION": "USA - Washington", "POINTS": "8", "BONUSPOINTS": "3"}}, {"type": "Feature", "geometry": {"type": "Point", "coordinates": [-120.9684, 48.3176]}, "properties": {"NAME": "W7W/CH-047", "TITLE": "Agnes Mountain", "REGION": "WA-Chelan", "ASSOCIATION": "USA - Washington", "POINTS": "8", "BONUSPOINTS": "3"}}, {"type": "Feature", "geometry": {"type": "Point", "coordinates": [-120.4649, 48.2136]}, "properties": {"NAME": "W7W/CH-048", "TITLE": "Finney Peak", "REGION": "WA-Chelan", "ASSOCIATION": "USA - Washington", "POINTS": "8", "BONUSPOINTS": "3"}}, {"type": "Feature", "geometry": {"type": "Point", "coordinates": [-120.9349, 47.7031]}, "properties": {"NAME": "W7W/CH-049", "TITLE": "Big Chiwaukum", "REGION": "WA-Chelan", "ASSOCIATION": "USA - Washington", "POINTS": "8", "BONUSPOINTS": "3"}}, {"type": "Feature", "geometry": {"type": "Point", "coordinates": [-120.7675, 48.1331]}, "properties": {"NAME": "W7W/CH-050", "TITLE": "North Spectacle Butte", "REGION": "WA-Chelan", "ASSOCIATION": "USA - Washington", "POINTS": "8", "BONUSPOINTS": "3"}}, {"type": "Feature", "geometry": {"type": "Point", "coordinates": [-120.7885, 48.5045]}, "properties": {"NAME": "W7W/CH-051", "TITLE": "Corteo Peak", "REGION": "WA-Chelan", "ASSOCIATION": "USA - Washington", "POINTS": "8", "BONUSPOINTS": "3"}}, {"type": "Feature", "geometry": {"type": "Point", "coordinates": [-120.9006, 48.2228]}, "properties": {"NAME": "W7W/CH-052", "TITLE": "North Star Mountain", "REGION": "WA-Chelan", "ASSOCIATION": "USA - Washington", "POINTS": "8", "BONUSPOINTS": "3"}}, {"type": "Feature", "geometry": {"type": "Point", "coordinates": [-120.6172, 48.1285]}, "properties": {"NAME": "W7W/CH-053", "TITLE": "Bearcat Ridge", "REGION": "WA-Chelan", "ASSOCIATION": "USA - Washington", "POINTS": "8", "BONUSPOINTS": "3"}}, {"type": "Feature", "geometry": {"type": "Point", "coordinates": [-120.6559, 48.0971]}, "properties": {"NAME": "W7W/CH-054", "TITLE": "Gopher Mountain", "REGION": "WA-Chelan", "ASSOCIATION": "USA - Washington", "POINTS": "8", "BONUSPOINTS": "3"}}, {"type": "Feature", "geometry": {"type": "Point", "coordinates": [-120.3913, 48.2275]}, "properties": {"NAME": "W7W/CH-055", "TITLE": "Beefhide Butte", "REGION": "WA-Chelan", "ASSOCIATION": "USA - Washington", "POINTS": "8", "BONUSPOINTS": "3"}}, {"type": "Feature", "geometry": {"type": "Point", "coordinates": [-120.7239, 48.2516]}, "properties": {"NAME": "W7W/CH-056", "TITLE": "Enigma Peak", "REGION": "WA-Chelan", "ASSOCIATION": "USA - Washington", "POINTS": "8", "BONUSPOINTS": "3"}}, {"type": "Feature", "geometry": {"type": "Point", "coordinates": [-120.5653, 48.3592]}, "properties": {"NAME": "W7W/CH-057", "TITLE": "Camels Hump", "REGION": "WA-Chelan", "ASSOCIATION": "USA - Washington", "POINTS": "8", "BONUSPOINTS": "3"}}, {"type": "Feature", "geometry": {"type": "Point", "coordinates": [-120.8973, 47.5321]}, "properties": {"NAME": "W7W/CH-058", "TITLE": "Eightmile Mountain", "REGION": "WA-Chelan", "ASSOCIATION": "USA - Washington", "POINTS": "8", "BONUSPOINTS": "3"}}, {"type": "Feature", "geometry": {"type": "Point", "coordinates": [-120.7767, 48.0981]}, "properties": {"NAME": "W7W/CH-059", "TITLE": "Chilly Peak", "REGION": "WA-Chelan", "ASSOCIATION": "USA - Washington", "POINTS": "8", "BONUSPOINTS": "3"}}, {"type": "Feature", "geometry": {"type": "Point", "coordinates": [-120.9462, 48.1033]}, "properties": {"NAME": "W7W/CH-060", "TITLE": "Mount Berge", "REGION": "WA-Chelan", "ASSOCIATION": "USA - Washington", "POINTS": "8", "BONUSPOINTS": "3"}}, {"type": "Feature", "geometry": {"type": "Point", "coordinates": [-120.6609, 48.0849]}, "properties": {"NAME": "W7W/CH-061", "TITLE": "Choral Peak", "REGION": "WA-Chelan", "ASSOCIATION": "USA - Washington", "POINTS": "8", "BONUSPOINTS": "3"}}, {"type": "Feature", "geometry": {"type": "Point", "coordinates": [-120.3262, 48.1315]}, "properties": {"NAME": "W7W/CH-062", "TITLE": "North Navarre Peak", "REGION": "WA-Chelan", "ASSOCIATION": "USA - Washington", "POINTS": "8", "BONUSPOINTS": "3"}}, {"type": "Feature", "geometry": {"type": "Point", "coordinates": [-120.6634, 48.1511]}, "properties": {"NAME": "W7W/CH-063", "TITLE": "7942 Mirror Mountain", "REGION": "WA-Chelan", "ASSOCIATION": "USA - Washington", "POINTS": "8", "BONUSPOINTS": "3"}}, {"type": "Feature", "geometry": {"type": "Point", "coordinates": [-120.8519, 48.3221]}, "properties": {"NAME": "W7W/CH-064", "TITLE": "Heather Ridge", "REGION": "WA-Chelan", "ASSOCIATION": "USA - Washington", "POINTS": "8", "BONUSPOINTS": "3"}}, {"type": "Feature", "geometry": {"type": "Point", "coordinates": [-120.6537, 48.3982]}, "properties": {"NAME": "W7W/CH-065", "TITLE": "McAlester Mountain", "REGION": "WA-Chelan", "ASSOCIATION": "USA - Washington", "POINTS": "8", "BONUSPOINTS": "3"}}, {"type": "Feature", "geometry": {"type": "Point", "coordinates": [-120.9027, 48.2796]}, "properties": {"NAME": "W7W/CH-066", "TITLE": "Needle Peak", "REGION": "WA-Chelan", "ASSOCIATION": "USA - Washington", "POINTS": "8", "BONUSPOINTS": "3"}}, {"type": "Feature", "geometry": {"type": "Point", "coordinates": [-120.7303, 48.4082]}, "properties": {"NAME": "W7W/CH-067", "TITLE": "Bowan Mountain", "REGION": "WA-Chelan", "ASSOCIATION": "USA - Washington", "POINTS": "8", "BONUSPOINTS": "3"}}, {"type": "Feature", "geometry": {"type": "Point", "coordinates": [-120.857, 48.2818]}, "properties": {"NAME": "W7W/CH-068", "TITLE": "Mount Lyall", "REGION": "WA-Chelan", "ASSOCIATION": "USA - Washington", "POINTS": "8", "BONUSPOINTS": "3"}}, {"type": "Feature", "geometry": {"type": "Point", "coordinates": [-120.3987, 48.1793]}, "properties": {"NAME": "W7W/CH-069", "TITLE": "Old Maid Mountain", "REGION": "WA-Chelan", "ASSOCIATION": "USA - Washington", "POINTS": "8", "BONUSPOINTS": "3"}}, {"type": "Feature", "geometry": {"type": "Point", "coordinates": [-120.7818, 48.2448]}, "properties": {"NAME": "W7W/CH-070", "TITLE": "Black Tower", "REGION": "WA-Chelan", "ASSOCIATION": "USA - Washington", "POINTS": "8", "BONUSPOINTS": "3"}}, {"type": "Feature", "geometry": {"type": "Point", "coordinates": [-120.2981, 48.1296]}, "properties": {"NAME": "W7W/CH-071", "TITLE": "Bryan Butte", "REGION": "WA-Chelan", "ASSOCIATION": "USA - Washington", "POINTS": "8", "BONUSPOINTS": "3"}}, {"type": "Feature", "geometry": {"type": "Point", "coordinates": [-120.6283, 48.4968]}, "properties": {"NAME": "W7W/CH-072", "TITLE": "Copper Benchmark", "REGION": "WA-Chelan", "ASSOCIATION": "USA - Washington", "POINTS": "8", "BONUSPOINTS": "3"}}, {"type": "Feature", "geometry": {"type": "Point", "coordinates": [-120.9217, 47.5254]}, "properties": {"NAME": "W7W/CH-073", "TITLE": "Jack Ridge", "REGION": "WA-Chelan", "ASSOCIATION": "USA - Washington", "POINTS": "8", "BONUSPOINTS": "3"}}, {"type": "Feature", "geometry": {"type": "Point", "coordinates": [-120.8068, 48.2566]}, "properties": {"NAME": "W7W/CH-074", "TITLE": "Sable Ridge", "REGION": "WA-Chelan", "ASSOCIATION": "USA - Washington", "POINTS": "8", "BONUSPOINTS": "3"}}, {"type": "Feature", "geometry": {"type": "Point", "coordinates": [-120.6571, 48.5067]}, "properties": {"NAME": "W7W/CH-075", "TITLE": "Cornice Peak", "REGION": "WA-Chelan", "ASSOCIATION": "USA - Washington", "POINTS": "8", "BONUSPOINTS": "3"}}, {"type": "Feature", "geometry": {"type": "Point", "coordinates": [-120.6531, 48.4854]}, "properties": {"NAME": "W7W/CH-076", "TITLE": "Switchblade Peak", "REGION": "WA-Chelan", "ASSOCIATION": "USA - Washington", "POINTS": "8", "BONUSPOINTS": "3"}}, {"type": "Feature", "geometry": {"type": "Point", "coordinates": [-120.708, 48.5156]}, "properties": {"NAME": "W7W/CH-077", "TITLE": "Whistler Mountain", "REGION": "WA-Chelan", "ASSOCIATION": "USA - Washington", "POINTS": "8", "BONUSPOINTS": "3"}}, {"type": "Feature", "geometry": {"type": "Point", "coordinates": [-120.6377, 48.3822]}, "properties": {"NAME": "W7W/CH-078", "TITLE": "7782 West Level Peak", "REGION": "WA-Chelan", "ASSOCIATION": "USA - Washington", "POINTS": "8", "BONUSPOINTS": "3"}}, {"type": "Feature", "geometry": {"type": "Point", "coordinates": [-120.7566, 48.4888]}, "properties": {"NAME": "W7W/CH-079", "TITLE": "Frisco Mountain", "REGION": "WA-Chelan", "ASSOCIATION": "USA - Washington", "POINTS": "8", "BONUSPOINTS": "3"}}, {"type": "Feature", "geometry": {"type": "Point", "coordinates": [-120.8813, 48.3057]}, "properties": {"NAME": "W7W/CH-080", "TITLE": "Lyall Ridge", "REGION": "WA-Chelan", "ASSOCIATION": "USA - Washington", "POINTS": "8", "BONUSPOINTS": "3"}}, {"type": "Feature", "geometry": {"type": "Point", "coordinates": [-120.8474, 47.6392]}, "properties": {"NAME": "W7W/CH-081", "TITLE": "7780 Big Lou", "REGION": "WA-Chelan", "ASSOCIATION": "USA - Washington", "POINTS": "8", "BONUSPOINTS": "3"}}, {"type": "Feature", "geometry": {"type": "Point", "coordinates": [-120.4697, 48.2256]}, "properties": {"NAME": "W7W/CH-082", "TITLE": "Receiver Mtn", "REGION": "WA-Chelan", "ASSOCIATION": "USA - Washington", "POINTS": "8", "BONUSPOINTS": "3"}}, {"type": "Feature", "geometry": {"type": "Point", "coordinates": [-120.4015, 48.1338]}, "properties": {"NAME": "W7W/CH-083", "TITLE": "Ferry Peak", "REGION": "WA-Chelan", "ASSOCIATION": "USA - Washington", "POINTS": "8", "BONUSPOINTS": "3"}}, {"type": "Feature", "geometry": {"type": "Point", "coordinates": [-120.8322, 47.6623]}, "properties": {"NAME": "W7W/CH-084", "TITLE": "Big Jim Mountain", "REGION": "WA-Chelan", "ASSOCIATION": "USA - Washington", "POINTS": "8", "BONUSPOINTS": "3"}}, {"type": "Feature", "geometry": {"type": "Point", "coordinates": [-120.6669, 48.4515]}, "properties": {"NAME": "W7W/CH-085", "TITLE": "Hock Mountain", "REGION": "WA-Chelan", "ASSOCIATION": "USA - Washington", "POINTS": "8", "BONUSPOINTS": "3"}}, {"type": "Feature", "geometry": {"type": "Point", "coordinates": [-120.8171, 48.4897]}, "properties": {"NAME": "W7W/CH-086", "TITLE": "Mount Benzarino", "REGION": "WA-Chelan", "ASSOCIATION": "USA - Washington", "POINTS": "8", "BONUSPOINTS": "3"}}, {"type": "Feature", "geometry": {"type": "Point", "coordinates": [-120.6387, 48.1502]}, "properties": {"NAME": "W7W/CH-087", "TITLE": "7738 Sideswiper Mtn", "REGION": "WA-Chelan", "ASSOCIATION": "USA - Washington", "POINTS": "8", "BONUSPOINTS": "3"}}, {"type": "Feature", "geometry": {"type": "Point", "coordinates": [-120.7526, 47.5017]}, "properties": {"NAME": "W7W/CH-088", "TITLE": "Three Musketeers Ridge", "REGION": "WA-Chelan", "ASSOCIATION": "USA - Washington", "POINTS": "8", "BONUSPOINTS": "3"}}, {"type": "Feature", "geometry": {"type": "Point", "coordinates": [-120.8066, 48.2718]}, "properties": {"NAME": "W7W/CH-089", "TITLE": "7730 Mt Microphone", "REGION": "WA-Chelan", "ASSOCIATION": "USA - Washington", "POINTS": "8", "BONUSPOINTS": "3"}}, {"type": "Feature", "geometry": {"type": "Point", "coordinates": [-120.7415, 48.0483]}, "properties": {"NAME": "W7W/CH-090", "TITLE": "Fifth of July Mountain", "REGION": "WA-Chelan", "ASSOCIATION": "USA - Washington", "POINTS": "8", "BONUSPOINTS": "3"}}, {"type": "Feature", "geometry": {"type": "Point", "coordinates": [-120.7295, 48.0354]}, "properties": {"NAME": "W7W/CH-091", "TITLE": "Rampart Mountain", "REGION": "WA-Chelan", "ASSOCIATION": "USA - Washington", "POINTS": "8", "BONUSPOINTS": "3"}}, {"type": "Feature", "geometry": {"type": "Point", "coordinates": [-120.5565, 48.2865]}, "properties": {"NAME": "W7W/CH-092", "TITLE": "Moore Mountain", "REGION": "WA-Chelan", "ASSOCIATION": "USA - Washington", "POINTS": "8", "BONUSPOINTS": "3"}}, {"type": "Feature", "geometry": {"type": "Point", "coordinates": [-120.387, 48.1188]}, "properties": {"NAME": "W7W/CH-093", "TITLE": "Uno Peak", "REGION": "WA-Chelan", "ASSOCIATION": "USA - Washington", "POINTS": "8", "BONUSPOINTS": "3"}}, {"type": "Feature", "geometry": {"type": "Point", "coordinates": [-120.6513, 48.4314]}, "properties": {"NAME": "W7W/CH-094", "TITLE": "7628 Radioteletype Pk", "REGION": "WA-Chelan", "ASSOCIATION": "USA - Washington", "POINTS": "8", "BONUSPOINTS": "3"}}, {"type": "Feature", "geometry": {"type": "Point", "coordinates": [-120.8719, 47.9867]}, "properties": {"NAME": "W7W/CH-095", "TITLE": "Bandit Peak", "REGION": "WA-Chelan", "ASSOCIATION": "USA - Washington", "POINTS": "8", "BONUSPOINTS": "3"}}, {"type": "Feature", "geometry": {"type": "Point", "coordinates": [-120.6554, 48.5373]}, "properties": {"NAME": "W7W/CH-096", "TITLE": "Hinkhouse Peak", "REGION": "WA-Chelan", "ASSOCIATION": "USA - Washington", "POINTS": "8", "BONUSPOINTS": "3"}}, {"type": "Feature", "geometry": {"type": "Point", "coordinates": [-120.7111, 48.0158]}, "properties": {"NAME": "W7W/CH-097", "TITLE": "Garland Peak", "REGION": "WA-Chelan", "ASSOCIATION": "USA - Washington", "POINTS": "8", "BONUSPOINTS": "3"}}, {"type": "Feature", "geometry": {"type": "Point", "coordinates": [-120.8737, 47.5082]}, "properties": {"NAME": "W7W/CH-098", "TITLE": "Axis Peak", "REGION": "WA-Chelan", "ASSOCIATION": "USA - Washington", "POINTS": "8", "BONUSPOINTS": "3"}}, {"type": "Feature", "geometry": {"type": "Point", "coordinates": [-120.9131, 47.6366]}, "properties": {"NAME": "W7W/CH-099", "TITLE": "Grindstone Mountain", "REGION": "WA-Chelan", "ASSOCIATION": "USA - Washington", "POINTS": "8", "BONUSPOINTS": "3"}}, {"type": "Feature", "geometry": {"type": "Point", "coordinates": [-121.0181, 48.4317]}, "properties": {"NAME": "W7W/CH-100", "TITLE": "Trapper Mountain", "REGION": "WA-Chelan", "ASSOCIATION": "USA - Washington", "POINTS": "8", "BONUSPOINTS": "3"}}, {"type": "Feature", "geometry": {"type": "Point", "coordinates": [-120.5474, 48.0728]}, "properties": {"NAME": "W7W/CH-101", "TITLE": "7492 Graham Harbor Mountain", "REGION": "WA-Chelan", "ASSOCIATION": "USA - Washington", "POINTS": "8", "BONUSPOINTS": "3"}}, {"type": "Feature", "geometry": {"type": "Point", "coordinates": [-120.5815, 48.3403]}, "properties": {"NAME": "W7W/CH-102", "TITLE": "7484 Camels Butte", "REGION": "WA-Chelan", "ASSOCIATION": "USA - Washington", "POINTS": "8", "BONUSPOINTS": "3"}}, {"type": "Feature", "geometry": {"type": "Point", "coordinates": [-121.0329, 47.5608]}, "properties": {"NAME": "W7W/CH-103", "TITLE": "The Cradle", "REGION": "WA-Chelan", "ASSOCIATION": "USA - Washington", "POINTS": "8", "BONUSPOINTS": "3"}}, {"type": "Feature", "geometry": {"type": "Point", "coordinates": [-120.7302, 48.4362]}, "properties": {"NAME": "W7W/CH-104", "TITLE": "Three Wives", "REGION": "WA-Chelan", "ASSOCIATION": "USA - Washington", "POINTS": "8", "BONUSPOINTS": "3"}}, {"type": "Feature", "geometry": {"type": "Point", "coordinates": [-120.5617, 48.3156]}, "properties": {"NAME": "W7W/CH-105", "TITLE": "Splawn Mtn", "REGION": "WA-Chelan", "ASSOCIATION": "USA - Washington", "POINTS": "8", "BONUSPOINTS": "3"}}, {"type": "Feature", "geometry": {"type": "Point", "coordinates": [-120.8004, 48.3386]}, "properties": {"NAME": "W7W/CH-106", "TITLE": "Sisi Ridge", "REGION": "WA-Chelan", "ASSOCIATION": "USA - Washington", "POINTS": "8", "BONUSPOINTS": "3"}}, {"type": "Feature", "geometry": {"type": "Point", "coordinates": [-121.1017, 48.0063]}, "properties": {"NAME": "W7W/CH-107", "TITLE": "Indian Head Peak", "REGION": "WA-Chelan", "ASSOCIATION": "USA - Washington", "POINTS": "8", "BONUSPOINTS": "3"}}, {"type": "Feature", "geometry": {"type": "Point", "coordinates": [-120.7014, 48.1582]}, "properties": {"NAME": "W7W/CH-108", "TITLE": "7437 Phase Shift Mtn", "REGION": "WA-Chelan", "ASSOCIATION": "USA - Washington", "POINTS": "8", "BONUSPOINTS": "3"}}, {"type": "Feature", "geometry": {"type": "Point", "coordinates": [-120.7599, 48.4031]}, "properties": {"NAME": "W7W/CH-109", "TITLE": "McGregor Benchmark", "REGION": "WA-Chelan", "ASSOCIATION": "USA - Washington", "POINTS": "8", "BONUSPOINTS": "3"}}, {"type": "Feature", "geometry": {"type": "Point", "coordinates": [-120.8982, 48.4629]}, "properties": {"NAME": "W7W/CH-110", "TITLE": "South Goode Ridge", "REGION": "WA-Chelan", "ASSOCIATION": "USA - Washington", "POINTS": "8", "BONUSPOINTS": "3"}}, {"type": "Feature", "geometry": {"type": "Point", "coordinates": [-120.9895, 47.963]}, "properties": {"NAME": "W7W/CH-111", "TITLE": "Mount David", "REGION": "WA-Chelan", "ASSOCIATION": "USA - Washington", "POINTS": "8", "BONUSPOINTS": "3"}}, {"type": "Feature", "geometry": {"type": "Point", "coordinates": [-120.9576, 48.2626]}, "properties": {"NAME": "W7W/CH-112", "TITLE": "Saddle Bow Mountain", "REGION": "WA-Chelan", "ASSOCIATION": "USA - Washington", "POINTS": "8", "BONUSPOINTS": "3"}}, {"type": "Feature", "geometry": {"type": "Point", "coordinates": [-120.4265, 48.1401]}, "properties": {"NAME": "W7W/CH-113", "TITLE": "Vie Mountain", "REGION": "WA-Chelan", "ASSOCIATION": "USA - Washington", "POINTS": "8", "BONUSPOINTS": "3"}}, {"type": "Feature", "geometry": {"type": "Point", "coordinates": [-120.9244, 47.7286]}, "properties": {"NAME": "W7W/CH-114", "TITLE": "7377 Rectifier Mtn", "REGION": "WA-Chelan", "ASSOCIATION": "USA - Washington", "POINTS": "8", "BONUSPOINTS": "3"}}, {"type": "Feature", "geometry": {"type": "Point", "coordinates": [-120.5237, 48.0296]}, "properties": {"NAME": "W7W/CH-115", "TITLE": "Crow Hill", "REGION": "WA-Chelan", "ASSOCIATION": "USA - Washington", "POINTS": "8", "BONUSPOINTS": "3"}}, {"type": "Feature", "geometry": {"type": "Point", "coordinates": [-120.6754, 48.075]}, "properties": {"NAME": "W7W/CH-116", "TITLE": "7363 Good Copy Mtn", "REGION": "WA-Chelan", "ASSOCIATION": "USA - Washington", "POINTS": "8", "BONUSPOINTS": "3"}}, {"type": "Feature", "geometry": {"type": "Point", "coordinates": [-120.5992, 48.3229]}, "properties": {"NAME": "W7W/CH-117", "TITLE": "Boulder Butte", "REGION": "WA-Chelan", "ASSOCIATION": "USA - Washington", "POINTS": "8", "BONUSPOINTS": "3"}}, {"type": "Feature", "geometry": {"type": "Point", "coordinates": [-120.7344, 48.1685]}, "properties": {"NAME": "W7W/CH-118", "TITLE": "Tinpan Mountain", "REGION": "WA-Chelan", "ASSOCIATION": "USA - Washington", "POINTS": "8", "BONUSPOINTS": "3"}}, {"type": "Feature", "geometry": {"type": "Point", "coordinates": [-120.9178, 47.6571]}, "properties": {"NAME": "W7W/CH-119", "TITLE": "Cape Horn", "REGION": "WA-Chelan", "ASSOCIATION": "USA - Washington", "POINTS": "8", "BONUSPOINTS": "3"}}, {"type": "Feature", "geometry": {"type": "Point", "coordinates": [-120.7757, 47.4233]}, "properties": {"NAME": "W7W/CH-120", "TITLE": "West Three Brothers", "REGION": "WA-Chelan", "ASSOCIATION": "USA - Washington", "POINTS": "8", "BONUSPOINTS": "3"}}, {"type": "Feature", "geometry": {"type": "Point", "coordinates": [-120.7607, 47.5174]}, "properties": {"NAME": "W7W/CH-121", "TITLE": "Edward Peak", "REGION": "WA-Chelan", "ASSOCIATION": "USA - Washington", "POINTS": "8", "BONUSPOINTS": "3"}}, {"type": "Feature", "geometry": {"type": "Point", "coordinates": [-121.0231, 48.0018]}, "properties": {"NAME": "W7W/CH-122", "TITLE": "Mount Saul", "REGION": "WA-Chelan", "ASSOCIATION": "USA - Washington", "POINTS": "8", "BONUSPOINTS": "3"}}, {"type": "Feature", "geometry": {"type": "Point", "coordinates": [-120.5311, 48.0573]}, "properties": {"NAME": "W7W/CH-123", "TITLE": "Graham Mountain", "REGION": "WA-Chelan", "ASSOCIATION": "USA - Washington", "POINTS": "8", "BONUSPOINTS": "3"}}, {"type": "Feature", "geometry": {"type": "Point", "coordinates": [-121.0315, 47.9471]}, "properties": {"NAME": "W7W/CH-124", "TITLE": "Whittier Peak", "REGION": "WA-Chelan", "ASSOCIATION": "USA - Washington", "POINTS": "8", "BONUSPOINTS": "3"}}, {"type": "Feature", "geometry": {"type": "Point", "coordinates": [-120.7487, 48.0781]}, "properties": {"NAME": "W7W/CH-125", "TITLE": "7277 Static Mtn", "REGION": "WA-Chelan", "ASSOCIATION": "USA - Washington", "POINTS": "8", "BONUSPOINTS": "3"}}, {"type": "Feature", "geometry": {"type": "Point", "coordinates": [-120.7046, 48.4089]}, "properties": {"NAME": "W7W/CH-126", "TITLE": "Rainbow Ridge", "REGION": "WA-Chelan", "ASSOCIATION": "USA - Washington", "POINTS": "8", "BONUSPOINTS": "3"}}, {"type": "Feature", "geometry": {"type": "Point", "coordinates": [-120.9302, 47.9919]}, "properties": {"NAME": "W7W/CH-127", "TITLE": "7235 Sopa Peak", "REGION": "WA-Chelan", "ASSOCIATION": "USA - Washington", "POINTS": "8", "BONUSPOINTS": "3"}}, {"type": "Feature", "geometry": {"type": "Point", "coordinates": [-120.9801, 48.4321]}, "properties": {"NAME": "W7W/CH-128", "TITLE": "Glory Mountain", "REGION": "WA-Chelan", "ASSOCIATION": "USA - Washington", "POINTS": "8", "BONUSPOINTS": "3"}}, {"type": "Feature", "geometry": {"type": "Point", "coordinates": [-120.9766, 48.3748]}, "properties": {"NAME": "W7W/CH-129", "TITLE": "Rimrock Ridge East", "REGION": "WA-Chelan", "ASSOCIATION": "USA - Washington", "POINTS": "8", "BONUSPOINTS": "3"}}, {"type": "Feature", "geometry": {"type": "Point", "coordinates": [-120.8326, 48.3031]}, "properties": {"NAME": "W7W/CH-130", "TITLE": "7220 Circuit Mtn", "REGION": "WA-Chelan", "ASSOCIATION": "USA - Washington", "POINTS": "8", "BONUSPOINTS": "3"}}, {"type": "Feature", "geometry": {"type": "Point", "coordinates": [-120.9342, 48.3774]}, "properties": {"NAME": "W7W/CH-131", "TITLE": "Seven Sisters (HP)", "REGION": "WA-Chelan", "ASSOCIATION": "USA - Washington", "POINTS": "8", "BONUSPOINTS": "3"}}, {"type": "Feature", "geometry": {"type": "Point", "coordinates": [-120.3522, 47.8979]}, "properties": {"NAME": "W7W/CH-132", "TITLE": "Stormy Mountain", "REGION": "WA-Chelan", "ASSOCIATION": "USA - Washington", "POINTS": "8", "BONUSPOINTS": "3"}}, {"type": "Feature", "geometry": {"type": "Point", "coordinates": [-121.0006, 48.3722]}, "properties": {"NAME": "W7W/CH-133", "TITLE": "Rimrock Ridge West", "REGION": "WA-Chelan", "ASSOCIATION": "USA - Washington", "POINTS": "8", "BONUSPOINTS": "3"}}, {"type": "Feature", "geometry": {"type": "Point", "coordinates": [-120.9859, 47.5276]}, "properties": {"NAME": "W7W/CH-134", "TITLE": "Harding Mountain", "REGION": "WA-Chelan", "ASSOCIATION": "USA - Washington", "POINTS": "8", "BONUSPOINTS": "3"}}, {"type": "Feature", "geometry": {"type": "Point", "coordinates": [-120.6509, 48.4612]}, "properties": {"NAME": "W7W/CH-135", "TITLE": "Twisp Mountain", "REGION": "WA-Chelan", "ASSOCIATION": "USA - Washington", "POINTS": "8", "BONUSPOINTS": "3"}}, {"type": "Feature", "geometry": {"type": "Point", "coordinates": [-120.6903, 48.2103]}, "properties": {"NAME": "W7W/CH-136", "TITLE": "Lucerne Mountain", "REGION": "WA-Chelan", "ASSOCIATION": "USA - Washington", "POINTS": "8", "BONUSPOINTS": "3"}}, {"type": "Feature", "geometry": {"type": "Point", "coordinates": [-121.0326, 48.4487]}, "properties": {"NAME": "W7W/CH-137", "TITLE": "Pelton Peak", "REGION": "WA-Chelan", "ASSOCIATION": "USA - Washington", "POINTS": "8", "BONUSPOINTS": "3"}}, {"type": "Feature", "geometry": {"type": "Point", "coordinates": [-120.987, 48.4337]}, "properties": {"NAME": "W7W/CH-138", "TITLE": "7140 Halleluja Peak", "REGION": "WA-Chelan", "ASSOCIATION": "USA - Washington", "POINTS": "8", "BONUSPOINTS": "3"}}, {"type": "Feature", "geometry": {"type": "Point", "coordinates": [-120.818, 48.3143]}, "properties": {"NAME": "W7W/CH-139", "TITLE": "7140 Circuitboard Mtn", "REGION": "WA-Chelan", "ASSOCIATION": "USA - Washington", "POINTS": "8", "BONUSPOINTS": "3"}}, {"type": "Feature", "geometry": {"type": "Point", "coordinates": [-120.4491, 47.9452]}, "properties": {"NAME": "W7W/CH-140", "TITLE": "Fourmile Ridge", "REGION": "WA-Chelan", "ASSOCIATION": "USA - Washington", "POINTS": "8", "BONUSPOINTS": "3"}}, {"type": "Feature", "geometry": {"type": "Point", "coordinates": [-120.4144, 48.1033]}, "properties": {"NAME": "W7W/CH-141", "TITLE": "Big Goat Mountain", "REGION": "WA-Chelan", "ASSOCIATION": "USA - Washington", "POINTS": "8", "BONUSPOINTS": "3"}}, {"type": "Feature", "geometry": {"type": "Point", "coordinates": [-120.803, 48.0885]}, "properties": {"NAME": "W7W/CH-142", "TITLE": "Carne Mountain", "REGION": "WA-Chelan", "ASSOCIATION": "USA - Washington", "POINTS": "8", "BONUSPOINTS": "3"}}, {"type": "Feature", "geometry": {"type": "Point", "coordinates": [-121.0132, 48.4118]}, "properties": {"NAME": "W7W/CH-143", "TITLE": "7100 Capacitor Mtn", "REGION": "WA-Chelan", "ASSOCIATION": "USA - Washington", "POINTS": "8", "BONUSPOINTS": "3"}}, {"type": "Feature", "geometry": {"type": "Point", "coordinates": [-120.969, 48.3827]}, "properties": {"NAME": "W7W/CH-144", "TITLE": "7100 Resistor Mtn", "REGION": "WA-Chelan", "ASSOCIATION": "USA - Washington", "POINTS": "8", "BONUSPOINTS": "3"}}, {"type": "Feature", "geometry": {"type": "Point", "coordinates": [-120.7942, 48.0579]}, "properties": {"NAME": "W7W/CH-145", "TITLE": "Old Gib Mountain", "REGION": "WA-Chelan", "ASSOCIATION": "USA - Washington", "POINTS": "8", "BONUSPOINTS": "3"}}, {"type": "Feature", "geometry": {"type": "Point", "coordinates": [-120.9545, 47.8145]}, "properties": {"NAME": "W7W/CH-146", "TITLE": "Mount Howard", "REGION": "WA-Chelan", "ASSOCIATION": "USA - Washington", "POINTS": "8", "BONUSPOINTS": "3"}}, {"type": "Feature", "geometry": {"type": "Point", "coordinates": [-120.7671, 47.591]}, "properties": {"NAME": "W7W/CH-147", "TITLE": "Icicle Ridge", "REGION": "WA-Chelan", "ASSOCIATION": "USA - Washington", "POINTS": "8", "BONUSPOINTS": "3"}}, {"type": "Feature", "geometry": {"type": "Point", "coordinates": [-120.993, 47.5678]}, "properties": {"NAME": "W7W/CH-148", "TITLE": "Highchair Mountain", "REGION": "WA-Chelan", "ASSOCIATION": "USA - Washington", "POINTS": "8", "BONUSPOINTS": "3"}}, {"type": "Feature", "geometry": {"type": "Point", "coordinates": [-120.5239, 47.8853]}, "properties": {"NAME": "W7W/CH-149", "TITLE": "Tyee Ridge", "REGION": "WA-Chelan", "ASSOCIATION": "USA - Washington", "POINTS": "8", "BONUSPOINTS": "3"}}, {"type": "Feature", "geometry": {"type": "Point", "coordinates": [-120.8059, 48.4359]}, "properties": {"NAME": "W7W/CH-150", "TITLE": "6980 Integrated Circuit Mtn", "REGION": "WA-Chelan", "ASSOCIATION": "USA - Washington", "POINTS": "8", "BONUSPOINTS": "3"}}, {"type": "Feature", "geometry": {"type": "Point", "coordinates": [-121.0082, 48.4308]}, "properties": {"NAME": "W7W/CH-151", "TITLE": "The Trap", "REGION": "WA-Chelan", "ASSOCIATION": "USA - Washington", "POINTS": "8", "BONUSPOINTS": "3"}}, {"type": "Feature", "geometry": {"type": "Point", "coordinates": [-120.8962, 48.3953]}, "properties": {"NAME": "W7W/CH-152", "TITLE": "Tolo Mountain", "REGION": "WA-Chelan", "ASSOCIATION": "USA - Washington", "POINTS": "8", "BONUSPOINTS": "3"}}, {"type": "Feature", "geometry": {"type": "Point", "coordinates": [-120.8395, 47.9399]}, "properties": {"NAME": "W7W/CH-153", "TITLE": "Crook Mountain", "REGION": "WA-Chelan", "ASSOCIATION": "USA - Washington", "POINTS": "8", "BONUSPOINTS": "3"}}, {"type": "Feature", "geometry": {"type": "Point", "coordinates": [-120.8516, 47.9551]}, "properties": {"NAME": "W7W/CH-154", "TITLE": "6913 Mount Sylvester", "REGION": "WA-Chelan", "ASSOCIATION": "USA - Washington", "POINTS": "8", "BONUSPOINTS": "3"}}, {"type": "Feature", "geometry": {"type": "Point", "coordinates": [-120.5079, 47.8842]}, "properties": {"NAME": "W7W/CH-155", "TITLE": "6907 Tyee Ridge Middle Peak", "REGION": "WA-Chelan", "ASSOCIATION": "USA - Washington", "POINTS": "8", "BONUSPOINTS": "3"}}, {"type": "Feature", "geometry": {"type": "Point", "coordinates": [-120.9744, 47.7998]}, "properties": {"NAME": "W7W/CH-156", "TITLE": "Rock Mountain", "REGION": "WA-Chelan", "ASSOCIATION": "USA - Washington", "POINTS": "8", "BONUSPOINTS": "3"}}, {"type": "Feature", "geometry": {"type": "Point", "coordinates": [-120.6209, 47.9618]}, "properties": {"NAME": "W7W/CH-157", "TITLE": "Klone Peak", "REGION": "WA-Chelan", "ASSOCIATION": "USA - Washington", "POINTS": "8", "BONUSPOINTS": "3"}}, {"type": "Feature", "geometry": {"type": "Point", "coordinates": [-121.0034, 47.6829]}, "properties": {"NAME": "W7W/CH-158", "TITLE": "Bulls Tooth", "REGION": "WA-Chelan", "ASSOCIATION": "USA - Washington", "POINTS": "8", "BONUSPOINTS": "3"}}, {"type": "Feature", "geometry": {"type": "Point", "coordinates": [-120.9635, 47.5788]}, "properties": {"NAME": "W7W/CH-159", "TITLE": "Bootjack Mountain", "REGION": "WA-Chelan", "ASSOCIATION": "USA - Washington", "POINTS": "8", "BONUSPOINTS": "3"}}, {"type": "Feature", "geometry": {"type": "Point", "coordinates": [-120.6099, 47.9532]}, "properties": {"NAME": "W7W/CH-160", "TITLE": "Kelly Mountain", "REGION": "WA-Chelan", "ASSOCIATION": "USA - Washington", "POINTS": "8", "BONUSPOINTS": "3"}}, {"type": "Feature", "geometry": {"type": "Point", "coordinates": [-121.0756, 47.6022]}, "properties": {"NAME": "W7W/CH-161", "TITLE": "French Ridge", "REGION": "WA-Chelan", "ASSOCIATION": "USA - Washington", "POINTS": "8", "BONUSPOINTS": "3"}}, {"type": "Feature", "geometry": {"type": "Point", "coordinates": [-121.0096, 47.7379]}, "properties": {"NAME": "W7W/CH-162", "TITLE": "Jim Hill Mountain", "REGION": "WA-Chelan", "ASSOCIATION": "USA - Washington", "POINTS": "8", "BONUSPOINTS": "3"}}, {"type": "Feature", "geometry": {"type": "Point", "coordinates": [-120.8473, 47.9751]}, "properties": {"NAME": "W7W/CH-163", "TITLE": "Dad-DY Peak", "REGION": "WA-Chelan", "ASSOCIATION": "USA - Washington", "POINTS": "8", "BONUSPOINTS": "3"}}, {"type": "Feature", "geometry": {"type": "Point", "coordinates": [-120.8509, 47.6752]}, "properties": {"NAME": "W7W/CH-164", "TITLE": "Painters Thumb", "REGION": "WA-Chelan", "ASSOCIATION": "USA - Washington", "POINTS": "8", "BONUSPOINTS": "3"}}, {"type": "Feature", "geometry": {"type": "Point", "coordinates": [-120.6816, 47.9969]}, "properties": {"NAME": "W7W/CH-165", "TITLE": "6716 Shetipo Point", "REGION": "WA-Chelan", "ASSOCIATION": "USA - Washington", "POINTS": "8", "BONUSPOINTS": "3"}}, {"type": "Feature", "geometry": {"type": "Point", "coordinates": [-121.1076, 47.6583]}, "properties": {"NAME": "W7W/CH-166", "TITLE": "Thor Peak", "REGION": "WA-Chelan", "ASSOCIATION": "USA - Washington", "POINTS": "8", "BONUSPOINTS": "3"}}, {"type": "Feature", "geometry": {"type": "Point", "coordinates": [-120.5809, 47.8913]}, "properties": {"NAME": "W7W/CH-167", "TITLE": "Cougar Mountain", "REGION": "WA-Chelan", "ASSOCIATION": "USA - Washington", "POINTS": "8", "BONUSPOINTS": "3"}}, {"type": "Feature", "geometry": {"type": "Point", "coordinates": [-120.4713, 47.8641]}, "properties": {"NAME": "W7W/CH-168", "TITLE": "Tyee Mountain", "REGION": "WA-Chelan", "ASSOCIATION": "USA - Washington", "POINTS": "8", "BONUSPOINTS": "3"}}, {"type": "Feature", "geometry": {"type": "Point", "coordinates": [-121.0426, 48.0439]}, "properties": {"NAME": "W7W/CH-169", "TITLE": "Bolt Peak", "REGION": "WA-Chelan", "ASSOCIATION": "USA - Washington", "POINTS": "8", "BONUSPOINTS": "3"}}, {"type": "Feature", "geometry": {"type": "Point", "coordinates": [-120.6796, 47.9717]}, "properties": {"NAME": "W7W/CH-170", "TITLE": "Chikamin Ridge", "REGION": "WA-Chelan", "ASSOCIATION": "USA - Washington", "POINTS": "8", "BONUSPOINTS": "3"}}, {"type": "Feature", "geometry": {"type": "Point", "coordinates": [-121.0598, 47.9387]}, "properties": {"NAME": "W7W/CH-171", "TITLE": "Longfellow Mountain", "REGION": "WA-Chelan", "ASSOCIATION": "USA - Washington", "POINTS": "8", "BONUSPOINTS": "3"}}, {"type": "Feature", "geometry": {"type": "Point", "coordinates": [-120.9703, 47.674]}, "properties": {"NAME": "W7W/CH-172", "TITLE": "Frosty Mountain", "REGION": "WA-Chelan", "ASSOCIATION": "USA - Washington", "POINTS": "6", "BONUSPOINTS": "3"}}, {"type": "Feature", "geometry": {"type": "Point", "coordinates": [-120.9956, 48.0056]}, "properties": {"NAME": "W7W/CH-173", "TITLE": "6435 Resistance Mtn", "REGION": "WA-Chelan", "ASSOCIATION": "USA - Washington", "POINTS": "6", "BONUSPOINTS": "3"}}, {"type": "Feature", "geometry": {"type": "Point", "coordinates": [-121.0726, 47.9593]}, "properties": {"NAME": "W7W/CH-174", "TITLE": "Bryant Peak", "REGION": "WA-Chelan", "ASSOCIATION": "USA - Washington", "POINTS": "6", "BONUSPOINTS": "3"}}, {"type": "Feature", "geometry": {"type": "Point", "coordinates": [-120.6591, 47.9302]}, "properties": {"NAME": "W7W/CH-175", "TITLE": "6389 Mad Lake Point", "REGION": "WA-Chelan", "ASSOCIATION": "USA - Washington", "POINTS": "6", "BONUSPOINTS": "3"}}, {"type": "Feature", "geometry": {"type": "Point", "coordinates": [-121.0431, 47.8529]}, "properties": {"NAME": "W7W/CH-176", "TITLE": "Labyrinth Mountain", "REGION": "WA-Chelan", "ASSOCIATION": "USA - Washington", "POINTS": "6", "BONUSPOINTS": "3"}}, {"type": "Feature", "geometry": {"type": "Point", "coordinates": [-120.9664, 47.8982]}, "properties": {"NAME": "W7W/CH-177", "TITLE": "6359 Single Lever Mtn", "REGION": "WA-Chelan", "ASSOCIATION": "USA - Washington", "POINTS": "6", "BONUSPOINTS": "3"}}, {"type": "Feature", "geometry": {"type": "Point", "coordinates": [-121.1003, 47.6362]}, "properties": {"NAME": "W7W/CH-178", "TITLE": "Swallow Tail", "REGION": "WA-Chelan", "ASSOCIATION": "USA - Washington", "POINTS": "6", "BONUSPOINTS": "3"}}, {"type": "Feature", "geometry": {"type": "Point", "coordinates": [-121.0285, 47.6948]}, "properties": {"NAME": "W7W/CH-179", "TITLE": "Lemool Mountain", "REGION": "WA-Chelan", "ASSOCIATION": "USA - Washington", "POINTS": "6", "BONUSPOINTS": "3"}}, {"type": "Feature", "geometry": {"type": "Point", "coordinates": [-120.8251, 47.8712]}, "properties": {"NAME": "W7W/CH-180", "TITLE": "Dirtyface Peak", "REGION": "WA-Chelan", "ASSOCIATION": "USA - Washington", "POINTS": "6", "BONUSPOINTS": "3"}}, {"type": "Feature", "geometry": {"type": "Point", "coordinates": [-120.8644, 47.812]}, "properties": {"NAME": "W7W/CH-181", "TITLE": "Alpine Lookout", "REGION": "WA-Chelan", "ASSOCIATION": "USA - Washington", "POINTS": "6", "BONUSPOINTS": "3"}}, {"type": "Feature", "geometry": {"type": "Point", "coordinates": [-120.8154, 47.8677]}, "properties": {"NAME": "W7W/CH-182", "TITLE": "Dirtyface Benchmark", "REGION": "WA-Chelan", "ASSOCIATION": "USA - Washington", "POINTS": "6", "BONUSPOINTS": "3"}}, {"type": "Feature", "geometry": {"type": "Point", "coordinates": [-120.2331, 48.0884]}, "properties": {"NAME": "W7W/CH-183", "TITLE": "Fox Peak", "REGION": "WA-Chelan", "ASSOCIATION": "USA - Washington", "POINTS": "6", "BONUSPOINTS": "3"}}, {"type": "Feature", "geometry": {"type": "Point", "coordinates": [-120.1831, 48.0739]}, "properties": {"NAME": "W7W/CH-184", "TITLE": "6100Poison Peak", "REGION": "WA-Chelan", "ASSOCIATION": "USA - Washington", "POINTS": "6", "BONUSPOINTS": "3"}}, {"type": "Feature", "geometry": {"type": "Point", "coordinates": [-120.9658, 47.7577]}, "properties": {"NAME": "W7W/CH-185", "TITLE": "Arrowhead Mountain", "REGION": "WA-Chelan", "ASSOCIATION": "USA - Washington", "POINTS": "6", "BONUSPOINTS": "3"}}, {"type": "Feature", "geometry": {"type": "Point", "coordinates": [-120.7131, 48.3773]}, "properties": {"NAME": "W7W/CH-186", "TITLE": "Rainbow Mountain", "REGION": "WA-Chelan", "ASSOCIATION": "USA - Washington", "POINTS": "6", "BONUSPOINTS": "3"}}, {"type": "Feature", "geometry": {"type": "Point", "coordinates": [-120.7482, 47.9762]}, "properties": {"NAME": "W7W/CH-187", "TITLE": "Basalt Peak", "REGION": "WA-Chelan", "ASSOCIATION": "USA - Washington", "POINTS": "6", "BONUSPOINTS": "3"}}, {"type": "Feature", "geometry": {"type": "Point", "coordinates": [-120.7952, 48.0213]}, "properties": {"NAME": "W7W/CH-188", "TITLE": "Estes Butte", "REGION": "WA-Chelan", "ASSOCIATION": "USA - Washington", "POINTS": "6", "BONUSPOINTS": "3"}}, {"type": "Feature", "geometry": {"type": "Point", "coordinates": [-121.015, 47.9054]}, "properties": {"NAME": "W7W/CH-189", "TITLE": "5937 Irving Peak-North Peak", "REGION": "WA-Chelan", "ASSOCIATION": "USA - Washington", "POINTS": "6", "BONUSPOINTS": "3"}}, {"type": "Feature", "geometry": {"type": "Point", "coordinates": [-121.061, 47.8428]}, "properties": {"NAME": "W7W/CH-190", "TITLE": "5925 Daedalus", "REGION": "WA-Chelan", "ASSOCIATION": "USA - Washington", "POINTS": "6", "BONUSPOINTS": "3"}}, {"type": "Feature", "geometry": {"type": "Point", "coordinates": [-120.9914, 47.8916]}, "properties": {"NAME": "W7W/CH-191", "TITLE": "5882 Wenatchee Ridge-South Peak", "REGION": "WA-Chelan", "ASSOCIATION": "USA - Washington", "POINTS": "6", "BONUSPOINTS": "3"}}, {"type": "Feature", "geometry": {"type": "Point", "coordinates": [-121.0669, 47.7463]}, "properties": {"NAME": "W7W/CH-192", "TITLE": "Big Chief Mountain", "REGION": "WA-Chelan", "ASSOCIATION": "USA - Washington", "POINTS": "6", "BONUSPOINTS": "3"}}, {"type": "Feature", "geometry": {"type": "Point", "coordinates": [-121.0912, 47.7881]}, "properties": {"NAME": "W7W/CH-193", "TITLE": "Lichtenberg Mountain", "REGION": "WA-Chelan", "ASSOCIATION": "USA - Washington", "POINTS": "6", "BONUSPOINTS": "3"}}, {"type": "Feature", "geometry": {"type": "Point", "coordinates": [-121.1319, 47.9557]}, "properties": {"NAME": "W7W/CH-194", "TITLE": "Cady Ridge", "REGION": "WA-Chelan", "ASSOCIATION": "USA - Washington", "POINTS": "6", "BONUSPOINTS": "3"}}, {"type": "Feature", "geometry": {"type": "Point", "coordinates": [-120.5279, 47.7574]}, "properties": {"NAME": "W7W/CH-195", "TITLE": "Sugarloaf Peak", "REGION": "WA-Chelan", "ASSOCIATION": "USA - Washington", "POINTS": "6", "BONUSPOINTS": "3"}}, {"type": "Feature", "geometry": {"type": "Point", "coordinates": [-120.4511, 47.6505]}, "properties": {"NAME": "W7W/CH-196", "TITLE": "Chumstick Mountain", "REGION": "WA-Chelan", "ASSOCIATION": "USA - Washington", "POINTS": "6", "BONUSPOINTS": "3"}}, {"type": "Feature", "geometry": {"type": "Point", "coordinates": [-120.4086, 47.6181]}, "properties": {"NAME": "W7W/CH-197", "TITLE": "5774 Entiat Ridge Peak", "REGION": "WA-Chelan", "ASSOCIATION": "USA - Washington", "POINTS": "6", "BONUSPOINTS": "3"}}, {"type": "Feature", "geometry": {"type": "Point", "coordinates": [-121.1462, 47.8566]}, "properties": {"NAME": "W7W/CH-198", "TITLE": "5770 Contest Mtn", "REGION": "WA-Chelan", "ASSOCIATION": "USA - Washington", "POINTS": "6", "BONUSPOINTS": "3"}}, {"type": "Feature", "geometry": {"type": "Point", "coordinates": [-121.0091, 47.8356]}, "properties": {"NAME": "W7W/CH-199", "TITLE": "5754 Aegeus", "REGION": "WA-Chelan", "ASSOCIATION": "USA - Washington", "POINTS": "6", "BONUSPOINTS": "3"}}, {"type": "Feature", "geometry": {"type": "Point", "coordinates": [-120.9352, 47.8866]}, "properties": {"NAME": "W7W/CH-200", "TITLE": "5715 High Power Mtn", "REGION": "WA-Chelan", "ASSOCIATION": "USA - Washington", "POINTS": "6", "BONUSPOINTS": "3"}}, {"type": "Feature", "geometry": {"type": "Point", "coordinates": [-120.8, 47.9376]}, "properties": {"NAME": "W7W/CH-201", "TITLE": "5687 Low Power Mtn", "REGION": "WA-Chelan", "ASSOCIATION": "USA - Washington", "POINTS": "6", "BONUSPOINTS": "3"}}, {"type": "Feature", "geometry": {"type": "Point", "coordinates": [-120.2656, 47.914]}, "properties": {"NAME": "W7W/CH-202", "TITLE": "Slide Peak", "REGION": "WA-Chelan", "ASSOCIATION": "USA - Washington", "POINTS": "6", "BONUSPOINTS": "3"}}, {"type": "Feature", "geometry": {"type": "Point", "coordinates": [-121.1301, 47.8859]}, "properties": {"NAME": "W7W/CH-203", "TITLE": "Fall Mountain", "REGION": "WA-Chelan", "ASSOCIATION": "USA - Washington", "POINTS": "6", "BONUSPOINTS": "3"}}, {"type": "Feature", "geometry": {"type": "Point", "coordinates": [-121.0461, 47.7984]}, "properties": {"NAME": "W7W/CH-204", "TITLE": "Nason Ridge", "REGION": "WA-Chelan", "ASSOCIATION": "USA - Washington", "POINTS": "6", "BONUSPOINTS": "3"}}, {"type": "Feature", "geometry": {"type": "Point", "coordinates": [-120.7929, 47.9951]}, "properties": {"NAME": "W7W/CH-205", "TITLE": "Estes Butte Lookout", "REGION": "WA-Chelan", "ASSOCIATION": "USA - Washington", "POINTS": "6", "BONUSPOINTS": "3"}}, {"type": "Feature", "geometry": {"type": "Point", "coordinates": [-120.4879, 47.6861]}, "properties": {"NAME": "W7W/CH-206", "TITLE": "5221 Twin Lead Mtn", "REGION": "WA-Chelan", "ASSOCIATION": "USA - Washington", "POINTS": "6", "BONUSPOINTS": "3"}}, {"type": "Feature", "geometry": {"type": "Point", "coordinates": [-120.4607, 47.3278]}, "properties": {"NAME": "W7W/CH-207", "TITLE": "Mission Ridge", "REGION": "WA-Chelan", "ASSOCIATION": "USA - Washington", "POINTS": "6", "BONUSPOINTS": "3"}}, {"type": "Feature", "geometry": {"type": "Point", "coordinates": [-120.3937, 47.5821]}, "properties": {"NAME": "W7W/CH-208", "TITLE": "Burch Mountain", "REGION": "WA-Chelan", "ASSOCIATION": "USA - Washington", "POINTS": "6", "BONUSPOINTS": "3"}}, {"type": "Feature", "geometry": {"type": "Point", "coordinates": [-120.6744, 47.3559]}, "properties": {"NAME": "W7W/CH-209", "TITLE": "Roughhouse Mountain", "REGION": "WA-Chelan", "ASSOCIATION": "USA - Washington", "POINTS": "4", "BONUSPOINTS": "0"}}, {"type": "Feature", "geometry": {"type": "Point", "coordinates": [-120.6086, 47.4403]}, "properties": {"NAME": "W7W/CH-210", "TITLE": "Tiptop", "REGION": "WA-Chelan", "ASSOCIATION": "USA - Washington", "POINTS": "4", "BONUSPOINTS": "0"}}, {"type": "Feature", "geometry": {"type": "Point", "coordinates": [-120.5097, 47.6019]}, "properties": {"NAME": "W7W/CH-211", "TITLE": "Blag Mountain", "REGION": "WA-Chelan", "ASSOCIATION": "USA - Washington", "POINTS": "4", "BONUSPOINTS": "0"}}, {"type": "Feature", "geometry": {"type": "Point", "coordinates": [-120.4438, 47.4195]}, "properties": {"NAME": "W7W/CH-212", "TITLE": "Horse Lake Mountain", "REGION": "WA-Chelan", "ASSOCIATION": "USA - Washington", "POINTS": "4", "BONUSPOINTS": "0"}}, {"type": "Feature", "geometry": {"type": "Point", "coordinates": [-120.3047, 48.0467]}, "properties": {"NAME": "W7W/CH-213", "TITLE": "4523 Pant-Leg Peak", "REGION": "WA-Chelan", "ASSOCIATION": "USA - Washington", "POINTS": "4", "BONUSPOINTS": "0"}}, {"type": "Feature", "geometry": {"type": "Point", "coordinates": [-120.7013, 47.6164]}, "properties": {"NAME": "W7W/CH-214", "TITLE": "Tumwater Mountain", "REGION": "WA-Chelan", "ASSOCIATION": "USA - Washington", "POINTS": "4", "BONUSPOINTS": "0"}}, {"type": "Feature", "geometry": {"type": "Point", "coordinates": [-120.5724, 48.229]}, "properties": {"NAME": "W7W/CH-215", "TITLE": "Round Mountain", "REGION": "WA-Chelan", "ASSOCIATION": "USA - Washington", "POINTS": "4", "BONUSPOINTS": "0"}}, {"type": "Feature", "geometry": {"type": "Point", "coordinates": [-120.5217, 47.6229]}, "properties": {"NAME": "W7W/CH-216", "TITLE": "Humility Hill", "REGION": "WA-Chelan", "ASSOCIATION": "USA - Washington", "POINTS": "4", "BONUSPOINTS": "0"}}, {"type": "Feature", "geometry": {"type": "Point", "coordinates": [-120.7935, 47.7254]}, "properties": {"NAME": "W7W/CH-217", "TITLE": "4218 Sideband Mtn", "REGION": "WA-Chelan", "ASSOCIATION": "USA - Washington", "POINTS": "4", "BONUSPOINTS": "0"}}, {"type": "Feature", "geometry": {"type": "Point", "coordinates": [-120.7095, 47.7442]}, "properties": {"NAME": "W7W/CH-218", "TITLE": "Natapoc Mountain", "REGION": "WA-Chelan", "ASSOCIATION": "USA - Washington", "POINTS": "4", "BONUSPOINTS": "0"}}, {"type": "Feature", "geometry": {"type": "Point", "coordinates": [-120.4424, 47.8072]}, "properties": {"NAME": "W7W/CH-219", "TITLE": "4133 Windy Hill", "REGION": "WA-Chelan", "ASSOCIATION": "USA - Washington", "POINTS": "4", "BONUSPOINTS": "0"}}, {"type": "Feature", "geometry": {"type": "Point", "coordinates": [-120.5636, 48.1761]}, "properties": {"NAME": "W7W/CH-220", "TITLE": "Domke Mountain", "REGION": "WA-Chelan", "ASSOCIATION": "USA - Washington", "POINTS": "4", "BONUSPOINTS": "0"}}, {"type": "Feature", "geometry": {"type": "Point", "coordinates": [-120.4887, 47.5729]}, "properties": {"NAME": "W7W/CH-221", "TITLE": "Tibbetts Mountain", "REGION": "WA-Chelan", "ASSOCIATION": "USA - Washington", "POINTS": "4", "BONUSPOINTS": "0"}}, {"type": "Feature", "geometry": {"type": "Point", "coordinates": [-120.5609, 47.6728]}, "properties": {"NAME": "W7W/CH-222", "TITLE": "3855 Spectrum Mtn", "REGION": "WA-Chelan", "ASSOCIATION": "USA - Washington", "POINTS": "4", "BONUSPOINTS": "0"}}, {"type": "Feature", "geometry": {"type": "Point", "coordinates": [-120.034, 47.807]}, "properties": {"NAME": "W7W/CH-223", "TITLE": "Chelan Butte", "REGION": "WA-Chelan", "ASSOCIATION": "USA - Washington", "POINTS": "4", "BONUSPOINTS": "0"}}, {"type": "Feature", "geometry": {"type": "Point", "coordinates": [-120.2691, 47.7644]}, "properties": {"NAME": "W7W/CH-224", "TITLE": "3755 Frequency Mtn", "REGION": "WA-Chelan", "ASSOCIATION": "USA - Washington", "POINTS": "4", "BONUSPOINTS": "0"}}, {"type": "Feature", "geometry": {"type": "Point", "coordinates": [-120.1662, 47.8323]}, "properties": {"NAME": "W7W/CH-225", "TITLE": "Bear Mountain", "REGION": "WA-Chelan", "ASSOCIATION": "USA - Washington", "POINTS": "4", "BONUSPOINTS": "0"}}, {"type": "Feature", "geometry": {"type": "Point", "coordinates": [-120.4806, 47.4029]}, "properties": {"NAME": "W7W/CH-226", "TITLE": "Sheep Rock", "REGION": "WA-Chelan", "ASSOCIATION": "USA - Washington", "POINTS": "4", "BONUSPOINTS": "0"}}, {"type": "Feature", "geometry": {"type": "Point", "coordinates": [-120.1634, 47.9622]}, "properties": {"NAME": "W7W/CH-227", "TITLE": "Fourth of July Mountain", "REGION": "WA-Chelan", "ASSOCIATION": "USA - Washington", "POINTS": "4", "BONUSPOINTS": "0"}}, {"type": "Feature", "geometry": {"type": "Point", "coordinates": [-120.5956, 47.4892]}, "properties": {"NAME": "W7W/CH-228", "TITLE": "3500 Camas Mountain", "REGION": "WA-Chelan", "ASSOCIATION": "USA - Washington", "POINTS": "4", "BONUSPOINTS": "0"}}, {"type": "Feature", "geometry": {"type": "Point", "coordinates": [-120.7474, 47.6805]}, "properties": {"NAME": "W7W/CH-229", "TITLE": "3380 Full Wave Mtn", "REGION": "WA-Chelan", "ASSOCIATION": "USA - Washington", "POINTS": "4", "BONUSPOINTS": "0"}}, {"type": "Feature", "geometry": {"type": "Point", "coordinates": [-120.1317, 47.938]}, "properties": {"NAME": "W7W/CH-230", "TITLE": "3380 Half Wave Mtn", "REGION": "WA-Chelan", "ASSOCIATION": "USA - Washington", "POINTS": "4", "BONUSPOINTS": "0"}}, {"type": "Feature", "geometry": {"type": "Point", "coordinates": [-120.2703, 47.691]}, "properties": {"NAME": "W7W/CH-231", "TITLE": "Dick Mesa", "REGION": "WA-Chelan", "ASSOCIATION": "USA - Washington", "POINTS": "4", "BONUSPOINTS": "0"}}, {"type": "Feature", "geometry": {"type": "Point", "coordinates": [-120.517, 47.4511]}, "properties": {"NAME": "W7W/CH-232", "TITLE": "3276 Keyboard Hill", "REGION": "WA-Chelan", "ASSOCIATION": "USA - Washington", "POINTS": "2", "BONUSPOINTS": "0"}}, {"type": "Feature", "geometry": {"type": "Point", "coordinates": [-120.7271, 47.709]}, "properties": {"NAME": "W7W/CH-233", "TITLE": "3271 Natapoc Mountain", "REGION": "WA-Chelan", "ASSOCIATION": "USA - Washington", "POINTS": "2", "BONUSPOINTS": "0"}}, {"type": "Feature", "geometry": {"type": "Point", "coordinates": [-120.6338, 47.7598]}, "properties": {"NAME": "W7W/CH-234", "TITLE": "3100 Plain Ridge", "REGION": "WA-Chelan", "ASSOCIATION": "USA - Washington", "POINTS": "2", "BONUSPOINTS": "0"}}, {"type": "Feature", "geometry": {"type": "Point", "coordinates": [-120.6487, 47.7462]}, "properties": {"NAME": "W7W/CH-235", "TITLE": "2860 Beaver Hill", "REGION": "WA-Chelan", "ASSOCIATION": "USA - Washington", "POINTS": "2", "BONUSPOINTS": "0"}}, {"type": "Feature", "geometry": {"type": "Point", "coordinates": [-120.6345, 47.8313]}, "properties": {"NAME": "W7W/CH-236", "TITLE": "2854 Activator Hill", "REGION": "WA-Chelan", "ASSOCIATION": "USA - Washington", "POINTS": "2", "BONUSPOINTS": "0"}}, {"type": "Feature", "geometry": {"type": "Point", "coordinates": [-120.6867, 47.829]}, "properties": {"NAME": "W7W/CH-237", "TITLE": "Loop Hill", "REGION": "WA-Chelan", "ASSOCIATION": "USA - Washington", "POINTS": "2", "BONUSPOINTS": "0"}}, {"type": "Feature", "geometry": {"type": "Point", "coordinates": [-120.6443, 47.7771]}, "properties": {"NAME": "W7W/CH-238", "TITLE": "Bee Sting Hill", "REGION": "WA-Chelan", "ASSOCIATION": "USA - Washington", "POINTS": "2", "BONUSPOINTS": "0"}}, {"type": "Feature", "geometry": {"type": "Point", "coordinates": [-119.9514, 47.8957]}, "properties": {"NAME": "W7W/CH-239", "TITLE": "2562 Didahdit Hill", "REGION": "WA-Chelan", "ASSOCIATION": "USA - Washington", "POINTS": "2", "BONUSPOINTS": "0"}}, {"type": "Feature", "geometry": {"type": "Point", "coordinates": [-119.9301, 47.9107]}, "properties": {"NAME": "W7W/CH-240", "TITLE": "2220 Ice Cave Mountain", "REGION": "WA-Chelan", "ASSOCIATION": "USA - Washington", "POINTS": "2", "BONUSPOINTS": "0"}}, {"type": "Feature", "geometry": {"type": "Point", "coordinates": [-120.5283, 47.5253]}, "properties": {"NAME": "W7W/CH-241", "TITLE": "Eleven Bits Hill", "REGION": "WA-Chelan", "ASSOCIATION": "USA - Washington", "POINTS": "2", "BONUSPOINTS": "0"}}, {"type": "Feature", "geometry": {"type": "Point", "coordinates": [-119.9407, 47.8739]}, "properties": {"NAME": "W7W/CH-242", "TITLE": "1820 Bug Hill", "REGION": "WA-Chelan", "ASSOCIATION": "USA - Washington", "POINTS": "2", "BONUSPOINTS": "0"}}, {"type": "Feature", "geometry": {"type": "Point", "coordinates": [-120.7952, 48.112]}, "properties": {"NAME": "W7W/CH-243", "TITLE": "Ice Box", "REGION": "WA-Chelan", "ASSOCIATION": "USA - Washington", "POINTS": "8", "BONUSPOINTS": "3"}}, {"type": "Feature", "geometry": {"type": "Point", "coordinates": [-120.8501, 48.1671]}, "properties": {"NAME": "W7W/CH-244", "TITLE": "Genius Peak", "REGION": "WA-Chelan", "ASSOCIATION": "USA - Washington", "POINTS": "8", "BONUSPOINTS": "3"}}, {"type": "Feature", "geometry": {"type": "Point", "coordinates": [-120.7487, 48.0781]}, "properties": {"NAME": "W7W/CH-245", "TITLE": "7340", "REGION": "WA-Chelan", "ASSOCIATION": "USA - Washington", "POINTS": "8", "BONUSPOINTS": "3"}}, {"type": "Feature", "geometry": {"type": "Point", "coordinates": [-120.7464, 48.4852]}, "properties": {"NAME": "W7W/CH-246", "TITLE": "Rainy Benchmark", "REGION": "WA-Chelan", "ASSOCIATION": "USA - Washington", "POINTS": "8", "BONUSPOINTS": "3"}}, {"type": "Feature", "geometry": {"type": "Point", "coordinates": [-120.9783, 48.3755]}, "properties": {"NAME": "W7W/CH-247", "TITLE": "Rimrock Ridge", "REGION": "WA-Chelan", "ASSOCIATION": "USA - Washington", "POINTS": "8", "BONUSPOINTS": "3"}}, {"type": "Feature", "geometry": {"type": "Point", "coordinates": [-120.9245, 48.3927]}, "properties": {"NAME": "W7W/CH-248", "TITLE": "Big Sister", "REGION": "WA-Chelan", "ASSOCIATION": "USA - Washington", "POINTS": "8", "BONUSPOINTS": "3"}}, {"type": "Feature", "geometry": {"type": "Point", "coordinates": [-121.0896, 47.5975]}, "properties": {"NAME": "W7W/CH-249", "TITLE": "6748French Ridge-West Peak", "REGION": "WA-Chelan", "ASSOCIATION": "USA - Washington", "POINTS": "8", "BONUSPOINTS": "3"}}, {"type": "Feature", "geometry": {"type": "Point", "coordinates": [-120.0839, 48.0113]}, "properties": {"NAME": "W7W/CH-250", "TITLE": "Cooper Mountain", "REGION": "WA-Chelan", "ASSOCIATION": "USA - Washington", "POINTS": "6", "BONUSPOINTS": "3"}}, {"type": "Feature", "geometry": {"type": "Point", "coordinates": [-120.4666, 47.5601]}, "properties": {"NAME": "W7W/CH-251", "TITLE": "3273", "REGION": "WA-Chelan", "ASSOCIATION": "USA - Washington", "POINTS": "2", "BONUSPOINTS": "0"}}, {"type": "Feature", "geometry": {"type": "Point", "coordinates": [-120.6254, 47.8171]}, "properties": {"NAME": "W7W/CH-252", "TITLE": "2779", "REGION": "WA-Chelan", "ASSOCIATION": "USA - Washington", "POINTS": "2", "BONUSPOINTS": "0"}}]}