{"type": "FeatureCollection", "name": "W7W/WE SUMMITS", "features": [{"type": "Feature", "geometry": {"type": "Point", "coordinates": [-117.6795, 46.1103]}, "properties": {"NAME": "W7W/WE-001", "TITLE": "Oregon Butte", "REGION": "WA-Washington East", "ASSOCIATION": "USA - Washington", "POINTS": "6", "BONUSPOINTS": "3"}}, {"type": "Feature", "geometry": {"type": "Point", "coordinates": [-117.5498, 46.1199]}, "properties": {"NAME": "W7W/WE-002", "TITLE": "Garfield County HP", "REGION": "WA-Washington East", "ASSOCIATION": "USA - Washington", "POINTS": "6", "BONUSPOINTS": "3"}}, {"type": "Feature", "geometry": {"type": "Point", "coordinates": [-117.5146, 46.1229]}, "properties": {"NAME": "W7W/WE-003", "TITLE": "Mount Misery", "REGION": "WA-Washington East", "ASSOCIATION": "USA - Washington", "POINTS": "6", "BONUSPOINTS": "3"}}, {"type": "Feature", "geometry": {"type": "Point", "coordinates": [-117.9114, 46.0306]}, "properties": {"NAME": "W7W/WE-004", "TITLE": "Table Rock", "REGION": "WA-Washington East", "ASSOCIATION": "USA - Washington", "POINTS": "6", "BONUSPOINTS": "3"}}, {"type": "Feature", "geometry": {"type": "Point", "coordinates": [-117.8316, 46.0377]}, "properties": {"NAME": "W7W/WE-005", "TITLE": "Burnt Flat", "REGION": "WA-Washington East", "ASSOCIATION": "USA - Washington", "POINTS": "6", "BONUSPOINTS": "3"}}, {"type": "Feature", "geometry": {"type": "Point", "coordinates": [-117.1123, 47.9236]}, "properties": {"NAME": "W7W/WE-006", "TITLE": "Mount Spokane", "REGION": "WA-Washington East", "ASSOCIATION": "USA - Washington", "POINTS": "6", "BONUSPOINTS": "3"}}, {"type": "Feature", "geometry": {"type": "Point", "coordinates": [-117.8581, 46.1123]}, "properties": {"NAME": "W7W/WE-007", "TITLE": "Chase Mountain", "REGION": "WA-Washington East", "ASSOCIATION": "USA - Washington", "POINTS": "6", "BONUSPOINTS": "3"}}, {"type": "Feature", "geometry": {"type": "Point", "coordinates": [-117.6732, 46.0352]}, "properties": {"NAME": "W7W/WE-008", "TITLE": "Weller Butte", "REGION": "WA-Washington East", "ASSOCIATION": "USA - Washington", "POINTS": "6", "BONUSPOINTS": "3"}}, {"type": "Feature", "geometry": {"type": "Point", "coordinates": [-117.6088, 46.0874]}, "properties": {"NAME": "W7W/WE-009", "TITLE": "Bald Butte", "REGION": "WA-Washington East", "ASSOCIATION": "USA - Washington", "POINTS": "6", "BONUSPOINTS": "3"}}, {"type": "Feature", "geometry": {"type": "Point", "coordinates": [-117.5439, 46.0752]}, "properties": {"NAME": "W7W/WE-010", "TITLE": "Halsey Butte", "REGION": "WA-Washington East", "ASSOCIATION": "USA - Washington", "POINTS": "6", "BONUSPOINTS": "3"}}, {"type": "Feature", "geometry": {"type": "Point", "coordinates": [-117.0817, 47.5734]}, "properties": {"NAME": "W7W/WE-011", "TITLE": "Mica Peak", "REGION": "WA-Washington East", "ASSOCIATION": "USA - Washington", "POINTS": "6", "BONUSPOINTS": "3"}}, {"type": "Feature", "geometry": {"type": "Point", "coordinates": [-117.082, 47.8852]}, "properties": {"NAME": "W7W/WE-012", "TITLE": "Quartz Mountain", "REGION": "WA-Washington East", "ASSOCIATION": "USA - Washington", "POINTS": "6", "BONUSPOINTS": "3"}}, {"type": "Feature", "geometry": {"type": "Point", "coordinates": [-117.5777, 46.0848]}, "properties": {"NAME": "W7W/WE-013", "TITLE": "Prominencians Peak", "REGION": "WA-Washington East", "ASSOCIATION": "USA - Washington", "POINTS": "6", "BONUSPOINTS": "3"}}, {"type": "Feature", "geometry": {"type": "Point", "coordinates": [-117.0545, 47.8696]}, "properties": {"NAME": "W7W/WE-014", "TITLE": "Ragged Mountain", "REGION": "WA-Washington East", "ASSOCIATION": "USA - Washington", "POINTS": "6", "BONUSPOINTS": "3"}}, {"type": "Feature", "geometry": {"type": "Point", "coordinates": [-117.0469, 47.9476]}, "properties": {"NAME": "W7W/WE-015", "TITLE": "4831 Field Effect Mtn", "REGION": "WA-Washington East", "ASSOCIATION": "USA - Washington", "POINTS": "4", "BONUSPOINTS": "0"}}, {"type": "Feature", "geometry": {"type": "Point", "coordinates": [-117.6253, 46.1042]}, "properties": {"NAME": "W7W/WE-016", "TITLE": "4780 Diode Mtn", "REGION": "WA-Washington East", "ASSOCIATION": "USA - Washington", "POINTS": "4", "BONUSPOINTS": "0"}}, {"type": "Feature", "geometry": {"type": "Point", "coordinates": [-117.128, 48.0171]}, "properties": {"NAME": "W7W/WE-017", "TITLE": "4140 Pentode Peak", "REGION": "WA-Washington East", "ASSOCIATION": "USA - Washington", "POINTS": "4", "BONUSPOINTS": "0"}}, {"type": "Feature", "geometry": {"type": "Point", "coordinates": [-117.0896, 48.0295]}, "properties": {"NAME": "W7W/WE-018", "TITLE": "4061 Tetrode Peak", "REGION": "WA-Washington East", "ASSOCIATION": "USA - Washington", "POINTS": "4", "BONUSPOINTS": "0"}}, {"type": "Feature", "geometry": {"type": "Point", "coordinates": [-117.6755, 47.9418]}, "properties": {"NAME": "W7W/WE-019", "TITLE": "Scoop Mtn", "REGION": "WA-Washington East", "ASSOCIATION": "USA - Washington", "POINTS": "4", "BONUSPOINTS": "0"}}, {"type": "Feature", "geometry": {"type": "Point", "coordinates": [-117.0693, 47.3058]}, "properties": {"NAME": "W7W/WE-020", "TITLE": "Tekoa Benchmark", "REGION": "WA-Washington East", "ASSOCIATION": "USA - Washington", "POINTS": "4", "BONUSPOINTS": "0"}}, {"type": "Feature", "geometry": {"type": "Point", "coordinates": [-117.2944, 47.5821]}, "properties": {"NAME": "W7W/WE-021", "TITLE": "Krell Hill", "REGION": "WA-Washington East", "ASSOCIATION": "USA - Washington", "POINTS": "4", "BONUSPOINTS": "0"}}, {"type": "Feature", "geometry": {"type": "Point", "coordinates": [-117.1671, 46.8622]}, "properties": {"NAME": "W7W/WE-022", "TITLE": "Kamiak Butte", "REGION": "WA-Washington East", "ASSOCIATION": "USA - Washington", "POINTS": "4", "BONUSPOINTS": "0"}}, {"type": "Feature", "geometry": {"type": "Point", "coordinates": [-117.2967, 47.0326]}, "properties": {"NAME": "W7W/WE-023", "TITLE": "Steptoe Butte", "REGION": "WA-Washington East", "ASSOCIATION": "USA - Washington", "POINTS": "4", "BONUSPOINTS": "0"}}, {"type": "Feature", "geometry": {"type": "Point", "coordinates": [-118.2333, 47.9102]}, "properties": {"NAME": "W7W/WE-024", "TITLE": "Lilienthal Mountain", "REGION": "WA-Washington East", "ASSOCIATION": "USA - Washington", "POINTS": "4", "BONUSPOINTS": "0"}}, {"type": "Feature", "geometry": {"type": "Point", "coordinates": [-117.1349, 47.758]}, "properties": {"NAME": "W7W/WE-025", "TITLE": "3516 Triode Mtn", "REGION": "WA-Washington East", "ASSOCIATION": "USA - Washington", "POINTS": "4", "BONUSPOINTS": "0"}}, {"type": "Feature", "geometry": {"type": "Point", "coordinates": [-117.128, 47.3266]}, "properties": {"NAME": "W7W/WE-026", "TITLE": "Gelbert Mountain", "REGION": "WA-Washington East", "ASSOCIATION": "USA - Washington", "POINTS": "4", "BONUSPOINTS": "0"}}, {"type": "Feature", "geometry": {"type": "Point", "coordinates": [-117.1692, 47.7255]}, "properties": {"NAME": "W7W/WE-027", "TITLE": "Antoine Peak", "REGION": "WA-Washington East", "ASSOCIATION": "USA - Washington", "POINTS": "4", "BONUSPOINTS": "0"}}, {"type": "Feature", "geometry": {"type": "Point", "coordinates": [-117.0556, 46.8506]}, "properties": {"NAME": "W7W/WE-028", "TITLE": "Parker Butte", "REGION": "WA-Washington East", "ASSOCIATION": "USA - Washington", "POINTS": "4", "BONUSPOINTS": "0"}}, {"type": "Feature", "geometry": {"type": "Point", "coordinates": [-117.0499, 46.8771]}, "properties": {"NAME": "W7W/WE-029", "TITLE": "Ringo Butte", "REGION": "WA-Washington East", "ASSOCIATION": "USA - Washington", "POINTS": "2", "BONUSPOINTS": "0"}}, {"type": "Feature", "geometry": {"type": "Point", "coordinates": [-117.5093, 47.813]}, "properties": {"NAME": "W7W/WE-030", "TITLE": "Lookout Mountain", "REGION": "WA-Washington East", "ASSOCIATION": "USA - Washington", "POINTS": "2", "BONUSPOINTS": "0"}}, {"type": "Feature", "geometry": {"type": "Point", "coordinates": [-117.8913, 47.5876]}, "properties": {"NAME": "W7W/WE-031", "TITLE": "Hanning Butte", "REGION": "WA-Washington East", "ASSOCIATION": "USA - Washington", "POINTS": "2", "BONUSPOINTS": "0"}}, {"type": "Feature", "geometry": {"type": "Point", "coordinates": [-117.1338, 47.4013]}, "properties": {"NAME": "W7W/WE-032", "TITLE": "Morefield Butte", "REGION": "WA-Washington East", "ASSOCIATION": "USA - Washington", "POINTS": "2", "BONUSPOINTS": "0"}}, {"type": "Feature", "geometry": {"type": "Point", "coordinates": [-117.238, 46.8182]}, "properties": {"NAME": "W7W/WE-033", "TITLE": "Smoot Hill", "REGION": "WA-Washington East", "ASSOCIATION": "USA - Washington", "POINTS": "2", "BONUSPOINTS": "0"}}, {"type": "Feature", "geometry": {"type": "Point", "coordinates": [-117.832, 47.7431]}, "properties": {"NAME": "W7W/WE-034", "TITLE": "Shoemaker Butte", "REGION": "WA-Washington East", "ASSOCIATION": "USA - Washington", "POINTS": "2", "BONUSPOINTS": "0"}}, {"type": "Feature", "geometry": {"type": "Point", "coordinates": [-117.7277, 47.5544]}, "properties": {"NAME": "W7W/WE-035", "TITLE": "Booth Hill", "REGION": "WA-Washington East", "ASSOCIATION": "USA - Washington", "POINTS": "2", "BONUSPOINTS": "0"}}, {"type": "Feature", "geometry": {"type": "Point", "coordinates": [-117.3149, 47.1054]}, "properties": {"NAME": "W7W/WE-036", "TITLE": "Steam Shovel Hill", "REGION": "WA-Washington East", "ASSOCIATION": "USA - Washington", "POINTS": "2", "BONUSPOINTS": "0"}}, {"type": "Feature", "geometry": {"type": "Point", "coordinates": [-117.5605, 47.5513]}, "properties": {"NAME": "W7W/WE-037", "TITLE": "Needham Hill", "REGION": "WA-Washington East", "ASSOCIATION": "USA - Washington", "POINTS": "2", "BONUSPOINTS": "0"}}, {"type": "Feature", "geometry": {"type": "Point", "coordinates": [-117.0458, 47.7642]}, "properties": {"NAME": "W7W/WE-038", "TITLE": "2820 Beacon Hill", "REGION": "WA-Washington East", "ASSOCIATION": "USA - Washington", "POINTS": "2", "BONUSPOINTS": "0"}}, {"type": "Feature", "geometry": {"type": "Point", "coordinates": [-117.3044, 47.9585]}, "properties": {"NAME": "W7W/WE-039", "TITLE": "Milan Hill", "REGION": "WA-Washington East", "ASSOCIATION": "USA - Washington", "POINTS": "2", "BONUSPOINTS": "0"}}, {"type": "Feature", "geometry": {"type": "Point", "coordinates": [-118.1733, 47.8784]}, "properties": {"NAME": "W7W/WE-040", "TITLE": "Pitney Butte", "REGION": "WA-Washington East", "ASSOCIATION": "USA - Washington", "POINTS": "2", "BONUSPOINTS": "0"}}, {"type": "Feature", "geometry": {"type": "Point", "coordinates": [-118.3498, 47.8279]}, "properties": {"NAME": "W7W/WE-041", "TITLE": "2356 Network Hill", "REGION": "WA-Washington East", "ASSOCIATION": "USA - Washington", "POINTS": "2", "BONUSPOINTS": "0"}}, {"type": "Feature", "geometry": {"type": "Point", "coordinates": [-117.9865, 46.5459]}, "properties": {"NAME": "W7W/WE-042", "TITLE": "1886 Bandplan Hill", "REGION": "WA-Washington East", "ASSOCIATION": "USA - Washington", "POINTS": "2", "BONUSPOINTS": "0"}}, {"type": "Feature", "geometry": {"type": "Point", "coordinates": [-118.3166, 46.7109]}, "properties": {"NAME": "W7W/WE-043", "TITLE": "Benjamins Butte", "REGION": "WA-Washington East", "ASSOCIATION": "USA - Washington", "POINTS": "2", "BONUSPOINTS": "0"}}, {"type": "Feature", "geometry": {"type": "Point", "coordinates": [-118.5914, 46.5777]}, "properties": {"NAME": "W7W/WE-044", "TITLE": "Hunt Benchmark", "REGION": "WA-Washington East", "ASSOCIATION": "USA - Washington", "POINTS": "1", "BONUSPOINTS": "0"}}, {"type": "Feature", "geometry": {"type": "Point", "coordinates": [-119.4256, 46.2896]}, "properties": {"NAME": "W7W/WE-045", "TITLE": "Red Mountain", "REGION": "WA-Washington East", "ASSOCIATION": "USA - Washington", "POINTS": "1", "BONUSPOINTS": "0"}}, {"type": "Feature", "geometry": {"type": "Point", "coordinates": [-119.3664, 46.259]}, "properties": {"NAME": "W7W/WE-046", "TITLE": "Candy Mountain", "REGION": "WA-Washington East", "ASSOCIATION": "USA - Washington", "POINTS": "1", "BONUSPOINTS": "0"}}, {"type": "Feature", "geometry": {"type": "Point", "coordinates": [-119.4298, 46.2465]}, "properties": {"NAME": "W7W/WE-047", "TITLE": "Goose Hill", "REGION": "WA-Washington East", "ASSOCIATION": "USA - Washington", "POINTS": "1", "BONUSPOINTS": "0"}}, {"type": "Feature", "geometry": {"type": "Point", "coordinates": [-119.5157, 46.6029]}, "properties": {"NAME": "W7W/WE-048", "TITLE": "West Gable Mountains", "REGION": "WA-Washington East", "ASSOCIATION": "USA - Washington", "POINTS": "1", "BONUSPOINTS": "0"}}, {"type": "Feature", "geometry": {"type": "Point", "coordinates": [-117.4618, 46.0704]}, "properties": {"NAME": "W7W/WE-049", "TITLE": "Saddle Butte", "REGION": "WA-Washington East", "ASSOCIATION": "USA - Washington", "POINTS": "6", "BONUSPOINTS": "3"}}, {"type": "Feature", "geometry": {"type": "Point", "coordinates": [-116.9777, 45.998]}, "properties": {"NAME": "W7W/WE-050", "TITLE": "Mount Wilson", "REGION": "WA-Washington East", "ASSOCIATION": "USA - Washington", "POINTS": "4", "BONUSPOINTS": "0"}}, {"type": "Feature", "geometry": {"type": "Point", "coordinates": [-117.1749, 46.0725]}, "properties": {"NAME": "W7W/WE-051", "TITLE": "Puffer Butte", "REGION": "WA-Washington East", "ASSOCIATION": "USA - Washington", "POINTS": "4", "BONUSPOINTS": "0"}}, {"type": "Feature", "geometry": {"type": "Point", "coordinates": [-117.0899, 47.2583]}, "properties": {"NAME": "W7W/WE-052", "TITLE": "Tekoa Mountain", "REGION": "WA-Washington East", "ASSOCIATION": "USA - Washington", "POINTS": "4", "BONUSPOINTS": "0"}}, {"type": "Feature", "geometry": {"type": "Point", "coordinates": [-119.84, 46.4476]}, "properties": {"NAME": "W7W/WE-053", "TITLE": "Rattlesnake Benchmark", "REGION": "WA-Washington East", "ASSOCIATION": "USA - Washington", "POINTS": "4", "BONUSPOINTS": "0"}}, {"type": "Feature", "geometry": {"type": "Point", "coordinates": [-119.6298, 46.4153]}, "properties": {"NAME": "W7W/WE-054", "TITLE": "Rattlesnake Mountain", "REGION": "WA-Washington East", "ASSOCIATION": "USA - Washington", "POINTS": "4", "BONUSPOINTS": "0"}}, {"type": "Feature", "geometry": {"type": "Point", "coordinates": [-117.0881, 46.6336]}, "properties": {"NAME": "W7W/WE-055", "TITLE": "Bald Butte", "REGION": "WA-Washington East", "ASSOCIATION": "USA - Washington", "POINTS": "4", "BONUSPOINTS": "0"}}, {"type": "Feature", "geometry": {"type": "Point", "coordinates": [-117.3255, 46.2494]}, "properties": {"NAME": "W7W/WE-056", "TITLE": "Bracken Point", "REGION": "WA-Washington East", "ASSOCIATION": "USA - Washington", "POINTS": "4", "BONUSPOINTS": "0"}}, {"type": "Feature", "geometry": {"type": "Point", "coordinates": [-117.0651, 46.992]}, "properties": {"NAME": "W7W/WE-057", "TITLE": "Ladow Butte", "REGION": "WA-Washington East", "ASSOCIATION": "USA - Washington", "POINTS": "4", "BONUSPOINTS": "0"}}, {"type": "Feature", "geometry": {"type": "Point", "coordinates": [-118.7942, 47.8711]}, "properties": {"NAME": "W7W/WE-058", "TITLE": "2850", "REGION": "WA-Washington East", "ASSOCIATION": "USA - Washington", "POINTS": "2", "BONUSPOINTS": "0"}}, {"type": "Feature", "geometry": {"type": "Point", "coordinates": [-119.1298, 46.1038]}, "properties": {"NAME": "W7W/WE-059", "TITLE": "Jump Off Joe", "REGION": "WA-Washington East", "ASSOCIATION": "USA - Washington", "POINTS": "2", "BONUSPOINTS": "0"}}, {"type": "Feature", "geometry": {"type": "Point", "coordinates": [-119.5641, 46.2475]}, "properties": {"NAME": "W7W/WE-060", "TITLE": "Chandler Butte", "REGION": "WA-Washington East", "ASSOCIATION": "USA - Washington", "POINTS": "2", "BONUSPOINTS": "0"}}, {"type": "Feature", "geometry": {"type": "Point", "coordinates": [-119.3214, 46.2344]}, "properties": {"NAME": "W7W/WE-061", "TITLE": "Badger Mountain", "REGION": "WA-Washington East", "ASSOCIATION": "USA - Washington", "POINTS": "1", "BONUSPOINTS": "0"}}]}