{"type": "FeatureCollection", "name": "W7W/OK SUMMITS", "features": [{"type": "Feature", "geometry": {"type": "Point", "coordinates": [-120.5016, 48.5151]}, "properties": {"NAME": "W7W/OK-001", "TITLE": "North Gardner Mountain", "REGION": "WA-Okanogan", "ASSOCIATION": "USA - Washington", "POINTS": "10", "BONUSPOINTS": "3"}}, {"type": "Feature", "geometry": {"type": "Point", "coordinates": [-120.4882, 48.5071]}, "properties": {"NAME": "W7W/OK-002", "TITLE": "Gardner Mountain", "REGION": "WA-Okanogan", "ASSOCIATION": "USA - Washington", "POINTS": "10", "BONUSPOINTS": "3"}}, {"type": "Feature", "geometry": {"type": "Point", "coordinates": [-120.5853, 48.5479]}, "properties": {"NAME": "W7W/OK-003", "TITLE": "Silver Star Mountain", "REGION": "WA-Okanogan", "ASSOCIATION": "USA - Washington", "POINTS": "10", "BONUSPOINTS": "3"}}, {"type": "Feature", "geometry": {"type": "Point", "coordinates": [-120.4249, 48.2872]}, "properties": {"NAME": "W7W/OK-004", "TITLE": "Oval Peak", "REGION": "WA-Okanogan", "ASSOCIATION": "USA - Washington", "POINTS": "10", "BONUSPOINTS": "3"}}, {"type": "Feature", "geometry": {"type": "Point", "coordinates": [-120.5374, 48.8292]}, "properties": {"NAME": "W7W/OK-005", "TITLE": "Mount Lago", "REGION": "WA-Okanogan", "ASSOCIATION": "USA - Washington", "POINTS": "10", "BONUSPOINTS": "3"}}, {"type": "Feature", "geometry": {"type": "Point", "coordinates": [-120.5748, 48.7265]}, "properties": {"NAME": "W7W/OK-006", "TITLE": "Robinson Mountain", "REGION": "WA-Okanogan", "ASSOCIATION": "USA - Washington", "POINTS": "10", "BONUSPOINTS": "3"}}, {"type": "Feature", "geometry": {"type": "Point", "coordinates": [-120.197, 48.9234]}, "properties": {"NAME": "W7W/OK-007", "TITLE": "Remmel Mountain", "REGION": "WA-Okanogan", "ASSOCIATION": "USA - Washington", "POINTS": "10", "BONUSPOINTS": "3"}}, {"type": "Feature", "geometry": {"type": "Point", "coordinates": [-120.5323, 48.8661]}, "properties": {"NAME": "W7W/OK-008", "TITLE": "Ptarmigan Peak", "REGION": "WA-Okanogan", "ASSOCIATION": "USA - Washington", "POINTS": "10", "BONUSPOINTS": "3"}}, {"type": "Feature", "geometry": {"type": "Point", "coordinates": [-120.1889, 48.9892]}, "properties": {"NAME": "W7W/OK-009", "TITLE": "Cathedral Peak", "REGION": "WA-Okanogan", "ASSOCIATION": "USA - Washington", "POINTS": "10", "BONUSPOINTS": "3"}}, {"type": "Feature", "geometry": {"type": "Point", "coordinates": [-120.5543, 48.8319]}, "properties": {"NAME": "W7W/OK-010", "TITLE": "Mount Carru", "REGION": "WA-Okanogan", "ASSOCIATION": "USA - Washington", "POINTS": "10", "BONUSPOINTS": "3"}}, {"type": "Feature", "geometry": {"type": "Point", "coordinates": [-120.5434, 48.7938]}, "properties": {"NAME": "W7W/OK-011", "TITLE": "Monument Peak", "REGION": "WA-Okanogan", "ASSOCIATION": "USA - Washington", "POINTS": "10", "BONUSPOINTS": "3"}}, {"type": "Feature", "geometry": {"type": "Point", "coordinates": [-120.3318, 48.2379]}, "properties": {"NAME": "W7W/OK-012", "TITLE": "Raven Ridge", "REGION": "WA-Okanogan", "ASSOCIATION": "USA - Washington", "POINTS": "10", "BONUSPOINTS": "3"}}, {"type": "Feature", "geometry": {"type": "Point", "coordinates": [-120.5764, 48.8308]}, "properties": {"NAME": "W7W/OK-013", "TITLE": "Osceola Peak", "REGION": "WA-Okanogan", "ASSOCIATION": "USA - Washington", "POINTS": "10", "BONUSPOINTS": "3"}}, {"type": "Feature", "geometry": {"type": "Point", "coordinates": [-120.328, 48.7629]}, "properties": {"NAME": "W7W/OK-014", "TITLE": "Big Craggy Peak", "REGION": "WA-Okanogan", "ASSOCIATION": "USA - Washington", "POINTS": "10", "BONUSPOINTS": "3"}}, {"type": "Feature", "geometry": {"type": "Point", "coordinates": [-120.4582, 48.8128]}, "properties": {"NAME": "W7W/OK-015", "TITLE": "Lost Peak", "REGION": "WA-Okanogan", "ASSOCIATION": "USA - Washington", "POINTS": "10", "BONUSPOINTS": "3"}}, {"type": "Feature", "geometry": {"type": "Point", "coordinates": [-120.5115, 48.7815]}, "properties": {"NAME": "W7W/OK-016", "TITLE": "Lake Mountain", "REGION": "WA-Okanogan", "ASSOCIATION": "USA - Washington", "POINTS": "10", "BONUSPOINTS": "3"}}, {"type": "Feature", "geometry": {"type": "Point", "coordinates": [-120.7327, 48.6033]}, "properties": {"NAME": "W7W/OK-017", "TITLE": "Golden Horn", "REGION": "WA-Okanogan", "ASSOCIATION": "USA - Washington", "POINTS": "10", "BONUSPOINTS": "3"}}, {"type": "Feature", "geometry": {"type": "Point", "coordinates": [-120.346, 48.7623]}, "properties": {"NAME": "W7W/OK-018", "TITLE": "West Craggy", "REGION": "WA-Okanogan", "ASSOCIATION": "USA - Washington", "POINTS": "10", "BONUSPOINTS": "3"}}, {"type": "Feature", "geometry": {"type": "Point", "coordinates": [-120.1923, 48.9756]}, "properties": {"NAME": "W7W/OK-019", "TITLE": "Amphitheater Mountain", "REGION": "WA-Okanogan", "ASSOCIATION": "USA - Washington", "POINTS": "10", "BONUSPOINTS": "3"}}, {"type": "Feature", "geometry": {"type": "Point", "coordinates": [-119.9707, 48.9282]}, "properties": {"NAME": "W7W/OK-020", "TITLE": "Windy Peak", "REGION": "WA-Okanogan", "ASSOCIATION": "USA - Washington", "POINTS": "10", "BONUSPOINTS": "3"}}, {"type": "Feature", "geometry": {"type": "Point", "coordinates": [-120.5895, 48.5345]}, "properties": {"NAME": "W7W/OK-021", "TITLE": "Snagtooth Ridge", "REGION": "WA-Okanogan", "ASSOCIATION": "USA - Washington", "POINTS": "10", "BONUSPOINTS": "3"}}, {"type": "Feature", "geometry": {"type": "Point", "coordinates": [-120.5245, 48.4777]}, "properties": {"NAME": "W7W/OK-022", "TITLE": "Abernathy Peak", "REGION": "WA-Okanogan", "ASSOCIATION": "USA - Washington", "POINTS": "10", "BONUSPOINTS": "3"}}, {"type": "Feature", "geometry": {"type": "Point", "coordinates": [-120.2277, 48.9202]}, "properties": {"NAME": "W7W/OK-023", "TITLE": "Andrew Peak", "REGION": "WA-Okanogan", "ASSOCIATION": "USA - Washington", "POINTS": "10", "BONUSPOINTS": "3"}}, {"type": "Feature", "geometry": {"type": "Point", "coordinates": [-120.6174, 48.5193]}, "properties": {"NAME": "W7W/OK-024", "TITLE": "Kangaroo Ridge", "REGION": "WA-Okanogan", "ASSOCIATION": "USA - Washington", "POINTS": "10", "BONUSPOINTS": "3"}}, {"type": "Feature", "geometry": {"type": "Point", "coordinates": [-120.1453, 48.9616]}, "properties": {"NAME": "W7W/OK-025", "TITLE": "Apex Mountain", "REGION": "WA-Okanogan", "ASSOCIATION": "USA - Washington", "POINTS": "10", "BONUSPOINTS": "3"}}, {"type": "Feature", "geometry": {"type": "Point", "coordinates": [-120.3886, 48.9766]}, "properties": {"NAME": "W7W/OK-026", "TITLE": "Sheep Mountain", "REGION": "WA-Okanogan", "ASSOCIATION": "USA - Washington", "POINTS": "10", "BONUSPOINTS": "3"}}, {"type": "Feature", "geometry": {"type": "Point", "coordinates": [-120.4354, 48.2664]}, "properties": {"NAME": "W7W/OK-027", "TITLE": "Buttermilk Ridge", "REGION": "WA-Okanogan", "ASSOCIATION": "USA - Washington", "POINTS": "10", "BONUSPOINTS": "3"}}, {"type": "Feature", "geometry": {"type": "Point", "coordinates": [-120.5696, 48.5478]}, "properties": {"NAME": "W7W/OK-028", "TITLE": "Silver Moon", "REGION": "WA-Okanogan", "ASSOCIATION": "USA - Washington", "POINTS": "10", "BONUSPOINTS": "3"}}, {"type": "Feature", "geometry": {"type": "Point", "coordinates": [-119.9325, 48.6695]}, "properties": {"NAME": "W7W/OK-029", "TITLE": "Tiffany Mountain", "REGION": "WA-Okanogan", "ASSOCIATION": "USA - Washington", "POINTS": "10", "BONUSPOINTS": "3"}}, {"type": "Feature", "geometry": {"type": "Point", "coordinates": [-120.4682, 48.8518]}, "properties": {"NAME": "W7W/OK-030", "TITLE": "Many Trails Peak", "REGION": "WA-Okanogan", "ASSOCIATION": "USA - Washington", "POINTS": "10", "BONUSPOINTS": "3"}}, {"type": "Feature", "geometry": {"type": "Point", "coordinates": [-120.3176, 48.8554]}, "properties": {"NAME": "W7W/OK-031", "TITLE": "Fool Hen Mountain", "REGION": "WA-Okanogan", "ASSOCIATION": "USA - Washington", "POINTS": "8", "BONUSPOINTS": "3"}}, {"type": "Feature", "geometry": {"type": "Point", "coordinates": [-120.2381, 48.897]}, "properties": {"NAME": "W7W/OK-032", "TITLE": "Peepsight Mountain", "REGION": "WA-Okanogan", "ASSOCIATION": "USA - Washington", "POINTS": "8", "BONUSPOINTS": "3"}}, {"type": "Feature", "geometry": {"type": "Point", "coordinates": [-120.3738, 48.7305]}, "properties": {"NAME": "W7W/OK-033", "TITLE": "Sunrise Peak", "REGION": "WA-Okanogan", "ASSOCIATION": "USA - Washington", "POINTS": "8", "BONUSPOINTS": "3"}}, {"type": "Feature", "geometry": {"type": "Point", "coordinates": [-120.6536, 48.6009]}, "properties": {"NAME": "W7W/OK-034", "TITLE": "Needles, The", "REGION": "WA-Okanogan", "ASSOCIATION": "USA - Washington", "POINTS": "8", "BONUSPOINTS": "3"}}, {"type": "Feature", "geometry": {"type": "Point", "coordinates": [-119.939, 48.998]}, "properties": {"NAME": "W7W/OK-035", "TITLE": "Armstrong Mountain", "REGION": "WA-Okanogan", "ASSOCIATION": "USA - Washington", "POINTS": "8", "BONUSPOINTS": "3"}}, {"type": "Feature", "geometry": {"type": "Point", "coordinates": [-120.1295, 48.9855]}, "properties": {"NAME": "W7W/OK-036", "TITLE": "Wolframite Mountain", "REGION": "WA-Okanogan", "ASSOCIATION": "USA - Washington", "POINTS": "8", "BONUSPOINTS": "3"}}, {"type": "Feature", "geometry": {"type": "Point", "coordinates": [-120.4391, 48.7814]}, "properties": {"NAME": "W7W/OK-037", "TITLE": "North Three Pinnacles", "REGION": "WA-Okanogan", "ASSOCIATION": "USA - Washington", "POINTS": "8", "BONUSPOINTS": "3"}}, {"type": "Feature", "geometry": {"type": "Point", "coordinates": [-120.2653, 48.9244]}, "properties": {"NAME": "W7W/OK-038", "TITLE": "Freds Mountain", "REGION": "WA-Okanogan", "ASSOCIATION": "USA - Washington", "POINTS": "8", "BONUSPOINTS": "3"}}, {"type": "Feature", "geometry": {"type": "Point", "coordinates": [-120.3838, 48.7044]}, "properties": {"NAME": "W7W/OK-039", "TITLE": "McLeod Mountain", "REGION": "WA-Okanogan", "ASSOCIATION": "USA - Washington", "POINTS": "8", "BONUSPOINTS": "3"}}, {"type": "Feature", "geometry": {"type": "Point", "coordinates": [-120.6014, 48.8086]}, "properties": {"NAME": "W7W/OK-040", "TITLE": "Mount Rolo", "REGION": "WA-Okanogan", "ASSOCIATION": "USA - Washington", "POINTS": "8", "BONUSPOINTS": "3"}}, {"type": "Feature", "geometry": {"type": "Point", "coordinates": [-119.9219, 48.9887]}, "properties": {"NAME": "W7W/OK-041", "TITLE": "Arnold Peak", "REGION": "WA-Okanogan", "ASSOCIATION": "USA - Washington", "POINTS": "8", "BONUSPOINTS": "3"}}, {"type": "Feature", "geometry": {"type": "Point", "coordinates": [-120.6136, 48.7361]}, "properties": {"NAME": "W7W/OK-042", "TITLE": "Devils Peak", "REGION": "WA-Okanogan", "ASSOCIATION": "USA - Washington", "POINTS": "8", "BONUSPOINTS": "3"}}, {"type": "Feature", "geometry": {"type": "Point", "coordinates": [-120.5298, 48.5111]}, "properties": {"NAME": "W7W/OK-043", "TITLE": "Shelokum Mountain", "REGION": "WA-Okanogan", "ASSOCIATION": "USA - Washington", "POINTS": "8", "BONUSPOINTS": "3"}}, {"type": "Feature", "geometry": {"type": "Point", "coordinates": [-120.0667, 48.9772]}, "properties": {"NAME": "W7W/OK-044", "TITLE": "Bauerman Ridge", "REGION": "WA-Okanogan", "ASSOCIATION": "USA - Washington", "POINTS": "8", "BONUSPOINTS": "3"}}, {"type": "Feature", "geometry": {"type": "Point", "coordinates": [-120.3166, 48.8959]}, "properties": {"NAME": "W7W/OK-045", "TITLE": "Bauble Butte", "REGION": "WA-Okanogan", "ASSOCIATION": "USA - Washington", "POINTS": "8", "BONUSPOINTS": "3"}}, {"type": "Feature", "geometry": {"type": "Point", "coordinates": [-120.5809, 48.481]}, "properties": {"NAME": "W7W/OK-046", "TITLE": "Gilbert Mountain", "REGION": "WA-Okanogan", "ASSOCIATION": "USA - Washington", "POINTS": "8", "BONUSPOINTS": "3"}}, {"type": "Feature", "geometry": {"type": "Point", "coordinates": [-120.7307, 48.6172]}, "properties": {"NAME": "W7W/OK-047", "TITLE": "Holliway Mountain", "REGION": "WA-Okanogan", "ASSOCIATION": "USA - Washington", "POINTS": "8", "BONUSPOINTS": "3"}}, {"type": "Feature", "geometry": {"type": "Point", "coordinates": [-119.9168, 48.6903]}, "properties": {"NAME": "W7W/OK-048", "TITLE": "Rock Mountain", "REGION": "WA-Okanogan", "ASSOCIATION": "USA - Washington", "POINTS": "8", "BONUSPOINTS": "3"}}, {"type": "Feature", "geometry": {"type": "Point", "coordinates": [-119.9248, 48.97]}, "properties": {"NAME": "W7W/OK-049", "TITLE": "Horseshoe Mountain", "REGION": "WA-Okanogan", "ASSOCIATION": "USA - Washington", "POINTS": "8", "BONUSPOINTS": "3"}}, {"type": "Feature", "geometry": {"type": "Point", "coordinates": [-120.382, 48.9013]}, "properties": {"NAME": "W7W/OK-050", "TITLE": "West Two Point Mountain", "REGION": "WA-Okanogan", "ASSOCIATION": "USA - Washington", "POINTS": "8", "BONUSPOINTS": "3"}}, {"type": "Feature", "geometry": {"type": "Point", "coordinates": [-120.3398, 48.8828]}, "properties": {"NAME": "W7W/OK-051", "TITLE": "Skeptical Butte", "REGION": "WA-Okanogan", "ASSOCIATION": "USA - Washington", "POINTS": "8", "BONUSPOINTS": "3"}}, {"type": "Feature", "geometry": {"type": "Point", "coordinates": [-120.2591, 48.8055]}, "properties": {"NAME": "W7W/OK-052", "TITLE": "Obstruction Peak", "REGION": "WA-Okanogan", "ASSOCIATION": "USA - Washington", "POINTS": "8", "BONUSPOINTS": "3"}}, {"type": "Feature", "geometry": {"type": "Point", "coordinates": [-120.5454, 48.7307]}, "properties": {"NAME": "W7W/OK-053", "TITLE": "Beauty Peak", "REGION": "WA-Okanogan", "ASSOCIATION": "USA - Washington", "POINTS": "8", "BONUSPOINTS": "3"}}, {"type": "Feature", "geometry": {"type": "Point", "coordinates": [-120.2595, 48.9535]}, "properties": {"NAME": "W7W/OK-054", "TITLE": "Bald Mountain", "REGION": "WA-Okanogan", "ASSOCIATION": "USA - Washington", "POINTS": "8", "BONUSPOINTS": "3"}}, {"type": "Feature", "geometry": {"type": "Point", "coordinates": [-120.605, 48.4888]}, "properties": {"NAME": "W7W/OK-055", "TITLE": "Gilbert Mountain Northwest", "REGION": "WA-Okanogan", "ASSOCIATION": "USA - Washington", "POINTS": "8", "BONUSPOINTS": "3"}}, {"type": "Feature", "geometry": {"type": "Point", "coordinates": [-120.3783, 48.2656]}, "properties": {"NAME": "W7W/OK-056", "TITLE": "Spirit Mountain", "REGION": "WA-Okanogan", "ASSOCIATION": "USA - Washington", "POINTS": "8", "BONUSPOINTS": "3"}}, {"type": "Feature", "geometry": {"type": "Point", "coordinates": [-120.6151, 48.4436]}, "properties": {"NAME": "W7W/OK-057", "TITLE": "Mother Lode", "REGION": "WA-Okanogan", "ASSOCIATION": "USA - Washington", "POINTS": "8", "BONUSPOINTS": "3"}}, {"type": "Feature", "geometry": {"type": "Point", "coordinates": [-119.7849, 48.9575]}, "properties": {"NAME": "W7W/OK-058", "TITLE": "Chopaka Mountain", "REGION": "WA-Okanogan", "ASSOCIATION": "USA - Washington", "POINTS": "8", "BONUSPOINTS": "3"}}, {"type": "Feature", "geometry": {"type": "Point", "coordinates": [-120.0083, 48.9819]}, "properties": {"NAME": "W7W/OK-059", "TITLE": "Haig Mountain", "REGION": "WA-Okanogan", "ASSOCIATION": "USA - Washington", "POINTS": "8", "BONUSPOINTS": "3"}}, {"type": "Feature", "geometry": {"type": "Point", "coordinates": [-120.35, 48.7767]}, "properties": {"NAME": "W7W/OK-060", "TITLE": "Eightmile Peak", "REGION": "WA-Okanogan", "ASSOCIATION": "USA - Washington", "POINTS": "8", "BONUSPOINTS": "3"}}, {"type": "Feature", "geometry": {"type": "Point", "coordinates": [-119.9727, 48.9964]}, "properties": {"NAME": "W7W/OK-061", "TITLE": "7857 Mount Regard", "REGION": "WA-Okanogan", "ASSOCIATION": "USA - Washington", "POINTS": "8", "BONUSPOINTS": "3"}}, {"type": "Feature", "geometry": {"type": "Point", "coordinates": [-120.2942, 48.8137]}, "properties": {"NAME": "W7W/OK-062", "TITLE": "7851 Little Fool Hen Mountain", "REGION": "WA-Okanogan", "ASSOCIATION": "USA - Washington", "POINTS": "8", "BONUSPOINTS": "3"}}, {"type": "Feature", "geometry": {"type": "Point", "coordinates": [-120.6708, 48.7955]}, "properties": {"NAME": "W7W/OK-063", "TITLE": "Pasayten Peak", "REGION": "WA-Okanogan", "ASSOCIATION": "USA - Washington", "POINTS": "8", "BONUSPOINTS": "3"}}, {"type": "Feature", "geometry": {"type": "Point", "coordinates": [-120.7675, 48.9728]}, "properties": {"NAME": "W7W/OK-064", "TITLE": "Mount Winthrop", "REGION": "WA-Okanogan", "ASSOCIATION": "USA - Washington", "POINTS": "8", "BONUSPOINTS": "3"}}, {"type": "Feature", "geometry": {"type": "Point", "coordinates": [-119.9562, 48.5899]}, "properties": {"NAME": "W7W/OK-065", "TITLE": "Old Baldy", "REGION": "WA-Okanogan", "ASSOCIATION": "USA - Washington", "POINTS": "8", "BONUSPOINTS": "3"}}, {"type": "Feature", "geometry": {"type": "Point", "coordinates": [-120.2724, 48.8927]}, "properties": {"NAME": "W7W/OK-066", "TITLE": "7838 Flaming Peak", "REGION": "WA-Okanogan", "ASSOCIATION": "USA - Washington", "POINTS": "8", "BONUSPOINTS": "3"}}, {"type": "Feature", "geometry": {"type": "Point", "coordinates": [-119.7767, 48.9715]}, "properties": {"NAME": "W7W/OK-067", "TITLE": "Hurley Peak", "REGION": "WA-Okanogan", "ASSOCIATION": "USA - Washington", "POINTS": "8", "BONUSPOINTS": "3"}}, {"type": "Feature", "geometry": {"type": "Point", "coordinates": [-119.8481, 48.9899]}, "properties": {"NAME": "W7W/OK-068", "TITLE": "Snowshoe Mountain", "REGION": "WA-Okanogan", "ASSOCIATION": "USA - Washington", "POINTS": "8", "BONUSPOINTS": "3"}}, {"type": "Feature", "geometry": {"type": "Point", "coordinates": [-120.4699, 48.3041]}, "properties": {"NAME": "W7W/OK-069", "TITLE": "7816 Snowshoe Ridge High Point", "REGION": "WA-Okanogan", "ASSOCIATION": "USA - Washington", "POINTS": "8", "BONUSPOINTS": "3"}}, {"type": "Feature", "geometry": {"type": "Point", "coordinates": [-120.5984, 48.4423]}, "properties": {"NAME": "W7W/OK-070", "TITLE": "Crescent Mountain", "REGION": "WA-Okanogan", "ASSOCIATION": "USA - Washington", "POINTS": "8", "BONUSPOINTS": "3"}}, {"type": "Feature", "geometry": {"type": "Point", "coordinates": [-120.6529, 48.8171]}, "properties": {"NAME": "W7W/OK-071", "TITLE": "Buckskin Ridge", "REGION": "WA-Okanogan", "ASSOCIATION": "USA - Washington", "POINTS": "8", "BONUSPOINTS": "3"}}, {"type": "Feature", "geometry": {"type": "Point", "coordinates": [-120.4846, 48.7554]}, "properties": {"NAME": "W7W/OK-072", "TITLE": "East Pistol Peaks", "REGION": "WA-Okanogan", "ASSOCIATION": "USA - Washington", "POINTS": "8", "BONUSPOINTS": "3"}}, {"type": "Feature", "geometry": {"type": "Point", "coordinates": [-120.6573, 48.6157]}, "properties": {"NAME": "W7W/OK-073", "TITLE": "7789 Catleap Peak", "REGION": "WA-Okanogan", "ASSOCIATION": "USA - Washington", "POINTS": "8", "BONUSPOINTS": "3"}}, {"type": "Feature", "geometry": {"type": "Point", "coordinates": [-120.5929, 48.399]}, "properties": {"NAME": "W7W/OK-074", "TITLE": "7787 Louis Peak", "REGION": "WA-Okanogan", "ASSOCIATION": "USA - Washington", "POINTS": "8", "BONUSPOINTS": "3"}}, {"type": "Feature", "geometry": {"type": "Point", "coordinates": [-120.3052, 48.797]}, "properties": {"NAME": "W7W/OK-075", "TITLE": "Burch Mountain", "REGION": "WA-Okanogan", "ASSOCIATION": "USA - Washington", "POINTS": "8", "BONUSPOINTS": "3"}}, {"type": "Feature", "geometry": {"type": "Point", "coordinates": [-120.7196, 48.9133]}, "properties": {"NAME": "W7W/OK-076", "TITLE": "Soda Peak", "REGION": "WA-Okanogan", "ASSOCIATION": "USA - Washington", "POINTS": "8", "BONUSPOINTS": "3"}}, {"type": "Feature", "geometry": {"type": "Point", "coordinates": [-120.3789, 48.8358]}, "properties": {"NAME": "W7W/OK-077", "TITLE": "Nanny Goat Mountain", "REGION": "WA-Okanogan", "ASSOCIATION": "USA - Washington", "POINTS": "8", "BONUSPOINTS": "3"}}, {"type": "Feature", "geometry": {"type": "Point", "coordinates": [-120.6973, 48.6078]}, "properties": {"NAME": "W7W/OK-078", "TITLE": "Straight Ridge", "REGION": "WA-Okanogan", "ASSOCIATION": "USA - Washington", "POINTS": "8", "BONUSPOINTS": "3"}}, {"type": "Feature", "geometry": {"type": "Point", "coordinates": [-120.3161, 48.8035]}, "properties": {"NAME": "W7W/OK-079", "TITLE": "7697 Dial Ridge", "REGION": "WA-Okanogan", "ASSOCIATION": "USA - Washington", "POINTS": "8", "BONUSPOINTS": "3"}}, {"type": "Feature", "geometry": {"type": "Point", "coordinates": [-120.0919, 48.8541]}, "properties": {"NAME": "W7W/OK-080", "TITLE": "Coleman Peak", "REGION": "WA-Okanogan", "ASSOCIATION": "USA - Washington", "POINTS": "8", "BONUSPOINTS": "3"}}, {"type": "Feature", "geometry": {"type": "Point", "coordinates": [-120.4072, 48.8953]}, "properties": {"NAME": "W7W/OK-081", "TITLE": "Dollar Watch Mountain", "REGION": "WA-Okanogan", "ASSOCIATION": "USA - Washington", "POINTS": "8", "BONUSPOINTS": "3"}}, {"type": "Feature", "geometry": {"type": "Point", "coordinates": [-120.3614, 48.9435]}, "properties": {"NAME": "W7W/OK-082", "TITLE": "7665 Gabril Point", "REGION": "WA-Okanogan", "ASSOCIATION": "USA - Washington", "POINTS": "8", "BONUSPOINTS": "3"}}, {"type": "Feature", "geometry": {"type": "Point", "coordinates": [-119.9552, 48.9834]}, "properties": {"NAME": "W7W/OK-083", "TITLE": "Rock Mountain", "REGION": "WA-Okanogan", "ASSOCIATION": "USA - Washington", "POINTS": "8", "BONUSPOINTS": "3"}}, {"type": "Feature", "geometry": {"type": "Point", "coordinates": [-120.3439, 48.8123]}, "properties": {"NAME": "W7W/OK-084", "TITLE": "Billy Goat Mountain", "REGION": "WA-Okanogan", "ASSOCIATION": "USA - Washington", "POINTS": "8", "BONUSPOINTS": "3"}}, {"type": "Feature", "geometry": {"type": "Point", "coordinates": [-120.4369, 48.4326]}, "properties": {"NAME": "W7W/OK-085", "TITLE": "Midnight Mountain", "REGION": "WA-Okanogan", "ASSOCIATION": "USA - Washington", "POINTS": "8", "BONUSPOINTS": "3"}}, {"type": "Feature", "geometry": {"type": "Point", "coordinates": [-120.7334, 48.8676]}, "properties": {"NAME": "W7W/OK-086", "TITLE": "Holman Peak", "REGION": "WA-Okanogan", "ASSOCIATION": "USA - Washington", "POINTS": "8", "BONUSPOINTS": "3"}}, {"type": "Feature", "geometry": {"type": "Point", "coordinates": [-120.528, 48.3705]}, "properties": {"NAME": "W7W/OK-087", "TITLE": "Williams Butte", "REGION": "WA-Okanogan", "ASSOCIATION": "USA - Washington", "POINTS": "8", "BONUSPOINTS": "3"}}, {"type": "Feature", "geometry": {"type": "Point", "coordinates": [-120.42, 48.9557]}, "properties": {"NAME": "W7W/OK-088", "TITLE": "Quartz Mountain", "REGION": "WA-Okanogan", "ASSOCIATION": "USA - Washington", "POINTS": "8", "BONUSPOINTS": "3"}}, {"type": "Feature", "geometry": {"type": "Point", "coordinates": [-120.1262, 48.9077]}, "properties": {"NAME": "W7W/OK-089", "TITLE": "Cal Peak", "REGION": "WA-Okanogan", "ASSOCIATION": "USA - Washington", "POINTS": "8", "BONUSPOINTS": "3"}}, {"type": "Feature", "geometry": {"type": "Point", "coordinates": [-120.2165, 48.741]}, "properties": {"NAME": "W7W/OK-090", "TITLE": "Farewell Peak", "REGION": "WA-Okanogan", "ASSOCIATION": "USA - Washington", "POINTS": "8", "BONUSPOINTS": "3"}}, {"type": "Feature", "geometry": {"type": "Point", "coordinates": [-120.0683, 48.7516]}, "properties": {"NAME": "W7W/OK-091", "TITLE": "North Twentymile Peak", "REGION": "WA-Okanogan", "ASSOCIATION": "USA - Washington", "POINTS": "8", "BONUSPOINTS": "3"}}, {"type": "Feature", "geometry": {"type": "Point", "coordinates": [-120.6294, 48.6177]}, "properties": {"NAME": "W7W/OK-092", "TITLE": "7422 Flagg Mountain South", "REGION": "WA-Okanogan", "ASSOCIATION": "USA - Washington", "POINTS": "8", "BONUSPOINTS": "3"}}, {"type": "Feature", "geometry": {"type": "Point", "coordinates": [-119.7462, 48.9351]}, "properties": {"NAME": "W7W/OK-093", "TITLE": "South Chopaka Mountain", "REGION": "WA-Okanogan", "ASSOCIATION": "USA - Washington", "POINTS": "8", "BONUSPOINTS": "3"}}, {"type": "Feature", "geometry": {"type": "Point", "coordinates": [-119.8973, 48.4964]}, "properties": {"NAME": "W7W/OK-094", "TITLE": "Granite Mountain", "REGION": "WA-Okanogan", "ASSOCIATION": "USA - Washington", "POINTS": "8", "BONUSPOINTS": "3"}}, {"type": "Feature", "geometry": {"type": "Point", "coordinates": [-120.6254, 48.7039]}, "properties": {"NAME": "W7W/OK-095", "TITLE": "7300 Bandplan Summit", "REGION": "WA-Okanogan", "ASSOCIATION": "USA - Washington", "POINTS": "8", "BONUSPOINTS": "3"}}, {"type": "Feature", "geometry": {"type": "Point", "coordinates": [-120.2674, 48.859]}, "properties": {"NAME": "W7W/OK-096", "TITLE": "7277 Aurora Mtn", "REGION": "WA-Okanogan", "ASSOCIATION": "USA - Washington", "POINTS": "8", "BONUSPOINTS": "3"}}, {"type": "Feature", "geometry": {"type": "Point", "coordinates": [-120.6752, 48.664]}, "properties": {"NAME": "W7W/OK-097", "TITLE": "7259 Handcock Ridge High Point", "REGION": "WA-Okanogan", "ASSOCIATION": "USA - Washington", "POINTS": "8", "BONUSPOINTS": "3"}}, {"type": "Feature", "geometry": {"type": "Point", "coordinates": [-120.445, 48.6979]}, "properties": {"NAME": "W7W/OK-098", "TITLE": "Setting Sun Mountain", "REGION": "WA-Okanogan", "ASSOCIATION": "USA - Washington", "POINTS": "8", "BONUSPOINTS": "3"}}, {"type": "Feature", "geometry": {"type": "Point", "coordinates": [-119.1223, 48.7852]}, "properties": {"NAME": "W7W/OK-099", "TITLE": "Mount Bonaparte", "REGION": "WA-Okanogan", "ASSOCIATION": "USA - Washington", "POINTS": "8", "BONUSPOINTS": "3"}}, {"type": "Feature", "geometry": {"type": "Point", "coordinates": [-120.6981, 48.8764]}, "properties": {"NAME": "W7W/OK-100", "TITLE": "7253 Peak of the Pines", "REGION": "WA-Okanogan", "ASSOCIATION": "USA - Washington", "POINTS": "8", "BONUSPOINTS": "3"}}, {"type": "Feature", "geometry": {"type": "Point", "coordinates": [-120.4839, 48.974]}, "properties": {"NAME": "W7W/OK-101", "TITLE": "Bunker Hill", "REGION": "WA-Okanogan", "ASSOCIATION": "USA - Washington", "POINTS": "8", "BONUSPOINTS": "3"}}, {"type": "Feature", "geometry": {"type": "Point", "coordinates": [-120.6042, 48.6173]}, "properties": {"NAME": "W7W/OK-102", "TITLE": "Delancy Ridge", "REGION": "WA-Okanogan", "ASSOCIATION": "USA - Washington", "POINTS": "8", "BONUSPOINTS": "3"}}, {"type": "Feature", "geometry": {"type": "Point", "coordinates": [-120.1887, 48.7315]}, "properties": {"NAME": "W7W/OK-103", "TITLE": "Ike Mountain", "REGION": "WA-Okanogan", "ASSOCIATION": "USA - Washington", "POINTS": "8", "BONUSPOINTS": "3"}}, {"type": "Feature", "geometry": {"type": "Point", "coordinates": [-119.9292, 48.7518]}, "properties": {"NAME": "W7W/OK-104", "TITLE": "7168 Bottle Rocket Mountain", "REGION": "WA-Okanogan", "ASSOCIATION": "USA - Washington", "POINTS": "8", "BONUSPOINTS": "3"}}, {"type": "Feature", "geometry": {"type": "Point", "coordinates": [-120.63, 48.469]}, "properties": {"NAME": "W7W/OK-105", "TITLE": "Lincoln Butte", "REGION": "WA-Okanogan", "ASSOCIATION": "USA - Washington", "POINTS": "8", "BONUSPOINTS": "3"}}, {"type": "Feature", "geometry": {"type": "Point", "coordinates": [-120.4493, 48.8958]}, "properties": {"NAME": "W7W/OK-106", "TITLE": "Island Mountain", "REGION": "WA-Okanogan", "ASSOCIATION": "USA - Washington", "POINTS": "8", "BONUSPOINTS": "3"}}, {"type": "Feature", "geometry": {"type": "Point", "coordinates": [-120.4039, 48.6321]}, "properties": {"NAME": "W7W/OK-107", "TITLE": "Goat Peak", "REGION": "WA-Okanogan", "ASSOCIATION": "USA - Washington", "POINTS": "8", "BONUSPOINTS": "3"}}, {"type": "Feature", "geometry": {"type": "Point", "coordinates": [-119.9318, 48.8049]}, "properties": {"NAME": "W7W/OK-108", "TITLE": "6961 Mt Packet", "REGION": "WA-Okanogan", "ASSOCIATION": "USA - Washington", "POINTS": "8", "BONUSPOINTS": "3"}}, {"type": "Feature", "geometry": {"type": "Point", "coordinates": [-120.6484, 48.7401]}, "properties": {"NAME": "W7W/OK-109", "TITLE": "6935 Middle Pasayten Peak", "REGION": "WA-Okanogan", "ASSOCIATION": "USA - Washington", "POINTS": "8", "BONUSPOINTS": "3"}}, {"type": "Feature", "geometry": {"type": "Point", "coordinates": [-120.6693, 48.9075]}, "properties": {"NAME": "W7W/OK-110", "TITLE": "6900 Three Forks Peak", "REGION": "WA-Okanogan", "ASSOCIATION": "USA - Washington", "POINTS": "8", "BONUSPOINTS": "3"}}, {"type": "Feature", "geometry": {"type": "Point", "coordinates": [-119.9513, 48.5439]}, "properties": {"NAME": "W7W/OK-111", "TITLE": "Blue Buck Ridge", "REGION": "WA-Okanogan", "ASSOCIATION": "USA - Washington", "POINTS": "8", "BONUSPOINTS": "3"}}, {"type": "Feature", "geometry": {"type": "Point", "coordinates": [-120.4517, 48.9192]}, "properties": {"NAME": "W7W/OK-112", "TITLE": "6852 Wildfire Mountain", "REGION": "WA-Okanogan", "ASSOCIATION": "USA - Washington", "POINTS": "8", "BONUSPOINTS": "3"}}, {"type": "Feature", "geometry": {"type": "Point", "coordinates": [-120.2008, 48.7722]}, "properties": {"NAME": "W7W/OK-113", "TITLE": "6794 Integrated Circuit Pk", "REGION": "WA-Okanogan", "ASSOCIATION": "USA - Washington", "POINTS": "8", "BONUSPOINTS": "3"}}, {"type": "Feature", "geometry": {"type": "Point", "coordinates": [-119.0611, 48.3716]}, "properties": {"NAME": "W7W/OK-114", "TITLE": "Moses Mountain", "REGION": "WA-Okanogan", "ASSOCIATION": "USA - Washington", "POINTS": "8", "BONUSPOINTS": "3"}}, {"type": "Feature", "geometry": {"type": "Point", "coordinates": [-119.8917, 48.898]}, "properties": {"NAME": "W7W/OK-115", "TITLE": "6738 Low Power Mtn", "REGION": "WA-Okanogan", "ASSOCIATION": "USA - Washington", "POINTS": "8", "BONUSPOINTS": "3"}}, {"type": "Feature", "geometry": {"type": "Point", "coordinates": [-119.8348, 48.761]}, "properties": {"NAME": "W7W/OK-116", "TITLE": "Cecil Benchmark", "REGION": "WA-Okanogan", "ASSOCIATION": "USA - Washington", "POINTS": "8", "BONUSPOINTS": "3"}}, {"type": "Feature", "geometry": {"type": "Point", "coordinates": [-120.009, 48.6884]}, "properties": {"NAME": "W7W/OK-117", "TITLE": "6700 Gain Summit", "REGION": "WA-Okanogan", "ASSOCIATION": "USA - Washington", "POINTS": "8", "BONUSPOINTS": "3"}}, {"type": "Feature", "geometry": {"type": "Point", "coordinates": [-120.1911, 48.796]}, "properties": {"NAME": "W7W/OK-118", "TITLE": "6698 Disaster Creek Mountain", "REGION": "WA-Okanogan", "ASSOCIATION": "USA - Washington", "POINTS": "8", "BONUSPOINTS": "3"}}, {"type": "Feature", "geometry": {"type": "Point", "coordinates": [-120.0313, 48.9477]}, "properties": {"NAME": "W7W/OK-119", "TITLE": "6682 Eighty Meter Mtn", "REGION": "WA-Okanogan", "ASSOCIATION": "USA - Washington", "POINTS": "8", "BONUSPOINTS": "3"}}, {"type": "Feature", "geometry": {"type": "Point", "coordinates": [-120.0271, 48.531]}, "properties": {"NAME": "W7W/OK-120", "TITLE": "Pearrygin Peak", "REGION": "WA-Okanogan", "ASSOCIATION": "USA - Washington", "POINTS": "8", "BONUSPOINTS": "3"}}, {"type": "Feature", "geometry": {"type": "Point", "coordinates": [-120.6964, 48.9845]}, "properties": {"NAME": "W7W/OK-121", "TITLE": "6632 Deviation Mtn", "REGION": "WA-Okanogan", "ASSOCIATION": "USA - Washington", "POINTS": "8", "BONUSPOINTS": "3"}}, {"type": "Feature", "geometry": {"type": "Point", "coordinates": [-119.9286, 48.8394]}, "properties": {"NAME": "W7W/OK-122", "TITLE": "6581 Aurora Scatter Pk", "REGION": "WA-Okanogan", "ASSOCIATION": "USA - Washington", "POINTS": "8", "BONUSPOINTS": "3"}}, {"type": "Feature", "geometry": {"type": "Point", "coordinates": [-120.3285, 48.6178]}, "properties": {"NAME": "W7W/OK-123", "TITLE": "Fawn Peak", "REGION": "WA-Okanogan", "ASSOCIATION": "USA - Washington", "POINTS": "8", "BONUSPOINTS": "3"}}, {"type": "Feature", "geometry": {"type": "Point", "coordinates": [-120.4439, 48.3071]}, "properties": {"NAME": "W7W/OK-124", "TITLE": "6536 Duckhead Mountain", "REGION": "WA-Okanogan", "ASSOCIATION": "USA - Washington", "POINTS": "6", "BONUSPOINTS": "3"}}, {"type": "Feature", "geometry": {"type": "Point", "coordinates": [-120.4062, 48.5215]}, "properties": {"NAME": "W7W/OK-125", "TITLE": "McKinney Mountain", "REGION": "WA-Okanogan", "ASSOCIATION": "USA - Washington", "POINTS": "6", "BONUSPOINTS": "3"}}, {"type": "Feature", "geometry": {"type": "Point", "coordinates": [-119.8458, 48.6901]}, "properties": {"NAME": "W7W/OK-126", "TITLE": "Coxit Mountain", "REGION": "WA-Okanogan", "ASSOCIATION": "USA - Washington", "POINTS": "6", "BONUSPOINTS": "3"}}, {"type": "Feature", "geometry": {"type": "Point", "coordinates": [-120.0367, 48.6297]}, "properties": {"NAME": "W7W/OK-127", "TITLE": "6382 Counterpoise Mtn", "REGION": "WA-Okanogan", "ASSOCIATION": "USA - Washington", "POINTS": "6", "BONUSPOINTS": "3"}}, {"type": "Feature", "geometry": {"type": "Point", "coordinates": [-119.8703, 48.457]}, "properties": {"NAME": "W7W/OK-128", "TITLE": "Beaver Mountain", "REGION": "WA-Okanogan", "ASSOCIATION": "USA - Washington", "POINTS": "6", "BONUSPOINTS": "3"}}, {"type": "Feature", "geometry": {"type": "Point", "coordinates": [-119.8565, 48.611]}, "properties": {"NAME": "W7W/OK-129", "TITLE": "Muckamuck Mountain", "REGION": "WA-Okanogan", "ASSOCIATION": "USA - Washington", "POINTS": "6", "BONUSPOINTS": "3"}}, {"type": "Feature", "geometry": {"type": "Point", "coordinates": [-119.8694, 48.4877]}, "properties": {"NAME": "W7W/OK-130", "TITLE": "McDaniel Mountain", "REGION": "WA-Okanogan", "ASSOCIATION": "USA - Washington", "POINTS": "6", "BONUSPOINTS": "3"}}, {"type": "Feature", "geometry": {"type": "Point", "coordinates": [-120.6385, 48.6824]}, "properties": {"NAME": "W7W/OK-131", "TITLE": "6323 Mt Wavelength", "REGION": "WA-Okanogan", "ASSOCIATION": "USA - Washington", "POINTS": "6", "BONUSPOINTS": "3"}}, {"type": "Feature", "geometry": {"type": "Point", "coordinates": [-120.649, 48.944]}, "properties": {"NAME": "W7W/OK-132", "TITLE": "Holdover Ridge", "REGION": "WA-Okanogan", "ASSOCIATION": "USA - Washington", "POINTS": "6", "BONUSPOINTS": "3"}}, {"type": "Feature", "geometry": {"type": "Point", "coordinates": [-119.7596, 48.8157]}, "properties": {"NAME": "W7W/OK-133", "TITLE": "Tillman Mountain", "REGION": "WA-Okanogan", "ASSOCIATION": "USA - Washington", "POINTS": "6", "BONUSPOINTS": "3"}}, {"type": "Feature", "geometry": {"type": "Point", "coordinates": [-120.0511, 48.4901]}, "properties": {"NAME": "W7W/OK-134", "TITLE": "Blue Buck Mountain", "REGION": "WA-Okanogan", "ASSOCIATION": "USA - Washington", "POINTS": "6", "BONUSPOINTS": "3"}}, {"type": "Feature", "geometry": {"type": "Point", "coordinates": [-119.8239, 48.4366]}, "properties": {"NAME": "W7W/OK-135", "TITLE": "Buck Mountain", "REGION": "WA-Okanogan", "ASSOCIATION": "USA - Washington", "POINTS": "6", "BONUSPOINTS": "3"}}, {"type": "Feature", "geometry": {"type": "Point", "coordinates": [-119.0539, 48.6613]}, "properties": {"NAME": "W7W/OK-136", "TITLE": "Mount Annie", "REGION": "WA-Okanogan", "ASSOCIATION": "USA - Washington", "POINTS": "6", "BONUSPOINTS": "3"}}, {"type": "Feature", "geometry": {"type": "Point", "coordinates": [-119.2364, 48.5455]}, "properties": {"NAME": "W7W/OK-137", "TITLE": "Tunk Mountain", "REGION": "WA-Okanogan", "ASSOCIATION": "USA - Washington", "POINTS": "6", "BONUSPOINTS": "3"}}, {"type": "Feature", "geometry": {"type": "Point", "coordinates": [-120.5324, 48.6341]}, "properties": {"NAME": "W7W/OK-138", "TITLE": "Driveway Butte", "REGION": "WA-Okanogan", "ASSOCIATION": "USA - Washington", "POINTS": "6", "BONUSPOINTS": "3"}}, {"type": "Feature", "geometry": {"type": "Point", "coordinates": [-120.0096, 48.8481]}, "properties": {"NAME": "W7W/OK-139", "TITLE": "Thirtymile Peak", "REGION": "WA-Okanogan", "ASSOCIATION": "USA - Washington", "POINTS": "6", "BONUSPOINTS": "3"}}, {"type": "Feature", "geometry": {"type": "Point", "coordinates": [-119.04, 48.4146]}, "properties": {"NAME": "W7W/OK-140", "TITLE": "Little Moses Mountain", "REGION": "WA-Okanogan", "ASSOCIATION": "USA - Washington", "POINTS": "6", "BONUSPOINTS": "3"}}, {"type": "Feature", "geometry": {"type": "Point", "coordinates": [-118.9374, 48.4518]}, "properties": {"NAME": "W7W/OK-141", "TITLE": "Strawberry Mountain", "REGION": "WA-Okanogan", "ASSOCIATION": "USA - Washington", "POINTS": "6", "BONUSPOINTS": "3"}}, {"type": "Feature", "geometry": {"type": "Point", "coordinates": [-119.8402, 48.7266]}, "properties": {"NAME": "W7W/OK-142", "TITLE": "5853 Subaudible Mtn", "REGION": "WA-Okanogan", "ASSOCIATION": "USA - Washington", "POINTS": "6", "BONUSPOINTS": "3"}}, {"type": "Feature", "geometry": {"type": "Point", "coordinates": [-119.255, 48.4495]}, "properties": {"NAME": "W7W/OK-143", "TITLE": "5814 Tuner Mtn", "REGION": "WA-Okanogan", "ASSOCIATION": "USA - Washington", "POINTS": "6", "BONUSPOINTS": "3"}}, {"type": "Feature", "geometry": {"type": "Point", "coordinates": [-119.211, 48.7783]}, "properties": {"NAME": "W7W/OK-144", "TITLE": "Mount Phoebe", "REGION": "WA-Okanogan", "ASSOCIATION": "USA - Washington", "POINTS": "6", "BONUSPOINTS": "3"}}, {"type": "Feature", "geometry": {"type": "Point", "coordinates": [-119.9475, 48.4735]}, "properties": {"NAME": "W7W/OK-145", "TITLE": "5812 Lightning Creek Ridge", "REGION": "WA-Okanogan", "ASSOCIATION": "USA - Washington", "POINTS": "6", "BONUSPOINTS": "3"}}, {"type": "Feature", "geometry": {"type": "Point", "coordinates": [-120.2653, 48.7309]}, "properties": {"NAME": "W7W/OK-146", "TITLE": "Eightmile Ridge", "REGION": "WA-Okanogan", "ASSOCIATION": "USA - Washington", "POINTS": "6", "BONUSPOINTS": "3"}}, {"type": "Feature", "geometry": {"type": "Point", "coordinates": [-119.1189, 48.5053]}, "properties": {"NAME": "W7W/OK-147", "TITLE": "Bailey Mountain", "REGION": "WA-Okanogan", "ASSOCIATION": "USA - Washington", "POINTS": "6", "BONUSPOINTS": "3"}}, {"type": "Feature", "geometry": {"type": "Point", "coordinates": [-119.8983, 48.4573]}, "properties": {"NAME": "W7W/OK-148", "TITLE": "Bobcat Mountain", "REGION": "WA-Okanogan", "ASSOCIATION": "USA - Washington", "POINTS": "6", "BONUSPOINTS": "3"}}, {"type": "Feature", "geometry": {"type": "Point", "coordinates": [-119.3088, 48.4493]}, "properties": {"NAME": "W7W/OK-149", "TITLE": "Omak Mountain", "REGION": "WA-Okanogan", "ASSOCIATION": "USA - Washington", "POINTS": "6", "BONUSPOINTS": "3"}}, {"type": "Feature", "geometry": {"type": "Point", "coordinates": [-120.2917, 48.2852]}, "properties": {"NAME": "W7W/OK-150", "TITLE": "Mission Peak", "REGION": "WA-Okanogan", "ASSOCIATION": "USA - Washington", "POINTS": "6", "BONUSPOINTS": "3"}}, {"type": "Feature", "geometry": {"type": "Point", "coordinates": [-120.3846, 48.4031]}, "properties": {"NAME": "W7W/OK-151", "TITLE": "5723 Timeless Mountain", "REGION": "WA-Okanogan", "ASSOCIATION": "USA - Washington", "POINTS": "6", "BONUSPOINTS": "3"}}, {"type": "Feature", "geometry": {"type": "Point", "coordinates": [-118.9352, 48.6655]}, "properties": {"NAME": "W7W/OK-152", "TITLE": "Fir Mountain", "REGION": "WA-Okanogan", "ASSOCIATION": "USA - Washington", "POINTS": "6", "BONUSPOINTS": "3"}}, {"type": "Feature", "geometry": {"type": "Point", "coordinates": [-119.1986, 48.4457]}, "properties": {"NAME": "W7W/OK-153", "TITLE": "5660 Monobound Mtn", "REGION": "WA-Okanogan", "ASSOCIATION": "USA - Washington", "POINTS": "6", "BONUSPOINTS": "3"}}, {"type": "Feature", "geometry": {"type": "Point", "coordinates": [-119.749, 48.8858]}, "properties": {"NAME": "W7W/OK-154", "TITLE": "Juniper Point", "REGION": "WA-Okanogan", "ASSOCIATION": "USA - Washington", "POINTS": "6", "BONUSPOINTS": "3"}}, {"type": "Feature", "geometry": {"type": "Point", "coordinates": [-119.9703, 48.4141]}, "properties": {"NAME": "W7W/OK-155", "TITLE": "South Ridge", "REGION": "WA-Okanogan", "ASSOCIATION": "USA - Washington", "POINTS": "6", "BONUSPOINTS": "3"}}, {"type": "Feature", "geometry": {"type": "Point", "coordinates": [-119.7265, 48.7704]}, "properties": {"NAME": "W7W/OK-156", "TITLE": "Douglas Mountain", "REGION": "WA-Okanogan", "ASSOCIATION": "USA - Washington", "POINTS": "6", "BONUSPOINTS": "3"}}, {"type": "Feature", "geometry": {"type": "Point", "coordinates": [-118.9862, 48.9458]}, "properties": {"NAME": "W7W/OK-157", "TITLE": "Buckhorn Mountain", "REGION": "WA-Okanogan", "ASSOCIATION": "USA - Washington", "POINTS": "6", "BONUSPOINTS": "3"}}, {"type": "Feature", "geometry": {"type": "Point", "coordinates": [-120.3498, 48.4633]}, "properties": {"NAME": "W7W/OK-158", "TITLE": "5580 Thompson Ridge", "REGION": "WA-Okanogan", "ASSOCIATION": "USA - Washington", "POINTS": "6", "BONUSPOINTS": "3"}}, {"type": "Feature", "geometry": {"type": "Point", "coordinates": [-120.5072, 48.6129]}, "properties": {"NAME": "W7W/OK-159", "TITLE": "5545 Mt Groundplane", "REGION": "WA-Okanogan", "ASSOCIATION": "USA - Washington", "POINTS": "6", "BONUSPOINTS": "3"}}, {"type": "Feature", "geometry": {"type": "Point", "coordinates": [-120.2117, 48.6613]}, "properties": {"NAME": "W7W/OK-160", "TITLE": "Lamb Butte", "REGION": "WA-Okanogan", "ASSOCIATION": "USA - Washington", "POINTS": "6", "BONUSPOINTS": "3"}}, {"type": "Feature", "geometry": {"type": "Point", "coordinates": [-120.1875, 48.3131]}, "properties": {"NAME": "W7W/OK-161", "TITLE": "Lookout Mountain", "REGION": "WA-Okanogan", "ASSOCIATION": "USA - Washington", "POINTS": "6", "BONUSPOINTS": "3"}}, {"type": "Feature", "geometry": {"type": "Point", "coordinates": [-119.8012, 48.5772]}, "properties": {"NAME": "W7W/OK-162", "TITLE": "Mineral Hill", "REGION": "WA-Okanogan", "ASSOCIATION": "USA - Washington", "POINTS": "6", "BONUSPOINTS": "3"}}, {"type": "Feature", "geometry": {"type": "Point", "coordinates": [-120.1088, 48.6192]}, "properties": {"NAME": "W7W/OK-163", "TITLE": "First Butte", "REGION": "WA-Okanogan", "ASSOCIATION": "USA - Washington", "POINTS": "6", "BONUSPOINTS": "3"}}, {"type": "Feature", "geometry": {"type": "Point", "coordinates": [-119.923, 48.4118]}, "properties": {"NAME": "W7W/OK-164", "TITLE": "Bear Mountain", "REGION": "WA-Okanogan", "ASSOCIATION": "USA - Washington", "POINTS": "6", "BONUSPOINTS": "3"}}, {"type": "Feature", "geometry": {"type": "Point", "coordinates": [-118.9051, 48.7215]}, "properties": {"NAME": "W7W/OK-165", "TITLE": "Clackmas Mountain", "REGION": "WA-Okanogan", "ASSOCIATION": "USA - Washington", "POINTS": "6", "BONUSPOINTS": "3"}}, {"type": "Feature", "geometry": {"type": "Point", "coordinates": [-119.7519, 48.7171]}, "properties": {"NAME": "W7W/OK-166", "TITLE": "West Twin Peaks", "REGION": "WA-Okanogan", "ASSOCIATION": "USA - Washington", "POINTS": "6", "BONUSPOINTS": "3"}}, {"type": "Feature", "geometry": {"type": "Point", "coordinates": [-120.2734, 48.6337]}, "properties": {"NAME": "W7W/OK-167", "TITLE": "5391 High Pass Mtn", "REGION": "WA-Okanogan", "ASSOCIATION": "USA - Washington", "POINTS": "6", "BONUSPOINTS": "3"}}, {"type": "Feature", "geometry": {"type": "Point", "coordinates": [-119.784, 48.671]}, "properties": {"NAME": "W7W/OK-168", "TITLE": "5379 Intermediate Frequency Pk", "REGION": "WA-Okanogan", "ASSOCIATION": "USA - Washington", "POINTS": "6", "BONUSPOINTS": "3"}}, {"type": "Feature", "geometry": {"type": "Point", "coordinates": [-119.9274, 48.3877]}, "properties": {"NAME": "W7W/OK-169", "TITLE": "Little Buck Mountain", "REGION": "WA-Okanogan", "ASSOCIATION": "USA - Washington", "POINTS": "6", "BONUSPOINTS": "3"}}, {"type": "Feature", "geometry": {"type": "Point", "coordinates": [-118.9608, 48.4976]}, "properties": {"NAME": "W7W/OK-170", "TITLE": "Dugout Mountain", "REGION": "WA-Okanogan", "ASSOCIATION": "USA - Washington", "POINTS": "6", "BONUSPOINTS": "3"}}, {"type": "Feature", "geometry": {"type": "Point", "coordinates": [-119.9862, 48.0147]}, "properties": {"NAME": "W7W/OK-171", "TITLE": "Goat Mountain", "REGION": "WA-Okanogan", "ASSOCIATION": "USA - Washington", "POINTS": "6", "BONUSPOINTS": "3"}}, {"type": "Feature", "geometry": {"type": "Point", "coordinates": [-119.0759, 48.3277]}, "properties": {"NAME": "W7W/OK-172", "TITLE": "5322 Lowband Mtn", "REGION": "WA-Okanogan", "ASSOCIATION": "USA - Washington", "POINTS": "6", "BONUSPOINTS": "3"}}, {"type": "Feature", "geometry": {"type": "Point", "coordinates": [-120.1115, 48.5613]}, "properties": {"NAME": "W7W/OK-173", "TITLE": "Ramsey Peak", "REGION": "WA-Okanogan", "ASSOCIATION": "USA - Washington", "POINTS": "6", "BONUSPOINTS": "3"}}, {"type": "Feature", "geometry": {"type": "Point", "coordinates": [-118.8474, 48.7215]}, "properties": {"NAME": "W7W/OK-174", "TITLE": "Maple Mountain", "REGION": "WA-Okanogan", "ASSOCIATION": "USA - Washington", "POINTS": "6", "BONUSPOINTS": "3"}}, {"type": "Feature", "geometry": {"type": "Point", "coordinates": [-120.2193, 48.1813]}, "properties": {"NAME": "W7W/OK-175", "TITLE": "Middle Fork Ridge", "REGION": "WA-Okanogan", "ASSOCIATION": "USA - Washington", "POINTS": "6", "BONUSPOINTS": "3"}}, {"type": "Feature", "geometry": {"type": "Point", "coordinates": [-119.1462, 48.7209]}, "properties": {"NAME": "W7W/OK-176", "TITLE": "5208 Dual Lever Mtn", "REGION": "WA-Okanogan", "ASSOCIATION": "USA - Washington", "POINTS": "6", "BONUSPOINTS": "3"}}, {"type": "Feature", "geometry": {"type": "Point", "coordinates": [-119.317, 48.4232]}, "properties": {"NAME": "W7W/OK-177", "TITLE": "Van Brunt Mountain", "REGION": "WA-Okanogan", "ASSOCIATION": "USA - Washington", "POINTS": "6", "BONUSPOINTS": "3"}}, {"type": "Feature", "geometry": {"type": "Point", "coordinates": [-119.6224, 48.7432]}, "properties": {"NAME": "W7W/OK-178", "TITLE": "Aeneas Mountain", "REGION": "WA-Okanogan", "ASSOCIATION": "USA - Washington", "POINTS": "6", "BONUSPOINTS": "3"}}, {"type": "Feature", "geometry": {"type": "Point", "coordinates": [-119.1151, 48.465]}, "properties": {"NAME": "W7W/OK-179", "TITLE": "5163 Mt EME", "REGION": "WA-Okanogan", "ASSOCIATION": "USA - Washington", "POINTS": "6", "BONUSPOINTS": "3"}}, {"type": "Feature", "geometry": {"type": "Point", "coordinates": [-118.8778, 48.5707]}, "properties": {"NAME": "W7W/OK-180", "TITLE": "Coco Mountain", "REGION": "WA-Okanogan", "ASSOCIATION": "USA - Washington", "POINTS": "6", "BONUSPOINTS": "3"}}, {"type": "Feature", "geometry": {"type": "Point", "coordinates": [-119.7446, 48.5998]}, "properties": {"NAME": "W7W/OK-181", "TITLE": "Funk Mountain", "REGION": "WA-Okanogan", "ASSOCIATION": "USA - Washington", "POINTS": "6", "BONUSPOINTS": "3"}}, {"type": "Feature", "geometry": {"type": "Point", "coordinates": [-119.2854, 48.8732]}, "properties": {"NAME": "W7W/OK-182", "TITLE": "Haley Mountain", "REGION": "WA-Okanogan", "ASSOCIATION": "USA - Washington", "POINTS": "6", "BONUSPOINTS": "3"}}, {"type": "Feature", "geometry": {"type": "Point", "coordinates": [-118.8885, 48.5978]}, "properties": {"NAME": "W7W/OK-183", "TITLE": "Cornell Butte", "REGION": "WA-Okanogan", "ASSOCIATION": "USA - Washington", "POINTS": "6", "BONUSPOINTS": "3"}}, {"type": "Feature", "geometry": {"type": "Point", "coordinates": [-120.2395, 48.3072]}, "properties": {"NAME": "W7W/OK-184", "TITLE": "5096 Lookout Ridge West", "REGION": "WA-Okanogan", "ASSOCIATION": "USA - Washington", "POINTS": "6", "BONUSPOINTS": "3"}}, {"type": "Feature", "geometry": {"type": "Point", "coordinates": [-119.7201, 48.6686]}, "properties": {"NAME": "W7W/OK-185", "TITLE": "Blue Goat Mountain", "REGION": "WA-Okanogan", "ASSOCIATION": "USA - Washington", "POINTS": "6", "BONUSPOINTS": "3"}}, {"type": "Feature", "geometry": {"type": "Point", "coordinates": [-120.002, 48.2507]}, "properties": {"NAME": "W7W/OK-186", "TITLE": "Mount Leecher", "REGION": "WA-Okanogan", "ASSOCIATION": "USA - Washington", "POINTS": "6", "BONUSPOINTS": "3"}}, {"type": "Feature", "geometry": {"type": "Point", "coordinates": [-119.1611, 48.5725]}, "properties": {"NAME": "W7W/OK-187", "TITLE": "Sneed Mountain", "REGION": "WA-Okanogan", "ASSOCIATION": "USA - Washington", "POINTS": "6", "BONUSPOINTS": "3"}}, {"type": "Feature", "geometry": {"type": "Point", "coordinates": [-119.7379, 48.4633]}, "properties": {"NAME": "W7W/OK-188", "TITLE": "Ruby Hill", "REGION": "WA-Okanogan", "ASSOCIATION": "USA - Washington", "POINTS": "6", "BONUSPOINTS": "3"}}, {"type": "Feature", "geometry": {"type": "Point", "coordinates": [-119.1826, 48.8795]}, "properties": {"NAME": "W7W/OK-189", "TITLE": "4942 Gigahertz Pk", "REGION": "WA-Okanogan", "ASSOCIATION": "USA - Washington", "POINTS": "6", "BONUSPOINTS": "3"}}, {"type": "Feature", "geometry": {"type": "Point", "coordinates": [-120.1783, 48.1607]}, "properties": {"NAME": "W7W/OK-190", "TITLE": "South Fork Ridge", "REGION": "WA-Okanogan", "ASSOCIATION": "USA - Washington", "POINTS": "6", "BONUSPOINTS": "3"}}, {"type": "Feature", "geometry": {"type": "Point", "coordinates": [-119.1501, 48.844]}, "properties": {"NAME": "W7W/OK-191", "TITLE": "Bimetalic Mountain", "REGION": "WA-Okanogan", "ASSOCIATION": "USA - Washington", "POINTS": "6", "BONUSPOINTS": "3"}}, {"type": "Feature", "geometry": {"type": "Point", "coordinates": [-119.0408, 48.7848]}, "properties": {"NAME": "W7W/OK-192", "TITLE": "4869 Capacitance Pk", "REGION": "WA-Okanogan", "ASSOCIATION": "USA - Washington", "POINTS": "4", "BONUSPOINTS": "0"}}, {"type": "Feature", "geometry": {"type": "Point", "coordinates": [-118.9154, 48.6225]}, "properties": {"NAME": "W7W/OK-193", "TITLE": "4859 Mt Bandpass", "REGION": "WA-Okanogan", "ASSOCIATION": "USA - Washington", "POINTS": "4", "BONUSPOINTS": "0"}}, {"type": "Feature", "geometry": {"type": "Point", "coordinates": [-119.1439, 48.3873]}, "properties": {"NAME": "W7W/OK-194", "TITLE": "4842 Amplifier Pk", "REGION": "WA-Okanogan", "ASSOCIATION": "USA - Washington", "POINTS": "4", "BONUSPOINTS": "0"}}, {"type": "Feature", "geometry": {"type": "Point", "coordinates": [-119.1627, 48.9964]}, "properties": {"NAME": "W7W/OK-195", "TITLE": "Block Hill", "REGION": "WA-Okanogan", "ASSOCIATION": "USA - Washington", "POINTS": "4", "BONUSPOINTS": "0"}}, {"type": "Feature", "geometry": {"type": "Point", "coordinates": [-120.2226, 48.2405]}, "properties": {"NAME": "W7W/OK-196", "TITLE": "Gold Ridge", "REGION": "WA-Okanogan", "ASSOCIATION": "USA - Washington", "POINTS": "4", "BONUSPOINTS": "0"}}, {"type": "Feature", "geometry": {"type": "Point", "coordinates": [-119.765, 48.6289]}, "properties": {"NAME": "W7W/OK-197", "TITLE": "Middle Mountain", "REGION": "WA-Okanogan", "ASSOCIATION": "USA - Washington", "POINTS": "4", "BONUSPOINTS": "0"}}, {"type": "Feature", "geometry": {"type": "Point", "coordinates": [-118.9336, 48.7948]}, "properties": {"NAME": "W7W/OK-198", "TITLE": "Irene Mountain", "REGION": "WA-Okanogan", "ASSOCIATION": "USA - Washington", "POINTS": "4", "BONUSPOINTS": "0"}}, {"type": "Feature", "geometry": {"type": "Point", "coordinates": [-119.9353, 48.3508]}, "properties": {"NAME": "W7W/OK-199", "TITLE": "Pole Pick Mountain", "REGION": "WA-Okanogan", "ASSOCIATION": "USA - Washington", "POINTS": "4", "BONUSPOINTS": "0"}}, {"type": "Feature", "geometry": {"type": "Point", "coordinates": [-119.1911, 48.943]}, "properties": {"NAME": "W7W/OK-200", "TITLE": "4767 Whisper Mtn", "REGION": "WA-Okanogan", "ASSOCIATION": "USA - Washington", "POINTS": "4", "BONUSPOINTS": "0"}}, {"type": "Feature", "geometry": {"type": "Point", "coordinates": [-119.0356, 48.8409]}, "properties": {"NAME": "W7W/OK-201", "TITLE": "Strawberry Mountain", "REGION": "WA-Okanogan", "ASSOCIATION": "USA - Washington", "POINTS": "4", "BONUSPOINTS": "0"}}, {"type": "Feature", "geometry": {"type": "Point", "coordinates": [-119.731, 48.4371]}, "properties": {"NAME": "W7W/OK-202", "TITLE": "Neville Ridge", "REGION": "WA-Okanogan", "ASSOCIATION": "USA - Washington", "POINTS": "4", "BONUSPOINTS": "0"}}, {"type": "Feature", "geometry": {"type": "Point", "coordinates": [-120.1303, 48.5633]}, "properties": {"NAME": "W7W/OK-203", "TITLE": "4714 Sunspot Mtn", "REGION": "WA-Okanogan", "ASSOCIATION": "USA - Washington", "POINTS": "4", "BONUSPOINTS": "0"}}, {"type": "Feature", "geometry": {"type": "Point", "coordinates": [-120.2747, 48.3226]}, "properties": {"NAME": "W7W/OK-204", "TITLE": "4709 Newby Ridge-South Peak", "REGION": "WA-Okanogan", "ASSOCIATION": "USA - Washington", "POINTS": "4", "BONUSPOINTS": "0"}}, {"type": "Feature", "geometry": {"type": "Point", "coordinates": [-118.9929, 48.61]}, "properties": {"NAME": "W7W/OK-205", "TITLE": "4689 Rotator Mtn", "REGION": "WA-Okanogan", "ASSOCIATION": "USA - Washington", "POINTS": "4", "BONUSPOINTS": "0"}}, {"type": "Feature", "geometry": {"type": "Point", "coordinates": [-118.9645, 48.7528]}, "properties": {"NAME": "W7W/OK-206", "TITLE": "4660 Skywave Mtn", "REGION": "WA-Okanogan", "ASSOCIATION": "USA - Washington", "POINTS": "4", "BONUSPOINTS": "0"}}, {"type": "Feature", "geometry": {"type": "Point", "coordinates": [-118.9384, 48.7635]}, "properties": {"NAME": "W7W/OK-207", "TITLE": "Toroda Mountain", "REGION": "WA-Okanogan", "ASSOCIATION": "USA - Washington", "POINTS": "4", "BONUSPOINTS": "0"}}, {"type": "Feature", "geometry": {"type": "Point", "coordinates": [-119.8759, 48.3836]}, "properties": {"NAME": "W7W/OK-208", "TITLE": "4658 Loop Loop Mountain", "REGION": "WA-Okanogan", "ASSOCIATION": "USA - Washington", "POINTS": "4", "BONUSPOINTS": "0"}}, {"type": "Feature", "geometry": {"type": "Point", "coordinates": [-119.6189, 48.931]}, "properties": {"NAME": "W7W/OK-209", "TITLE": "Ellemeham Mountain", "REGION": "WA-Okanogan", "ASSOCIATION": "USA - Washington", "POINTS": "4", "BONUSPOINTS": "0"}}, {"type": "Feature", "geometry": {"type": "Point", "coordinates": [-119.0859, 48.2669]}, "properties": {"NAME": "W7W/OK-210", "TITLE": "Armstrong Mountain", "REGION": "WA-Okanogan", "ASSOCIATION": "USA - Washington", "POINTS": "4", "BONUSPOINTS": "0"}}, {"type": "Feature", "geometry": {"type": "Point", "coordinates": [-120.1316, 48.3199]}, "properties": {"NAME": "W7W/OK-211", "TITLE": "4616 Near Vertical Incidence Pk", "REGION": "WA-Okanogan", "ASSOCIATION": "USA - Washington", "POINTS": "4", "BONUSPOINTS": "0"}}, {"type": "Feature", "geometry": {"type": "Point", "coordinates": [-120.1469, 48.1414]}, "properties": {"NAME": "W7W/OK-212", "TITLE": "Hungry Mountain", "REGION": "WA-Okanogan", "ASSOCIATION": "USA - Washington", "POINTS": "4", "BONUSPOINTS": "0"}}, {"type": "Feature", "geometry": {"type": "Point", "coordinates": [-120.2722, 48.5446]}, "properties": {"NAME": "W7W/OK-213", "TITLE": "4614 Sow Peak", "REGION": "WA-Okanogan", "ASSOCIATION": "USA - Washington", "POINTS": "4", "BONUSPOINTS": "0"}}, {"type": "Feature", "geometry": {"type": "Point", "coordinates": [-119.9633, 48.3159]}, "properties": {"NAME": "W7W/OK-214", "TITLE": "Finley Mountain", "REGION": "WA-Okanogan", "ASSOCIATION": "USA - Washington", "POINTS": "4", "BONUSPOINTS": "0"}}, {"type": "Feature", "geometry": {"type": "Point", "coordinates": [-119.6509, 48.7114]}, "properties": {"NAME": "W7W/OK-215", "TITLE": "4589 Groundrod Mtn", "REGION": "WA-Okanogan", "ASSOCIATION": "USA - Washington", "POINTS": "4", "BONUSPOINTS": "0"}}, {"type": "Feature", "geometry": {"type": "Point", "coordinates": [-120.1811, 48.2282]}, "properties": {"NAME": "W7W/OK-216", "TITLE": "East Gold Ridge", "REGION": "WA-Okanogan", "ASSOCIATION": "USA - Washington", "POINTS": "4", "BONUSPOINTS": "0"}}, {"type": "Feature", "geometry": {"type": "Point", "coordinates": [-119.8427, 48.3632]}, "properties": {"NAME": "W7W/OK-217", "TITLE": "Woody Mountain", "REGION": "WA-Okanogan", "ASSOCIATION": "USA - Washington", "POINTS": "4", "BONUSPOINTS": "0"}}, {"type": "Feature", "geometry": {"type": "Point", "coordinates": [-119.1983, 48.8945]}, "properties": {"NAME": "W7W/OK-218", "TITLE": "4562 High Power Mtn", "REGION": "WA-Okanogan", "ASSOCIATION": "USA - Washington", "POINTS": "4", "BONUSPOINTS": "0"}}, {"type": "Feature", "geometry": {"type": "Point", "coordinates": [-119.0714, 48.7018]}, "properties": {"NAME": "W7W/OK-219", "TITLE": "Little Bonaparte Mountain", "REGION": "WA-Okanogan", "ASSOCIATION": "USA - Washington", "POINTS": "4", "BONUSPOINTS": "0"}}, {"type": "Feature", "geometry": {"type": "Point", "coordinates": [-119.359, 48.4723]}, "properties": {"NAME": "W7W/OK-220", "TITLE": "4537 Ionosphere Mtn", "REGION": "WA-Okanogan", "ASSOCIATION": "USA - Washington", "POINTS": "4", "BONUSPOINTS": "0"}}, {"type": "Feature", "geometry": {"type": "Point", "coordinates": [-119.2942, 48.3014]}, "properties": {"NAME": "W7W/OK-221", "TITLE": "Fussy Mountain", "REGION": "WA-Okanogan", "ASSOCIATION": "USA - Washington", "POINTS": "4", "BONUSPOINTS": "0"}}, {"type": "Feature", "geometry": {"type": "Point", "coordinates": [-119.2363, 48.974]}, "properties": {"NAME": "W7W/OK-222", "TITLE": "4500 Mt Keyer", "REGION": "WA-Okanogan", "ASSOCIATION": "USA - Washington", "POINTS": "4", "BONUSPOINTS": "0"}}, {"type": "Feature", "geometry": {"type": "Point", "coordinates": [-119.7582, 48.5149]}, "properties": {"NAME": "W7W/OK-223", "TITLE": "Peacock Mountain", "REGION": "WA-Okanogan", "ASSOCIATION": "USA - Washington", "POINTS": "4", "BONUSPOINTS": "0"}}, {"type": "Feature", "geometry": {"type": "Point", "coordinates": [-119.6645, 48.6878]}, "properties": {"NAME": "W7W/OK-224", "TITLE": "4482 Lower Sideband Pk", "REGION": "WA-Okanogan", "ASSOCIATION": "USA - Washington", "POINTS": "4", "BONUSPOINTS": "0"}}, {"type": "Feature", "geometry": {"type": "Point", "coordinates": [-118.9695, 48.5733]}, "properties": {"NAME": "W7W/OK-225", "TITLE": "4472 Mt Autopatch", "REGION": "WA-Okanogan", "ASSOCIATION": "USA - Washington", "POINTS": "4", "BONUSPOINTS": "0"}}, {"type": "Feature", "geometry": {"type": "Point", "coordinates": [-119.7646, 48.4481]}, "properties": {"NAME": "W7W/OK-226", "TITLE": "Ritchie Ridge", "REGION": "WA-Okanogan", "ASSOCIATION": "USA - Washington", "POINTS": "4", "BONUSPOINTS": "0"}}, {"type": "Feature", "geometry": {"type": "Point", "coordinates": [-119.0861, 48.9725]}, "properties": {"NAME": "W7W/OK-227", "TITLE": "Strawberry Mountain", "REGION": "WA-Okanogan", "ASSOCIATION": "USA - Washington", "POINTS": "4", "BONUSPOINTS": "0"}}, {"type": "Feature", "geometry": {"type": "Point", "coordinates": [-119.2397, 48.8627]}, "properties": {"NAME": "W7W/OK-228", "TITLE": "4415 Brasspounder Mtn", "REGION": "WA-Okanogan", "ASSOCIATION": "USA - Washington", "POINTS": "4", "BONUSPOINTS": "0"}}, {"type": "Feature", "geometry": {"type": "Point", "coordinates": [-119.121, 48.2647]}, "properties": {"NAME": "W7W/OK-229", "TITLE": "4402 Critical Frequency Pk", "REGION": "WA-Okanogan", "ASSOCIATION": "USA - Washington", "POINTS": "4", "BONUSPOINTS": "0"}}, {"type": "Feature", "geometry": {"type": "Point", "coordinates": [-120.308, 48.5501]}, "properties": {"NAME": "W7W/OK-230", "TITLE": "Grizzly Mountain", "REGION": "WA-Okanogan", "ASSOCIATION": "USA - Washington", "POINTS": "4", "BONUSPOINTS": "0"}}, {"type": "Feature", "geometry": {"type": "Point", "coordinates": [-119.6975, 48.4026]}, "properties": {"NAME": "W7W/OK-231", "TITLE": "4368 Dummy Load Pk", "REGION": "WA-Okanogan", "ASSOCIATION": "USA - Washington", "POINTS": "4", "BONUSPOINTS": "0"}}, {"type": "Feature", "geometry": {"type": "Point", "coordinates": [-119.0109, 48.8486]}, "properties": {"NAME": "W7W/OK-232", "TITLE": "4340 Encoder Pk", "REGION": "WA-Okanogan", "ASSOCIATION": "USA - Washington", "POINTS": "4", "BONUSPOINTS": "0"}}, {"type": "Feature", "geometry": {"type": "Point", "coordinates": [-119.5852, 48.8708]}, "properties": {"NAME": "W7W/OK-233", "TITLE": "Palmer Mountain", "REGION": "WA-Okanogan", "ASSOCIATION": "USA - Washington", "POINTS": "4", "BONUSPOINTS": "0"}}, {"type": "Feature", "geometry": {"type": "Point", "coordinates": [-119.5708, 48.913]}, "properties": {"NAME": "W7W/OK-234", "TITLE": "Mulcahy Mountain", "REGION": "WA-Okanogan", "ASSOCIATION": "USA - Washington", "POINTS": "4", "BONUSPOINTS": "0"}}, {"type": "Feature", "geometry": {"type": "Point", "coordinates": [-119.3558, 48.5908]}, "properties": {"NAME": "W7W/OK-235", "TITLE": "Meader Mountain", "REGION": "WA-Okanogan", "ASSOCIATION": "USA - Washington", "POINTS": "4", "BONUSPOINTS": "0"}}, {"type": "Feature", "geometry": {"type": "Point", "coordinates": [-119.6949, 48.4325]}, "properties": {"NAME": "W7W/OK-236", "TITLE": "Wright Mountain", "REGION": "WA-Okanogan", "ASSOCIATION": "USA - Washington", "POINTS": "4", "BONUSPOINTS": "0"}}, {"type": "Feature", "geometry": {"type": "Point", "coordinates": [-120.2907, 48.3546]}, "properties": {"NAME": "W7W/OK-237", "TITLE": "4283 Newby Ridge-North Peak", "REGION": "WA-Okanogan", "ASSOCIATION": "USA - Washington", "POINTS": "4", "BONUSPOINTS": "0"}}, {"type": "Feature", "geometry": {"type": "Point", "coordinates": [-119.8916, 48.3078]}, "properties": {"NAME": "W7W/OK-238", "TITLE": "Thrapp Mountain", "REGION": "WA-Okanogan", "ASSOCIATION": "USA - Washington", "POINTS": "4", "BONUSPOINTS": "0"}}, {"type": "Feature", "geometry": {"type": "Point", "coordinates": [-119.9334, 48.256]}, "properties": {"NAME": "W7W/OK-239", "TITLE": "4260 Ginpole Pk", "REGION": "WA-Okanogan", "ASSOCIATION": "USA - Washington", "POINTS": "4", "BONUSPOINTS": "0"}}, {"type": "Feature", "geometry": {"type": "Point", "coordinates": [-119.6133, 48.8482]}, "properties": {"NAME": "W7W/OK-240", "TITLE": "Palmer Benchmark", "REGION": "WA-Okanogan", "ASSOCIATION": "USA - Washington", "POINTS": "4", "BONUSPOINTS": "0"}}, {"type": "Feature", "geometry": {"type": "Point", "coordinates": [-119.7628, 48.4903]}, "properties": {"NAME": "W7W/OK-241", "TITLE": "4203 Callsign Mtn", "REGION": "WA-Okanogan", "ASSOCIATION": "USA - Washington", "POINTS": "4", "BONUSPOINTS": "0"}}, {"type": "Feature", "geometry": {"type": "Point", "coordinates": [-119.5977, 48.9228]}, "properties": {"NAME": "W7W/OK-242", "TITLE": "Bullfrog Mountain", "REGION": "WA-Okanogan", "ASSOCIATION": "USA - Washington", "POINTS": "4", "BONUSPOINTS": "0"}}, {"type": "Feature", "geometry": {"type": "Point", "coordinates": [-118.925, 48.3438]}, "properties": {"NAME": "W7W/OK-243", "TITLE": "4180 Gold Strawberry Peak", "REGION": "WA-Okanogan", "ASSOCIATION": "USA - Washington", "POINTS": "4", "BONUSPOINTS": "0"}}, {"type": "Feature", "geometry": {"type": "Point", "coordinates": [-118.875, 48.3085]}, "properties": {"NAME": "W7W/OK-244", "TITLE": "4167 Amateur Radio Summit", "REGION": "WA-Okanogan", "ASSOCIATION": "USA - Washington", "POINTS": "4", "BONUSPOINTS": "0"}}, {"type": "Feature", "geometry": {"type": "Point", "coordinates": [-119.1536, 48.259]}, "properties": {"NAME": "W7W/OK-245", "TITLE": "4140 Wireless Mtn", "REGION": "WA-Okanogan", "ASSOCIATION": "USA - Washington", "POINTS": "4", "BONUSPOINTS": "0"}}, {"type": "Feature", "geometry": {"type": "Point", "coordinates": [-120.3364, 48.391]}, "properties": {"NAME": "W7W/OK-246", "TITLE": "4122 Fenceline Peak", "REGION": "WA-Okanogan", "ASSOCIATION": "USA - Washington", "POINTS": "4", "BONUSPOINTS": "0"}}, {"type": "Feature", "geometry": {"type": "Point", "coordinates": [-119.4075, 48.4924]}, "properties": {"NAME": "W7W/OK-247", "TITLE": "4119 Twin Lead Mtn", "REGION": "WA-Okanogan", "ASSOCIATION": "USA - Washington", "POINTS": "4", "BONUSPOINTS": "0"}}, {"type": "Feature", "geometry": {"type": "Point", "coordinates": [-118.9055, 48.964]}, "properties": {"NAME": "W7W/OK-248", "TITLE": "4119 Vee Beam Pk", "REGION": "WA-Okanogan", "ASSOCIATION": "USA - Washington", "POINTS": "4", "BONUSPOINTS": "0"}}, {"type": "Feature", "geometry": {"type": "Point", "coordinates": [-119.3293, 48.3048]}, "properties": {"NAME": "W7W/OK-249", "TITLE": "4112 RTTY Pk", "REGION": "WA-Okanogan", "ASSOCIATION": "USA - Washington", "POINTS": "4", "BONUSPOINTS": "0"}}, {"type": "Feature", "geometry": {"type": "Point", "coordinates": [-119.6159, 48.7034]}, "properties": {"NAME": "W7W/OK-250", "TITLE": "4096 Software Summit", "REGION": "WA-Okanogan", "ASSOCIATION": "USA - Washington", "POINTS": "4", "BONUSPOINTS": "0"}}, {"type": "Feature", "geometry": {"type": "Point", "coordinates": [-119.1612, 48.2813]}, "properties": {"NAME": "W7W/OK-251", "TITLE": "4060 Mt Multipath", "REGION": "WA-Okanogan", "ASSOCIATION": "USA - Washington", "POINTS": "4", "BONUSPOINTS": "0"}}, {"type": "Feature", "geometry": {"type": "Point", "coordinates": [-119.2539, 48.6999]}, "properties": {"NAME": "W7W/OK-252", "TITLE": "Island Mountain", "REGION": "WA-Okanogan", "ASSOCIATION": "USA - Washington", "POINTS": "4", "BONUSPOINTS": "0"}}, {"type": "Feature", "geometry": {"type": "Point", "coordinates": [-120.0877, 48.4344]}, "properties": {"NAME": "W7W/OK-253", "TITLE": "4039 Noise Blanker Summit", "REGION": "WA-Okanogan", "ASSOCIATION": "USA - Washington", "POINTS": "4", "BONUSPOINTS": "0"}}, {"type": "Feature", "geometry": {"type": "Point", "coordinates": [-118.9596, 48.3529]}, "properties": {"NAME": "W7W/OK-254", "TITLE": "4020 Propogation Pk", "REGION": "WA-Okanogan", "ASSOCIATION": "USA - Washington", "POINTS": "4", "BONUSPOINTS": "0"}}, {"type": "Feature", "geometry": {"type": "Point", "coordinates": [-120.0311, 48.184]}, "properties": {"NAME": "W7W/OK-255", "TITLE": "4015 Longpath Mtn", "REGION": "WA-Okanogan", "ASSOCIATION": "USA - Washington", "POINTS": "4", "BONUSPOINTS": "0"}}, {"type": "Feature", "geometry": {"type": "Point", "coordinates": [-120.3851, 48.5989]}, "properties": {"NAME": "W7W/OK-256", "TITLE": "Flagg Mountain", "REGION": "WA-Okanogan", "ASSOCIATION": "USA - Washington", "POINTS": "4", "BONUSPOINTS": "0"}}, {"type": "Feature", "geometry": {"type": "Point", "coordinates": [-120.2533, 48.4127]}, "properties": {"NAME": "W7W/OK-257", "TITLE": "3987 Snowtrax Peak", "REGION": "WA-Okanogan", "ASSOCIATION": "USA - Washington", "POINTS": "4", "BONUSPOINTS": "0"}}, {"type": "Feature", "geometry": {"type": "Point", "coordinates": [-119.2996, 48.6785]}, "properties": {"NAME": "W7W/OK-258", "TITLE": "Barker Mountain", "REGION": "WA-Okanogan", "ASSOCIATION": "USA - Washington", "POINTS": "4", "BONUSPOINTS": "0"}}, {"type": "Feature", "geometry": {"type": "Point", "coordinates": [-119.6559, 48.8893]}, "properties": {"NAME": "W7W/OK-259", "TITLE": "Grandview Mountain", "REGION": "WA-Okanogan", "ASSOCIATION": "USA - Washington", "POINTS": "4", "BONUSPOINTS": "0"}}, {"type": "Feature", "geometry": {"type": "Point", "coordinates": [-119.2499, 48.1782]}, "properties": {"NAME": "W7W/OK-260", "TITLE": "Whitmore Mountain", "REGION": "WA-Okanogan", "ASSOCIATION": "USA - Washington", "POINTS": "4", "BONUSPOINTS": "0"}}, {"type": "Feature", "geometry": {"type": "Point", "coordinates": [-120.1183, 48.1149]}, "properties": {"NAME": "W7W/OK-261", "TITLE": "3938 Impedance Mtn", "REGION": "WA-Okanogan", "ASSOCIATION": "USA - Washington", "POINTS": "4", "BONUSPOINTS": "0"}}, {"type": "Feature", "geometry": {"type": "Point", "coordinates": [-119.6866, 48.9118]}, "properties": {"NAME": "W7W/OK-262", "TITLE": "3909 Half Square Mtn", "REGION": "WA-Okanogan", "ASSOCIATION": "USA - Washington", "POINTS": "4", "BONUSPOINTS": "0"}}, {"type": "Feature", "geometry": {"type": "Point", "coordinates": [-119.7868, 48.3563]}, "properties": {"NAME": "W7W/OK-263", "TITLE": "Cook Mountain", "REGION": "WA-Okanogan", "ASSOCIATION": "USA - Washington", "POINTS": "4", "BONUSPOINTS": "0"}}, {"type": "Feature", "geometry": {"type": "Point", "coordinates": [-120.241, 48.3617]}, "properties": {"NAME": "W7W/OK-264", "TITLE": "3896 GPS Pk", "REGION": "WA-Okanogan", "ASSOCIATION": "USA - Washington", "POINTS": "4", "BONUSPOINTS": "0"}}, {"type": "Feature", "geometry": {"type": "Point", "coordinates": [-120.1434, 48.5315]}, "properties": {"NAME": "W7W/OK-265", "TITLE": "3888 Mt Duplex", "REGION": "WA-Okanogan", "ASSOCIATION": "USA - Washington", "POINTS": "4", "BONUSPOINTS": "0"}}, {"type": "Feature", "geometry": {"type": "Point", "coordinates": [-119.9017, 48.1639]}, "properties": {"NAME": "W7W/OK-266", "TITLE": "Knowlton Knob", "REGION": "WA-Okanogan", "ASSOCIATION": "USA - Washington", "POINTS": "4", "BONUSPOINTS": "0"}}, {"type": "Feature", "geometry": {"type": "Point", "coordinates": [-119.6856, 48.5833]}, "properties": {"NAME": "W7W/OK-267", "TITLE": "Schalow Mountain", "REGION": "WA-Okanogan", "ASSOCIATION": "USA - Washington", "POINTS": "4", "BONUSPOINTS": "0"}}, {"type": "Feature", "geometry": {"type": "Point", "coordinates": [-120.2458, 48.5311]}, "properties": {"NAME": "W7W/OK-268", "TITLE": "3842 Endfed Summit", "REGION": "WA-Okanogan", "ASSOCIATION": "USA - Washington", "POINTS": "4", "BONUSPOINTS": "0"}}, {"type": "Feature", "geometry": {"type": "Point", "coordinates": [-120.06, 48.0793]}, "properties": {"NAME": "W7W/OK-269", "TITLE": "3820 Full Quieting Pk", "REGION": "WA-Okanogan", "ASSOCIATION": "USA - Washington", "POINTS": "4", "BONUSPOINTS": "0"}}, {"type": "Feature", "geometry": {"type": "Point", "coordinates": [-120.105, 48.4676]}, "properties": {"NAME": "W7W/OK-270", "TITLE": "Bowen Mountain", "REGION": "WA-Okanogan", "ASSOCIATION": "USA - Washington", "POINTS": "4", "BONUSPOINTS": "0"}}, {"type": "Feature", "geometry": {"type": "Point", "coordinates": [-119.6829, 48.8093]}, "properties": {"NAME": "W7W/OK-271", "TITLE": "Gold Hill", "REGION": "WA-Okanogan", "ASSOCIATION": "USA - Washington", "POINTS": "4", "BONUSPOINTS": "0"}}, {"type": "Feature", "geometry": {"type": "Point", "coordinates": [-119.3943, 48.5918]}, "properties": {"NAME": "W7W/OK-272", "TITLE": "Baker Mountain", "REGION": "WA-Okanogan", "ASSOCIATION": "USA - Washington", "POINTS": "4", "BONUSPOINTS": "0"}}, {"type": "Feature", "geometry": {"type": "Point", "coordinates": [-120.2068, 48.4026]}, "properties": {"NAME": "W7W/OK-273", "TITLE": "3578 Global Positioning Pk", "REGION": "WA-Okanogan", "ASSOCIATION": "USA - Washington", "POINTS": "4", "BONUSPOINTS": "0"}}, {"type": "Feature", "geometry": {"type": "Point", "coordinates": [-119.0041, 48.5233]}, "properties": {"NAME": "W7W/OK-274", "TITLE": "3537 Autotuner Pk", "REGION": "WA-Okanogan", "ASSOCIATION": "USA - Washington", "POINTS": "4", "BONUSPOINTS": "0"}}, {"type": "Feature", "geometry": {"type": "Point", "coordinates": [-120.2269, 48.4531]}, "properties": {"NAME": "W7W/OK-275", "TITLE": "Patterson Mountain", "REGION": "WA-Okanogan", "ASSOCIATION": "USA - Washington", "POINTS": "4", "BONUSPOINTS": "0"}}, {"type": "Feature", "geometry": {"type": "Point", "coordinates": [-119.6466, 48.5648]}, "properties": {"NAME": "W7W/OK-276", "TITLE": "Dunn Mountain", "REGION": "WA-Okanogan", "ASSOCIATION": "USA - Washington", "POINTS": "4", "BONUSPOINTS": "0"}}, {"type": "Feature", "geometry": {"type": "Point", "coordinates": [-119.8552, 48.1527]}, "properties": {"NAME": "W7W/OK-277", "TITLE": "Bald Knob", "REGION": "WA-Okanogan", "ASSOCIATION": "USA - Washington", "POINTS": "4", "BONUSPOINTS": "0"}}, {"type": "Feature", "geometry": {"type": "Point", "coordinates": [-120.0554, 48.1102]}, "properties": {"NAME": "W7W/OK-278", "TITLE": "Hunter Mountain", "REGION": "WA-Okanogan", "ASSOCIATION": "USA - Washington", "POINTS": "4", "BONUSPOINTS": "0"}}, {"type": "Feature", "geometry": {"type": "Point", "coordinates": [-119.0646, 48.1831]}, "properties": {"NAME": "W7W/OK-279", "TITLE": "Squaw Mountain", "REGION": "WA-Okanogan", "ASSOCIATION": "USA - Washington", "POINTS": "4", "BONUSPOINTS": "0"}}, {"type": "Feature", "geometry": {"type": "Point", "coordinates": [-120.2257, 48.5431]}, "properties": {"NAME": "W7W/OK-280", "TITLE": "3457 Sage Hill West", "REGION": "WA-Okanogan", "ASSOCIATION": "USA - Washington", "POINTS": "4", "BONUSPOINTS": "0"}}, {"type": "Feature", "geometry": {"type": "Point", "coordinates": [-119.4033, 48.6553]}, "properties": {"NAME": "W7W/OK-281", "TITLE": "Tonasket Benchmark", "REGION": "WA-Okanogan", "ASSOCIATION": "USA - Washington", "POINTS": "4", "BONUSPOINTS": "0"}}, {"type": "Feature", "geometry": {"type": "Point", "coordinates": [-120.0139, 48.3276]}, "properties": {"NAME": "W7W/OK-282", "TITLE": "3430 Crystal Mtn", "REGION": "WA-Okanogan", "ASSOCIATION": "USA - Washington", "POINTS": "4", "BONUSPOINTS": "0"}}, {"type": "Feature", "geometry": {"type": "Point", "coordinates": [-118.9171, 48.2699]}, "properties": {"NAME": "W7W/OK-283", "TITLE": "3420 Mt Vox", "REGION": "WA-Okanogan", "ASSOCIATION": "USA - Washington", "POINTS": "4", "BONUSPOINTS": "0"}}, {"type": "Feature", "geometry": {"type": "Point", "coordinates": [-120.2121, 48.5411]}, "properties": {"NAME": "W7W/OK-284", "TITLE": "3404 Sage Hill East", "REGION": "WA-Okanogan", "ASSOCIATION": "USA - Washington", "POINTS": "4", "BONUSPOINTS": "0"}}, {"type": "Feature", "geometry": {"type": "Point", "coordinates": [-119.4268, 48.6027]}, "properties": {"NAME": "W7W/OK-285", "TITLE": "Stowe Mountain", "REGION": "WA-Okanogan", "ASSOCIATION": "USA - Washington", "POINTS": "4", "BONUSPOINTS": "0"}}, {"type": "Feature", "geometry": {"type": "Point", "coordinates": [-119.5969, 48.6699]}, "properties": {"NAME": "W7W/OK-286", "TITLE": "Pine Benchmark", "REGION": "WA-Okanogan", "ASSOCIATION": "USA - Washington", "POINTS": "4", "BONUSPOINTS": "0"}}, {"type": "Feature", "geometry": {"type": "Point", "coordinates": [-120.0828, 48.3873]}, "properties": {"NAME": "W7W/OK-287", "TITLE": "3275 Cap Wright Hill", "REGION": "WA-Okanogan", "ASSOCIATION": "USA - Washington", "POINTS": "2", "BONUSPOINTS": "0"}}, {"type": "Feature", "geometry": {"type": "Point", "coordinates": [-119.694, 48.9745]}, "properties": {"NAME": "W7W/OK-288", "TITLE": "Little Chopaka Mountain", "REGION": "WA-Okanogan", "ASSOCIATION": "USA - Washington", "POINTS": "2", "BONUSPOINTS": "0"}}, {"type": "Feature", "geometry": {"type": "Point", "coordinates": [-119.6582, 48.3656]}, "properties": {"NAME": "W7W/OK-289", "TITLE": "Leader Mountain", "REGION": "WA-Okanogan", "ASSOCIATION": "USA - Washington", "POINTS": "2", "BONUSPOINTS": "0"}}, {"type": "Feature", "geometry": {"type": "Point", "coordinates": [-119.4464, 48.5321]}, "properties": {"NAME": "W7W/OK-290", "TITLE": "3210 Two Meter Hill", "REGION": "WA-Okanogan", "ASSOCIATION": "USA - Washington", "POINTS": "2", "BONUSPOINTS": "0"}}, {"type": "Feature", "geometry": {"type": "Point", "coordinates": [-119.5159, 48.3134]}, "properties": {"NAME": "W7W/OK-291", "TITLE": "Kamo Hills", "REGION": "WA-Okanogan", "ASSOCIATION": "USA - Washington", "POINTS": "2", "BONUSPOINTS": "0"}}, {"type": "Feature", "geometry": {"type": "Point", "coordinates": [-119.7685, 48.3276]}, "properties": {"NAME": "W7W/OK-292", "TITLE": "3203 Upper Sideband Hill", "REGION": "WA-Okanogan", "ASSOCIATION": "USA - Washington", "POINTS": "2", "BONUSPOINTS": "0"}}, {"type": "Feature", "geometry": {"type": "Point", "coordinates": [-119.6503, 48.4553]}, "properties": {"NAME": "W7W/OK-293", "TITLE": "Green Benchmark", "REGION": "WA-Okanogan", "ASSOCIATION": "USA - Washington", "POINTS": "2", "BONUSPOINTS": "0"}}, {"type": "Feature", "geometry": {"type": "Point", "coordinates": [-119.5006, 48.8799]}, "properties": {"NAME": "W7W/OK-294", "TITLE": "Wannacut Benchmark", "REGION": "WA-Okanogan", "ASSOCIATION": "USA - Washington", "POINTS": "2", "BONUSPOINTS": "0"}}, {"type": "Feature", "geometry": {"type": "Point", "coordinates": [-119.7357, 48.5281]}, "properties": {"NAME": "W7W/OK-295", "TITLE": "3161 Voltage Hill", "REGION": "WA-Okanogan", "ASSOCIATION": "USA - Washington", "POINTS": "2", "BONUSPOINTS": "0"}}, {"type": "Feature", "geometry": {"type": "Point", "coordinates": [-119.7524, 48.3501]}, "properties": {"NAME": "W7W/OK-296", "TITLE": "3143 Quarterwave Hill", "REGION": "WA-Okanogan", "ASSOCIATION": "USA - Washington", "POINTS": "2", "BONUSPOINTS": "0"}}, {"type": "Feature", "geometry": {"type": "Point", "coordinates": [-119.754, 48.3152]}, "properties": {"NAME": "W7W/OK-297", "TITLE": "Chiliwist Butte", "REGION": "WA-Okanogan", "ASSOCIATION": "USA - Washington", "POINTS": "2", "BONUSPOINTS": "0"}}, {"type": "Feature", "geometry": {"type": "Point", "coordinates": [-119.6501, 48.5905]}, "properties": {"NAME": "W7W/OK-298", "TITLE": "3140 Rubber Duckie Hill", "REGION": "WA-Okanogan", "ASSOCIATION": "USA - Washington", "POINTS": "2", "BONUSPOINTS": "0"}}, {"type": "Feature", "geometry": {"type": "Point", "coordinates": [-119.8039, 48.2472]}, "properties": {"NAME": "W7W/OK-299", "TITLE": "Dent Mountain", "REGION": "WA-Okanogan", "ASSOCIATION": "USA - Washington", "POINTS": "2", "BONUSPOINTS": "0"}}, {"type": "Feature", "geometry": {"type": "Point", "coordinates": [-119.6042, 48.5617]}, "properties": {"NAME": "W7W/OK-300", "TITLE": "Chilson Mountain", "REGION": "WA-Okanogan", "ASSOCIATION": "USA - Washington", "POINTS": "2", "BONUSPOINTS": "0"}}, {"type": "Feature", "geometry": {"type": "Point", "coordinates": [-119.5304, 48.8343]}, "properties": {"NAME": "W7W/OK-301", "TITLE": "White Rock", "REGION": "WA-Okanogan", "ASSOCIATION": "USA - Washington", "POINTS": "2", "BONUSPOINTS": "0"}}, {"type": "Feature", "geometry": {"type": "Point", "coordinates": [-119.9013, 47.9612]}, "properties": {"NAME": "W7W/OK-302", "TITLE": "Arbuckle Mountain", "REGION": "WA-Okanogan", "ASSOCIATION": "USA - Washington", "POINTS": "2", "BONUSPOINTS": "0"}}, {"type": "Feature", "geometry": {"type": "Point", "coordinates": [-119.5071, 48.9426]}, "properties": {"NAME": "W7W/OK-303", "TITLE": "3067 Solder Hill", "REGION": "WA-Okanogan", "ASSOCIATION": "USA - Washington", "POINTS": "2", "BONUSPOINTS": "0"}}, {"type": "Feature", "geometry": {"type": "Point", "coordinates": [-119.5354, 48.9178]}, "properties": {"NAME": "W7W/OK-304", "TITLE": "3067 Multipath Hill", "REGION": "WA-Okanogan", "ASSOCIATION": "USA - Washington", "POINTS": "2", "BONUSPOINTS": "0"}}, {"type": "Feature", "geometry": {"type": "Point", "coordinates": [-120.1608, 48.3504]}, "properties": {"NAME": "W7W/OK-305", "TITLE": "3027 Keep Out Mountain", "REGION": "WA-Okanogan", "ASSOCIATION": "USA - Washington", "POINTS": "2", "BONUSPOINTS": "0"}}, {"type": "Feature", "geometry": {"type": "Point", "coordinates": [-119.7126, 48.497]}, "properties": {"NAME": "W7W/OK-306", "TITLE": "3022 Happy Hill", "REGION": "WA-Okanogan", "ASSOCIATION": "USA - Washington", "POINTS": "2", "BONUSPOINTS": "0"}}, {"type": "Feature", "geometry": {"type": "Point", "coordinates": [-119.5642, 48.6269]}, "properties": {"NAME": "W7W/OK-307", "TITLE": "Carter Mountain", "REGION": "WA-Okanogan", "ASSOCIATION": "USA - Washington", "POINTS": "2", "BONUSPOINTS": "0"}}, {"type": "Feature", "geometry": {"type": "Point", "coordinates": [-119.7163, 48.3398]}, "properties": {"NAME": "W7W/OK-308", "TITLE": "Fox Mountain", "REGION": "WA-Okanogan", "ASSOCIATION": "USA - Washington", "POINTS": "2", "BONUSPOINTS": "0"}}, {"type": "Feature", "geometry": {"type": "Point", "coordinates": [-120.1404, 48.3495]}, "properties": {"NAME": "W7W/OK-309", "TITLE": "2966 Stay Out Mountain", "REGION": "WA-Okanogan", "ASSOCIATION": "USA - Washington", "POINTS": "2", "BONUSPOINTS": "0"}}, {"type": "Feature", "geometry": {"type": "Point", "coordinates": [-119.414, 48.3467]}, "properties": {"NAME": "W7W/OK-310", "TITLE": "2965 PSK-31 Hill", "REGION": "WA-Okanogan", "ASSOCIATION": "USA - Washington", "POINTS": "2", "BONUSPOINTS": "0"}}, {"type": "Feature", "geometry": {"type": "Point", "coordinates": [-119.8343, 48.1191]}, "properties": {"NAME": "W7W/OK-311", "TITLE": "Harmony Heights", "REGION": "WA-Okanogan", "ASSOCIATION": "USA - Washington", "POINTS": "2", "BONUSPOINTS": "0"}}, {"type": "Feature", "geometry": {"type": "Point", "coordinates": [-119.1525, 48.1684]}, "properties": {"NAME": "W7W/OK-312", "TITLE": "Hamilton Mountain", "REGION": "WA-Okanogan", "ASSOCIATION": "USA - Washington", "POINTS": "2", "BONUSPOINTS": "0"}}, {"type": "Feature", "geometry": {"type": "Point", "coordinates": [-119.495, 48.9891]}, "properties": {"NAME": "W7W/OK-313", "TITLE": "Kruger Mountain", "REGION": "WA-Okanogan", "ASSOCIATION": "USA - Washington", "POINTS": "2", "BONUSPOINTS": "0"}}, {"type": "Feature", "geometry": {"type": "Point", "coordinates": [-119.4748, 48.7721]}, "properties": {"NAME": "W7W/OK-314", "TITLE": "Whitestone Mountain", "REGION": "WA-Okanogan", "ASSOCIATION": "USA - Washington", "POINTS": "2", "BONUSPOINTS": "0"}}, {"type": "Feature", "geometry": {"type": "Point", "coordinates": [-119.313, 48.2165]}, "properties": {"NAME": "W7W/OK-315", "TITLE": "Boot Mountain", "REGION": "WA-Okanogan", "ASSOCIATION": "USA - Washington", "POINTS": "2", "BONUSPOINTS": "0"}}, {"type": "Feature", "geometry": {"type": "Point", "coordinates": [-120.1948, 48.4221]}, "properties": {"NAME": "W7W/OK-316", "TITLE": "2838 Moccasin Mountain", "REGION": "WA-Okanogan", "ASSOCIATION": "USA - Washington", "POINTS": "2", "BONUSPOINTS": "0"}}, {"type": "Feature", "geometry": {"type": "Point", "coordinates": [-119.6177, 48.4454]}, "properties": {"NAME": "W7W/OK-317", "TITLE": "Pogue Mountain", "REGION": "WA-Okanogan", "ASSOCIATION": "USA - Washington", "POINTS": "2", "BONUSPOINTS": "0"}}, {"type": "Feature", "geometry": {"type": "Point", "coordinates": [-119.3809, 48.7954]}, "properties": {"NAME": "W7W/OK-318", "TITLE": "Pickens Mountain", "REGION": "WA-Okanogan", "ASSOCIATION": "USA - Washington", "POINTS": "2", "BONUSPOINTS": "0"}}, {"type": "Feature", "geometry": {"type": "Point", "coordinates": [-120.1278, 48.4382]}, "properties": {"NAME": "W7W/OK-319", "TITLE": "2740 Guyline Hill", "REGION": "WA-Okanogan", "ASSOCIATION": "USA - Washington", "POINTS": "2", "BONUSPOINTS": "0"}}, {"type": "Feature", "geometry": {"type": "Point", "coordinates": [-120.1501, 48.468]}, "properties": {"NAME": "W7W/OK-320", "TITLE": "Studhorse Mountain", "REGION": "WA-Okanogan", "ASSOCIATION": "USA - Washington", "POINTS": "2", "BONUSPOINTS": "0"}}, {"type": "Feature", "geometry": {"type": "Point", "coordinates": [-119.6785, 48.2544]}, "properties": {"NAME": "W7W/OK-321", "TITLE": "Soap Lake Mountain", "REGION": "WA-Okanogan", "ASSOCIATION": "USA - Washington", "POINTS": "2", "BONUSPOINTS": "0"}}, {"type": "Feature", "geometry": {"type": "Point", "coordinates": [-119.5177, 48.7591]}, "properties": {"NAME": "W7W/OK-322", "TITLE": "Cayuse Mountain", "REGION": "WA-Okanogan", "ASSOCIATION": "USA - Washington", "POINTS": "2", "BONUSPOINTS": "0"}}, {"type": "Feature", "geometry": {"type": "Point", "coordinates": [-118.918, 48.0289]}, "properties": {"NAME": "W7W/OK-323", "TITLE": "2634 ITU Hill", "REGION": "WA-Okanogan", "ASSOCIATION": "USA - Washington", "POINTS": "2", "BONUSPOINTS": "0"}}, {"type": "Feature", "geometry": {"type": "Point", "coordinates": [-118.9667, 48.1118]}, "properties": {"NAME": "W7W/OK-324", "TITLE": "2500 J-Pole Hill", "REGION": "WA-Okanogan", "ASSOCIATION": "USA - Washington", "POINTS": "2", "BONUSPOINTS": "0"}}, {"type": "Feature", "geometry": {"type": "Point", "coordinates": [-119.8706, 48.088]}, "properties": {"NAME": "W7W/OK-325", "TITLE": "Tenas Mountain", "REGION": "WA-Okanogan", "ASSOCIATION": "USA - Washington", "POINTS": "2", "BONUSPOINTS": "0"}}, {"type": "Feature", "geometry": {"type": "Point", "coordinates": [-119.4416, 48.7337]}, "properties": {"NAME": "W7W/OK-326", "TITLE": "South Whitestone Mountain", "REGION": "WA-Okanogan", "ASSOCIATION": "USA - Washington", "POINTS": "2", "BONUSPOINTS": "0"}}, {"type": "Feature", "geometry": {"type": "Point", "coordinates": [-119.3853, 48.7274]}, "properties": {"NAME": "W7W/OK-327", "TITLE": "Duffys Mountain", "REGION": "WA-Okanogan", "ASSOCIATION": "USA - Washington", "POINTS": "2", "BONUSPOINTS": "0"}}, {"type": "Feature", "geometry": {"type": "Point", "coordinates": [-119.633, 48.4947]}, "properties": {"NAME": "W7W/OK-328", "TITLE": "2420 Kilohertz Hill", "REGION": "WA-Okanogan", "ASSOCIATION": "USA - Washington", "POINTS": "2", "BONUSPOINTS": "0"}}, {"type": "Feature", "geometry": {"type": "Point", "coordinates": [-119.6518, 48.3441]}, "properties": {"NAME": "W7W/OK-329", "TITLE": "Harris Mountain", "REGION": "WA-Okanogan", "ASSOCIATION": "USA - Washington", "POINTS": "2", "BONUSPOINTS": "0"}}, {"type": "Feature", "geometry": {"type": "Point", "coordinates": [-119.4571, 48.3506]}, "properties": {"NAME": "W7W/OK-330", "TITLE": "2418 Lowpass Hill", "REGION": "WA-Okanogan", "ASSOCIATION": "USA - Washington", "POINTS": "2", "BONUSPOINTS": "0"}}, {"type": "Feature", "geometry": {"type": "Point", "coordinates": [-119.7538, 48.2549]}, "properties": {"NAME": "W7W/OK-331", "TITLE": "Rattlesnake Point", "REGION": "WA-Okanogan", "ASSOCIATION": "USA - Washington", "POINTS": "2", "BONUSPOINTS": "0"}}, {"type": "Feature", "geometry": {"type": "Point", "coordinates": [-119.7602, 48.182]}, "properties": {"NAME": "W7W/OK-332", "TITLE": "2215 CW Ops Hill", "REGION": "WA-Okanogan", "ASSOCIATION": "USA - Washington", "POINTS": "2", "BONUSPOINTS": "0"}}, {"type": "Feature", "geometry": {"type": "Point", "coordinates": [-119.6235, 48.3949]}, "properties": {"NAME": "W7W/OK-333", "TITLE": "2137 DX Reach Hill", "REGION": "WA-Okanogan", "ASSOCIATION": "USA - Washington", "POINTS": "2", "BONUSPOINTS": "0"}}, {"type": "Feature", "geometry": {"type": "Point", "coordinates": [-119.5866, 48.4024]}, "properties": {"NAME": "W7W/OK-334", "TITLE": "2130 Extra Class Hill", "REGION": "WA-Okanogan", "ASSOCIATION": "USA - Washington", "POINTS": "2", "BONUSPOINTS": "0"}}, {"type": "Feature", "geometry": {"type": "Point", "coordinates": [-119.4064, 48.9854]}, "properties": {"NAME": "W7W/OK-335", "TITLE": "2125 Fullwave Hill", "REGION": "WA-Okanogan", "ASSOCIATION": "USA - Washington", "POINTS": "2", "BONUSPOINTS": "0"}}, {"type": "Feature", "geometry": {"type": "Point", "coordinates": [-119.4985, 48.5658]}, "properties": {"NAME": "W7W/OK-336", "TITLE": "Short Mountain", "REGION": "WA-Okanogan", "ASSOCIATION": "USA - Washington", "POINTS": "2", "BONUSPOINTS": "0"}}, {"type": "Feature", "geometry": {"type": "Point", "coordinates": [-119.3873, 48.8286]}, "properties": {"NAME": "W7W/OK-337", "TITLE": "2011 Good Copy Hill", "REGION": "WA-Okanogan", "ASSOCIATION": "USA - Washington", "POINTS": "2", "BONUSPOINTS": "0"}}, {"type": "Feature", "geometry": {"type": "Point", "coordinates": [-119.4969, 48.6782]}, "properties": {"NAME": "W7W/OK-338", "TITLE": "2006 Bug Hill", "REGION": "WA-Okanogan", "ASSOCIATION": "USA - Washington", "POINTS": "2", "BONUSPOINTS": "0"}}, {"type": "Feature", "geometry": {"type": "Point", "coordinates": [-119.4443, 48.6456]}, "properties": {"NAME": "W7W/OK-339", "TITLE": "2005 Current Hill", "REGION": "WA-Okanogan", "ASSOCIATION": "USA - Washington", "POINTS": "2", "BONUSPOINTS": "0"}}, {"type": "Feature", "geometry": {"type": "Point", "coordinates": [-119.6245, 48.3656]}, "properties": {"NAME": "W7W/OK-340", "TITLE": "1853 Activator Hill", "REGION": "WA-Okanogan", "ASSOCIATION": "USA - Washington", "POINTS": "2", "BONUSPOINTS": "0"}}, {"type": "Feature", "geometry": {"type": "Point", "coordinates": [-120.6574, 48.5998]}, "properties": {"NAME": "W7W/OK-341", "TITLE": "The Needles", "REGION": "WA-Okanogan", "ASSOCIATION": "USA - Washington", "POINTS": "8", "BONUSPOINTS": "3"}}, {"type": "Feature", "geometry": {"type": "Point", "coordinates": [-120.6153, 48.5067]}, "properties": {"NAME": "W7W/OK-342", "TITLE": "Wallaby Peak", "REGION": "WA-Okanogan", "ASSOCIATION": "USA - Washington", "POINTS": "8", "BONUSPOINTS": "3"}}, {"type": "Feature", "geometry": {"type": "Point", "coordinates": [-120.5066, 48.3329]}, "properties": {"NAME": "W7W/OK-343", "TITLE": "Black Ridge", "REGION": "WA-Okanogan", "ASSOCIATION": "USA - Washington", "POINTS": "8", "BONUSPOINTS": "3"}}, {"type": "Feature", "geometry": {"type": "Point", "coordinates": [-119.1653, 48.7076]}, "properties": {"NAME": "W7W/OK-344", "TITLE": "5216", "REGION": "WA-Okanogan", "ASSOCIATION": "USA - Washington", "POINTS": "6", "BONUSPOINTS": "3"}}, {"type": "Feature", "geometry": {"type": "Point", "coordinates": [-120.1938, 48.4204]}, "properties": {"NAME": "W7W/OK-345", "TITLE": "2860 Moccasin Mountain", "REGION": "WA-Okanogan", "ASSOCIATION": "USA - Washington", "POINTS": "2", "BONUSPOINTS": "0"}}, {"type": "Feature", "geometry": {"type": "Point", "coordinates": [-118.9135, 47.978]}, "properties": {"NAME": "W7W/OK-346", "TITLE": "2793", "REGION": "WA-Okanogan", "ASSOCIATION": "USA - Washington", "POINTS": "2", "BONUSPOINTS": "0"}}, {"type": "Feature", "geometry": {"type": "Point", "coordinates": [-119.7655, 48.2394]}, "properties": {"NAME": "W7W/OK-347", "TITLE": "Eagle Rock", "REGION": "WA-Okanogan", "ASSOCIATION": "USA - Washington", "POINTS": "2", "BONUSPOINTS": "0"}}, {"type": "Feature", "geometry": {"type": "Point", "coordinates": [-119.7908, 48.1575]}, "properties": {"NAME": "W7W/OK-348", "TITLE": "2154", "REGION": "WA-Okanogan", "ASSOCIATION": "USA - Washington", "POINTS": "2", "BONUSPOINTS": "0"}}, {"type": "Feature", "geometry": {"type": "Point", "coordinates": [-119.3991, 48.9612]}, "properties": {"NAME": "W7W/OK-349", "TITLE": "2089", "REGION": "WA-Okanogan", "ASSOCIATION": "USA - Washington", "POINTS": "2", "BONUSPOINTS": "0"}}, {"type": "Feature", "geometry": {"type": "Point", "coordinates": [-119.511, 48.6545]}, "properties": {"NAME": "W7W/OK-350", "TITLE": "2060", "REGION": "WA-Okanogan", "ASSOCIATION": "USA - Washington", "POINTS": "2", "BONUSPOINTS": "0"}}, {"type": "Feature", "geometry": {"type": "Point", "coordinates": [-119.6614, 48.2063]}, "properties": {"NAME": "W7W/OK-351", "TITLE": "2036", "REGION": "WA-Okanogan", "ASSOCIATION": "USA - Washington", "POINTS": "2", "BONUSPOINTS": "0"}}]}