{"type": "FeatureCollection", "name": "W7W/SN SUMMITS", "features": [{"type": "Feature", "geometry": {"type": "Point", "coordinates": [-121.1132, 48.1119]}, "properties": {"NAME": "W7W/SN-001", "TITLE": "Glacier Peak", "REGION": "WA-Snohomish", "ASSOCIATION": "USA - Washington", "POINTS": "10", "BONUSPOINTS": "3"}}, {"type": "Feature", "geometry": {"type": "Point", "coordinates": [-120.9333, 48.1596]}, "properties": {"NAME": "W7W/SN-002", "TITLE": "Fortress Mountain", "REGION": "WA-Snohomish", "ASSOCIATION": "USA - Washington", "POINTS": "10", "BONUSPOINTS": "3"}}, {"type": "Feature", "geometry": {"type": "Point", "coordinates": [-120.9075, 48.1634]}, "properties": {"NAME": "W7W/SN-003", "TITLE": "Chiwawa Mountain", "REGION": "WA-Snohomish", "ASSOCIATION": "USA - Washington", "POINTS": "10", "BONUSPOINTS": "3"}}, {"type": "Feature", "geometry": {"type": "Point", "coordinates": [-121.0971, 48.0643]}, "properties": {"NAME": "W7W/SN-004", "TITLE": "Kololo Peaks", "REGION": "WA-Snohomish", "ASSOCIATION": "USA - Washington", "POINTS": "10", "BONUSPOINTS": "3"}}, {"type": "Feature", "geometry": {"type": "Point", "coordinates": [-120.9721, 48.1042]}, "properties": {"NAME": "W7W/SN-005", "TITLE": "Napeequa Peak", "REGION": "WA-Snohomish", "ASSOCIATION": "USA - Washington", "POINTS": "8", "BONUSPOINTS": "3"}}, {"type": "Feature", "geometry": {"type": "Point", "coordinates": [-121.0474, 48.0705]}, "properties": {"NAME": "W7W/SN-006", "TITLE": "West Tenpeak", "REGION": "WA-Snohomish", "ASSOCIATION": "USA - Washington", "POINTS": "8", "BONUSPOINTS": "3"}}, {"type": "Feature", "geometry": {"type": "Point", "coordinates": [-120.972, 48.2071]}, "properties": {"NAME": "W7W/SN-007", "TITLE": "Plummer Mountain", "REGION": "WA-Snohomish", "ASSOCIATION": "USA - Washington", "POINTS": "8", "BONUSPOINTS": "3"}}, {"type": "Feature", "geometry": {"type": "Point", "coordinates": [-121.3401, 48.0415]}, "properties": {"NAME": "W7W/SN-008", "TITLE": "Sloan Peak", "REGION": "WA-Snohomish", "ASSOCIATION": "USA - Washington", "POINTS": "8", "BONUSPOINTS": "3"}}, {"type": "Feature", "geometry": {"type": "Point", "coordinates": [-121.0014, 48.0916]}, "properties": {"NAME": "W7W/SN-009", "TITLE": "Hoof Peak", "REGION": "WA-Snohomish", "ASSOCIATION": "USA - Washington", "POINTS": "8", "BONUSPOINTS": "3"}}, {"type": "Feature", "geometry": {"type": "Point", "coordinates": [-120.9921, 48.2557]}, "properties": {"NAME": "W7W/SN-010", "TITLE": "Bannock Mountain", "REGION": "WA-Snohomish", "ASSOCIATION": "USA - Washington", "POINTS": "8", "BONUSPOINTS": "3"}}, {"type": "Feature", "geometry": {"type": "Point", "coordinates": [-120.9594, 48.2276]}, "properties": {"NAME": "W7W/SN-011", "TITLE": "Sitting Bull Mountain", "REGION": "WA-Snohomish", "ASSOCIATION": "USA - Washington", "POINTS": "8", "BONUSPOINTS": "3"}}, {"type": "Feature", "geometry": {"type": "Point", "coordinates": [-121.0741, 48.0807]}, "properties": {"NAME": "W7W/SN-012", "TITLE": "Kopeetah Divide", "REGION": "WA-Snohomish", "ASSOCIATION": "USA - Washington", "POINTS": "8", "BONUSPOINTS": "3"}}, {"type": "Feature", "geometry": {"type": "Point", "coordinates": [-120.9462, 48.1152]}, "properties": {"NAME": "W7W/SN-013", "TITLE": "Mount Cleator", "REGION": "WA-Snohomish", "ASSOCIATION": "USA - Washington", "POINTS": "8", "BONUSPOINTS": "3"}}, {"type": "Feature", "geometry": {"type": "Point", "coordinates": [-120.9554, 48.1494]}, "properties": {"NAME": "W7W/SN-014", "TITLE": "Helmet Butte", "REGION": "WA-Snohomish", "ASSOCIATION": "USA - Washington", "POINTS": "8", "BONUSPOINTS": "3"}}, {"type": "Feature", "geometry": {"type": "Point", "coordinates": [-121.0301, 48.2454]}, "properties": {"NAME": "W7W/SN-015", "TITLE": "Stonehenge Ridge HP", "REGION": "WA-Snohomish", "ASSOCIATION": "USA - Washington", "POINTS": "8", "BONUSPOINTS": "3"}}, {"type": "Feature", "geometry": {"type": "Point", "coordinates": [-121.3336, 47.9648]}, "properties": {"NAME": "W7W/SN-016", "TITLE": "Kyes Peak", "REGION": "WA-Snohomish", "ASSOCIATION": "USA - Washington", "POINTS": "8", "BONUSPOINTS": "3"}}, {"type": "Feature", "geometry": {"type": "Point", "coordinates": [-121.2065, 48.0818]}, "properties": {"NAME": "W7W/SN-017", "TITLE": "Black Mountain", "REGION": "WA-Snohomish", "ASSOCIATION": "USA - Washington", "POINTS": "8", "BONUSPOINTS": "3"}}, {"type": "Feature", "geometry": {"type": "Point", "coordinates": [-121.3743, 48.1431]}, "properties": {"NAME": "W7W/SN-018", "TITLE": "Mount Pugh", "REGION": "WA-Snohomish", "ASSOCIATION": "USA - Washington", "POINTS": "8", "BONUSPOINTS": "3"}}, {"type": "Feature", "geometry": {"type": "Point", "coordinates": [-121.3494, 47.9852]}, "properties": {"NAME": "W7W/SN-019", "TITLE": "Cadet Peak", "REGION": "WA-Snohomish", "ASSOCIATION": "USA - Washington", "POINTS": "8", "BONUSPOINTS": "3"}}, {"type": "Feature", "geometry": {"type": "Point", "coordinates": [-121.3612, 47.9618]}, "properties": {"NAME": "W7W/SN-020", "TITLE": "Columbia Peak", "REGION": "WA-Snohomish", "ASSOCIATION": "USA - Washington", "POINTS": "8", "BONUSPOINTS": "3"}}, {"type": "Feature", "geometry": {"type": "Point", "coordinates": [-121.1162, 48.2434]}, "properties": {"NAME": "W7W/SN-021", "TITLE": "7140 Full Wave Pk", "REGION": "WA-Snohomish", "ASSOCIATION": "USA - Washington", "POINTS": "8", "BONUSPOINTS": "3"}}, {"type": "Feature", "geometry": {"type": "Point", "coordinates": [-121.3418, 47.9715]}, "properties": {"NAME": "W7W/SN-022", "TITLE": "Monte Cristo Peak", "REGION": "WA-Snohomish", "ASSOCIATION": "USA - Washington", "POINTS": "8", "BONUSPOINTS": "3"}}, {"type": "Feature", "geometry": {"type": "Point", "coordinates": [-121.1351, 48.2937]}, "properties": {"NAME": "W7W/SN-023", "TITLE": "Bachelor Peak", "REGION": "WA-Snohomish", "ASSOCIATION": "USA - Washington", "POINTS": "8", "BONUSPOINTS": "3"}}, {"type": "Feature", "geometry": {"type": "Point", "coordinates": [-121.0541, 48.2477]}, "properties": {"NAME": "W7W/SN-024", "TITLE": "Great Wall Peak", "REGION": "WA-Snohomish", "ASSOCIATION": "USA - Washington", "POINTS": "8", "BONUSPOINTS": "3"}}, {"type": "Feature", "geometry": {"type": "Point", "coordinates": [-121.1529, 48.041]}, "properties": {"NAME": "W7W/SN-025", "TITLE": "White Mountain", "REGION": "WA-Snohomish", "ASSOCIATION": "USA - Washington", "POINTS": "8", "BONUSPOINTS": "3"}}, {"type": "Feature", "geometry": {"type": "Point", "coordinates": [-121.4167, 48.2085]}, "properties": {"NAME": "W7W/SN-026", "TITLE": "White Chuck Mountain", "REGION": "WA-Snohomish", "ASSOCIATION": "USA - Washington", "POINTS": "8", "BONUSPOINTS": "3"}}, {"type": "Feature", "geometry": {"type": "Point", "coordinates": [-121.2534, 48.0745]}, "properties": {"NAME": "W7W/SN-027", "TITLE": "Painted Mountain", "REGION": "WA-Snohomish", "ASSOCIATION": "USA - Washington", "POINTS": "8", "BONUSPOINTS": "3"}}, {"type": "Feature", "geometry": {"type": "Point", "coordinates": [-121.6877, 48.1698]}, "properties": {"NAME": "W7W/SN-028", "TITLE": "South Three Fingers", "REGION": "WA-Snohomish", "ASSOCIATION": "USA - Washington", "POINTS": "8", "BONUSPOINTS": "3"}}, {"type": "Feature", "geometry": {"type": "Point", "coordinates": [-121.6775, 48.211]}, "properties": {"NAME": "W7W/SN-029", "TITLE": "Whitehorse Mountain", "REGION": "WA-Snohomish", "ASSOCIATION": "USA - Washington", "POINTS": "8", "BONUSPOINTS": "3"}}, {"type": "Feature", "geometry": {"type": "Point", "coordinates": [-121.3659, 47.9979]}, "properties": {"NAME": "W7W/SN-030", "TITLE": "Foggy Peak", "REGION": "WA-Snohomish", "ASSOCIATION": "USA - Washington", "POINTS": "8", "BONUSPOINTS": "3"}}, {"type": "Feature", "geometry": {"type": "Point", "coordinates": [-121.3894, 48.0047]}, "properties": {"NAME": "W7W/SN-031", "TITLE": "Gemini South Peak", "REGION": "WA-Snohomish", "ASSOCIATION": "USA - Washington", "POINTS": "8", "BONUSPOINTS": "3"}}, {"type": "Feature", "geometry": {"type": "Point", "coordinates": [-121.2213, 48.2139]}, "properties": {"NAME": "W7W/SN-032", "TITLE": "Lime Mountain", "REGION": "WA-Snohomish", "ASSOCIATION": "USA - Washington", "POINTS": "8", "BONUSPOINTS": "3"}}, {"type": "Feature", "geometry": {"type": "Point", "coordinates": [-121.1724, 47.995]}, "properties": {"NAME": "W7W/SN-033", "TITLE": "Johnson Mountain", "REGION": "WA-Snohomish", "ASSOCIATION": "USA - Washington", "POINTS": "8", "BONUSPOINTS": "3"}}, {"type": "Feature", "geometry": {"type": "Point", "coordinates": [-121.1829, 48.1725]}, "properties": {"NAME": "W7W/SN-034", "TITLE": "6702 Contest Pk", "REGION": "WA-Snohomish", "ASSOCIATION": "USA - Washington", "POINTS": "8", "BONUSPOINTS": "3"}}, {"type": "Feature", "geometry": {"type": "Point", "coordinates": [-121.2456, 48.0639]}, "properties": {"NAME": "W7W/SN-035", "TITLE": "6697 Skykomish Peak", "REGION": "WA-Snohomish", "ASSOCIATION": "USA - Washington", "POINTS": "8", "BONUSPOINTS": "3"}}, {"type": "Feature", "geometry": {"type": "Point", "coordinates": [-121.1679, 48.283]}, "properties": {"NAME": "W7W/SN-036", "TITLE": "6660 Gloria Point", "REGION": "WA-Snohomish", "ASSOCIATION": "USA - Washington", "POINTS": "8", "BONUSPOINTS": "3"}}, {"type": "Feature", "geometry": {"type": "Point", "coordinates": [-121.4704, 47.9909]}, "properties": {"NAME": "W7W/SN-037", "TITLE": "Del Campo Peak", "REGION": "WA-Snohomish", "ASSOCIATION": "USA - Washington", "POINTS": "8", "BONUSPOINTS": "3"}}, {"type": "Feature", "geometry": {"type": "Point", "coordinates": [-121.1108, 48.1889]}, "properties": {"NAME": "W7W/SN-038", "TITLE": "Grassy Point", "REGION": "WA-Snohomish", "ASSOCIATION": "USA - Washington", "POINTS": "8", "BONUSPOINTS": "3"}}, {"type": "Feature", "geometry": {"type": "Point", "coordinates": [-121.1655, 47.9862]}, "properties": {"NAME": "W7W/SN-039", "TITLE": "6562 Mt Vox", "REGION": "WA-Snohomish", "ASSOCIATION": "USA - Washington", "POINTS": "8", "BONUSPOINTS": "3"}}, {"type": "Feature", "geometry": {"type": "Point", "coordinates": [-121.3537, 48.0687]}, "properties": {"NAME": "W7W/SN-040", "TITLE": "Bedal Peak", "REGION": "WA-Snohomish", "ASSOCIATION": "USA - Washington", "POINTS": "6", "BONUSPOINTS": "3"}}, {"type": "Feature", "geometry": {"type": "Point", "coordinates": [-121.2386, 48.2916]}, "properties": {"NAME": "W7W/SN-041", "TITLE": "Green Mountain", "REGION": "WA-Snohomish", "ASSOCIATION": "USA - Washington", "POINTS": "6", "BONUSPOINTS": "3"}}, {"type": "Feature", "geometry": {"type": "Point", "coordinates": [-121.3025, 48.124]}, "properties": {"NAME": "W7W/SN-042", "TITLE": "Breccia Peak", "REGION": "WA-Snohomish", "ASSOCIATION": "USA - Washington", "POINTS": "6", "BONUSPOINTS": "3"}}, {"type": "Feature", "geometry": {"type": "Point", "coordinates": [-121.1641, 47.9569]}, "properties": {"NAME": "W7W/SN-043", "TITLE": "Skykomish Peak", "REGION": "WA-Snohomish", "ASSOCIATION": "USA - Washington", "POINTS": "6", "BONUSPOINTS": "3"}}, {"type": "Feature", "geometry": {"type": "Point", "coordinates": [-120.977, 48.146]}, "properties": {"NAME": "W7W/SN-044", "TITLE": "Flower Dome", "REGION": "WA-Snohomish", "ASSOCIATION": "USA - Washington", "POINTS": "6", "BONUSPOINTS": "3"}}, {"type": "Feature", "geometry": {"type": "Point", "coordinates": [-121.2593, 48.1896]}, "properties": {"NAME": "W7W/SN-045", "TITLE": "Meadow Mountain", "REGION": "WA-Snohomish", "ASSOCIATION": "USA - Washington", "POINTS": "6", "BONUSPOINTS": "3"}}, {"type": "Feature", "geometry": {"type": "Point", "coordinates": [-121.448, 47.8161]}, "properties": {"NAME": "W7W/SN-046", "TITLE": "Gunn Peak", "REGION": "WA-Snohomish", "ASSOCIATION": "USA - Washington", "POINTS": "6", "BONUSPOINTS": "3"}}, {"type": "Feature", "geometry": {"type": "Point", "coordinates": [-121.3283, 48.0112]}, "properties": {"NAME": "W7W/SN-047", "TITLE": "6215 Heineken", "REGION": "WA-Snohomish", "ASSOCIATION": "USA - Washington", "POINTS": "6", "BONUSPOINTS": "3"}}, {"type": "Feature", "geometry": {"type": "Point", "coordinates": [-121.5178, 48.0129]}, "properties": {"NAME": "W7W/SN-048", "TITLE": "Vesper Peak", "REGION": "WA-Snohomish", "ASSOCIATION": "USA - Washington", "POINTS": "6", "BONUSPOINTS": "3"}}, {"type": "Feature", "geometry": {"type": "Point", "coordinates": [-121.4768, 47.9837]}, "properties": {"NAME": "W7W/SN-049", "TITLE": "Gothic Peak", "REGION": "WA-Snohomish", "ASSOCIATION": "USA - Washington", "POINTS": "6", "BONUSPOINTS": "3"}}, {"type": "Feature", "geometry": {"type": "Point", "coordinates": [-121.406, 47.8656]}, "properties": {"NAME": "W7W/SN-050", "TITLE": "Spire Mountain", "REGION": "WA-Snohomish", "ASSOCIATION": "USA - Washington", "POINTS": "6", "BONUSPOINTS": "3"}}, {"type": "Feature", "geometry": {"type": "Point", "coordinates": [-121.5241, 48.043]}, "properties": {"NAME": "W7W/SN-051", "TITLE": "Big Four Mountain", "REGION": "WA-Snohomish", "ASSOCIATION": "USA - Washington", "POINTS": "6", "BONUSPOINTS": "3"}}, {"type": "Feature", "geometry": {"type": "Point", "coordinates": [-121.418, 48.0249]}, "properties": {"NAME": "W7W/SN-052", "TITLE": "Sheep Mountain", "REGION": "WA-Snohomish", "ASSOCIATION": "USA - Washington", "POINTS": "6", "BONUSPOINTS": "3"}}, {"type": "Feature", "geometry": {"type": "Point", "coordinates": [-121.42, 47.9754]}, "properties": {"NAME": "W7W/SN-053", "TITLE": "Silvertip Peak", "REGION": "WA-Snohomish", "ASSOCIATION": "USA - Washington", "POINTS": "6", "BONUSPOINTS": "3"}}, {"type": "Feature", "geometry": {"type": "Point", "coordinates": [-121.5026, 48.0158]}, "properties": {"NAME": "W7W/SN-054", "TITLE": "Sperry Peak", "REGION": "WA-Snohomish", "ASSOCIATION": "USA - Washington", "POINTS": "6", "BONUSPOINTS": "3"}}, {"type": "Feature", "geometry": {"type": "Point", "coordinates": [-121.1298, 47.9874]}, "properties": {"NAME": "W7W/SN-055", "TITLE": "Kodak Peak", "REGION": "WA-Snohomish", "ASSOCIATION": "USA - Washington", "POINTS": "6", "BONUSPOINTS": "3"}}, {"type": "Feature", "geometry": {"type": "Point", "coordinates": [-121.4316, 47.8012]}, "properties": {"NAME": "W7W/SN-056", "TITLE": "Merchant Peak", "REGION": "WA-Snohomish", "ASSOCIATION": "USA - Washington", "POINTS": "6", "BONUSPOINTS": "3"}}, {"type": "Feature", "geometry": {"type": "Point", "coordinates": [-121.4909, 48.004]}, "properties": {"NAME": "W7W/SN-057", "TITLE": "Morning Star Peak", "REGION": "WA-Snohomish", "ASSOCIATION": "USA - Washington", "POINTS": "6", "BONUSPOINTS": "3"}}, {"type": "Feature", "geometry": {"type": "Point", "coordinates": [-121.0741, 47.8224]}, "properties": {"NAME": "W7W/SN-058", "TITLE": "Jove Peak", "REGION": "WA-Snohomish", "ASSOCIATION": "USA - Washington", "POINTS": "6", "BONUSPOINTS": "3"}}, {"type": "Feature", "geometry": {"type": "Point", "coordinates": [-121.4451, 48.0988]}, "properties": {"NAME": "W7W/SN-059", "TITLE": "Mount Forgotten", "REGION": "WA-Snohomish", "ASSOCIATION": "USA - Washington", "POINTS": "6", "BONUSPOINTS": "3"}}, {"type": "Feature", "geometry": {"type": "Point", "coordinates": [-121.0903, 48.1706]}, "properties": {"NAME": "W7W/SN-060", "TITLE": "Vista Ridge", "REGION": "WA-Snohomish", "ASSOCIATION": "USA - Washington", "POINTS": "6", "BONUSPOINTS": "3"}}, {"type": "Feature", "geometry": {"type": "Point", "coordinates": [-121.3225, 48.2205]}, "properties": {"NAME": "W7W/SN-061", "TITLE": "Circle Peak", "REGION": "WA-Snohomish", "ASSOCIATION": "USA - Washington", "POINTS": "6", "BONUSPOINTS": "3"}}, {"type": "Feature", "geometry": {"type": "Point", "coordinates": [-121.6987, 48.1957]}, "properties": {"NAME": "W7W/SN-062", "TITLE": "Mount Bullon", "REGION": "WA-Snohomish", "ASSOCIATION": "USA - Washington", "POINTS": "6", "BONUSPOINTS": "3"}}, {"type": "Feature", "geometry": {"type": "Point", "coordinates": [-121.4052, 47.9306]}, "properties": {"NAME": "W7W/SN-063", "TITLE": "Hubbart Peak", "REGION": "WA-Snohomish", "ASSOCIATION": "USA - Washington", "POINTS": "6", "BONUSPOINTS": "3"}}, {"type": "Feature", "geometry": {"type": "Point", "coordinates": [-121.3926, 47.7987]}, "properties": {"NAME": "W7W/SN-064", "TITLE": "Townsend Mountain", "REGION": "WA-Snohomish", "ASSOCIATION": "USA - Washington", "POINTS": "6", "BONUSPOINTS": "3"}}, {"type": "Feature", "geometry": {"type": "Point", "coordinates": [-121.1875, 47.8773]}, "properties": {"NAME": "W7W/SN-065", "TITLE": "Fortune Mountain", "REGION": "WA-Snohomish", "ASSOCIATION": "USA - Washington", "POINTS": "6", "BONUSPOINTS": "3"}}, {"type": "Feature", "geometry": {"type": "Point", "coordinates": [-121.4054, 48.1982]}, "properties": {"NAME": "W7W/SN-066", "TITLE": "5884 Straight Key Mtn", "REGION": "WA-Snohomish", "ASSOCIATION": "USA - Washington", "POINTS": "6", "BONUSPOINTS": "3"}}, {"type": "Feature", "geometry": {"type": "Point", "coordinates": [-121.5996, 48.1957]}, "properties": {"NAME": "W7W/SN-067", "TITLE": "Jumbo Mountain", "REGION": "WA-Snohomish", "ASSOCIATION": "USA - Washington", "POINTS": "6", "BONUSPOINTS": "3"}}, {"type": "Feature", "geometry": {"type": "Point", "coordinates": [-121.4544, 47.8101]}, "properties": {"NAME": "W7W/SN-068", "TITLE": "Tailgunner", "REGION": "WA-Snohomish", "ASSOCIATION": "USA - Washington", "POINTS": "6", "BONUSPOINTS": "3"}}, {"type": "Feature", "geometry": {"type": "Point", "coordinates": [-121.4404, 48.0727]}, "properties": {"NAME": "W7W/SN-069", "TITLE": "East Twin Peaks", "REGION": "WA-Snohomish", "ASSOCIATION": "USA - Washington", "POINTS": "6", "BONUSPOINTS": "3"}}, {"type": "Feature", "geometry": {"type": "Point", "coordinates": [-121.4642, 47.9634]}, "properties": {"NAME": "W7W/SN-070", "TITLE": "Sheep Gap Mountain", "REGION": "WA-Snohomish", "ASSOCIATION": "USA - Washington", "POINTS": "6", "BONUSPOINTS": "3"}}, {"type": "Feature", "geometry": {"type": "Point", "coordinates": [-121.2028, 47.9244]}, "properties": {"NAME": "W7W/SN-071", "TITLE": "Bench Mark Mountain", "REGION": "WA-Snohomish", "ASSOCIATION": "USA - Washington", "POINTS": "6", "BONUSPOINTS": "3"}}, {"type": "Feature", "geometry": {"type": "Point", "coordinates": [-121.3502, 48.1107]}, "properties": {"NAME": "W7W/SN-072", "TITLE": "Spring Mtn", "REGION": "WA-Snohomish", "ASSOCIATION": "USA - Washington", "POINTS": "6", "BONUSPOINTS": "3"}}, {"type": "Feature", "geometry": {"type": "Point", "coordinates": [-121.1733, 47.9083]}, "properties": {"NAME": "W7W/SN-073", "TITLE": "5757 Little Fish Peak", "REGION": "WA-Snohomish", "ASSOCIATION": "USA - Washington", "POINTS": "6", "BONUSPOINTS": "3"}}, {"type": "Feature", "geometry": {"type": "Point", "coordinates": [-121.1034, 47.7968]}, "properties": {"NAME": "W7W/SN-074", "TITLE": "Mount McCausland", "REGION": "WA-Snohomish", "ASSOCIATION": "USA - Washington", "POINTS": "6", "BONUSPOINTS": "3"}}, {"type": "Feature", "geometry": {"type": "Point", "coordinates": [-121.5056, 47.961]}, "properties": {"NAME": "W7W/SN-075", "TITLE": "Red Mountain", "REGION": "WA-Snohomish", "ASSOCIATION": "USA - Washington", "POINTS": "6", "BONUSPOINTS": "3"}}, {"type": "Feature", "geometry": {"type": "Point", "coordinates": [-121.4852, 48.0939]}, "properties": {"NAME": "W7W/SN-076", "TITLE": "Stillaguamish Peak", "REGION": "WA-Snohomish", "ASSOCIATION": "USA - Washington", "POINTS": "6", "BONUSPOINTS": "3"}}, {"type": "Feature", "geometry": {"type": "Point", "coordinates": [-121.2525, 47.979]}, "properties": {"NAME": "W7W/SN-077", "TITLE": "5727 North Bowser Butte", "REGION": "WA-Snohomish", "ASSOCIATION": "USA - Washington", "POINTS": "6", "BONUSPOINTS": "3"}}, {"type": "Feature", "geometry": {"type": "Point", "coordinates": [-121.4708, 48.0688]}, "properties": {"NAME": "W7W/SN-078", "TITLE": "Mount Dickerman", "REGION": "WA-Snohomish", "ASSOCIATION": "USA - Washington", "POINTS": "6", "BONUSPOINTS": "3"}}, {"type": "Feature", "geometry": {"type": "Point", "coordinates": [-121.2512, 47.9575]}, "properties": {"NAME": "W7W/SN-079", "TITLE": "Bald Eagle Mountain", "REGION": "WA-Snohomish", "ASSOCIATION": "USA - Washington", "POINTS": "6", "BONUSPOINTS": "3"}}, {"type": "Feature", "geometry": {"type": "Point", "coordinates": [-121.6712, 48.1296]}, "properties": {"NAME": "W7W/SN-080", "TITLE": "Liberty Mountain", "REGION": "WA-Snohomish", "ASSOCIATION": "USA - Washington", "POINTS": "6", "BONUSPOINTS": "3"}}, {"type": "Feature", "geometry": {"type": "Point", "coordinates": [-121.2245, 47.9765]}, "properties": {"NAME": "W7W/SN-081", "TITLE": "Long John Mountain", "REGION": "WA-Snohomish", "ASSOCIATION": "USA - Washington", "POINTS": "6", "BONUSPOINTS": "3"}}, {"type": "Feature", "geometry": {"type": "Point", "coordinates": [-121.0826, 47.8112]}, "properties": {"NAME": "W7W/SN-082", "TITLE": "Union Peak", "REGION": "WA-Snohomish", "ASSOCIATION": "USA - Washington", "POINTS": "6", "BONUSPOINTS": "3"}}, {"type": "Feature", "geometry": {"type": "Point", "coordinates": [-121.1496, 47.8227]}, "properties": {"NAME": "W7W/SN-083", "TITLE": "Scrabble Mountain", "REGION": "WA-Snohomish", "ASSOCIATION": "USA - Washington", "POINTS": "6", "BONUSPOINTS": "3"}}, {"type": "Feature", "geometry": {"type": "Point", "coordinates": [-121.4621, 47.9682]}, "properties": {"NAME": "W7W/SN-084", "TITLE": "5683 Rams Horn", "REGION": "WA-Snohomish", "ASSOCIATION": "USA - Washington", "POINTS": "6", "BONUSPOINTS": "3"}}, {"type": "Feature", "geometry": {"type": "Point", "coordinates": [-121.4713, 48.2753]}, "properties": {"NAME": "W7W/SN-085", "TITLE": "Prairie Mountain", "REGION": "WA-Snohomish", "ASSOCIATION": "USA - Washington", "POINTS": "6", "BONUSPOINTS": "3"}}, {"type": "Feature", "geometry": {"type": "Point", "coordinates": [-121.1223, 47.8295]}, "properties": {"NAME": "W7W/SN-086", "TITLE": "5660 Troposphere Pk", "REGION": "WA-Snohomish", "ASSOCIATION": "USA - Washington", "POINTS": "6", "BONUSPOINTS": "3"}}, {"type": "Feature", "geometry": {"type": "Point", "coordinates": [-121.6797, 48.1511]}, "properties": {"NAME": "W7W/SN-087", "TITLE": "Big Bear Mountain", "REGION": "WA-Snohomish", "ASSOCIATION": "USA - Washington", "POINTS": "6", "BONUSPOINTS": "3"}}, {"type": "Feature", "geometry": {"type": "Point", "coordinates": [-121.4626, 48.0054]}, "properties": {"NAME": "W7W/SN-088", "TITLE": "Lewis Peak", "REGION": "WA-Snohomish", "ASSOCIATION": "USA - Washington", "POINTS": "6", "BONUSPOINTS": "3"}}, {"type": "Feature", "geometry": {"type": "Point", "coordinates": [-121.264, 47.8365]}, "properties": {"NAME": "W7W/SN-089", "TITLE": "Evergreen Mountain", "REGION": "WA-Snohomish", "ASSOCIATION": "USA - Washington", "POINTS": "6", "BONUSPOINTS": "3"}}, {"type": "Feature", "geometry": {"type": "Point", "coordinates": [-121.1972, 47.7922]}, "properties": {"NAME": "W7W/SN-090", "TITLE": "Scorpion Mountain", "REGION": "WA-Snohomish", "ASSOCIATION": "USA - Washington", "POINTS": "6", "BONUSPOINTS": "3"}}, {"type": "Feature", "geometry": {"type": "Point", "coordinates": [-121.3573, 47.8722]}, "properties": {"NAME": "W7W/SN-091", "TITLE": "Bear Mountain", "REGION": "WA-Snohomish", "ASSOCIATION": "USA - Washington", "POINTS": "6", "BONUSPOINTS": "3"}}, {"type": "Feature", "geometry": {"type": "Point", "coordinates": [-121.5815, 47.7796]}, "properties": {"NAME": "W7W/SN-092", "TITLE": "Mount Index-Middle Peak", "REGION": "WA-Snohomish", "ASSOCIATION": "USA - Washington", "POINTS": "6", "BONUSPOINTS": "3"}}, {"type": "Feature", "geometry": {"type": "Point", "coordinates": [-121.5404, 48.0598]}, "properties": {"NAME": "W7W/SN-093", "TITLE": "Hall Peak", "REGION": "WA-Snohomish", "ASSOCIATION": "USA - Washington", "POINTS": "6", "BONUSPOINTS": "3"}}, {"type": "Feature", "geometry": {"type": "Point", "coordinates": [-121.6118, 47.7904]}, "properties": {"NAME": "W7W/SN-094", "TITLE": "Mount Persis", "REGION": "WA-Snohomish", "ASSOCIATION": "USA - Washington", "POINTS": "6", "BONUSPOINTS": "3"}}, {"type": "Feature", "geometry": {"type": "Point", "coordinates": [-121.5614, 48.1204]}, "properties": {"NAME": "W7W/SN-095", "TITLE": "Devils Peak", "REGION": "WA-Snohomish", "ASSOCIATION": "USA - Washington", "POINTS": "6", "BONUSPOINTS": "3"}}, {"type": "Feature", "geometry": {"type": "Point", "coordinates": [-121.365, 47.9095]}, "properties": {"NAME": "W7W/SN-096", "TITLE": "Troublesome Mountain", "REGION": "WA-Snohomish", "ASSOCIATION": "USA - Washington", "POINTS": "6", "BONUSPOINTS": "3"}}, {"type": "Feature", "geometry": {"type": "Point", "coordinates": [-121.344, 47.912]}, "properties": {"NAME": "W7W/SN-097", "TITLE": "Double Toil Peak", "REGION": "WA-Snohomish", "ASSOCIATION": "USA - Washington", "POINTS": "6", "BONUSPOINTS": "3"}}, {"type": "Feature", "geometry": {"type": "Point", "coordinates": [-121.5228, 48.1286]}, "properties": {"NAME": "W7W/SN-098", "TITLE": "Independence Peak", "REGION": "WA-Snohomish", "ASSOCIATION": "USA - Washington", "POINTS": "6", "BONUSPOINTS": "3"}}, {"type": "Feature", "geometry": {"type": "Point", "coordinates": [-121.3673, 48.2101]}, "properties": {"NAME": "W7W/SN-099", "TITLE": "Rat Trap Mountain", "REGION": "WA-Snohomish", "ASSOCIATION": "USA - Washington", "POINTS": "6", "BONUSPOINTS": "3"}}, {"type": "Feature", "geometry": {"type": "Point", "coordinates": [-121.5791, 48.1318]}, "properties": {"NAME": "W7W/SN-100", "TITLE": "Helena Peak", "REGION": "WA-Snohomish", "ASSOCIATION": "USA - Washington", "POINTS": "6", "BONUSPOINTS": "3"}}, {"type": "Feature", "geometry": {"type": "Point", "coordinates": [-121.251, 47.8652]}, "properties": {"NAME": "W7W/SN-101", "TITLE": "Silica Mountain", "REGION": "WA-Snohomish", "ASSOCIATION": "USA - Washington", "POINTS": "6", "BONUSPOINTS": "3"}}, {"type": "Feature", "geometry": {"type": "Point", "coordinates": [-121.1596, 47.7862]}, "properties": {"NAME": "W7W/SN-102", "TITLE": "Tall Halla Mountain", "REGION": "WA-Snohomish", "ASSOCIATION": "USA - Washington", "POINTS": "6", "BONUSPOINTS": "3"}}, {"type": "Feature", "geometry": {"type": "Point", "coordinates": [-121.3902, 47.8108]}, "properties": {"NAME": "W7W/SN-103", "TITLE": "Burley Mountain", "REGION": "WA-Snohomish", "ASSOCIATION": "USA - Washington", "POINTS": "6", "BONUSPOINTS": "3"}}, {"type": "Feature", "geometry": {"type": "Point", "coordinates": [-121.5087, 47.9748]}, "properties": {"NAME": "W7W/SN-104", "TITLE": "Rouge Peak", "REGION": "WA-Snohomish", "ASSOCIATION": "USA - Washington", "POINTS": "6", "BONUSPOINTS": "3"}}, {"type": "Feature", "geometry": {"type": "Point", "coordinates": [-121.7976, 48.0579]}, "properties": {"NAME": "W7W/SN-105", "TITLE": "Mount Pilchuck", "REGION": "WA-Snohomish", "ASSOCIATION": "USA - Washington", "POINTS": "6", "BONUSPOINTS": "3"}}, {"type": "Feature", "geometry": {"type": "Point", "coordinates": [-121.4637, 47.9465]}, "properties": {"NAME": "W7W/SN-106", "TITLE": "South Crested Buttes", "REGION": "WA-Snohomish", "ASSOCIATION": "USA - Washington", "POINTS": "6", "BONUSPOINTS": "3"}}, {"type": "Feature", "geometry": {"type": "Point", "coordinates": [-121.2328, 47.8546]}, "properties": {"NAME": "W7W/SN-107", "TITLE": "5327 SOTA Summit", "REGION": "WA-Snohomish", "ASSOCIATION": "USA - Washington", "POINTS": "6", "BONUSPOINTS": "3"}}, {"type": "Feature", "geometry": {"type": "Point", "coordinates": [-121.4611, 47.9541]}, "properties": {"NAME": "W7W/SN-108", "TITLE": "North Crested Buttes", "REGION": "WA-Snohomish", "ASSOCIATION": "USA - Washington", "POINTS": "6", "BONUSPOINTS": "3"}}, {"type": "Feature", "geometry": {"type": "Point", "coordinates": [-121.5177, 48.1416]}, "properties": {"NAME": "W7W/SN-109", "TITLE": "Bluegrass Butte", "REGION": "WA-Snohomish", "ASSOCIATION": "USA - Washington", "POINTS": "6", "BONUSPOINTS": "3"}}, {"type": "Feature", "geometry": {"type": "Point", "coordinates": [-121.6087, 47.9023]}, "properties": {"NAME": "W7W/SN-110", "TITLE": "Mount Stickney", "REGION": "WA-Snohomish", "ASSOCIATION": "USA - Washington", "POINTS": "6", "BONUSPOINTS": "3"}}, {"type": "Feature", "geometry": {"type": "Point", "coordinates": [-121.4149, 47.9171]}, "properties": {"NAME": "W7W/SN-111", "TITLE": "Scott Pk", "REGION": "WA-Snohomish", "ASSOCIATION": "USA - Washington", "POINTS": "6", "BONUSPOINTS": "3"}}, {"type": "Feature", "geometry": {"type": "Point", "coordinates": [-121.3603, 47.8525]}, "properties": {"NAME": "W7W/SN-112", "TITLE": "Quarter Dome", "REGION": "WA-Snohomish", "ASSOCIATION": "USA - Washington", "POINTS": "6", "BONUSPOINTS": "3"}}, {"type": "Feature", "geometry": {"type": "Point", "coordinates": [-121.6582, 48.1108]}, "properties": {"NAME": "W7W/SN-113", "TITLE": "Canyon Peak", "REGION": "WA-Snohomish", "ASSOCIATION": "USA - Washington", "POINTS": "6", "BONUSPOINTS": "3"}}, {"type": "Feature", "geometry": {"type": "Point", "coordinates": [-121.5268, 47.9339]}, "properties": {"NAME": "W7W/SN-114", "TITLE": "Frostbite Peak", "REGION": "WA-Snohomish", "ASSOCIATION": "USA - Washington", "POINTS": "6", "BONUSPOINTS": "3"}}, {"type": "Feature", "geometry": {"type": "Point", "coordinates": [-121.469, 47.9265]}, "properties": {"NAME": "W7W/SN-115", "TITLE": "Mineral Butte", "REGION": "WA-Snohomish", "ASSOCIATION": "USA - Washington", "POINTS": "6", "BONUSPOINTS": "3"}}, {"type": "Feature", "geometry": {"type": "Point", "coordinates": [-121.4311, 47.8584]}, "properties": {"NAME": "W7W/SN-116", "TITLE": "Iron Mountain", "REGION": "WA-Snohomish", "ASSOCIATION": "USA - Washington", "POINTS": "6", "BONUSPOINTS": "3"}}, {"type": "Feature", "geometry": {"type": "Point", "coordinates": [-121.5786, 48.1526]}, "properties": {"NAME": "W7W/SN-117", "TITLE": "Voodoo Peak", "REGION": "WA-Snohomish", "ASSOCIATION": "USA - Washington", "POINTS": "6", "BONUSPOINTS": "3"}}, {"type": "Feature", "geometry": {"type": "Point", "coordinates": [-121.5674, 48.0564]}, "properties": {"NAME": "W7W/SN-118", "TITLE": "Marble Peak", "REGION": "WA-Snohomish", "ASSOCIATION": "USA - Washington", "POINTS": "6", "BONUSPOINTS": "3"}}, {"type": "Feature", "geometry": {"type": "Point", "coordinates": [-121.5485, 48.1288]}, "properties": {"NAME": "W7W/SN-119", "TITLE": "Devils Thumb", "REGION": "WA-Snohomish", "ASSOCIATION": "USA - Washington", "POINTS": "6", "BONUSPOINTS": "3"}}, {"type": "Feature", "geometry": {"type": "Point", "coordinates": [-121.5352, 47.9803]}, "properties": {"NAME": "W7W/SN-120", "TITLE": "Rojo Peak", "REGION": "WA-Snohomish", "ASSOCIATION": "USA - Washington", "POINTS": "6", "BONUSPOINTS": "3"}}, {"type": "Feature", "geometry": {"type": "Point", "coordinates": [-121.5453, 47.868]}, "properties": {"NAME": "W7W/SN-121", "TITLE": "Ragged Ridge", "REGION": "WA-Snohomish", "ASSOCIATION": "USA - Washington", "POINTS": "6", "BONUSPOINTS": "3"}}, {"type": "Feature", "geometry": {"type": "Point", "coordinates": [-121.5404, 47.9176]}, "properties": {"NAME": "W7W/SN-122", "TITLE": "Bushwhack Peak", "REGION": "WA-Snohomish", "ASSOCIATION": "USA - Washington", "POINTS": "6", "BONUSPOINTS": "3"}}, {"type": "Feature", "geometry": {"type": "Point", "coordinates": [-121.5082, 48.0984]}, "properties": {"NAME": "W7W/SN-123", "TITLE": "Beaver Peak", "REGION": "WA-Snohomish", "ASSOCIATION": "USA - Washington", "POINTS": "6", "BONUSPOINTS": "3"}}, {"type": "Feature", "geometry": {"type": "Point", "coordinates": [-121.5935, 48.0913]}, "properties": {"NAME": "W7W/SN-124", "TITLE": "Long Mountain", "REGION": "WA-Snohomish", "ASSOCIATION": "USA - Washington", "POINTS": "6", "BONUSPOINTS": "3"}}, {"type": "Feature", "geometry": {"type": "Point", "coordinates": [-121.6315, 48.0959]}, "properties": {"NAME": "W7W/SN-125", "TITLE": "Anaconda Peak", "REGION": "WA-Snohomish", "ASSOCIATION": "USA - Washington", "POINTS": "6", "BONUSPOINTS": "3"}}, {"type": "Feature", "geometry": {"type": "Point", "coordinates": [-121.3291, 47.7945]}, "properties": {"NAME": "W7W/SN-126", "TITLE": "Hawk Rock", "REGION": "WA-Snohomish", "ASSOCIATION": "USA - Washington", "POINTS": "6", "BONUSPOINTS": "3"}}, {"type": "Feature", "geometry": {"type": "Point", "coordinates": [-121.5287, 47.8921]}, "properties": {"NAME": "W7W/SN-127", "TITLE": "Snowslide Peak", "REGION": "WA-Snohomish", "ASSOCIATION": "USA - Washington", "POINTS": "6", "BONUSPOINTS": "3"}}, {"type": "Feature", "geometry": {"type": "Point", "coordinates": [-121.2794, 48.0025]}, "properties": {"NAME": "W7W/SN-128", "TITLE": "5003 Relic Trail Mountain", "REGION": "WA-Snohomish", "ASSOCIATION": "USA - Washington", "POINTS": "6", "BONUSPOINTS": "3"}}, {"type": "Feature", "geometry": {"type": "Point", "coordinates": [-121.5023, 47.8855]}, "properties": {"NAME": "W7W/SN-129", "TITLE": "Slahal", "REGION": "WA-Snohomish", "ASSOCIATION": "USA - Washington", "POINTS": "4", "BONUSPOINTS": "0"}}, {"type": "Feature", "geometry": {"type": "Point", "coordinates": [-121.5888, 47.9437]}, "properties": {"NAME": "W7W/SN-130", "TITLE": "Static Peak", "REGION": "WA-Snohomish", "ASSOCIATION": "USA - Washington", "POINTS": "4", "BONUSPOINTS": "0"}}, {"type": "Feature", "geometry": {"type": "Point", "coordinates": [-121.3416, 47.8599]}, "properties": {"NAME": "W7W/SN-131", "TITLE": "San Juan Hill", "REGION": "WA-Snohomish", "ASSOCIATION": "USA - Washington", "POINTS": "4", "BONUSPOINTS": "0"}}, {"type": "Feature", "geometry": {"type": "Point", "coordinates": [-121.6366, 48.1555]}, "properties": {"NAME": "W7W/SN-132", "TITLE": "Higher Squire", "REGION": "WA-Snohomish", "ASSOCIATION": "USA - Washington", "POINTS": "4", "BONUSPOINTS": "0"}}, {"type": "Feature", "geometry": {"type": "Point", "coordinates": [-121.6126, 47.8721]}, "properties": {"NAME": "W7W/SN-133", "TITLE": "Zekes Peak", "REGION": "WA-Snohomish", "ASSOCIATION": "USA - Washington", "POINTS": "4", "BONUSPOINTS": "0"}}, {"type": "Feature", "geometry": {"type": "Point", "coordinates": [-121.6554, 47.9985]}, "properties": {"NAME": "W7W/SN-134", "TITLE": "Bald Mountain", "REGION": "WA-Snohomish", "ASSOCIATION": "USA - Washington", "POINTS": "4", "BONUSPOINTS": "0"}}, {"type": "Feature", "geometry": {"type": "Point", "coordinates": [-121.29, 47.9109]}, "properties": {"NAME": "W7W/SN-135", "TITLE": "Excelsior Mountain", "REGION": "WA-Snohomish", "ASSOCIATION": "USA - Washington", "POINTS": "4", "BONUSPOINTS": "0"}}, {"type": "Feature", "geometry": {"type": "Point", "coordinates": [-121.5978, 47.9533]}, "properties": {"NAME": "W7W/SN-136", "TITLE": "Greider Peak", "REGION": "WA-Snohomish", "ASSOCIATION": "USA - Washington", "POINTS": "4", "BONUSPOINTS": "0"}}, {"type": "Feature", "geometry": {"type": "Point", "coordinates": [-121.6023, 48.106]}, "properties": {"NAME": "W7W/SN-137", "TITLE": "Bald Mountain", "REGION": "WA-Snohomish", "ASSOCIATION": "USA - Washington", "POINTS": "4", "BONUSPOINTS": "0"}}, {"type": "Feature", "geometry": {"type": "Point", "coordinates": [-121.3528, 48.1603]}, "properties": {"NAME": "W7W/SN-138", "TITLE": "4642 Dead Duck Mountain", "REGION": "WA-Snohomish", "ASSOCIATION": "USA - Washington", "POINTS": "4", "BONUSPOINTS": "0"}}, {"type": "Feature", "geometry": {"type": "Point", "coordinates": [-121.7787, 48.1801]}, "properties": {"NAME": "W7W/SN-139", "TITLE": "Meadow Mountain", "REGION": "WA-Snohomish", "ASSOCIATION": "USA - Washington", "POINTS": "4", "BONUSPOINTS": "0"}}, {"type": "Feature", "geometry": {"type": "Point", "coordinates": [-121.571, 47.9625]}, "properties": {"NAME": "W7W/SN-140", "TITLE": "Little Greider Peak", "REGION": "WA-Snohomish", "ASSOCIATION": "USA - Washington", "POINTS": "4", "BONUSPOINTS": "0"}}, {"type": "Feature", "geometry": {"type": "Point", "coordinates": [-121.5432, 48.1617]}, "properties": {"NAME": "W7W/SN-141", "TITLE": "Iron Mountain", "REGION": "WA-Snohomish", "ASSOCIATION": "USA - Washington", "POINTS": "4", "BONUSPOINTS": "0"}}, {"type": "Feature", "geometry": {"type": "Point", "coordinates": [-121.406, 47.7874]}, "properties": {"NAME": "W7W/SN-142", "TITLE": "4534 Mt Resistor", "REGION": "WA-Snohomish", "ASSOCIATION": "USA - Washington", "POINTS": "4", "BONUSPOINTS": "0"}}, {"type": "Feature", "geometry": {"type": "Point", "coordinates": [-121.5839, 48.0444]}, "properties": {"NAME": "W7W/SN-143", "TITLE": "4500 Radioteletype Mtn", "REGION": "WA-Snohomish", "ASSOCIATION": "USA - Washington", "POINTS": "4", "BONUSPOINTS": "0"}}, {"type": "Feature", "geometry": {"type": "Point", "coordinates": [-121.5896, 48.0344]}, "properties": {"NAME": "W7W/SN-144", "TITLE": "4500 Relay Pk", "REGION": "WA-Snohomish", "ASSOCIATION": "USA - Washington", "POINTS": "4", "BONUSPOINTS": "0"}}, {"type": "Feature", "geometry": {"type": "Point", "coordinates": [-121.6105, 48.0347]}, "properties": {"NAME": "W7W/SN-145", "TITLE": "4485 Blackjack Peak", "REGION": "WA-Snohomish", "ASSOCIATION": "USA - Washington", "POINTS": "4", "BONUSPOINTS": "0"}}, {"type": "Feature", "geometry": {"type": "Point", "coordinates": [-121.815, 48.2092]}, "properties": {"NAME": "W7W/SN-146", "TITLE": "Mount Ditney", "REGION": "WA-Snohomish", "ASSOCIATION": "USA - Washington", "POINTS": "4", "BONUSPOINTS": "0"}}, {"type": "Feature", "geometry": {"type": "Point", "coordinates": [-121.7222, 48.1187]}, "properties": {"NAME": "W7W/SN-147", "TITLE": "Green Mountain", "REGION": "WA-Snohomish", "ASSOCIATION": "USA - Washington", "POINTS": "4", "BONUSPOINTS": "0"}}, {"type": "Feature", "geometry": {"type": "Point", "coordinates": [-121.7091, 47.8047]}, "properties": {"NAME": "W7W/SN-148", "TITLE": "Ten-Four Mountain", "REGION": "WA-Snohomish", "ASSOCIATION": "USA - Washington", "POINTS": "4", "BONUSPOINTS": "0"}}, {"type": "Feature", "geometry": {"type": "Point", "coordinates": [-121.5431, 47.7795]}, "properties": {"NAME": "W7W/SN-149", "TITLE": "Philadelphia Mountain", "REGION": "WA-Snohomish", "ASSOCIATION": "USA - Washington", "POINTS": "4", "BONUSPOINTS": "0"}}, {"type": "Feature", "geometry": {"type": "Point", "coordinates": [-121.671, 48.0965]}, "properties": {"NAME": "W7W/SN-150", "TITLE": "Wiley Ridge", "REGION": "WA-Snohomish", "ASSOCIATION": "USA - Washington", "POINTS": "4", "BONUSPOINTS": "0"}}, {"type": "Feature", "geometry": {"type": "Point", "coordinates": [-121.622, 48.1317]}, "properties": {"NAME": "W7W/SN-151", "TITLE": "3940 Bornite Mountain", "REGION": "WA-Snohomish", "ASSOCIATION": "USA - Washington", "POINTS": "4", "BONUSPOINTS": "0"}}, {"type": "Feature", "geometry": {"type": "Point", "coordinates": [-121.771, 48.0681]}, "properties": {"NAME": "W7W/SN-152", "TITLE": "The Eaglet", "REGION": "WA-Snohomish", "ASSOCIATION": "USA - Washington", "POINTS": "4", "BONUSPOINTS": "0"}}, {"type": "Feature", "geometry": {"type": "Point", "coordinates": [-121.9025, 48.2374]}, "properties": {"NAME": "W7W/SN-153", "TITLE": "Wheeler Mountain", "REGION": "WA-Snohomish", "ASSOCIATION": "USA - Washington", "POINTS": "4", "BONUSPOINTS": "0"}}, {"type": "Feature", "geometry": {"type": "Point", "coordinates": [-121.8825, 48.2197]}, "properties": {"NAME": "W7W/SN-154", "TITLE": "3571 Multipath Mtn", "REGION": "WA-Snohomish", "ASSOCIATION": "USA - Washington", "POINTS": "4", "BONUSPOINTS": "0"}}, {"type": "Feature", "geometry": {"type": "Point", "coordinates": [-121.8613, 48.161]}, "properties": {"NAME": "W7W/SN-155", "TITLE": "Olo Mountain", "REGION": "WA-Snohomish", "ASSOCIATION": "USA - Washington", "POINTS": "4", "BONUSPOINTS": "0"}}, {"type": "Feature", "geometry": {"type": "Point", "coordinates": [-121.7188, 48.0356]}, "properties": {"NAME": "W7W/SN-156", "TITLE": "3460 Mt Microphone", "REGION": "WA-Snohomish", "ASSOCIATION": "USA - Washington", "POINTS": "4", "BONUSPOINTS": "0"}}, {"type": "Feature", "geometry": {"type": "Point", "coordinates": [-121.545, 48.2444]}, "properties": {"NAME": "W7W/SN-157", "TITLE": "Gold Mountain", "REGION": "WA-Snohomish", "ASSOCIATION": "USA - Washington", "POINTS": "4", "BONUSPOINTS": "0"}}, {"type": "Feature", "geometry": {"type": "Point", "coordinates": [-121.722, 47.9585]}, "properties": {"NAME": "W7W/SN-158", "TITLE": "Blue Mountain", "REGION": "WA-Snohomish", "ASSOCIATION": "USA - Washington", "POINTS": "2", "BONUSPOINTS": "0"}}, {"type": "Feature", "geometry": {"type": "Point", "coordinates": [-121.9265, 48.1859]}, "properties": {"NAME": "W7W/SN-159", "TITLE": "Blue Mountain", "REGION": "WA-Snohomish", "ASSOCIATION": "USA - Washington", "POINTS": "2", "BONUSPOINTS": "0"}}, {"type": "Feature", "geometry": {"type": "Point", "coordinates": [-122.0745, 48.2963]}, "properties": {"NAME": "W7W/SN-160", "TITLE": "Stimson Hill", "REGION": "WA-Snohomish", "ASSOCIATION": "USA - Washington", "POINTS": "2", "BONUSPOINTS": "0"}}, {"type": "Feature", "geometry": {"type": "Point", "coordinates": [-121.731, 48.0121]}, "properties": {"NAME": "W7W/SN-161", "TITLE": "2740 Modulation Hill", "REGION": "WA-Snohomish", "ASSOCIATION": "USA - Washington", "POINTS": "2", "BONUSPOINTS": "0"}}, {"type": "Feature", "geometry": {"type": "Point", "coordinates": [-121.6769, 47.8232]}, "properties": {"NAME": "W7W/SN-162", "TITLE": "Haystack Mountain", "REGION": "WA-Snohomish", "ASSOCIATION": "USA - Washington", "POINTS": "2", "BONUSPOINTS": "0"}}, {"type": "Feature", "geometry": {"type": "Point", "coordinates": [-121.7329, 47.9801]}, "properties": {"NAME": "W7W/SN-163", "TITLE": "2670 Git Out Ridge", "REGION": "WA-Snohomish", "ASSOCIATION": "USA - Washington", "POINTS": "2", "BONUSPOINTS": "0"}}, {"type": "Feature", "geometry": {"type": "Point", "coordinates": [-121.8328, 48.0116]}, "properties": {"NAME": "W7W/SN-164", "TITLE": "2420 High Power Hill", "REGION": "WA-Snohomish", "ASSOCIATION": "USA - Washington", "POINTS": "2", "BONUSPOINTS": "0"}}, {"type": "Feature", "geometry": {"type": "Point", "coordinates": [-121.8599, 48.0511]}, "properties": {"NAME": "W7W/SN-165", "TITLE": "Worthy Hill", "REGION": "WA-Snohomish", "ASSOCIATION": "USA - Washington", "POINTS": "2", "BONUSPOINTS": "0"}}, {"type": "Feature", "geometry": {"type": "Point", "coordinates": [-121.9524, 48.1551]}, "properties": {"NAME": "W7W/SN-166", "TITLE": "Siberia Mountain", "REGION": "WA-Snohomish", "ASSOCIATION": "USA - Washington", "POINTS": "2", "BONUSPOINTS": "0"}}, {"type": "Feature", "geometry": {"type": "Point", "coordinates": [-121.7413, 47.9398]}, "properties": {"NAME": "W7W/SN-167", "TITLE": "Baby Blue", "REGION": "WA-Snohomish", "ASSOCIATION": "USA - Washington", "POINTS": "2", "BONUSPOINTS": "0"}}, {"type": "Feature", "geometry": {"type": "Point", "coordinates": [-121.8833, 48.0665]}, "properties": {"NAME": "W7W/SN-168", "TITLE": "1810 Smelling Mountain", "REGION": "WA-Snohomish", "ASSOCIATION": "USA - Washington", "POINTS": "2", "BONUSPOINTS": "0"}}, {"type": "Feature", "geometry": {"type": "Point", "coordinates": [-122.0001, 48.2449]}, "properties": {"NAME": "W7W/SN-169", "TITLE": "Ebey Hill", "REGION": "WA-Snohomish", "ASSOCIATION": "USA - Washington", "POINTS": "2", "BONUSPOINTS": "0"}}, {"type": "Feature", "geometry": {"type": "Point", "coordinates": [-121.9235, 47.8152]}, "properties": {"NAME": "W7W/SN-170", "TITLE": "King Benchmark", "REGION": "WA-Snohomish", "ASSOCIATION": "USA - Washington", "POINTS": "1", "BONUSPOINTS": "0"}}, {"type": "Feature", "geometry": {"type": "Point", "coordinates": [-121.8905, 47.8245]}, "properties": {"NAME": "W7W/SN-171", "TITLE": "Lobotomy Hill", "REGION": "WA-Snohomish", "ASSOCIATION": "USA - Washington", "POINTS": "1", "BONUSPOINTS": "0"}}, {"type": "Feature", "geometry": {"type": "Point", "coordinates": [-121.9126, 48.0799]}, "properties": {"NAME": "W7W/SN-172", "TITLE": "1490 Chitwood Peak", "REGION": "WA-Snohomish", "ASSOCIATION": "USA - Washington", "POINTS": "1", "BONUSPOINTS": "0"}}, {"type": "Feature", "geometry": {"type": "Point", "coordinates": [-121.8958, 48.0432]}, "properties": {"NAME": "W7W/SN-173", "TITLE": "1470 Encoder Hill", "REGION": "WA-Snohomish", "ASSOCIATION": "USA - Washington", "POINTS": "1", "BONUSPOINTS": "0"}}, {"type": "Feature", "geometry": {"type": "Point", "coordinates": [-121.8126, 47.7967]}, "properties": {"NAME": "W7W/SN-174", "TITLE": "Young Love", "REGION": "WA-Snohomish", "ASSOCIATION": "USA - Washington", "POINTS": "1", "BONUSPOINTS": "0"}}, {"type": "Feature", "geometry": {"type": "Point", "coordinates": [-121.7885, 48.2623]}, "properties": {"NAME": "W7W/SN-175", "TITLE": "French Point", "REGION": "WA-Snohomish", "ASSOCIATION": "USA - Washington", "POINTS": "1", "BONUSPOINTS": "0"}}, {"type": "Feature", "geometry": {"type": "Point", "coordinates": [-121.88, 48.0166]}, "properties": {"NAME": "W7W/SN-176", "TITLE": "1300 F-Layer Hill", "REGION": "WA-Snohomish", "ASSOCIATION": "USA - Washington", "POINTS": "1", "BONUSPOINTS": "0"}}, {"type": "Feature", "geometry": {"type": "Point", "coordinates": [-121.7521, 47.8887]}, "properties": {"NAME": "W7W/SN-177", "TITLE": "Highwire", "REGION": "WA-Snohomish", "ASSOCIATION": "USA - Washington", "POINTS": "1", "BONUSPOINTS": "0"}}, {"type": "Feature", "geometry": {"type": "Point", "coordinates": [-121.9232, 47.9537]}, "properties": {"NAME": "W7W/SN-178", "TITLE": "Three Lakes Hill", "REGION": "WA-Snohomish", "ASSOCIATION": "USA - Washington", "POINTS": "1", "BONUSPOINTS": "0"}}, {"type": "Feature", "geometry": {"type": "Point", "coordinates": [-122.0554, 48.2683]}, "properties": {"NAME": "W7W/SN-179", "TITLE": "1164 Good Copy Hill", "REGION": "WA-Snohomish", "ASSOCIATION": "USA - Washington", "POINTS": "1", "BONUSPOINTS": "0"}}, {"type": "Feature", "geometry": {"type": "Point", "coordinates": [-121.9406, 48.09]}, "properties": {"NAME": "W7W/SN-180", "TITLE": "Iron Mountain", "REGION": "WA-Snohomish", "ASSOCIATION": "USA - Washington", "POINTS": "1", "BONUSPOINTS": "0"}}, {"type": "Feature", "geometry": {"type": "Point", "coordinates": [-122.0229, 48.1757]}, "properties": {"NAME": "W7W/SN-181", "TITLE": "Siberian Bear", "REGION": "WA-Snohomish", "ASSOCIATION": "USA - Washington", "POINTS": "1", "BONUSPOINTS": "0"}}, {"type": "Feature", "geometry": {"type": "Point", "coordinates": [-122.0183, 48.1502]}, "properties": {"NAME": "W7W/SN-182", "TITLE": "Jordan Benchmark", "REGION": "WA-Snohomish", "ASSOCIATION": "USA - Washington", "POINTS": "1", "BONUSPOINTS": "0"}}, {"type": "Feature", "geometry": {"type": "Point", "coordinates": [-122.0329, 47.8361]}, "properties": {"NAME": "W7W/SN-183", "TITLE": "Bald Hill", "REGION": "WA-Snohomish", "ASSOCIATION": "USA - Washington", "POINTS": "1", "BONUSPOINTS": "0"}}, {"type": "Feature", "geometry": {"type": "Point", "coordinates": [-122.0404, 48.1965]}, "properties": {"NAME": "W7W/SN-184", "TITLE": "690 Hexidecimal Hill", "REGION": "WA-Snohomish", "ASSOCIATION": "USA - Washington", "POINTS": "1", "BONUSPOINTS": "0"}}, {"type": "Feature", "geometry": {"type": "Point", "coordinates": [-122.2501, 48.1283]}, "properties": {"NAME": "W7W/SN-185", "TITLE": "Tulalip Hill", "REGION": "WA-Snohomish", "ASSOCIATION": "USA - Washington", "POINTS": "1", "BONUSPOINTS": "0"}}, {"type": "Feature", "geometry": {"type": "Point", "coordinates": [-121.1797, 48.0492]}, "properties": {"NAME": "W7W/SN-186", "TITLE": "Portal Peak", "REGION": "WA-Snohomish", "ASSOCIATION": "USA - Washington", "POINTS": "8", "BONUSPOINTS": "3"}}, {"type": "Feature", "geometry": {"type": "Point", "coordinates": [-121.1324, 48.2463]}, "properties": {"NAME": "W7W/SN-187", "TITLE": "6438", "REGION": "WA-Snohomish", "ASSOCIATION": "USA - Washington", "POINTS": "6", "BONUSPOINTS": "3"}}, {"type": "Feature", "geometry": {"type": "Point", "coordinates": [-121.4633, 48.0313]}, "properties": {"NAME": "W7W/SN-188", "TITLE": "Stauk Mountain", "REGION": "WA-Snohomish", "ASSOCIATION": "USA - Washington", "POINTS": "4", "BONUSPOINTS": "0"}}, {"type": "Feature", "geometry": {"type": "Point", "coordinates": [-121.88, 48.0166]}, "properties": {"NAME": "W7W/SN-189", "TITLE": "1250", "REGION": "WA-Snohomish", "ASSOCIATION": "USA - Washington", "POINTS": "1", "BONUSPOINTS": "0"}}]}