{"type": "FeatureCollection", "name": "W7W/FR SUMMITS", "features": [{"type": "Feature", "geometry": {"type": "Point", "coordinates": [-118.4655, 48.7025]}, "properties": {"NAME": "W7W/FR-001", "TITLE": "Copper Butte", "REGION": "WA-Ferry", "ASSOCIATION": "USA - Washington", "POINTS": "8", "BONUSPOINTS": "3"}}, {"type": "Feature", "geometry": {"type": "Point", "coordinates": [-118.4829, 48.5818]}, "properties": {"NAME": "W7W/FR-002", "TITLE": "Snow Peak", "REGION": "WA-Ferry", "ASSOCIATION": "USA - Washington", "POINTS": "8", "BONUSPOINTS": "3"}}, {"type": "Feature", "geometry": {"type": "Point", "coordinates": [-118.4604, 48.6815]}, "properties": {"NAME": "W7W/FR-003", "TITLE": "Scar Mountain", "REGION": "WA-Ferry", "ASSOCIATION": "USA - Washington", "POINTS": "8", "BONUSPOINTS": "3"}}, {"type": "Feature", "geometry": {"type": "Point", "coordinates": [-118.4642, 48.6646]}, "properties": {"NAME": "W7W/FR-004", "TITLE": "Wapaloosie Mountain", "REGION": "WA-Ferry", "ASSOCIATION": "USA - Washington", "POINTS": "8", "BONUSPOINTS": "3"}}, {"type": "Feature", "geometry": {"type": "Point", "coordinates": [-118.479, 48.5967]}, "properties": {"NAME": "W7W/FR-005", "TITLE": "Sherman Peak", "REGION": "WA-Ferry", "ASSOCIATION": "USA - Washington", "POINTS": "8", "BONUSPOINTS": "3"}}, {"type": "Feature", "geometry": {"type": "Point", "coordinates": [-118.5023, 48.5591]}, "properties": {"NAME": "W7W/FR-006", "TITLE": "Bald Mountain", "REGION": "WA-Ferry", "ASSOCIATION": "USA - Washington", "POINTS": "8", "BONUSPOINTS": "3"}}, {"type": "Feature", "geometry": {"type": "Point", "coordinates": [-118.4533, 48.5113]}, "properties": {"NAME": "W7W/FR-007", "TITLE": "White Mountain", "REGION": "WA-Ferry", "ASSOCIATION": "USA - Washington", "POINTS": "8", "BONUSPOINTS": "3"}}, {"type": "Feature", "geometry": {"type": "Point", "coordinates": [-118.4825, 48.6207]}, "properties": {"NAME": "W7W/FR-008", "TITLE": "Columbia Mountain", "REGION": "WA-Ferry", "ASSOCIATION": "USA - Washington", "POINTS": "8", "BONUSPOINTS": "3"}}, {"type": "Feature", "geometry": {"type": "Point", "coordinates": [-118.4659, 48.7261]}, "properties": {"NAME": "W7W/FR-009", "TITLE": "Midnight Mountain", "REGION": "WA-Ferry", "ASSOCIATION": "USA - Washington", "POINTS": "8", "BONUSPOINTS": "3"}}, {"type": "Feature", "geometry": {"type": "Point", "coordinates": [-118.4023, 48.6768]}, "properties": {"NAME": "W7W/FR-010", "TITLE": "King Mountain", "REGION": "WA-Ferry", "ASSOCIATION": "USA - Washington", "POINTS": "8", "BONUSPOINTS": "3"}}, {"type": "Feature", "geometry": {"type": "Point", "coordinates": [-118.5374, 48.5577]}, "properties": {"NAME": "W7W/FR-011", "TITLE": "Edds Mountain", "REGION": "WA-Ferry", "ASSOCIATION": "USA - Washington", "POINTS": "8", "BONUSPOINTS": "3"}}, {"type": "Feature", "geometry": {"type": "Point", "coordinates": [-118.4736, 48.768]}, "properties": {"NAME": "W7W/FR-012", "TITLE": "Mount Leona", "REGION": "WA-Ferry", "ASSOCIATION": "USA - Washington", "POINTS": "6", "BONUSPOINTS": "3"}}, {"type": "Feature", "geometry": {"type": "Point", "coordinates": [-118.4308, 48.7842]}, "properties": {"NAME": "W7W/FR-013", "TITLE": "Profanity Peak", "REGION": "WA-Ferry", "ASSOCIATION": "USA - Washington", "POINTS": "6", "BONUSPOINTS": "3"}}, {"type": "Feature", "geometry": {"type": "Point", "coordinates": [-118.5002, 48.4273]}, "properties": {"NAME": "W7W/FR-014", "TITLE": "Grizzly Mountain", "REGION": "WA-Ferry", "ASSOCIATION": "USA - Washington", "POINTS": "6", "BONUSPOINTS": "3"}}, {"type": "Feature", "geometry": {"type": "Point", "coordinates": [-118.4184, 48.7379]}, "properties": {"NAME": "W7W/FR-015", "TITLE": "U S Mountain", "REGION": "WA-Ferry", "ASSOCIATION": "USA - Washington", "POINTS": "6", "BONUSPOINTS": "3"}}, {"type": "Feature", "geometry": {"type": "Point", "coordinates": [-118.3782, 48.8064]}, "properties": {"NAME": "W7W/FR-016", "TITLE": "Taylor Ridge", "REGION": "WA-Ferry", "ASSOCIATION": "USA - Washington", "POINTS": "6", "BONUSPOINTS": "3"}}, {"type": "Feature", "geometry": {"type": "Point", "coordinates": [-118.3694, 48.9345]}, "properties": {"NAME": "W7W/FR-017", "TITLE": "Togo Mountain", "REGION": "WA-Ferry", "ASSOCIATION": "USA - Washington", "POINTS": "6", "BONUSPOINTS": "3"}}, {"type": "Feature", "geometry": {"type": "Point", "coordinates": [-118.567, 48.4873]}, "properties": {"NAME": "W7W/FR-018", "TITLE": "Seventeenmile Mountain", "REGION": "WA-Ferry", "ASSOCIATION": "USA - Washington", "POINTS": "6", "BONUSPOINTS": "3"}}, {"type": "Feature", "geometry": {"type": "Point", "coordinates": [-118.5569, 48.4225]}, "properties": {"NAME": "W7W/FR-019", "TITLE": "6020 Wavelength Mtn", "REGION": "WA-Ferry", "ASSOCIATION": "USA - Washington", "POINTS": "6", "BONUSPOINTS": "3"}}, {"type": "Feature", "geometry": {"type": "Point", "coordinates": [-118.3793, 48.9038]}, "properties": {"NAME": "W7W/FR-020", "TITLE": "Marble Mountain", "REGION": "WA-Ferry", "ASSOCIATION": "USA - Washington", "POINTS": "6", "BONUSPOINTS": "3"}}, {"type": "Feature", "geometry": {"type": "Point", "coordinates": [-118.3591, 48.6373]}, "properties": {"NAME": "W7W/FR-021", "TITLE": "Graves Mountain", "REGION": "WA-Ferry", "ASSOCIATION": "USA - Washington", "POINTS": "6", "BONUSPOINTS": "3"}}, {"type": "Feature", "geometry": {"type": "Point", "coordinates": [-118.5724, 48.5082]}, "properties": {"NAME": "W7W/FR-022", "TITLE": "Fire Mountain", "REGION": "WA-Ferry", "ASSOCIATION": "USA - Washington", "POINTS": "6", "BONUSPOINTS": "3"}}, {"type": "Feature", "geometry": {"type": "Point", "coordinates": [-118.4186, 48.6005]}, "properties": {"NAME": "W7W/FR-023", "TITLE": "Paradise Peak", "REGION": "WA-Ferry", "ASSOCIATION": "USA - Washington", "POINTS": "6", "BONUSPOINTS": "3"}}, {"type": "Feature", "geometry": {"type": "Point", "coordinates": [-118.5413, 48.5923]}, "properties": {"NAME": "W7W/FR-024", "TITLE": "Mount Washington", "REGION": "WA-Ferry", "ASSOCIATION": "USA - Washington", "POINTS": "6", "BONUSPOINTS": "3"}}, {"type": "Feature", "geometry": {"type": "Point", "coordinates": [-118.8326, 48.8273]}, "properties": {"NAME": "W7W/FR-025", "TITLE": "Bodie Mountain", "REGION": "WA-Ferry", "ASSOCIATION": "USA - Washington", "POINTS": "6", "BONUSPOINTS": "3"}}, {"type": "Feature", "geometry": {"type": "Point", "coordinates": [-118.4092, 48.8879]}, "properties": {"NAME": "W7W/FR-026", "TITLE": "Rocky Mountain", "REGION": "WA-Ferry", "ASSOCIATION": "USA - Washington", "POINTS": "6", "BONUSPOINTS": "3"}}, {"type": "Feature", "geometry": {"type": "Point", "coordinates": [-118.3995, 48.6454]}, "properties": {"NAME": "W7W/FR-027", "TITLE": "5716 Uppersideband Pk", "REGION": "WA-Ferry", "ASSOCIATION": "USA - Washington", "POINTS": "6", "BONUSPOINTS": "3"}}, {"type": "Feature", "geometry": {"type": "Point", "coordinates": [-118.4261, 48.3764]}, "properties": {"NAME": "W7W/FR-028", "TITLE": "Lynx Mountain", "REGION": "WA-Ferry", "ASSOCIATION": "USA - Washington", "POINTS": "6", "BONUSPOINTS": "3"}}, {"type": "Feature", "geometry": {"type": "Point", "coordinates": [-118.6749, 48.9814]}, "properties": {"NAME": "W7W/FR-029", "TITLE": "White Mountain", "REGION": "WA-Ferry", "ASSOCIATION": "USA - Washington", "POINTS": "6", "BONUSPOINTS": "3"}}, {"type": "Feature", "geometry": {"type": "Point", "coordinates": [-118.3084, 48.7851]}, "properties": {"NAME": "W7W/FR-030", "TITLE": "5598 Solder Summit", "REGION": "WA-Ferry", "ASSOCIATION": "USA - Washington", "POINTS": "6", "BONUSPOINTS": "3"}}, {"type": "Feature", "geometry": {"type": "Point", "coordinates": [-118.522, 48.374]}, "properties": {"NAME": "W7W/FR-031", "TITLE": "5598 Mt Triode", "REGION": "WA-Ferry", "ASSOCIATION": "USA - Washington", "POINTS": "6", "BONUSPOINTS": "3"}}, {"type": "Feature", "geometry": {"type": "Point", "coordinates": [-118.34, 48.9566]}, "properties": {"NAME": "W7W/FR-032", "TITLE": "Independent Mountain", "REGION": "WA-Ferry", "ASSOCIATION": "USA - Washington", "POINTS": "6", "BONUSPOINTS": "3"}}, {"type": "Feature", "geometry": {"type": "Point", "coordinates": [-118.5083, 48.3148]}, "properties": {"NAME": "W7W/FR-033", "TITLE": "Oregon City Ridge", "REGION": "WA-Ferry", "ASSOCIATION": "USA - Washington", "POINTS": "6", "BONUSPOINTS": "3"}}, {"type": "Feature", "geometry": {"type": "Point", "coordinates": [-118.829, 48.7713]}, "properties": {"NAME": "W7W/FR-034", "TITLE": "Horseshoe Mountain", "REGION": "WA-Ferry", "ASSOCIATION": "USA - Washington", "POINTS": "6", "BONUSPOINTS": "3"}}, {"type": "Feature", "geometry": {"type": "Point", "coordinates": [-118.7947, 48.82]}, "properties": {"NAME": "W7W/FR-035", "TITLE": "Kelly Mountain", "REGION": "WA-Ferry", "ASSOCIATION": "USA - Washington", "POINTS": "6", "BONUSPOINTS": "3"}}, {"type": "Feature", "geometry": {"type": "Point", "coordinates": [-118.5111, 48.2859]}, "properties": {"NAME": "W7W/FR-036", "TITLE": "5409 Sunspot Pk", "REGION": "WA-Ferry", "ASSOCIATION": "USA - Washington", "POINTS": "6", "BONUSPOINTS": "3"}}, {"type": "Feature", "geometry": {"type": "Point", "coordinates": [-118.3725, 48.8742]}, "properties": {"NAME": "W7W/FR-037", "TITLE": "Dry Mountain", "REGION": "WA-Ferry", "ASSOCIATION": "USA - Washington", "POINTS": "6", "BONUSPOINTS": "3"}}, {"type": "Feature", "geometry": {"type": "Point", "coordinates": [-118.8014, 48.718]}, "properties": {"NAME": "W7W/FR-038", "TITLE": "Storm King Mountain", "REGION": "WA-Ferry", "ASSOCIATION": "USA - Washington", "POINTS": "6", "BONUSPOINTS": "3"}}, {"type": "Feature", "geometry": {"type": "Point", "coordinates": [-118.3136, 48.6799]}, "properties": {"NAME": "W7W/FR-039", "TITLE": "C C MOUNTAIN", "REGION": "WA-Ferry", "ASSOCIATION": "USA - Washington", "POINTS": "6", "BONUSPOINTS": "3"}}, {"type": "Feature", "geometry": {"type": "Point", "coordinates": [-118.304, 48.5346]}, "properties": {"NAME": "W7W/FR-040", "TITLE": "South Huckleberry Mountain", "REGION": "WA-Ferry", "ASSOCIATION": "USA - Washington", "POINTS": "6", "BONUSPOINTS": "3"}}, {"type": "Feature", "geometry": {"type": "Point", "coordinates": [-118.3052, 48.9591]}, "properties": {"NAME": "W7W/FR-041", "TITLE": "Huckleberry Ridge", "REGION": "WA-Ferry", "ASSOCIATION": "USA - Washington", "POINTS": "6", "BONUSPOINTS": "3"}}, {"type": "Feature", "geometry": {"type": "Point", "coordinates": [-118.6785, 48.9554]}, "properties": {"NAME": "W7W/FR-042", "TITLE": "5260 Sideswipper Mtn", "REGION": "WA-Ferry", "ASSOCIATION": "USA - Washington", "POINTS": "6", "BONUSPOINTS": "3"}}, {"type": "Feature", "geometry": {"type": "Point", "coordinates": [-118.4261, 48.9799]}, "properties": {"NAME": "W7W/FR-043", "TITLE": "Boundary Mountain", "REGION": "WA-Ferry", "ASSOCIATION": "USA - Washington", "POINTS": "6", "BONUSPOINTS": "3"}}, {"type": "Feature", "geometry": {"type": "Point", "coordinates": [-118.2393, 48.653]}, "properties": {"NAME": "W7W/FR-044", "TITLE": "Hoodoo Mountain", "REGION": "WA-Ferry", "ASSOCIATION": "USA - Washington", "POINTS": "6", "BONUSPOINTS": "3"}}, {"type": "Feature", "geometry": {"type": "Point", "coordinates": [-118.5661, 48.709]}, "properties": {"NAME": "W7W/FR-045", "TITLE": "Cooke Mountain", "REGION": "WA-Ferry", "ASSOCIATION": "USA - Washington", "POINTS": "6", "BONUSPOINTS": "3"}}, {"type": "Feature", "geometry": {"type": "Point", "coordinates": [-118.2651, 48.7236]}, "properties": {"NAME": "W7W/FR-046", "TITLE": "Jackknife Mountain", "REGION": "WA-Ferry", "ASSOCIATION": "USA - Washington", "POINTS": "6", "BONUSPOINTS": "3"}}, {"type": "Feature", "geometry": {"type": "Point", "coordinates": [-118.734, 48.8146]}, "properties": {"NAME": "W7W/FR-047", "TITLE": "Lake Butte", "REGION": "WA-Ferry", "ASSOCIATION": "USA - Washington", "POINTS": "6", "BONUSPOINTS": "3"}}, {"type": "Feature", "geometry": {"type": "Point", "coordinates": [-118.5527, 48.6491]}, "properties": {"NAME": "W7W/FR-048", "TITLE": "4982 Gigahertz Pk", "REGION": "WA-Ferry", "ASSOCIATION": "USA - Washington", "POINTS": "6", "BONUSPOINTS": "3"}}, {"type": "Feature", "geometry": {"type": "Point", "coordinates": [-118.7938, 48.9064]}, "properties": {"NAME": "W7W/FR-049", "TITLE": "Bamber Mountain", "REGION": "WA-Ferry", "ASSOCIATION": "USA - Washington", "POINTS": "6", "BONUSPOINTS": "3"}}, {"type": "Feature", "geometry": {"type": "Point", "coordinates": [-118.3953, 48.3388]}, "properties": {"NAME": "W7W/FR-050", "TITLE": "Carson Mountain", "REGION": "WA-Ferry", "ASSOCIATION": "USA - Washington", "POINTS": "6", "BONUSPOINTS": "3"}}, {"type": "Feature", "geometry": {"type": "Point", "coordinates": [-118.6133, 48.6184]}, "properties": {"NAME": "W7W/FR-051", "TITLE": "4944 Rectifier Mtn", "REGION": "WA-Ferry", "ASSOCIATION": "USA - Washington", "POINTS": "6", "BONUSPOINTS": "3"}}, {"type": "Feature", "geometry": {"type": "Point", "coordinates": [-118.622, 48.4179]}, "properties": {"NAME": "W7W/FR-052", "TITLE": "4940 Regenerative Pk", "REGION": "WA-Ferry", "ASSOCIATION": "USA - Washington", "POINTS": "6", "BONUSPOINTS": "3"}}, {"type": "Feature", "geometry": {"type": "Point", "coordinates": [-118.4047, 48.5298]}, "properties": {"NAME": "W7W/FR-053", "TITLE": "4900 Sensitivity Summit", "REGION": "WA-Ferry", "ASSOCIATION": "USA - Washington", "POINTS": "4", "BONUSPOINTS": "0"}}, {"type": "Feature", "geometry": {"type": "Point", "coordinates": [-118.3777, 48.5295]}, "properties": {"NAME": "W7W/FR-054", "TITLE": "Cedar Ridge", "REGION": "WA-Ferry", "ASSOCIATION": "USA - Washington", "POINTS": "4", "BONUSPOINTS": "0"}}, {"type": "Feature", "geometry": {"type": "Point", "coordinates": [-118.2906, 48.8485]}, "properties": {"NAME": "W7W/FR-055", "TITLE": "North Boulder Ridge", "REGION": "WA-Ferry", "ASSOCIATION": "USA - Washington", "POINTS": "4", "BONUSPOINTS": "0"}}, {"type": "Feature", "geometry": {"type": "Point", "coordinates": [-118.6423, 48.5088]}, "properties": {"NAME": "W7W/FR-056", "TITLE": "Thirteenmile Mountain", "REGION": "WA-Ferry", "ASSOCIATION": "USA - Washington", "POINTS": "4", "BONUSPOINTS": "0"}}, {"type": "Feature", "geometry": {"type": "Point", "coordinates": [-118.3203, 48.7266]}, "properties": {"NAME": "W7W/FR-057", "TITLE": "Alligator Ridge", "REGION": "WA-Ferry", "ASSOCIATION": "USA - Washington", "POINTS": "4", "BONUSPOINTS": "0"}}, {"type": "Feature", "geometry": {"type": "Point", "coordinates": [-118.5983, 48.5559]}, "properties": {"NAME": "W7W/FR-058", "TITLE": "Iron Mountain", "REGION": "WA-Ferry", "ASSOCIATION": "USA - Washington", "POINTS": "4", "BONUSPOINTS": "0"}}, {"type": "Feature", "geometry": {"type": "Point", "coordinates": [-118.7955, 48.0615]}, "properties": {"NAME": "W7W/FR-059", "TITLE": "Keller Butte", "REGION": "WA-Ferry", "ASSOCIATION": "USA - Washington", "POINTS": "4", "BONUSPOINTS": "0"}}, {"type": "Feature", "geometry": {"type": "Point", "coordinates": [-118.67, 48.5696]}, "properties": {"NAME": "W7W/FR-060", "TITLE": "Quartz Mountain", "REGION": "WA-Ferry", "ASSOCIATION": "USA - Washington", "POINTS": "4", "BONUSPOINTS": "0"}}, {"type": "Feature", "geometry": {"type": "Point", "coordinates": [-118.4063, 48.4217]}, "properties": {"NAME": "W7W/FR-061", "TITLE": "Sitdown Mountain", "REGION": "WA-Ferry", "ASSOCIATION": "USA - Washington", "POINTS": "4", "BONUSPOINTS": "0"}}, {"type": "Feature", "geometry": {"type": "Point", "coordinates": [-118.8447, 48.369]}, "properties": {"NAME": "W7W/FR-062", "TITLE": "Central Peak", "REGION": "WA-Ferry", "ASSOCIATION": "USA - Washington", "POINTS": "4", "BONUSPOINTS": "0"}}, {"type": "Feature", "geometry": {"type": "Point", "coordinates": [-118.5093, 48.0218]}, "properties": {"NAME": "W7W/FR-063", "TITLE": "Whitestone Ridge", "REGION": "WA-Ferry", "ASSOCIATION": "USA - Washington", "POINTS": "4", "BONUSPOINTS": "0"}}, {"type": "Feature", "geometry": {"type": "Point", "coordinates": [-118.6623, 48.3414]}, "properties": {"NAME": "W7W/FR-064", "TITLE": "Cody Butte", "REGION": "WA-Ferry", "ASSOCIATION": "USA - Washington", "POINTS": "4", "BONUSPOINTS": "0"}}, {"type": "Feature", "geometry": {"type": "Point", "coordinates": [-118.6081, 48.5907]}, "properties": {"NAME": "W7W/FR-065", "TITLE": "Murphy Hill", "REGION": "WA-Ferry", "ASSOCIATION": "USA - Washington", "POINTS": "4", "BONUSPOINTS": "0"}}, {"type": "Feature", "geometry": {"type": "Point", "coordinates": [-118.2883, 48.8922]}, "properties": {"NAME": "W7W/FR-066", "TITLE": "Jasper Mountain", "REGION": "WA-Ferry", "ASSOCIATION": "USA - Washington", "POINTS": "4", "BONUSPOINTS": "0"}}, {"type": "Feature", "geometry": {"type": "Point", "coordinates": [-118.3558, 48.493]}, "properties": {"NAME": "W7W/FR-067", "TITLE": "Dollar Mountain", "REGION": "WA-Ferry", "ASSOCIATION": "USA - Washington", "POINTS": "4", "BONUSPOINTS": "0"}}, {"type": "Feature", "geometry": {"type": "Point", "coordinates": [-118.467, 48.1805]}, "properties": {"NAME": "W7W/FR-068", "TITLE": "Gold Mountain", "REGION": "WA-Ferry", "ASSOCIATION": "USA - Washington", "POINTS": "4", "BONUSPOINTS": "0"}}, {"type": "Feature", "geometry": {"type": "Point", "coordinates": [-118.6396, 48.3826]}, "properties": {"NAME": "W7W/FR-069", "TITLE": "4639 Rotator Mtn", "REGION": "WA-Ferry", "ASSOCIATION": "USA - Washington", "POINTS": "4", "BONUSPOINTS": "0"}}, {"type": "Feature", "geometry": {"type": "Point", "coordinates": [-118.4926, 47.9868]}, "properties": {"NAME": "W7W/FR-070", "TITLE": "4622 Preamplifier Pk", "REGION": "WA-Ferry", "ASSOCIATION": "USA - Washington", "POINTS": "4", "BONUSPOINTS": "0"}}, {"type": "Feature", "geometry": {"type": "Point", "coordinates": [-118.7046, 48.8073]}, "properties": {"NAME": "W7W/FR-071", "TITLE": "4464 Modulator Mtn", "REGION": "WA-Ferry", "ASSOCIATION": "USA - Washington", "POINTS": "4", "BONUSPOINTS": "0"}}, {"type": "Feature", "geometry": {"type": "Point", "coordinates": [-118.2063, 48.6688]}, "properties": {"NAME": "W7W/FR-072", "TITLE": "4455 Mt J-Pole", "REGION": "WA-Ferry", "ASSOCIATION": "USA - Washington", "POINTS": "4", "BONUSPOINTS": "0"}}, {"type": "Feature", "geometry": {"type": "Point", "coordinates": [-118.7909, 48.6223]}, "properties": {"NAME": "W7W/FR-073", "TITLE": "Copper Mountain", "REGION": "WA-Ferry", "ASSOCIATION": "USA - Washington", "POINTS": "4", "BONUSPOINTS": "0"}}, {"type": "Feature", "geometry": {"type": "Point", "coordinates": [-118.7945, 48.1454]}, "properties": {"NAME": "W7W/FR-074", "TITLE": "4393 Lower Sideband Mtn", "REGION": "WA-Ferry", "ASSOCIATION": "USA - Washington", "POINTS": "4", "BONUSPOINTS": "0"}}, {"type": "Feature", "geometry": {"type": "Point", "coordinates": [-118.5228, 48.8139]}, "properties": {"NAME": "W7W/FR-075", "TITLE": "4353 Meteor Scatter Pk", "REGION": "WA-Ferry", "ASSOCIATION": "USA - Washington", "POINTS": "4", "BONUSPOINTS": "0"}}, {"type": "Feature", "geometry": {"type": "Point", "coordinates": [-118.8345, 48.9742]}, "properties": {"NAME": "W7W/FR-076", "TITLE": "Graphite Mountain", "REGION": "WA-Ferry", "ASSOCIATION": "USA - Washington", "POINTS": "4", "BONUSPOINTS": "0"}}, {"type": "Feature", "geometry": {"type": "Point", "coordinates": [-118.6009, 48.2872]}, "properties": {"NAME": "W7W/FR-077", "TITLE": "4339 Keyer Summit", "REGION": "WA-Ferry", "ASSOCIATION": "USA - Washington", "POINTS": "4", "BONUSPOINTS": "0"}}, {"type": "Feature", "geometry": {"type": "Point", "coordinates": [-118.4769, 48.2283]}, "properties": {"NAME": "W7W/FR-078", "TITLE": "4337 Mt Inductance", "REGION": "WA-Ferry", "ASSOCIATION": "USA - Washington", "POINTS": "4", "BONUSPOINTS": "0"}}, {"type": "Feature", "geometry": {"type": "Point", "coordinates": [-118.4485, 47.9652]}, "properties": {"NAME": "W7W/FR-079", "TITLE": "4288 Multiband Mtn", "REGION": "WA-Ferry", "ASSOCIATION": "USA - Washington", "POINTS": "4", "BONUSPOINTS": "0"}}, {"type": "Feature", "geometry": {"type": "Point", "coordinates": [-118.7949, 48.9641]}, "properties": {"NAME": "W7W/FR-080", "TITLE": "4180 Transponder Mtn", "REGION": "WA-Ferry", "ASSOCIATION": "USA - Washington", "POINTS": "4", "BONUSPOINTS": "0"}}, {"type": "Feature", "geometry": {"type": "Point", "coordinates": [-118.3501, 48.3261]}, "properties": {"NAME": "W7W/FR-081", "TITLE": "4180 Mt Telescope", "REGION": "WA-Ferry", "ASSOCIATION": "USA - Washington", "POINTS": "4", "BONUSPOINTS": "0"}}, {"type": "Feature", "geometry": {"type": "Point", "coordinates": [-118.6069, 48.1704]}, "properties": {"NAME": "W7W/FR-082", "TITLE": "4180 Steam Peak", "REGION": "WA-Ferry", "ASSOCIATION": "USA - Washington", "POINTS": "4", "BONUSPOINTS": "0"}}, {"type": "Feature", "geometry": {"type": "Point", "coordinates": [-118.6278, 48.208]}, "properties": {"NAME": "W7W/FR-083", "TITLE": "Louie Benchmark", "REGION": "WA-Ferry", "ASSOCIATION": "USA - Washington", "POINTS": "4", "BONUSPOINTS": "0"}}, {"type": "Feature", "geometry": {"type": "Point", "coordinates": [-118.6591, 48.1777]}, "properties": {"NAME": "W7W/FR-084", "TITLE": "4156 Mt Conversion", "REGION": "WA-Ferry", "ASSOCIATION": "USA - Washington", "POINTS": "4", "BONUSPOINTS": "0"}}, {"type": "Feature", "geometry": {"type": "Point", "coordinates": [-118.7839, 48.4975]}, "properties": {"NAME": "W7W/FR-085", "TITLE": "4140 Bug Mtn", "REGION": "WA-Ferry", "ASSOCIATION": "USA - Washington", "POINTS": "4", "BONUSPOINTS": "0"}}, {"type": "Feature", "geometry": {"type": "Point", "coordinates": [-118.6702, 48.4183]}, "properties": {"NAME": "W7W/FR-086", "TITLE": "4125 Mt Backscatter", "REGION": "WA-Ferry", "ASSOCIATION": "USA - Washington", "POINTS": "4", "BONUSPOINTS": "0"}}, {"type": "Feature", "geometry": {"type": "Point", "coordinates": [-118.6577, 48.8396]}, "properties": {"NAME": "W7W/FR-087", "TITLE": "4123 Amateur Radio Pk", "REGION": "WA-Ferry", "ASSOCIATION": "USA - Washington", "POINTS": "4", "BONUSPOINTS": "0"}}, {"type": "Feature", "geometry": {"type": "Point", "coordinates": [-118.7729, 48.21]}, "properties": {"NAME": "W7W/FR-088", "TITLE": "4116 Mt Clarifier", "REGION": "WA-Ferry", "ASSOCIATION": "USA - Washington", "POINTS": "4", "BONUSPOINTS": "0"}}, {"type": "Feature", "geometry": {"type": "Point", "coordinates": [-118.3486, 48.184]}, "properties": {"NAME": "W7W/FR-089", "TITLE": "4105 Bear Hide Peak", "REGION": "WA-Ferry", "ASSOCIATION": "USA - Washington", "POINTS": "4", "BONUSPOINTS": "0"}}, {"type": "Feature", "geometry": {"type": "Point", "coordinates": [-118.7249, 48.6875]}, "properties": {"NAME": "W7W/FR-090", "TITLE": "Klondike Mountain", "REGION": "WA-Ferry", "ASSOCIATION": "USA - Washington", "POINTS": "4", "BONUSPOINTS": "0"}}, {"type": "Feature", "geometry": {"type": "Point", "coordinates": [-118.6939, 48.412]}, "properties": {"NAME": "W7W/FR-091", "TITLE": "4099 Coaxial Summit", "REGION": "WA-Ferry", "ASSOCIATION": "USA - Washington", "POINTS": "4", "BONUSPOINTS": "0"}}, {"type": "Feature", "geometry": {"type": "Point", "coordinates": [-118.4436, 47.9111]}, "properties": {"NAME": "W7W/FR-092", "TITLE": "Johnny George Mountain", "REGION": "WA-Ferry", "ASSOCIATION": "USA - Washington", "POINTS": "4", "BONUSPOINTS": "0"}}, {"type": "Feature", "geometry": {"type": "Point", "coordinates": [-118.3538, 48.2239]}, "properties": {"NAME": "W7W/FR-093", "TITLE": "4083 Mt Bandwidth", "REGION": "WA-Ferry", "ASSOCIATION": "USA - Washington", "POINTS": "4", "BONUSPOINTS": "0"}}, {"type": "Feature", "geometry": {"type": "Point", "coordinates": [-118.6811, 48.5134]}, "properties": {"NAME": "W7W/FR-094", "TITLE": "Cougar Mountain", "REGION": "WA-Ferry", "ASSOCIATION": "USA - Washington", "POINTS": "4", "BONUSPOINTS": "0"}}, {"type": "Feature", "geometry": {"type": "Point", "coordinates": [-118.6948, 48.4674]}, "properties": {"NAME": "W7W/FR-095", "TITLE": "4074 Capacitance Pk", "REGION": "WA-Ferry", "ASSOCIATION": "USA - Washington", "POINTS": "4", "BONUSPOINTS": "0"}}, {"type": "Feature", "geometry": {"type": "Point", "coordinates": [-118.7635, 47.9976]}, "properties": {"NAME": "W7W/FR-096", "TITLE": "Mica Mountain", "REGION": "WA-Ferry", "ASSOCIATION": "USA - Washington", "POINTS": "4", "BONUSPOINTS": "0"}}, {"type": "Feature", "geometry": {"type": "Point", "coordinates": [-118.2211, 48.5668]}, "properties": {"NAME": "W7W/FR-097", "TITLE": "Bangs Mountain", "REGION": "WA-Ferry", "ASSOCIATION": "USA - Washington", "POINTS": "4", "BONUSPOINTS": "0"}}, {"type": "Feature", "geometry": {"type": "Point", "coordinates": [-118.7871, 48.3073]}, "properties": {"NAME": "W7W/FR-098", "TITLE": "4012 Nanamkin Peak", "REGION": "WA-Ferry", "ASSOCIATION": "USA - Washington", "POINTS": "4", "BONUSPOINTS": "0"}}, {"type": "Feature", "geometry": {"type": "Point", "coordinates": [-118.3896, 48.2176]}, "properties": {"NAME": "W7W/FR-099", "TITLE": "4008 Near Vertical Incidence Pk", "REGION": "WA-Ferry", "ASSOCIATION": "USA - Washington", "POINTS": "4", "BONUSPOINTS": "0"}}, {"type": "Feature", "geometry": {"type": "Point", "coordinates": [-118.6759, 48.3936]}, "properties": {"NAME": "W7W/FR-100", "TITLE": "4003 Monoband Mtn", "REGION": "WA-Ferry", "ASSOCIATION": "USA - Washington", "POINTS": "4", "BONUSPOINTS": "0"}}, {"type": "Feature", "geometry": {"type": "Point", "coordinates": [-118.6422, 48.2479]}, "properties": {"NAME": "W7W/FR-101", "TITLE": "3978 Intermediate Frequency Pk", "REGION": "WA-Ferry", "ASSOCIATION": "USA - Washington", "POINTS": "4", "BONUSPOINTS": "0"}}, {"type": "Feature", "geometry": {"type": "Point", "coordinates": [-118.3192, 48.1805]}, "properties": {"NAME": "W7W/FR-102", "TITLE": "3962 Megahertz Mtn", "REGION": "WA-Ferry", "ASSOCIATION": "USA - Washington", "POINTS": "4", "BONUSPOINTS": "0"}}, {"type": "Feature", "geometry": {"type": "Point", "coordinates": [-118.4278, 48.2493]}, "properties": {"NAME": "W7W/FR-103", "TITLE": "3953 Mt Rhombic", "REGION": "WA-Ferry", "ASSOCIATION": "USA - Washington", "POINTS": "4", "BONUSPOINTS": "0"}}, {"type": "Feature", "geometry": {"type": "Point", "coordinates": [-118.7294, 48.2607]}, "properties": {"NAME": "W7W/FR-104", "TITLE": "Cub Benchmark", "REGION": "WA-Ferry", "ASSOCIATION": "USA - Washington", "POINTS": "4", "BONUSPOINTS": "0"}}, {"type": "Feature", "geometry": {"type": "Point", "coordinates": [-118.7085, 48.3874]}, "properties": {"NAME": "W7W/FR-105", "TITLE": "3926 Scanner Summit", "REGION": "WA-Ferry", "ASSOCIATION": "USA - Washington", "POINTS": "4", "BONUSPOINTS": "0"}}, {"type": "Feature", "geometry": {"type": "Point", "coordinates": [-118.726, 48.7246]}, "properties": {"NAME": "W7W/FR-106", "TITLE": "Bald Peak", "REGION": "WA-Ferry", "ASSOCIATION": "USA - Washington", "POINTS": "4", "BONUSPOINTS": "0"}}, {"type": "Feature", "geometry": {"type": "Point", "coordinates": [-118.5773, 48.2194]}, "properties": {"NAME": "W7W/FR-107", "TITLE": "3892 Quarter Wave Pk", "REGION": "WA-Ferry", "ASSOCIATION": "USA - Washington", "POINTS": "4", "BONUSPOINTS": "0"}}, {"type": "Feature", "geometry": {"type": "Point", "coordinates": [-118.3214, 48.2791]}, "properties": {"NAME": "W7W/FR-108", "TITLE": "Moon Mountain", "REGION": "WA-Ferry", "ASSOCIATION": "USA - Washington", "POINTS": "4", "BONUSPOINTS": "0"}}, {"type": "Feature", "geometry": {"type": "Point", "coordinates": [-118.8191, 48.2293]}, "properties": {"NAME": "W7W/FR-109", "TITLE": "3860 Pentode Pk", "REGION": "WA-Ferry", "ASSOCIATION": "USA - Washington", "POINTS": "4", "BONUSPOINTS": "0"}}, {"type": "Feature", "geometry": {"type": "Point", "coordinates": [-118.3189, 48.1189]}, "properties": {"NAME": "W7W/FR-110", "TITLE": "3820 Middle Mountain South", "REGION": "WA-Ferry", "ASSOCIATION": "USA - Washington", "POINTS": "4", "BONUSPOINTS": "0"}}, {"type": "Feature", "geometry": {"type": "Point", "coordinates": [-118.5894, 47.9843]}, "properties": {"NAME": "W7W/FR-111", "TITLE": "3820 Aurora Mtn", "REGION": "WA-Ferry", "ASSOCIATION": "USA - Washington", "POINTS": "4", "BONUSPOINTS": "0"}}, {"type": "Feature", "geometry": {"type": "Point", "coordinates": [-118.5934, 48.767]}, "properties": {"NAME": "W7W/FR-112", "TITLE": "3794 CW Ops Pk", "REGION": "WA-Ferry", "ASSOCIATION": "USA - Washington", "POINTS": "4", "BONUSPOINTS": "0"}}, {"type": "Feature", "geometry": {"type": "Point", "coordinates": [-118.7838, 48.571]}, "properties": {"NAME": "W7W/FR-113", "TITLE": "3780 Mt Deviation", "REGION": "WA-Ferry", "ASSOCIATION": "USA - Washington", "POINTS": "4", "BONUSPOINTS": "0"}}, {"type": "Feature", "geometry": {"type": "Point", "coordinates": [-118.7078, 48.0557]}, "properties": {"NAME": "W7W/FR-114", "TITLE": "Mount Tolman", "REGION": "WA-Ferry", "ASSOCIATION": "USA - Washington", "POINTS": "4", "BONUSPOINTS": "0"}}, {"type": "Feature", "geometry": {"type": "Point", "coordinates": [-118.3226, 48.4814]}, "properties": {"NAME": "W7W/FR-115", "TITLE": "3540 D-Layer Pk", "REGION": "WA-Ferry", "ASSOCIATION": "USA - Washington", "POINTS": "4", "BONUSPOINTS": "0"}}, {"type": "Feature", "geometry": {"type": "Point", "coordinates": [-118.2885, 48.4334]}, "properties": {"NAME": "W7W/FR-116", "TITLE": "Brush Mountain", "REGION": "WA-Ferry", "ASSOCIATION": "USA - Washington", "POINTS": "4", "BONUSPOINTS": "0"}}, {"type": "Feature", "geometry": {"type": "Point", "coordinates": [-118.534, 48.0885]}, "properties": {"NAME": "W7W/FR-117", "TITLE": "Sclome Mountain", "REGION": "WA-Ferry", "ASSOCIATION": "USA - Washington", "POINTS": "4", "BONUSPOINTS": "0"}}, {"type": "Feature", "geometry": {"type": "Point", "coordinates": [-118.2554, 48.381]}, "properties": {"NAME": "W7W/FR-118", "TITLE": "Rainy Ridge", "REGION": "WA-Ferry", "ASSOCIATION": "USA - Washington", "POINTS": "4", "BONUSPOINTS": "0"}}, {"type": "Feature", "geometry": {"type": "Point", "coordinates": [-118.2496, 48.4831]}, "properties": {"NAME": "W7W/FR-119", "TITLE": "Staehly Mountain", "REGION": "WA-Ferry", "ASSOCIATION": "USA - Washington", "POINTS": "4", "BONUSPOINTS": "0"}}, {"type": "Feature", "geometry": {"type": "Point", "coordinates": [-118.3184, 48.3395]}, "properties": {"NAME": "W7W/FR-120", "TITLE": "3354 Break In Butte", "REGION": "WA-Ferry", "ASSOCIATION": "USA - Washington", "POINTS": "4", "BONUSPOINTS": "0"}}, {"type": "Feature", "geometry": {"type": "Point", "coordinates": [-118.2708, 48.2265]}, "properties": {"NAME": "W7W/FR-121", "TITLE": "3311 Critical Frequency Pk", "REGION": "WA-Ferry", "ASSOCIATION": "USA - Washington", "POINTS": "4", "BONUSPOINTS": "0"}}, {"type": "Feature", "geometry": {"type": "Point", "coordinates": [-118.2972, 48.4735]}, "properties": {"NAME": "W7W/FR-122", "TITLE": "Ant Mountain", "REGION": "WA-Ferry", "ASSOCIATION": "USA - Washington", "POINTS": "4", "BONUSPOINTS": "0"}}, {"type": "Feature", "geometry": {"type": "Point", "coordinates": [-118.2911, 48.3168]}, "properties": {"NAME": "W7W/FR-123", "TITLE": "Johnnys Hill", "REGION": "WA-Ferry", "ASSOCIATION": "USA - Washington", "POINTS": "2", "BONUSPOINTS": "0"}}, {"type": "Feature", "geometry": {"type": "Point", "coordinates": [-118.3669, 48.0808]}, "properties": {"NAME": "W7W/FR-124", "TITLE": "3236 Halfwave Hill", "REGION": "WA-Ferry", "ASSOCIATION": "USA - Washington", "POINTS": "2", "BONUSPOINTS": "0"}}, {"type": "Feature", "geometry": {"type": "Point", "coordinates": [-118.2799, 48.3922]}, "properties": {"NAME": "W7W/FR-125", "TITLE": "3230 Attenuator Hill", "REGION": "WA-Ferry", "ASSOCIATION": "USA - Washington", "POINTS": "2", "BONUSPOINTS": "0"}}, {"type": "Feature", "geometry": {"type": "Point", "coordinates": [-118.6309, 48.8743]}, "properties": {"NAME": "W7W/FR-126", "TITLE": "3205 Circuit Hill", "REGION": "WA-Ferry", "ASSOCIATION": "USA - Washington", "POINTS": "2", "BONUSPOINTS": "0"}}, {"type": "Feature", "geometry": {"type": "Point", "coordinates": [-118.3089, 48.456]}, "properties": {"NAME": "W7W/FR-127", "TITLE": "3135 Rainy Ridge-North Peak", "REGION": "WA-Ferry", "ASSOCIATION": "USA - Washington", "POINTS": "2", "BONUSPOINTS": "0"}}, {"type": "Feature", "geometry": {"type": "Point", "coordinates": [-118.2286, 48.513]}, "properties": {"NAME": "W7W/FR-128", "TITLE": "Bald Hill", "REGION": "WA-Ferry", "ASSOCIATION": "USA - Washington", "POINTS": "2", "BONUSPOINTS": "0"}}, {"type": "Feature", "geometry": {"type": "Point", "coordinates": [-118.2396, 48.2634]}, "properties": {"NAME": "W7W/FR-129", "TITLE": "Stranger Mountain", "REGION": "WA-Ferry", "ASSOCIATION": "USA - Washington", "POINTS": "2", "BONUSPOINTS": "0"}}, {"type": "Feature", "geometry": {"type": "Point", "coordinates": [-118.4248, 47.8696]}, "properties": {"NAME": "W7W/FR-130", "TITLE": "2922 Diode Mtn", "REGION": "WA-Ferry", "ASSOCIATION": "USA - Washington", "POINTS": "2", "BONUSPOINTS": "0"}}, {"type": "Feature", "geometry": {"type": "Point", "coordinates": [-118.1516, 48.7578]}, "properties": {"NAME": "W7W/FR-131", "TITLE": "2540 Continuity Hill", "REGION": "WA-Ferry", "ASSOCIATION": "USA - Washington", "POINTS": "2", "BONUSPOINTS": "0"}}, {"type": "Feature", "geometry": {"type": "Point", "coordinates": [-118.1934, 48.2462]}, "properties": {"NAME": "W7W/FR-132", "TITLE": "Rattlesnake Mountain", "REGION": "WA-Ferry", "ASSOCIATION": "USA - Washington", "POINTS": "2", "BONUSPOINTS": "0"}}, {"type": "Feature", "geometry": {"type": "Point", "coordinates": [-118.3665, 48.677]}, "properties": {"NAME": "W7W/FR-133", "TITLE": "Mack Mountain", "REGION": "WA-Ferry", "ASSOCIATION": "USA - Washington", "POINTS": "6", "BONUSPOINTS": "3"}}, {"type": "Feature", "geometry": {"type": "Point", "coordinates": [-118.7016, 48.5981]}, "properties": {"NAME": "W7W/FR-134", "TITLE": "4192", "REGION": "WA-Ferry", "ASSOCIATION": "USA - Washington", "POINTS": "4", "BONUSPOINTS": "0"}}, {"type": "Feature", "geometry": {"type": "Point", "coordinates": [-118.7146, 48.5543]}, "properties": {"NAME": "W7W/FR-135", "TITLE": "Brown Mountain", "REGION": "WA-Ferry", "ASSOCIATION": "USA - Washington", "POINTS": "4", "BONUSPOINTS": "0"}}, {"type": "Feature", "geometry": {"type": "Point", "coordinates": [-118.7799, 48.5259]}, "properties": {"NAME": "W7W/FR-136", "TITLE": "3872", "REGION": "WA-Ferry", "ASSOCIATION": "USA - Washington", "POINTS": "4", "BONUSPOINTS": "0"}}, {"type": "Feature", "geometry": {"type": "Point", "coordinates": [-118.6442, 48.1175]}, "properties": {"NAME": "W7W/FR-137", "TITLE": "3598", "REGION": "WA-Ferry", "ASSOCIATION": "USA - Washington", "POINTS": "4", "BONUSPOINTS": "0"}}]}