{"type": "FeatureCollection", "name": "W7W/SK SUMMITS", "features": [{"type": "Feature", "geometry": {"type": "Point", "coordinates": [-120.998, 48.4953]}, "properties": {"NAME": "W7W/SK-001", "TITLE": "Buckner Mountain", "REGION": "WA-Skagit", "ASSOCIATION": "USA - Washington", "POINTS": "10", "BONUSPOINTS": "3"}}, {"type": "Feature", "geometry": {"type": "Point", "coordinates": [-120.9524, 48.5367]}, "properties": {"NAME": "W7W/SK-002", "TITLE": "Mount Logan", "REGION": "WA-Skagit", "ASSOCIATION": "USA - Washington", "POINTS": "10", "BONUSPOINTS": "3"}}, {"type": "Feature", "geometry": {"type": "Point", "coordinates": [-120.8157, 48.5235]}, "properties": {"NAME": "W7W/SK-003", "TITLE": "Black Peak", "REGION": "WA-Skagit", "ASSOCIATION": "USA - Washington", "POINTS": "10", "BONUSPOINTS": "3"}}, {"type": "Feature", "geometry": {"type": "Point", "coordinates": [-121.0296, 48.3034]}, "properties": {"NAME": "W7W/SK-004", "TITLE": "Dome Peak", "REGION": "WA-Skagit", "ASSOCIATION": "USA - Washington", "POINTS": "10", "BONUSPOINTS": "3"}}, {"type": "Feature", "geometry": {"type": "Point", "coordinates": [-121.0361, 48.4956]}, "properties": {"NAME": "W7W/SK-005", "TITLE": "Boston Peak", "REGION": "WA-Skagit", "ASSOCIATION": "USA - Washington", "POINTS": "10", "BONUSPOINTS": "3"}}, {"type": "Feature", "geometry": {"type": "Point", "coordinates": [-121.1344, 48.5374]}, "properties": {"NAME": "W7W/SK-006", "TITLE": "Eldorado Peak", "REGION": "WA-Skagit", "ASSOCIATION": "USA - Washington", "POINTS": "10", "BONUSPOINTS": "3"}}, {"type": "Feature", "geometry": {"type": "Point", "coordinates": [-121.0585, 48.5116]}, "properties": {"NAME": "W7W/SK-007", "TITLE": "Forbidden Peak", "REGION": "WA-Skagit", "ASSOCIATION": "USA - Washington", "POINTS": "10", "BONUSPOINTS": "3"}}, {"type": "Feature", "geometry": {"type": "Point", "coordinates": [-120.8803, 48.5785]}, "properties": {"NAME": "W7W/SK-008", "TITLE": "Mesahchie Peak", "REGION": "WA-Skagit", "ASSOCIATION": "USA - Washington", "POINTS": "10", "BONUSPOINTS": "3"}}, {"type": "Feature", "geometry": {"type": "Point", "coordinates": [-120.9106, 48.5851]}, "properties": {"NAME": "W7W/SK-009", "TITLE": "Kimtah Peak", "REGION": "WA-Skagit", "ASSOCIATION": "USA - Washington", "POINTS": "10", "BONUSPOINTS": "3"}}, {"type": "Feature", "geometry": {"type": "Point", "coordinates": [-121.0917, 48.582]}, "properties": {"NAME": "W7W/SK-010", "TITLE": "Primus Peak", "REGION": "WA-Skagit", "ASSOCIATION": "USA - Washington", "POINTS": "10", "BONUSPOINTS": "3"}}, {"type": "Feature", "geometry": {"type": "Point", "coordinates": [-121.1046, 48.5544]}, "properties": {"NAME": "W7W/SK-011", "TITLE": "Klawatti Peak", "REGION": "WA-Skagit", "ASSOCIATION": "USA - Washington", "POINTS": "10", "BONUSPOINTS": "3"}}, {"type": "Feature", "geometry": {"type": "Point", "coordinates": [-121.1386, 48.5497]}, "properties": {"NAME": "W7W/SK-012", "TITLE": "Dorado Needle", "REGION": "WA-Skagit", "ASSOCIATION": "USA - Washington", "POINTS": "10", "BONUSPOINTS": "3"}}, {"type": "Feature", "geometry": {"type": "Point", "coordinates": [-121.0096, 48.3]}, "properties": {"NAME": "W7W/SK-013", "TITLE": "Sinister Peak", "REGION": "WA-Skagit", "ASSOCIATION": "USA - Washington", "POINTS": "10", "BONUSPOINTS": "3"}}, {"type": "Feature", "geometry": {"type": "Point", "coordinates": [-120.704, 48.5885]}, "properties": {"NAME": "W7W/SK-014", "TITLE": "Tower Mountain", "REGION": "WA-Skagit", "ASSOCIATION": "USA - Washington", "POINTS": "10", "BONUSPOINTS": "3"}}, {"type": "Feature", "geometry": {"type": "Point", "coordinates": [-120.7518, 48.6567]}, "properties": {"NAME": "W7W/SK-015", "TITLE": "Azurite Peak", "REGION": "WA-Skagit", "ASSOCIATION": "USA - Washington", "POINTS": "10", "BONUSPOINTS": "3"}}, {"type": "Feature", "geometry": {"type": "Point", "coordinates": [-121.1387, 48.6353]}, "properties": {"NAME": "W7W/SK-016", "TITLE": "Snowfield Peak", "REGION": "WA-Skagit", "ASSOCIATION": "USA - Washington", "POINTS": "10", "BONUSPOINTS": "3"}}, {"type": "Feature", "geometry": {"type": "Point", "coordinates": [-120.9277, 48.589]}, "properties": {"NAME": "W7W/SK-017", "TITLE": "Cosho Peak", "REGION": "WA-Skagit", "ASSOCIATION": "USA - Washington", "POINTS": "10", "BONUSPOINTS": "3"}}, {"type": "Feature", "geometry": {"type": "Point", "coordinates": [-121.0669, 48.4162]}, "properties": {"NAME": "W7W/SK-018", "TITLE": "Mount Formidable", "REGION": "WA-Skagit", "ASSOCIATION": "USA - Washington", "POINTS": "10", "BONUSPOINTS": "3"}}, {"type": "Feature", "geometry": {"type": "Point", "coordinates": [-121.0718, 48.3174]}, "properties": {"NAME": "W7W/SK-019", "TITLE": "Spire Point", "REGION": "WA-Skagit", "ASSOCIATION": "USA - Washington", "POINTS": "10", "BONUSPOINTS": "3"}}, {"type": "Feature", "geometry": {"type": "Point", "coordinates": [-121.0409, 48.3562]}, "properties": {"NAME": "W7W/SK-020", "TITLE": "Sentinel Peak", "REGION": "WA-Skagit", "ASSOCIATION": "USA - Washington", "POINTS": "10", "BONUSPOINTS": "3"}}, {"type": "Feature", "geometry": {"type": "Point", "coordinates": [-121.092, 48.4647]}, "properties": {"NAME": "W7W/SK-021", "TITLE": "Johannesburg Mountain", "REGION": "WA-Skagit", "ASSOCIATION": "USA - Washington", "POINTS": "10", "BONUSPOINTS": "3"}}, {"type": "Feature", "geometry": {"type": "Point", "coordinates": [-120.8573, 48.549]}, "properties": {"NAME": "W7W/SK-022", "TITLE": "Mount Arriva", "REGION": "WA-Skagit", "ASSOCIATION": "USA - Washington", "POINTS": "10", "BONUSPOINTS": "3"}}, {"type": "Feature", "geometry": {"type": "Point", "coordinates": [-121.0782, 48.582]}, "properties": {"NAME": "W7W/SK-023", "TITLE": "Tricouni Peak", "REGION": "WA-Skagit", "ASSOCIATION": "USA - Washington", "POINTS": "8", "BONUSPOINTS": "3"}}, {"type": "Feature", "geometry": {"type": "Point", "coordinates": [-120.7554, 48.5819]}, "properties": {"NAME": "W7W/SK-024", "TITLE": "Mount Hardy", "REGION": "WA-Skagit", "ASSOCIATION": "USA - Washington", "POINTS": "8", "BONUSPOINTS": "3"}}, {"type": "Feature", "geometry": {"type": "Point", "coordinates": [-120.8239, 48.5452]}, "properties": {"NAME": "W7W/SK-025", "TITLE": "Fisher Peak", "REGION": "WA-Skagit", "ASSOCIATION": "USA - Washington", "POINTS": "8", "BONUSPOINTS": "3"}}, {"type": "Feature", "geometry": {"type": "Point", "coordinates": [-120.7035, 48.5265]}, "properties": {"NAME": "W7W/SK-026", "TITLE": "Cutthroat Peak", "REGION": "WA-Skagit", "ASSOCIATION": "USA - Washington", "POINTS": "8", "BONUSPOINTS": "3"}}, {"type": "Feature", "geometry": {"type": "Point", "coordinates": [-120.8567, 48.5821]}, "properties": {"NAME": "W7W/SK-027", "TITLE": "Kitling Peak", "REGION": "WA-Skagit", "ASSOCIATION": "USA - Washington", "POINTS": "8", "BONUSPOINTS": "3"}}, {"type": "Feature", "geometry": {"type": "Point", "coordinates": [-120.8253, 48.5644]}, "properties": {"NAME": "W7W/SK-028", "TITLE": "Graybeard Peak", "REGION": "WA-Skagit", "ASSOCIATION": "USA - Washington", "POINTS": "8", "BONUSPOINTS": "3"}}, {"type": "Feature", "geometry": {"type": "Point", "coordinates": [-120.859, 48.5356]}, "properties": {"NAME": "W7W/SK-029", "TITLE": "Indecision Peak", "REGION": "WA-Skagit", "ASSOCIATION": "USA - Washington", "POINTS": "8", "BONUSPOINTS": "3"}}, {"type": "Feature", "geometry": {"type": "Point", "coordinates": [-120.8537, 48.5595]}, "properties": {"NAME": "W7W/SK-030", "TITLE": "Little J-Berg", "REGION": "WA-Skagit", "ASSOCIATION": "USA - Washington", "POINTS": "8", "BONUSPOINTS": "3"}}, {"type": "Feature", "geometry": {"type": "Point", "coordinates": [-120.9351, 48.6277]}, "properties": {"NAME": "W7W/SK-031", "TITLE": "Gabriel Peak", "REGION": "WA-Skagit", "ASSOCIATION": "USA - Washington", "POINTS": "8", "BONUSPOINTS": "3"}}, {"type": "Feature", "geometry": {"type": "Point", "coordinates": [-120.8183, 48.5382]}, "properties": {"NAME": "W7W/SK-032", "TITLE": "Repulse Peak", "REGION": "WA-Skagit", "ASSOCIATION": "USA - Washington", "POINTS": "8", "BONUSPOINTS": "3"}}, {"type": "Feature", "geometry": {"type": "Point", "coordinates": [-120.7726, 48.6417]}, "properties": {"NAME": "W7W/SK-033", "TITLE": "Azurite-Mebee", "REGION": "WA-Skagit", "ASSOCIATION": "USA - Washington", "POINTS": "8", "BONUSPOINTS": "3"}}, {"type": "Feature", "geometry": {"type": "Point", "coordinates": [-120.9036, 48.5232]}, "properties": {"NAME": "W7W/SK-034", "TITLE": "Outpost Peak", "REGION": "WA-Skagit", "ASSOCIATION": "USA - Washington", "POINTS": "8", "BONUSPOINTS": "3"}}, {"type": "Feature", "geometry": {"type": "Point", "coordinates": [-121.0379, 48.4338]}, "properties": {"NAME": "W7W/SK-035", "TITLE": "Hurry-up Peak", "REGION": "WA-Skagit", "ASSOCIATION": "USA - Washington", "POINTS": "8", "BONUSPOINTS": "3"}}, {"type": "Feature", "geometry": {"type": "Point", "coordinates": [-120.8698, 48.5308]}, "properties": {"NAME": "W7W/SK-036", "TITLE": "Natal Peak", "REGION": "WA-Skagit", "ASSOCIATION": "USA - Washington", "POINTS": "8", "BONUSPOINTS": "3"}}, {"type": "Feature", "geometry": {"type": "Point", "coordinates": [-121.0619, 48.3794]}, "properties": {"NAME": "W7W/SK-037", "TITLE": "Le Conte Mountain", "REGION": "WA-Skagit", "ASSOCIATION": "USA - Washington", "POINTS": "8", "BONUSPOINTS": "3"}}, {"type": "Feature", "geometry": {"type": "Point", "coordinates": [-120.7368, 48.5501]}, "properties": {"NAME": "W7W/SK-038", "TITLE": "Porcupine Peak", "REGION": "WA-Skagit", "ASSOCIATION": "USA - Washington", "POINTS": "8", "BONUSPOINTS": "3"}}, {"type": "Feature", "geometry": {"type": "Point", "coordinates": [-121.1583, 48.5637]}, "properties": {"NAME": "W7W/SK-039", "TITLE": "Perdition Peak", "REGION": "WA-Skagit", "ASSOCIATION": "USA - Washington", "POINTS": "8", "BONUSPOINTS": "3"}}, {"type": "Feature", "geometry": {"type": "Point", "coordinates": [-121.1144, 48.6361]}, "properties": {"NAME": "W7W/SK-040", "TITLE": "Distal Phalanx", "REGION": "WA-Skagit", "ASSOCIATION": "USA - Washington", "POINTS": "8", "BONUSPOINTS": "3"}}, {"type": "Feature", "geometry": {"type": "Point", "coordinates": [-121.0412, 48.446]}, "properties": {"NAME": "W7W/SK-041", "TITLE": "Magic Mountain", "REGION": "WA-Skagit", "ASSOCIATION": "USA - Washington", "POINTS": "8", "BONUSPOINTS": "3"}}, {"type": "Feature", "geometry": {"type": "Point", "coordinates": [-120.7864, 48.6209]}, "properties": {"NAME": "W7W/SK-042", "TITLE": "Methow Pinnacles", "REGION": "WA-Skagit", "ASSOCIATION": "USA - Washington", "POINTS": "8", "BONUSPOINTS": "3"}}, {"type": "Feature", "geometry": {"type": "Point", "coordinates": [-120.9871, 48.6004]}, "properties": {"NAME": "W7W/SK-043", "TITLE": "Red Mountain", "REGION": "WA-Skagit", "ASSOCIATION": "USA - Washington", "POINTS": "8", "BONUSPOINTS": "3"}}, {"type": "Feature", "geometry": {"type": "Point", "coordinates": [-120.7083, 48.5624]}, "properties": {"NAME": "W7W/SK-044", "TITLE": "7552 Squelch Pk", "REGION": "WA-Skagit", "ASSOCIATION": "USA - Washington", "POINTS": "8", "BONUSPOINTS": "3"}}, {"type": "Feature", "geometry": {"type": "Point", "coordinates": [-121.1629, 48.5196]}, "properties": {"NAME": "W7W/SK-045", "TITLE": "The Triad", "REGION": "WA-Skagit", "ASSOCIATION": "USA - Washington", "POINTS": "8", "BONUSPOINTS": "3"}}, {"type": "Feature", "geometry": {"type": "Point", "coordinates": [-121.0601, 48.4541]}, "properties": {"NAME": "W7W/SK-046", "TITLE": "Mix-up Peak", "REGION": "WA-Skagit", "ASSOCIATION": "USA - Washington", "POINTS": "8", "BONUSPOINTS": "3"}}, {"type": "Feature", "geometry": {"type": "Point", "coordinates": [-121.1998, 48.3435]}, "properties": {"NAME": "W7W/SK-047", "TITLE": "Mount Misch", "REGION": "WA-Skagit", "ASSOCIATION": "USA - Washington", "POINTS": "8", "BONUSPOINTS": "3"}}, {"type": "Feature", "geometry": {"type": "Point", "coordinates": [-121.278, 48.4083]}, "properties": {"NAME": "W7W/SK-048", "TITLE": "Snowking Mountain", "REGION": "WA-Skagit", "ASSOCIATION": "USA - Washington", "POINTS": "8", "BONUSPOINTS": "3"}}, {"type": "Feature", "geometry": {"type": "Point", "coordinates": [-121.0802, 48.4635]}, "properties": {"NAME": "W7W/SK-049", "TITLE": "Cascade Peak", "REGION": "WA-Skagit", "ASSOCIATION": "USA - Washington", "POINTS": "8", "BONUSPOINTS": "3"}}, {"type": "Feature", "geometry": {"type": "Point", "coordinates": [-121.0738, 48.3559]}, "properties": {"NAME": "W7W/SK-050", "TITLE": "Hoch Joch Spitz", "REGION": "WA-Skagit", "ASSOCIATION": "USA - Washington", "POINTS": "8", "BONUSPOINTS": "3"}}, {"type": "Feature", "geometry": {"type": "Point", "coordinates": [-121.0599, 48.3467]}, "properties": {"NAME": "W7W/SK-051", "TITLE": "7340 Mt Preamplifier", "REGION": "WA-Skagit", "ASSOCIATION": "USA - Washington", "POINTS": "8", "BONUSPOINTS": "3"}}, {"type": "Feature", "geometry": {"type": "Point", "coordinates": [-121.1418, 48.359]}, "properties": {"NAME": "W7W/SK-052", "TITLE": "Mount Bruseth", "REGION": "WA-Skagit", "ASSOCIATION": "USA - Washington", "POINTS": "8", "BONUSPOINTS": "3"}}, {"type": "Feature", "geometry": {"type": "Point", "coordinates": [-121.2485, 48.3892]}, "properties": {"NAME": "W7W/SK-053", "TITLE": "Snowqueen Mtn", "REGION": "WA-Skagit", "ASSOCIATION": "USA - Washington", "POINTS": "8", "BONUSPOINTS": "3"}}, {"type": "Feature", "geometry": {"type": "Point", "coordinates": [-120.8165, 48.6433]}, "properties": {"NAME": "W7W/SK-054", "TITLE": "7157 Vets Peak", "REGION": "WA-Skagit", "ASSOCIATION": "USA - Washington", "POINTS": "8", "BONUSPOINTS": "3"}}, {"type": "Feature", "geometry": {"type": "Point", "coordinates": [-121.3255, 48.3759]}, "properties": {"NAME": "W7W/SK-055", "TITLE": "Mount Chaval", "REGION": "WA-Skagit", "ASSOCIATION": "USA - Washington", "POINTS": "8", "BONUSPOINTS": "3"}}, {"type": "Feature", "geometry": {"type": "Point", "coordinates": [-121.1593, 48.6124]}, "properties": {"NAME": "W7W/SK-056", "TITLE": "Display Mtn", "REGION": "WA-Skagit", "ASSOCIATION": "USA - Washington", "POINTS": "8", "BONUSPOINTS": "3"}}, {"type": "Feature", "geometry": {"type": "Point", "coordinates": [-121.1974, 48.5005]}, "properties": {"NAME": "W7W/SK-057", "TITLE": "North Hidden Lake Peaks", "REGION": "WA-Skagit", "ASSOCIATION": "USA - Washington", "POINTS": "8", "BONUSPOINTS": "3"}}, {"type": "Feature", "geometry": {"type": "Point", "coordinates": [-121.2935, 48.6046]}, "properties": {"NAME": "W7W/SK-058", "TITLE": "Big Devil Peak", "REGION": "WA-Skagit", "ASSOCIATION": "USA - Washington", "POINTS": "8", "BONUSPOINTS": "3"}}, {"type": "Feature", "geometry": {"type": "Point", "coordinates": [-121.1439, 48.3716]}, "properties": {"NAME": "W7W/SK-059", "TITLE": "Long Gone Peak", "REGION": "WA-Skagit", "ASSOCIATION": "USA - Washington", "POINTS": "8", "BONUSPOINTS": "3"}}, {"type": "Feature", "geometry": {"type": "Point", "coordinates": [-121.0657, 48.3916]}, "properties": {"NAME": "W7W/SK-060", "TITLE": "7004 Scanner Mtn", "REGION": "WA-Skagit", "ASSOCIATION": "USA - Washington", "POINTS": "8", "BONUSPOINTS": "3"}}, {"type": "Feature", "geometry": {"type": "Point", "coordinates": [-120.7522, 48.5135]}, "properties": {"NAME": "W7W/SK-061", "TITLE": "Crooked Bum", "REGION": "WA-Skagit", "ASSOCIATION": "USA - Washington", "POINTS": "8", "BONUSPOINTS": "3"}}, {"type": "Feature", "geometry": {"type": "Point", "coordinates": [-121.2685, 48.5765]}, "properties": {"NAME": "W7W/SK-062", "TITLE": "Little Devil Peak", "REGION": "WA-Skagit", "ASSOCIATION": "USA - Washington", "POINTS": "8", "BONUSPOINTS": "3"}}, {"type": "Feature", "geometry": {"type": "Point", "coordinates": [-121.1644, 48.3902]}, "properties": {"NAME": "W7W/SK-063", "TITLE": "Sonny Boy Peaks", "REGION": "WA-Skagit", "ASSOCIATION": "USA - Washington", "POINTS": "8", "BONUSPOINTS": "3"}}, {"type": "Feature", "geometry": {"type": "Point", "coordinates": [-120.7864, 48.5195]}, "properties": {"NAME": "W7W/SK-064", "TITLE": "Kawak Dome", "REGION": "WA-Skagit", "ASSOCIATION": "USA - Washington", "POINTS": "8", "BONUSPOINTS": "3"}}, {"type": "Feature", "geometry": {"type": "Point", "coordinates": [-121.2749, 48.6175]}, "properties": {"NAME": "W7W/SK-065", "TITLE": "The Trapezoid", "REGION": "WA-Skagit", "ASSOCIATION": "USA - Washington", "POINTS": "8", "BONUSPOINTS": "3"}}, {"type": "Feature", "geometry": {"type": "Point", "coordinates": [-121.1883, 48.5961]}, "properties": {"NAME": "W7W/SK-066", "TITLE": "Newhalem Peaks", "REGION": "WA-Skagit", "ASSOCIATION": "USA - Washington", "POINTS": "8", "BONUSPOINTS": "3"}}, {"type": "Feature", "geometry": {"type": "Point", "coordinates": [-120.8654, 48.6142]}, "properties": {"NAME": "W7W/SK-067", "TITLE": "6882 Cabinet Peak", "REGION": "WA-Skagit", "ASSOCIATION": "USA - Washington", "POINTS": "8", "BONUSPOINTS": "3"}}, {"type": "Feature", "geometry": {"type": "Point", "coordinates": [-120.8779, 48.604]}, "properties": {"NAME": "W7W/SK-068", "TITLE": "6865 Trumpet Peak", "REGION": "WA-Skagit", "ASSOCIATION": "USA - Washington", "POINTS": "8", "BONUSPOINTS": "3"}}, {"type": "Feature", "geometry": {"type": "Point", "coordinates": [-121.3174, 48.446]}, "properties": {"NAME": "W7W/SK-069", "TITLE": "Mount Tommy Thompson", "REGION": "WA-Skagit", "ASSOCIATION": "USA - Washington", "POINTS": "8", "BONUSPOINTS": "3"}}, {"type": "Feature", "geometry": {"type": "Point", "coordinates": [-121.2364, 48.3671]}, "properties": {"NAME": "W7W/SK-070", "TITLE": "6740 Gigahertz Pk", "REGION": "WA-Skagit", "ASSOCIATION": "USA - Washington", "POINTS": "8", "BONUSPOINTS": "3"}}, {"type": "Feature", "geometry": {"type": "Point", "coordinates": [-121.1663, 48.3604]}, "properties": {"NAME": "W7W/SK-071", "TITLE": "Tara Peak", "REGION": "WA-Skagit", "ASSOCIATION": "USA - Washington", "POINTS": "8", "BONUSPOINTS": "3"}}, {"type": "Feature", "geometry": {"type": "Point", "coordinates": [-121.2207, 48.3137]}, "properties": {"NAME": "W7W/SK-072", "TITLE": "6675 Mt Megahertz", "REGION": "WA-Skagit", "ASSOCIATION": "USA - Washington", "POINTS": "8", "BONUSPOINTS": "3"}}, {"type": "Feature", "geometry": {"type": "Point", "coordinates": [-121.2957, 48.4706]}, "properties": {"NAME": "W7W/SK-073", "TITLE": "Whale Peak", "REGION": "WA-Skagit", "ASSOCIATION": "USA - Washington", "POINTS": "6", "BONUSPOINTS": "3"}}, {"type": "Feature", "geometry": {"type": "Point", "coordinates": [-121.1196, 48.3152]}, "properties": {"NAME": "W7W/SK-074", "TITLE": "Spinster Peak", "REGION": "WA-Skagit", "ASSOCIATION": "USA - Washington", "POINTS": "6", "BONUSPOINTS": "3"}}, {"type": "Feature", "geometry": {"type": "Point", "coordinates": [-121.2202, 48.5662]}, "properties": {"NAME": "W7W/SK-075", "TITLE": "The Bat", "REGION": "WA-Skagit", "ASSOCIATION": "USA - Washington", "POINTS": "6", "BONUSPOINTS": "3"}}, {"type": "Feature", "geometry": {"type": "Point", "coordinates": [-121.3173, 48.3351]}, "properties": {"NAME": "W7W/SK-076", "TITLE": "Hurricane Peak", "REGION": "WA-Skagit", "ASSOCIATION": "USA - Washington", "POINTS": "6", "BONUSPOINTS": "3"}}, {"type": "Feature", "geometry": {"type": "Point", "coordinates": [-121.3592, 48.4683]}, "properties": {"NAME": "W7W/SK-077", "TITLE": "Jordan Benchmark", "REGION": "WA-Skagit", "ASSOCIATION": "USA - Washington", "POINTS": "6", "BONUSPOINTS": "3"}}, {"type": "Feature", "geometry": {"type": "Point", "coordinates": [-121.339, 48.4606]}, "properties": {"NAME": "W7W/SK-078", "TITLE": "6377 Boulder Peak", "REGION": "WA-Skagit", "ASSOCIATION": "USA - Washington", "POINTS": "6", "BONUSPOINTS": "3"}}, {"type": "Feature", "geometry": {"type": "Point", "coordinates": [-121.3238, 48.3221]}, "properties": {"NAME": "W7W/SK-079", "TITLE": "Boulder Benchmark", "REGION": "WA-Skagit", "ASSOCIATION": "USA - Washington", "POINTS": "6", "BONUSPOINTS": "3"}}, {"type": "Feature", "geometry": {"type": "Point", "coordinates": [-121.4828, 48.6316]}, "properties": {"NAME": "W7W/SK-080", "TITLE": "Logger Butte", "REGION": "WA-Skagit", "ASSOCIATION": "USA - Washington", "POINTS": "6", "BONUSPOINTS": "3"}}, {"type": "Feature", "geometry": {"type": "Point", "coordinates": [-121.1546, 48.4373]}, "properties": {"NAME": "W7W/SK-081", "TITLE": "Sunny Girl", "REGION": "WA-Skagit", "ASSOCIATION": "USA - Washington", "POINTS": "6", "BONUSPOINTS": "3"}}, {"type": "Feature", "geometry": {"type": "Point", "coordinates": [-121.3174, 48.4805]}, "properties": {"NAME": "W7W/SK-082", "TITLE": "Razorback Mountain", "REGION": "WA-Skagit", "ASSOCIATION": "USA - Washington", "POINTS": "6", "BONUSPOINTS": "3"}}, {"type": "Feature", "geometry": {"type": "Point", "coordinates": [-121.4022, 48.3856]}, "properties": {"NAME": "W7W/SK-083", "TITLE": "Bettys Jugs", "REGION": "WA-Skagit", "ASSOCIATION": "USA - Washington", "POINTS": "6", "BONUSPOINTS": "3"}}, {"type": "Feature", "geometry": {"type": "Point", "coordinates": [-121.3003, 48.4375]}, "properties": {"NAME": "W7W/SK-084", "TITLE": "6095 Hertz Pk", "REGION": "WA-Skagit", "ASSOCIATION": "USA - Washington", "POINTS": "6", "BONUSPOINTS": "3"}}, {"type": "Feature", "geometry": {"type": "Point", "coordinates": [-121.2077, 48.5331]}, "properties": {"NAME": "W7W/SK-085", "TITLE": "ExSpire", "REGION": "WA-Skagit", "ASSOCIATION": "USA - Washington", "POINTS": "6", "BONUSPOINTS": "3"}}, {"type": "Feature", "geometry": {"type": "Point", "coordinates": [-121.3757, 48.3804]}, "properties": {"NAME": "W7W/SK-086", "TITLE": "Mortons Neuroma", "REGION": "WA-Skagit", "ASSOCIATION": "USA - Washington", "POINTS": "6", "BONUSPOINTS": "3"}}, {"type": "Feature", "geometry": {"type": "Point", "coordinates": [-121.46, 48.4084]}, "properties": {"NAME": "W7W/SK-087", "TITLE": "Illabot Peaks", "REGION": "WA-Skagit", "ASSOCIATION": "USA - Washington", "POINTS": "6", "BONUSPOINTS": "3"}}, {"type": "Feature", "geometry": {"type": "Point", "coordinates": [-121.4767, 48.6189]}, "properties": {"NAME": "W7W/SK-088", "TITLE": "North Diobsud Buttes", "REGION": "WA-Skagit", "ASSOCIATION": "USA - Washington", "POINTS": "6", "BONUSPOINTS": "3"}}, {"type": "Feature", "geometry": {"type": "Point", "coordinates": [-121.3301, 48.4183]}, "properties": {"NAME": "W7W/SK-089", "TITLE": "Ottobot Peak", "REGION": "WA-Skagit", "ASSOCIATION": "USA - Washington", "POINTS": "6", "BONUSPOINTS": "3"}}, {"type": "Feature", "geometry": {"type": "Point", "coordinates": [-121.3698, 48.4422]}, "properties": {"NAME": "W7W/SK-090", "TITLE": "5792 Sweet Chariot", "REGION": "WA-Skagit", "ASSOCIATION": "USA - Washington", "POINTS": "6", "BONUSPOINTS": "3"}}, {"type": "Feature", "geometry": {"type": "Point", "coordinates": [-121.2412, 48.4334]}, "properties": {"NAME": "W7W/SK-091", "TITLE": "5791 Found Peak", "REGION": "WA-Skagit", "ASSOCIATION": "USA - Washington", "POINTS": "6", "BONUSPOINTS": "3"}}, {"type": "Feature", "geometry": {"type": "Point", "coordinates": [-121.1952, 48.5307]}, "properties": {"NAME": "W7W/SK-092", "TITLE": "5700 Per Spire", "REGION": "WA-Skagit", "ASSOCIATION": "USA - Washington", "POINTS": "6", "BONUSPOINTS": "3"}}, {"type": "Feature", "geometry": {"type": "Point", "coordinates": [-121.3293, 48.5521]}, "properties": {"NAME": "W7W/SK-093", "TITLE": "Lookout Mountain", "REGION": "WA-Skagit", "ASSOCIATION": "USA - Washington", "POINTS": "6", "BONUSPOINTS": "3"}}, {"type": "Feature", "geometry": {"type": "Point", "coordinates": [-121.6338, 48.6381]}, "properties": {"NAME": "W7W/SK-094", "TITLE": "Welker Peak", "REGION": "WA-Skagit", "ASSOCIATION": "USA - Washington", "POINTS": "6", "BONUSPOINTS": "3"}}, {"type": "Feature", "geometry": {"type": "Point", "coordinates": [-121.4954, 48.5706]}, "properties": {"NAME": "W7W/SK-095", "TITLE": "North Helen Buttes", "REGION": "WA-Skagit", "ASSOCIATION": "USA - Washington", "POINTS": "6", "BONUSPOINTS": "3"}}, {"type": "Feature", "geometry": {"type": "Point", "coordinates": [-121.6009, 48.5229]}, "properties": {"NAME": "W7W/SK-096", "TITLE": "Sauk Mountain", "REGION": "WA-Skagit", "ASSOCIATION": "USA - Washington", "POINTS": "6", "BONUSPOINTS": "3"}}, {"type": "Feature", "geometry": {"type": "Point", "coordinates": [-121.5854, 48.5304]}, "properties": {"NAME": "W7W/SK-097", "TITLE": "Bald Mountain", "REGION": "WA-Skagit", "ASSOCIATION": "USA - Washington", "POINTS": "6", "BONUSPOINTS": "3"}}, {"type": "Feature", "geometry": {"type": "Point", "coordinates": [-121.7506, 48.3264]}, "properties": {"NAME": "W7W/SK-098", "TITLE": "Round Mountain", "REGION": "WA-Skagit", "ASSOCIATION": "USA - Washington", "POINTS": "6", "BONUSPOINTS": "3"}}, {"type": "Feature", "geometry": {"type": "Point", "coordinates": [-121.4071, 48.4529]}, "properties": {"NAME": "W7W/SK-099", "TITLE": "5323 Swing Low", "REGION": "WA-Skagit", "ASSOCIATION": "USA - Washington", "POINTS": "6", "BONUSPOINTS": "3"}}, {"type": "Feature", "geometry": {"type": "Point", "coordinates": [-121.8064, 48.6393]}, "properties": {"NAME": "W7W/SK-100", "TITLE": "Dock Butte", "REGION": "WA-Skagit", "ASSOCIATION": "USA - Washington", "POINTS": "6", "BONUSPOINTS": "3"}}, {"type": "Feature", "geometry": {"type": "Point", "coordinates": [-121.5995, 48.5909]}, "properties": {"NAME": "W7W/SK-101", "TITLE": "Jackman Peak", "REGION": "WA-Skagit", "ASSOCIATION": "USA - Washington", "POINTS": "6", "BONUSPOINTS": "3"}}, {"type": "Feature", "geometry": {"type": "Point", "coordinates": [-121.7622, 48.315]}, "properties": {"NAME": "W7W/SK-102", "TITLE": "Mount Higgins", "REGION": "WA-Skagit", "ASSOCIATION": "USA - Washington", "POINTS": "6", "BONUSPOINTS": "3"}}, {"type": "Feature", "geometry": {"type": "Point", "coordinates": [-121.5439, 48.6113]}, "properties": {"NAME": "W7W/SK-103", "TITLE": "5140 Multipath Mtn", "REGION": "WA-Skagit", "ASSOCIATION": "USA - Washington", "POINTS": "6", "BONUSPOINTS": "3"}}, {"type": "Feature", "geometry": {"type": "Point", "coordinates": [-121.8136, 48.4498]}, "properties": {"NAME": "W7W/SK-104", "TITLE": "Big Gee", "REGION": "WA-Skagit", "ASSOCIATION": "USA - Washington", "POINTS": "6", "BONUSPOINTS": "3"}}, {"type": "Feature", "geometry": {"type": "Point", "coordinates": [-121.7457, 48.3807]}, "properties": {"NAME": "W7W/SK-105", "TITLE": "Finney Peak", "REGION": "WA-Skagit", "ASSOCIATION": "USA - Washington", "POINTS": "6", "BONUSPOINTS": "3"}}, {"type": "Feature", "geometry": {"type": "Point", "coordinates": [-121.5041, 48.4047]}, "properties": {"NAME": "W7W/SK-106", "TITLE": "Suiattle Mountain", "REGION": "WA-Skagit", "ASSOCIATION": "USA - Washington", "POINTS": "6", "BONUSPOINTS": "3"}}, {"type": "Feature", "geometry": {"type": "Point", "coordinates": [-121.7668, 48.3321]}, "properties": {"NAME": "W7W/SK-107", "TITLE": "Orbit Peak", "REGION": "WA-Skagit", "ASSOCIATION": "USA - Washington", "POINTS": "6", "BONUSPOINTS": "3"}}, {"type": "Feature", "geometry": {"type": "Point", "coordinates": [-121.5612, 48.6293]}, "properties": {"NAME": "W7W/SK-108", "TITLE": "5046 Knife Edge Ridge", "REGION": "WA-Skagit", "ASSOCIATION": "USA - Washington", "POINTS": "6", "BONUSPOINTS": "3"}}, {"type": "Feature", "geometry": {"type": "Point", "coordinates": [-121.5615, 48.5475]}, "properties": {"NAME": "W7W/SK-109", "TITLE": "5038 Near Vertical Incidence Pk", "REGION": "WA-Skagit", "ASSOCIATION": "USA - Washington", "POINTS": "6", "BONUSPOINTS": "3"}}, {"type": "Feature", "geometry": {"type": "Point", "coordinates": [-121.8245, 48.434]}, "properties": {"NAME": "W7W/SK-110", "TITLE": "Gee Peak", "REGION": "WA-Skagit", "ASSOCIATION": "USA - Washington", "POINTS": "6", "BONUSPOINTS": "3"}}, {"type": "Feature", "geometry": {"type": "Point", "coordinates": [-121.8179, 48.4425]}, "properties": {"NAME": "W7W/SK-111", "TITLE": "Golly Peak", "REGION": "WA-Skagit", "ASSOCIATION": "USA - Washington", "POINTS": "6", "BONUSPOINTS": "3"}}, {"type": "Feature", "geometry": {"type": "Point", "coordinates": [-121.487, 48.4319]}, "properties": {"NAME": "W7W/SK-112", "TITLE": "The Occiput", "REGION": "WA-Skagit", "ASSOCIATION": "USA - Washington", "POINTS": "4", "BONUSPOINTS": "0"}}, {"type": "Feature", "geometry": {"type": "Point", "coordinates": [-121.6283, 48.5757]}, "properties": {"NAME": "W7W/SK-113", "TITLE": "4830 Second Hop Summit", "REGION": "WA-Skagit", "ASSOCIATION": "USA - Washington", "POINTS": "4", "BONUSPOINTS": "0"}}, {"type": "Feature", "geometry": {"type": "Point", "coordinates": [-121.8315, 48.6285]}, "properties": {"NAME": "W7W/SK-114", "TITLE": "Washington Monument", "REGION": "WA-Skagit", "ASSOCIATION": "USA - Washington", "POINTS": "4", "BONUSPOINTS": "0"}}, {"type": "Feature", "geometry": {"type": "Point", "coordinates": [-121.6344, 48.5918]}, "properties": {"NAME": "W7W/SK-115", "TITLE": "4795 Moonbounce Mtn", "REGION": "WA-Skagit", "ASSOCIATION": "USA - Washington", "POINTS": "4", "BONUSPOINTS": "0"}}, {"type": "Feature", "geometry": {"type": "Point", "coordinates": [-121.942, 48.4786]}, "properties": {"NAME": "W7W/SK-116", "TITLE": "Iron Mountain", "REGION": "WA-Skagit", "ASSOCIATION": "USA - Washington", "POINTS": "4", "BONUSPOINTS": "0"}}, {"type": "Feature", "geometry": {"type": "Point", "coordinates": [-121.8415, 48.5998]}, "properties": {"NAME": "W7W/SK-117", "TITLE": "Goat Mountain", "REGION": "WA-Skagit", "ASSOCIATION": "USA - Washington", "POINTS": "4", "BONUSPOINTS": "0"}}, {"type": "Feature", "geometry": {"type": "Point", "coordinates": [-121.6602, 48.5624]}, "properties": {"NAME": "W7W/SK-118", "TITLE": "Cement Mountain", "REGION": "WA-Skagit", "ASSOCIATION": "USA - Washington", "POINTS": "4", "BONUSPOINTS": "0"}}, {"type": "Feature", "geometry": {"type": "Point", "coordinates": [-121.8999, 48.4696]}, "properties": {"NAME": "W7W/SK-119", "TITLE": "Lumber Mill Mountain", "REGION": "WA-Skagit", "ASSOCIATION": "USA - Washington", "POINTS": "4", "BONUSPOINTS": "0"}}, {"type": "Feature", "geometry": {"type": "Point", "coordinates": [-121.841, 48.6425]}, "properties": {"NAME": "W7W/SK-120", "TITLE": "4708 Transponder Mtn", "REGION": "WA-Skagit", "ASSOCIATION": "USA - Washington", "POINTS": "4", "BONUSPOINTS": "0"}}, {"type": "Feature", "geometry": {"type": "Point", "coordinates": [-121.8393, 48.4404]}, "properties": {"NAME": "W7W/SK-121", "TITLE": "Aw Peak", "REGION": "WA-Skagit", "ASSOCIATION": "USA - Washington", "POINTS": "4", "BONUSPOINTS": "0"}}, {"type": "Feature", "geometry": {"type": "Point", "coordinates": [-121.4884, 48.3919]}, "properties": {"NAME": "W7W/SK-122", "TITLE": "4700 Field Effect Summit", "REGION": "WA-Skagit", "ASSOCIATION": "USA - Washington", "POINTS": "4", "BONUSPOINTS": "0"}}, {"type": "Feature", "geometry": {"type": "Point", "coordinates": [-121.7318, 48.3695]}, "properties": {"NAME": "W7W/SK-123", "TITLE": "Branches Mountain", "REGION": "WA-Skagit", "ASSOCIATION": "USA - Washington", "POINTS": "4", "BONUSPOINTS": "0"}}, {"type": "Feature", "geometry": {"type": "Point", "coordinates": [-121.8885, 48.4363]}, "properties": {"NAME": "W7W/SK-124", "TITLE": "Lumberjack Mountain", "REGION": "WA-Skagit", "ASSOCIATION": "USA - Washington", "POINTS": "4", "BONUSPOINTS": "0"}}, {"type": "Feature", "geometry": {"type": "Point", "coordinates": [-121.7211, 48.4036]}, "properties": {"NAME": "W7W/SK-125", "TITLE": "Anxious Groom Mountain", "REGION": "WA-Skagit", "ASSOCIATION": "USA - Washington", "POINTS": "4", "BONUSPOINTS": "0"}}, {"type": "Feature", "geometry": {"type": "Point", "coordinates": [-121.785, 48.4295]}, "properties": {"NAME": "W7W/SK-126", "TITLE": "Willickers Point", "REGION": "WA-Skagit", "ASSOCIATION": "USA - Washington", "POINTS": "4", "BONUSPOINTS": "0"}}, {"type": "Feature", "geometry": {"type": "Point", "coordinates": [-121.9062, 48.3952]}, "properties": {"NAME": "W7W/SK-127", "TITLE": "Little Deer Peak", "REGION": "WA-Skagit", "ASSOCIATION": "USA - Washington", "POINTS": "4", "BONUSPOINTS": "0"}}, {"type": "Feature", "geometry": {"type": "Point", "coordinates": [-121.8547, 48.4236]}, "properties": {"NAME": "W7W/SK-128", "TITLE": "4460 Reforest Mountain", "REGION": "WA-Skagit", "ASSOCIATION": "USA - Washington", "POINTS": "4", "BONUSPOINTS": "0"}}, {"type": "Feature", "geometry": {"type": "Point", "coordinates": [-121.6818, 48.3612]}, "properties": {"NAME": "W7W/SK-129", "TITLE": "4380 Lucky Logger", "REGION": "WA-Skagit", "ASSOCIATION": "USA - Washington", "POINTS": "4", "BONUSPOINTS": "0"}}, {"type": "Feature", "geometry": {"type": "Point", "coordinates": [-121.916, 48.3798]}, "properties": {"NAME": "W7W/SK-130", "TITLE": "Big Deer Peak", "REGION": "WA-Skagit", "ASSOCIATION": "USA - Washington", "POINTS": "4", "BONUSPOINTS": "0"}}, {"type": "Feature", "geometry": {"type": "Point", "coordinates": [-121.805, 48.5982]}, "properties": {"NAME": "W7W/SK-131", "TITLE": "4340 Red Rock Mountain", "REGION": "WA-Skagit", "ASSOCIATION": "USA - Washington", "POINTS": "4", "BONUSPOINTS": "0"}}, {"type": "Feature", "geometry": {"type": "Point", "coordinates": [-121.9423, 48.4219]}, "properties": {"NAME": "W7W/SK-132", "TITLE": "South Coal Mountain", "REGION": "WA-Skagit", "ASSOCIATION": "USA - Washington", "POINTS": "4", "BONUSPOINTS": "0"}}, {"type": "Feature", "geometry": {"type": "Point", "coordinates": [-121.7007, 48.3779]}, "properties": {"NAME": "W7W/SK-133", "TITLE": "4300 Throughtput Mtn", "REGION": "WA-Skagit", "ASSOCIATION": "USA - Washington", "POINTS": "4", "BONUSPOINTS": "0"}}, {"type": "Feature", "geometry": {"type": "Point", "coordinates": [-122.1589, 48.5947]}, "properties": {"NAME": "W7W/SK-134", "TITLE": "Lyman Hill", "REGION": "WA-Skagit", "ASSOCIATION": "USA - Washington", "POINTS": "4", "BONUSPOINTS": "0"}}, {"type": "Feature", "geometry": {"type": "Point", "coordinates": [-121.8713, 48.4608]}, "properties": {"NAME": "W7W/SK-135", "TITLE": "4260 Continuity Pk", "REGION": "WA-Skagit", "ASSOCIATION": "USA - Washington", "POINTS": "4", "BONUSPOINTS": "0"}}, {"type": "Feature", "geometry": {"type": "Point", "coordinates": [-121.9991, 48.6303]}, "properties": {"NAME": "W7W/SK-136", "TITLE": "Miner Mountain", "REGION": "WA-Skagit", "ASSOCIATION": "USA - Washington", "POINTS": "4", "BONUSPOINTS": "0"}}, {"type": "Feature", "geometry": {"type": "Point", "coordinates": [-121.8437, 48.3432]}, "properties": {"NAME": "W7W/SK-137", "TITLE": "McGillicuddys Peak", "REGION": "WA-Skagit", "ASSOCIATION": "USA - Washington", "POINTS": "4", "BONUSPOINTS": "0"}}, {"type": "Feature", "geometry": {"type": "Point", "coordinates": [-122.0775, 48.4345]}, "properties": {"NAME": "W7W/SK-138", "TITLE": "Silo Mountain", "REGION": "WA-Skagit", "ASSOCIATION": "USA - Washington", "POINTS": "4", "BONUSPOINTS": "0"}}, {"type": "Feature", "geometry": {"type": "Point", "coordinates": [-122.1156, 48.4209]}, "properties": {"NAME": "W7W/SK-139", "TITLE": "4100 Big Cultus Mountain", "REGION": "WA-Skagit", "ASSOCIATION": "USA - Washington", "POINTS": "4", "BONUSPOINTS": "0"}}, {"type": "Feature", "geometry": {"type": "Point", "coordinates": [-122.0703, 48.4005]}, "properties": {"NAME": "W7W/SK-140", "TITLE": "Teepee Peak", "REGION": "WA-Skagit", "ASSOCIATION": "USA - Washington", "POINTS": "4", "BONUSPOINTS": "0"}}, {"type": "Feature", "geometry": {"type": "Point", "coordinates": [-121.9617, 48.5885]}, "properties": {"NAME": "W7W/SK-141", "TITLE": "Mount Josephine", "REGION": "WA-Skagit", "ASSOCIATION": "USA - Washington", "POINTS": "4", "BONUSPOINTS": "0"}}, {"type": "Feature", "geometry": {"type": "Point", "coordinates": [-121.6036, 48.3125]}, "properties": {"NAME": "W7W/SK-142", "TITLE": "North Mountain", "REGION": "WA-Skagit", "ASSOCIATION": "USA - Washington", "POINTS": "4", "BONUSPOINTS": "0"}}, {"type": "Feature", "geometry": {"type": "Point", "coordinates": [-121.2979, 48.5178]}, "properties": {"NAME": "W7W/SK-143", "TITLE": "Tsiatko Peak", "REGION": "WA-Skagit", "ASSOCIATION": "USA - Washington", "POINTS": "4", "BONUSPOINTS": "0"}}, {"type": "Feature", "geometry": {"type": "Point", "coordinates": [-121.6637, 48.4426]}, "properties": {"NAME": "W7W/SK-144", "TITLE": "Rinker Ridge", "REGION": "WA-Skagit", "ASSOCIATION": "USA - Washington", "POINTS": "4", "BONUSPOINTS": "0"}}, {"type": "Feature", "geometry": {"type": "Point", "coordinates": [-121.8402, 48.319]}, "properties": {"NAME": "W7W/SK-145", "TITLE": "3775 Lowband Mtn", "REGION": "WA-Skagit", "ASSOCIATION": "USA - Washington", "POINTS": "4", "BONUSPOINTS": "0"}}, {"type": "Feature", "geometry": {"type": "Point", "coordinates": [-122.0409, 48.414]}, "properties": {"NAME": "W7W/SK-146", "TITLE": "3740 Propagation Pk", "REGION": "WA-Skagit", "ASSOCIATION": "USA - Washington", "POINTS": "4", "BONUSPOINTS": "0"}}, {"type": "Feature", "geometry": {"type": "Point", "coordinates": [-121.9035, 48.3319]}, "properties": {"NAME": "W7W/SK-147", "TITLE": "3652 Relay Mtn", "REGION": "WA-Skagit", "ASSOCIATION": "USA - Washington", "POINTS": "4", "BONUSPOINTS": "0"}}, {"type": "Feature", "geometry": {"type": "Point", "coordinates": [-121.9685, 48.3835]}, "properties": {"NAME": "W7W/SK-148", "TITLE": "3397 Night Mountain", "REGION": "WA-Skagit", "ASSOCIATION": "USA - Washington", "POINTS": "4", "BONUSPOINTS": "0"}}, {"type": "Feature", "geometry": {"type": "Point", "coordinates": [-122.2569, 48.6404]}, "properties": {"NAME": "W7W/SK-149", "TITLE": "Anderson Mountain", "REGION": "WA-Skagit", "ASSOCIATION": "USA - Washington", "POINTS": "4", "BONUSPOINTS": "0"}}, {"type": "Feature", "geometry": {"type": "Point", "coordinates": [-122.0004, 48.5867]}, "properties": {"NAME": "W7W/SK-150", "TITLE": "3260 Mount Josephine-West Peak", "REGION": "WA-Skagit", "ASSOCIATION": "USA - Washington", "POINTS": "2", "BONUSPOINTS": "0"}}, {"type": "Feature", "geometry": {"type": "Point", "coordinates": [-122.0324, 48.3117]}, "properties": {"NAME": "W7W/SK-151", "TITLE": "Frailey Mountain", "REGION": "WA-Skagit", "ASSOCIATION": "USA - Washington", "POINTS": "2", "BONUSPOINTS": "0"}}, {"type": "Feature", "geometry": {"type": "Point", "coordinates": [-121.6614, 48.302]}, "properties": {"NAME": "W7W/SK-152", "TITLE": "Bumper Hill", "REGION": "WA-Skagit", "ASSOCIATION": "USA - Washington", "POINTS": "2", "BONUSPOINTS": "0"}}, {"type": "Feature", "geometry": {"type": "Point", "coordinates": [-122.1062, 48.3039]}, "properties": {"NAME": "W7W/SK-153", "TITLE": "Mount Washington", "REGION": "WA-Skagit", "ASSOCIATION": "USA - Washington", "POINTS": "2", "BONUSPOINTS": "0"}}, {"type": "Feature", "geometry": {"type": "Point", "coordinates": [-122.0449, 48.3659]}, "properties": {"NAME": "W7W/SK-154", "TITLE": "Bald Mountain", "REGION": "WA-Skagit", "ASSOCIATION": "USA - Washington", "POINTS": "2", "BONUSPOINTS": "0"}}, {"type": "Feature", "geometry": {"type": "Point", "coordinates": [-122.4073, 48.6267]}, "properties": {"NAME": "W7W/SK-155", "TITLE": "Chuckanut Mountain", "REGION": "WA-Skagit", "ASSOCIATION": "USA - Washington", "POINTS": "2", "BONUSPOINTS": "0"}}, {"type": "Feature", "geometry": {"type": "Point", "coordinates": [-121.5416, 48.4132]}, "properties": {"NAME": "W7W/SK-156", "TITLE": "Wall Mountain", "REGION": "WA-Skagit", "ASSOCIATION": "USA - Washington", "POINTS": "2", "BONUSPOINTS": "0"}}, {"type": "Feature", "geometry": {"type": "Point", "coordinates": [-121.9945, 48.3397]}, "properties": {"NAME": "W7W/SK-157", "TITLE": "2132 Railroad Grade Mountain", "REGION": "WA-Skagit", "ASSOCIATION": "USA - Washington", "POINTS": "2", "BONUSPOINTS": "0"}}, {"type": "Feature", "geometry": {"type": "Point", "coordinates": [-121.5496, 48.4558]}, "properties": {"NAME": "W7W/SK-158", "TITLE": "Ittome Hill", "REGION": "WA-Skagit", "ASSOCIATION": "USA - Washington", "POINTS": "2", "BONUSPOINTS": "0"}}, {"type": "Feature", "geometry": {"type": "Point", "coordinates": [-121.4718, 48.5311]}, "properties": {"NAME": "W7W/SK-159", "TITLE": "The Cork", "REGION": "WA-Skagit", "ASSOCIATION": "USA - Washington", "POINTS": "2", "BONUSPOINTS": "0"}}, {"type": "Feature", "geometry": {"type": "Point", "coordinates": [-122.0614, 48.3326]}, "properties": {"NAME": "W7W/SK-160", "TITLE": "Mount Cavanaugh", "REGION": "WA-Skagit", "ASSOCIATION": "USA - Washington", "POINTS": "2", "BONUSPOINTS": "0"}}, {"type": "Feature", "geometry": {"type": "Point", "coordinates": [-121.7301, 48.6353]}, "properties": {"NAME": "W7W/SK-161", "TITLE": "1780 Passband Hill", "REGION": "WA-Skagit", "ASSOCIATION": "USA - Washington", "POINTS": "2", "BONUSPOINTS": "0"}}, {"type": "Feature", "geometry": {"type": "Point", "coordinates": [-121.5643, 48.4354]}, "properties": {"NAME": "W7W/SK-162", "TITLE": "Fizzle Hill", "REGION": "WA-Skagit", "ASSOCIATION": "USA - Washington", "POINTS": "2", "BONUSPOINTS": "0"}}, {"type": "Feature", "geometry": {"type": "Point", "coordinates": [-122.2682, 48.3649]}, "properties": {"NAME": "W7W/SK-163", "TITLE": "Devils Mountain", "REGION": "WA-Skagit", "ASSOCIATION": "USA - Washington", "POINTS": "2", "BONUSPOINTS": "0"}}, {"type": "Feature", "geometry": {"type": "Point", "coordinates": [-122.7014, 48.5647]}, "properties": {"NAME": "W7W/SK-164", "TITLE": "Cypress Island", "REGION": "WA-Skagit", "ASSOCIATION": "USA - Washington", "POINTS": "1", "BONUSPOINTS": "0"}}, {"type": "Feature", "geometry": {"type": "Point", "coordinates": [-122.7207, 48.5804]}, "properties": {"NAME": "W7W/SK-165", "TITLE": "1485 Cypress Island North Peak", "REGION": "WA-Skagit", "ASSOCIATION": "USA - Washington", "POINTS": "1", "BONUSPOINTS": "0"}}, {"type": "Feature", "geometry": {"type": "Point", "coordinates": [-122.2361, 48.3029]}, "properties": {"NAME": "W7W/SK-166", "TITLE": "McMurray Benchmark", "REGION": "WA-Skagit", "ASSOCIATION": "USA - Washington", "POINTS": "1", "BONUSPOINTS": "0"}}, {"type": "Feature", "geometry": {"type": "Point", "coordinates": [-121.5892, 48.4322]}, "properties": {"NAME": "W7W/SK-167", "TITLE": "Flume Hill", "REGION": "WA-Skagit", "ASSOCIATION": "USA - Washington", "POINTS": "1", "BONUSPOINTS": "0"}}, {"type": "Feature", "geometry": {"type": "Point", "coordinates": [-122.3389, 48.6343]}, "properties": {"NAME": "W7W/SK-168", "TITLE": "Little Baldy", "REGION": "WA-Skagit", "ASSOCIATION": "USA - Washington", "POINTS": "1", "BONUSPOINTS": "0"}}, {"type": "Feature", "geometry": {"type": "Point", "coordinates": [-122.6255, 48.4538]}, "properties": {"NAME": "W7W/SK-169", "TITLE": "Mount Erie", "REGION": "WA-Skagit", "ASSOCIATION": "USA - Washington", "POINTS": "1", "BONUSPOINTS": "0"}}, {"type": "Feature", "geometry": {"type": "Point", "coordinates": [-121.7903, 48.5197]}, "properties": {"NAME": "W7W/SK-170", "TITLE": "High School Hill", "REGION": "WA-Skagit", "ASSOCIATION": "USA - Washington", "POINTS": "1", "BONUSPOINTS": "0"}}, {"type": "Feature", "geometry": {"type": "Point", "coordinates": [-122.3877, 48.6015]}, "properties": {"NAME": "W7W/SK-171", "TITLE": "1150 Attenuator Hill", "REGION": "WA-Skagit", "ASSOCIATION": "USA - Washington", "POINTS": "1", "BONUSPOINTS": "0"}}, {"type": "Feature", "geometry": {"type": "Point", "coordinates": [-122.2249, 48.4784]}, "properties": {"NAME": "W7W/SK-172", "TITLE": "Skagit Gadget", "REGION": "WA-Skagit", "ASSOCIATION": "USA - Washington", "POINTS": "1", "BONUSPOINTS": "0"}}, {"type": "Feature", "geometry": {"type": "Point", "coordinates": [-122.3079, 48.3966]}, "properties": {"NAME": "W7W/SK-173", "TITLE": "Little Mountain", "REGION": "WA-Skagit", "ASSOCIATION": "USA - Washington", "POINTS": "1", "BONUSPOINTS": "0"}}, {"type": "Feature", "geometry": {"type": "Point", "coordinates": [-122.2836, 48.5414]}, "properties": {"NAME": "W7W/SK-174", "TITLE": "892 Spot Hill", "REGION": "WA-Skagit", "ASSOCIATION": "USA - Washington", "POINTS": "1", "BONUSPOINTS": "0"}}, {"type": "Feature", "geometry": {"type": "Point", "coordinates": [-122.7216, 48.6014]}, "properties": {"NAME": "W7W/SK-175", "TITLE": "Eagle Nest Benchmark", "REGION": "WA-Skagit", "ASSOCIATION": "USA - Washington", "POINTS": "1", "BONUSPOINTS": "0"}}, {"type": "Feature", "geometry": {"type": "Point", "coordinates": [-122.6505, 48.4274]}, "properties": {"NAME": "W7W/SK-176", "TITLE": "Mount High-G", "REGION": "WA-Skagit", "ASSOCIATION": "USA - Washington", "POINTS": "1", "BONUSPOINTS": "0"}}, {"type": "Feature", "geometry": {"type": "Point", "coordinates": [-122.5902, 48.5486]}, "properties": {"NAME": "W7W/SK-177", "TITLE": "Guemes Island", "REGION": "WA-Skagit", "ASSOCIATION": "USA - Washington", "POINTS": "1", "BONUSPOINTS": "0"}}, {"type": "Feature", "geometry": {"type": "Point", "coordinates": [-122.7008, 48.4802]}, "properties": {"NAME": "W7W/SK-178", "TITLE": "Burrows Island", "REGION": "WA-Skagit", "ASSOCIATION": "USA - Washington", "POINTS": "1", "BONUSPOINTS": "0"}}, {"type": "Feature", "geometry": {"type": "Point", "coordinates": [-121.1538, 48.6366]}, "properties": {"NAME": "W7W/SK-179", "TITLE": "Horsemans Pack", "REGION": "WA-Skagit", "ASSOCIATION": "USA - Washington", "POINTS": "8", "BONUSPOINTS": "3"}}, {"type": "Feature", "geometry": {"type": "Point", "coordinates": [-121.1578, 48.4112]}, "properties": {"NAME": "W7W/SK-180", "TITLE": "Sonny Babe", "REGION": "WA-Skagit", "ASSOCIATION": "USA - Washington", "POINTS": "6", "BONUSPOINTS": "3"}}, {"type": "Feature", "geometry": {"type": "Point", "coordinates": [-121.7375, 48.5072]}, "properties": {"NAME": "W7W/SK-181", "TITLE": "1125Concrete Hill East", "REGION": "WA-Skagit", "ASSOCIATION": "USA - Washington", "POINTS": "1", "BONUSPOINTS": "0"}}, {"type": "Feature", "geometry": {"type": "Point", "coordinates": [-122.2938, 48.5467]}, "properties": {"NAME": "W7W/SK-182", "TITLE": "Butler Hill", "REGION": "WA-Skagit", "ASSOCIATION": "USA - Washington", "POINTS": "1", "BONUSPOINTS": "0"}}]}