{"type": "FeatureCollection", "name": "W7W/WH SUMMITS", "features": [{"type": "Feature", "geometry": {"type": "Point", "coordinates": [-121.8144, 48.7768]}, "properties": {"NAME": "W7W/WH-001", "TITLE": "Mount Baker", "REGION": "WA-Whatcom", "ASSOCIATION": "USA - Washington", "POINTS": "10", "BONUSPOINTS": "3"}}, {"type": "Feature", "geometry": {"type": "Point", "coordinates": [-121.6028, 48.8311]}, "properties": {"NAME": "W7W/WH-002", "TITLE": "Mount Shuksan", "REGION": "WA-Whatcom", "ASSOCIATION": "USA - Washington", "POINTS": "10", "BONUSPOINTS": "3"}}, {"type": "Feature", "geometry": {"type": "Point", "coordinates": [-121.8586, 48.7683]}, "properties": {"NAME": "W7W/WH-003", "TITLE": "Lincoln Peak", "REGION": "WA-Whatcom", "ASSOCIATION": "USA - Washington", "POINTS": "10", "BONUSPOINTS": "3"}}, {"type": "Feature", "geometry": {"type": "Point", "coordinates": [-120.9564, 48.7728]}, "properties": {"NAME": "W7W/WH-004", "TITLE": "Jack Mountain", "REGION": "WA-Whatcom", "ASSOCIATION": "USA - Washington", "POINTS": "10", "BONUSPOINTS": "3"}}, {"type": "Feature", "geometry": {"type": "Point", "coordinates": [-121.2406, 48.9697]}, "properties": {"NAME": "W7W/WH-005", "TITLE": "Mount Spickard", "REGION": "WA-Whatcom", "ASSOCIATION": "USA - Washington", "POINTS": "10", "BONUSPOINTS": "3"}}, {"type": "Feature", "geometry": {"type": "Point", "coordinates": [-121.3008, 48.9578]}, "properties": {"NAME": "W7W/WH-006", "TITLE": "Mount Redoubt", "REGION": "WA-Whatcom", "ASSOCIATION": "USA - Washington", "POINTS": "10", "BONUSPOINTS": "3"}}, {"type": "Feature", "geometry": {"type": "Point", "coordinates": [-121.2497, 48.989]}, "properties": {"NAME": "W7W/WH-007", "TITLE": "Custer Ridge", "REGION": "WA-Whatcom", "ASSOCIATION": "USA - Washington", "POINTS": "10", "BONUSPOINTS": "3"}}, {"type": "Feature", "geometry": {"type": "Point", "coordinates": [-121.2569, 48.9471]}, "properties": {"NAME": "W7W/WH-008", "TITLE": "Mox Peaks (HP)", "REGION": "WA-Whatcom", "ASSOCIATION": "USA - Washington", "POINTS": "10", "BONUSPOINTS": "3"}}, {"type": "Feature", "geometry": {"type": "Point", "coordinates": [-121.2625, 48.9487]}, "properties": {"NAME": "W7W/WH-009", "TITLE": "West Mox Peaks", "REGION": "WA-Whatcom", "ASSOCIATION": "USA - Washington", "POINTS": "10", "BONUSPOINTS": "3"}}, {"type": "Feature", "geometry": {"type": "Point", "coordinates": [-120.7577, 48.6857]}, "properties": {"NAME": "W7W/WH-010", "TITLE": "Mount Ballard", "REGION": "WA-Whatcom", "ASSOCIATION": "USA - Washington", "POINTS": "10", "BONUSPOINTS": "3"}}, {"type": "Feature", "geometry": {"type": "Point", "coordinates": [-121.2719, 48.8308]}, "properties": {"NAME": "W7W/WH-011", "TITLE": "Luna Peak", "REGION": "WA-Whatcom", "ASSOCIATION": "USA - Washington", "POINTS": "10", "BONUSPOINTS": "3"}}, {"type": "Feature", "geometry": {"type": "Point", "coordinates": [-120.862, 48.982]}, "properties": {"NAME": "W7W/WH-012", "TITLE": "Castle Peak", "REGION": "WA-Whatcom", "ASSOCIATION": "USA - Washington", "POINTS": "10", "BONUSPOINTS": "3"}}, {"type": "Feature", "geometry": {"type": "Point", "coordinates": [-121.3228, 48.8117]}, "properties": {"NAME": "W7W/WH-013", "TITLE": "Mount Fury", "REGION": "WA-Whatcom", "ASSOCIATION": "USA - Washington", "POINTS": "10", "BONUSPOINTS": "3"}}, {"type": "Feature", "geometry": {"type": "Point", "coordinates": [-121.3422, 48.8364]}, "properties": {"NAME": "W7W/WH-014", "TITLE": "Mount Challenger", "REGION": "WA-Whatcom", "ASSOCIATION": "USA - Washington", "POINTS": "10", "BONUSPOINTS": "3"}}, {"type": "Feature", "geometry": {"type": "Point", "coordinates": [-121.2992, 48.7747]}, "properties": {"NAME": "W7W/WH-015", "TITLE": "Mount Terror", "REGION": "WA-Whatcom", "ASSOCIATION": "USA - Washington", "POINTS": "8", "BONUSPOINTS": "3"}}, {"type": "Feature", "geometry": {"type": "Point", "coordinates": [-120.92, 48.7392]}, "properties": {"NAME": "W7W/WH-016", "TITLE": "Crater Mountain", "REGION": "WA-Whatcom", "ASSOCIATION": "USA - Washington", "POINTS": "8", "BONUSPOINTS": "3"}}, {"type": "Feature", "geometry": {"type": "Point", "coordinates": [-121.0119, 48.9819]}, "properties": {"NAME": "W7W/WH-017", "TITLE": "Hozomeen Mountain", "REGION": "WA-Whatcom", "ASSOCIATION": "USA - Washington", "POINTS": "8", "BONUSPOINTS": "3"}}, {"type": "Feature", "geometry": {"type": "Point", "coordinates": [-121.2166, 48.9951]}, "properties": {"NAME": "W7W/WH-018", "TITLE": "Devils Tongue", "REGION": "WA-Whatcom", "ASSOCIATION": "USA - Washington", "POINTS": "8", "BONUSPOINTS": "3"}}, {"type": "Feature", "geometry": {"type": "Point", "coordinates": [-121.2786, 48.7731]}, "properties": {"NAME": "W7W/WH-019", "TITLE": "West McMillan Spire", "REGION": "WA-Whatcom", "ASSOCIATION": "USA - Washington", "POINTS": "8", "BONUSPOINTS": "3"}}, {"type": "Feature", "geometry": {"type": "Point", "coordinates": [-120.9976, 48.9729]}, "properties": {"NAME": "W7W/WH-020", "TITLE": "South Hozomeen Mountain", "REGION": "WA-Whatcom", "ASSOCIATION": "USA - Washington", "POINTS": "8", "BONUSPOINTS": "3"}}, {"type": "Feature", "geometry": {"type": "Point", "coordinates": [-121.665, 48.9954]}, "properties": {"NAME": "W7W/WH-021", "TITLE": "American Border Peak", "REGION": "WA-Whatcom", "ASSOCIATION": "USA - Washington", "POINTS": "8", "BONUSPOINTS": "3"}}, {"type": "Feature", "geometry": {"type": "Point", "coordinates": [-120.7633, 48.9006]}, "properties": {"NAME": "W7W/WH-022", "TITLE": "Three Fools Peak", "REGION": "WA-Whatcom", "ASSOCIATION": "USA - Washington", "POINTS": "8", "BONUSPOINTS": "3"}}, {"type": "Feature", "geometry": {"type": "Point", "coordinates": [-121.3126, 48.7765]}, "properties": {"NAME": "W7W/WH-023", "TITLE": "West Twin Needles", "REGION": "WA-Whatcom", "ASSOCIATION": "USA - Washington", "POINTS": "8", "BONUSPOINTS": "3"}}, {"type": "Feature", "geometry": {"type": "Point", "coordinates": [-121.3408, 48.9306]}, "properties": {"NAME": "W7W/WH-024", "TITLE": "Bear Mountain", "REGION": "WA-Whatcom", "ASSOCIATION": "USA - Washington", "POINTS": "8", "BONUSPOINTS": "3"}}, {"type": "Feature", "geometry": {"type": "Point", "coordinates": [-121.2253, 48.9619]}, "properties": {"NAME": "W7W/WH-025", "TITLE": "Tombstone Peak", "REGION": "WA-Whatcom", "ASSOCIATION": "USA - Washington", "POINTS": "8", "BONUSPOINTS": "3"}}, {"type": "Feature", "geometry": {"type": "Point", "coordinates": [-121.6478, 48.9791]}, "properties": {"NAME": "W7W/WH-026", "TITLE": "Mount Larrabee", "REGION": "WA-Whatcom", "ASSOCIATION": "USA - Washington", "POINTS": "8", "BONUSPOINTS": "3"}}, {"type": "Feature", "geometry": {"type": "Point", "coordinates": [-120.8978, 48.9939]}, "properties": {"NAME": "W7W/WH-027", "TITLE": "Full Moon Rising", "REGION": "WA-Whatcom", "ASSOCIATION": "USA - Washington", "POINTS": "8", "BONUSPOINTS": "3"}}, {"type": "Feature", "geometry": {"type": "Point", "coordinates": [-120.7745, 48.8572]}, "properties": {"NAME": "W7W/WH-028", "TITLE": "Shull Mountain", "REGION": "WA-Whatcom", "ASSOCIATION": "USA - Washington", "POINTS": "8", "BONUSPOINTS": "3"}}, {"type": "Feature", "geometry": {"type": "Point", "coordinates": [-120.8668, 48.9619]}, "properties": {"NAME": "W7W/WH-029", "TITLE": "Three Aunts", "REGION": "WA-Whatcom", "ASSOCIATION": "USA - Washington", "POINTS": "8", "BONUSPOINTS": "3"}}, {"type": "Feature", "geometry": {"type": "Point", "coordinates": [-121.1217, 48.6615]}, "properties": {"NAME": "W7W/WH-030", "TITLE": "Colonial Peak", "REGION": "WA-Whatcom", "ASSOCIATION": "USA - Washington", "POINTS": "8", "BONUSPOINTS": "3"}}, {"type": "Feature", "geometry": {"type": "Point", "coordinates": [-121.2831, 48.9125]}, "properties": {"NAME": "W7W/WH-031", "TITLE": "Tradition Peak", "REGION": "WA-Whatcom", "ASSOCIATION": "USA - Washington", "POINTS": "8", "BONUSPOINTS": "3"}}, {"type": "Feature", "geometry": {"type": "Point", "coordinates": [-120.8825, 48.9687]}, "properties": {"NAME": "W7W/WH-032", "TITLE": "Freezeout Mountain", "REGION": "WA-Whatcom", "ASSOCIATION": "USA - Washington", "POINTS": "8", "BONUSPOINTS": "3"}}, {"type": "Feature", "geometry": {"type": "Point", "coordinates": [-121.3197, 48.9669]}, "properties": {"NAME": "W7W/WH-033", "TITLE": "Yank Peak", "REGION": "WA-Whatcom", "ASSOCIATION": "USA - Washington", "POINTS": "8", "BONUSPOINTS": "3"}}, {"type": "Feature", "geometry": {"type": "Point", "coordinates": [-120.9597, 48.6503]}, "properties": {"NAME": "W7W/WH-034", "TITLE": "Elija Ridge", "REGION": "WA-Whatcom", "ASSOCIATION": "USA - Washington", "POINTS": "8", "BONUSPOINTS": "3"}}, {"type": "Feature", "geometry": {"type": "Point", "coordinates": [-120.768, 48.8773]}, "properties": {"NAME": "W7W/WH-035", "TITLE": "Powder Mountain", "REGION": "WA-Whatcom", "ASSOCIATION": "USA - Washington", "POINTS": "8", "BONUSPOINTS": "3"}}, {"type": "Feature", "geometry": {"type": "Point", "coordinates": [-121.4823, 48.7541]}, "properties": {"NAME": "W7W/WH-036", "TITLE": "Mount Blum", "REGION": "WA-Whatcom", "ASSOCIATION": "USA - Washington", "POINTS": "8", "BONUSPOINTS": "3"}}, {"type": "Feature", "geometry": {"type": "Point", "coordinates": [-121.1627, 48.8486]}, "properties": {"NAME": "W7W/WH-037", "TITLE": "Mount Prophet", "REGION": "WA-Whatcom", "ASSOCIATION": "USA - Washington", "POINTS": "8", "BONUSPOINTS": "3"}}, {"type": "Feature", "geometry": {"type": "Point", "coordinates": [-120.7553, 48.9406]}, "properties": {"NAME": "W7W/WH-038", "TITLE": "Blizzard Peak", "REGION": "WA-Whatcom", "ASSOCIATION": "USA - Washington", "POINTS": "8", "BONUSPOINTS": "3"}}, {"type": "Feature", "geometry": {"type": "Point", "coordinates": [-120.879, 48.9461]}, "properties": {"NAME": "W7W/WH-039", "TITLE": "Joker Mountain", "REGION": "WA-Whatcom", "ASSOCIATION": "USA - Washington", "POINTS": "8", "BONUSPOINTS": "3"}}, {"type": "Feature", "geometry": {"type": "Point", "coordinates": [-120.7121, 48.687]}, "properties": {"NAME": "W7W/WH-040", "TITLE": "Syncline Mountain", "REGION": "WA-Whatcom", "ASSOCIATION": "USA - Washington", "POINTS": "8", "BONUSPOINTS": "3"}}, {"type": "Feature", "geometry": {"type": "Point", "coordinates": [-121.3744, 48.8575]}, "properties": {"NAME": "W7W/WH-041", "TITLE": "Whatcom Peak", "REGION": "WA-Whatcom", "ASSOCIATION": "USA - Washington", "POINTS": "8", "BONUSPOINTS": "3"}}, {"type": "Feature", "geometry": {"type": "Point", "coordinates": [-120.7999, 48.6859]}, "properties": {"NAME": "W7W/WH-042", "TITLE": "Majestic Mountain", "REGION": "WA-Whatcom", "ASSOCIATION": "USA - Washington", "POINTS": "8", "BONUSPOINTS": "3"}}, {"type": "Feature", "geometry": {"type": "Point", "coordinates": [-120.8553, 48.9981]}, "properties": {"NAME": "W7W/WH-043", "TITLE": "The Keep", "REGION": "WA-Whatcom", "ASSOCIATION": "USA - Washington", "POINTS": "8", "BONUSPOINTS": "3"}}, {"type": "Feature", "geometry": {"type": "Point", "coordinates": [-120.8398, 48.8345]}, "properties": {"NAME": "W7W/WH-044", "TITLE": "Daemon Peak", "REGION": "WA-Whatcom", "ASSOCIATION": "USA - Washington", "POINTS": "8", "BONUSPOINTS": "3"}}, {"type": "Feature", "geometry": {"type": "Point", "coordinates": [-121.1348, 48.6574]}, "properties": {"NAME": "W7W/WH-045", "TITLE": "Neve Peak", "REGION": "WA-Whatcom", "ASSOCIATION": "USA - Washington", "POINTS": "8", "BONUSPOINTS": "3"}}, {"type": "Feature", "geometry": {"type": "Point", "coordinates": [-121.1499, 48.6659]}, "properties": {"NAME": "W7W/WH-046", "TITLE": "Paul Bunyans Stump", "REGION": "WA-Whatcom", "ASSOCIATION": "USA - Washington", "POINTS": "8", "BONUSPOINTS": "3"}}, {"type": "Feature", "geometry": {"type": "Point", "coordinates": [-121.0099, 48.9696]}, "properties": {"NAME": "W7W/WH-047", "TITLE": "Southwest Hozomeen", "REGION": "WA-Whatcom", "ASSOCIATION": "USA - Washington", "POINTS": "8", "BONUSPOINTS": "3"}}, {"type": "Feature", "geometry": {"type": "Point", "coordinates": [-121.4772, 48.9956]}, "properties": {"NAME": "W7W/WH-048", "TITLE": "Middle Peak", "REGION": "WA-Whatcom", "ASSOCIATION": "USA - Washington", "POINTS": "8", "BONUSPOINTS": "3"}}, {"type": "Feature", "geometry": {"type": "Point", "coordinates": [-121.7098, 48.975]}, "properties": {"NAME": "W7W/WH-049", "TITLE": "Tomyhoi Peak", "REGION": "WA-Whatcom", "ASSOCIATION": "USA - Washington", "POINTS": "8", "BONUSPOINTS": "3"}}, {"type": "Feature", "geometry": {"type": "Point", "coordinates": [-120.9241, 48.6631]}, "properties": {"NAME": "W7W/WH-050", "TITLE": "Beebe Mountain", "REGION": "WA-Whatcom", "ASSOCIATION": "USA - Washington", "POINTS": "8", "BONUSPOINTS": "3"}}, {"type": "Feature", "geometry": {"type": "Point", "coordinates": [-121.0428, 48.6942]}, "properties": {"NAME": "W7W/WH-051", "TITLE": "Ruby Mountain", "REGION": "WA-Whatcom", "ASSOCIATION": "USA - Washington", "POINTS": "8", "BONUSPOINTS": "3"}}, {"type": "Feature", "geometry": {"type": "Point", "coordinates": [-120.6814, 48.6942]}, "properties": {"NAME": "W7W/WH-052", "TITLE": "Cone Mountain", "REGION": "WA-Whatcom", "ASSOCIATION": "USA - Washington", "POINTS": "8", "BONUSPOINTS": "3"}}, {"type": "Feature", "geometry": {"type": "Point", "coordinates": [-120.7687, 48.7041]}, "properties": {"NAME": "W7W/WH-053", "TITLE": "7385 Bitter Peak", "REGION": "WA-Whatcom", "ASSOCIATION": "USA - Washington", "POINTS": "8", "BONUSPOINTS": "3"}}, {"type": "Feature", "geometry": {"type": "Point", "coordinates": [-121.2183, 48.7925]}, "properties": {"NAME": "W7W/WH-054", "TITLE": "Elephant Butte", "REGION": "WA-Whatcom", "ASSOCIATION": "USA - Washington", "POINTS": "8", "BONUSPOINTS": "3"}}, {"type": "Feature", "geometry": {"type": "Point", "coordinates": [-121.3253, 48.8548]}, "properties": {"NAME": "W7W/WH-055", "TITLE": "Big Beaver Peak", "REGION": "WA-Whatcom", "ASSOCIATION": "USA - Washington", "POINTS": "8", "BONUSPOINTS": "3"}}, {"type": "Feature", "geometry": {"type": "Point", "coordinates": [-120.8519, 48.7734]}, "properties": {"NAME": "W7W/WH-056", "TITLE": "Jackita Ridge", "REGION": "WA-Whatcom", "ASSOCIATION": "USA - Washington", "POINTS": "8", "BONUSPOINTS": "3"}}, {"type": "Feature", "geometry": {"type": "Point", "coordinates": [-120.9317, 48.8343]}, "properties": {"NAME": "W7W/WH-057", "TITLE": "Bear Skull Mountain", "REGION": "WA-Whatcom", "ASSOCIATION": "USA - Washington", "POINTS": "8", "BONUSPOINTS": "3"}}, {"type": "Feature", "geometry": {"type": "Point", "coordinates": [-121.3767, 48.7372]}, "properties": {"NAME": "W7W/WH-058", "TITLE": "Mount Despair", "REGION": "WA-Whatcom", "ASSOCIATION": "USA - Washington", "POINTS": "8", "BONUSPOINTS": "3"}}, {"type": "Feature", "geometry": {"type": "Point", "coordinates": [-121.3558, 48.9817]}, "properties": {"NAME": "W7W/WH-059", "TITLE": "Nodoubt Peak", "REGION": "WA-Whatcom", "ASSOCIATION": "USA - Washington", "POINTS": "8", "BONUSPOINTS": "3"}}, {"type": "Feature", "geometry": {"type": "Point", "coordinates": [-120.7256, 48.7733]}, "properties": {"NAME": "W7W/WH-060", "TITLE": "Tamarack Peak", "REGION": "WA-Whatcom", "ASSOCIATION": "USA - Washington", "POINTS": "8", "BONUSPOINTS": "3"}}, {"type": "Feature", "geometry": {"type": "Point", "coordinates": [-120.838, 48.8036]}, "properties": {"NAME": "W7W/WH-061", "TITLE": "San Juan Hill", "REGION": "WA-Whatcom", "ASSOCIATION": "USA - Washington", "POINTS": "8", "BONUSPOINTS": "3"}}, {"type": "Feature", "geometry": {"type": "Point", "coordinates": [-121.3561, 48.7067]}, "properties": {"NAME": "W7W/WH-062", "TITLE": "Mount Triumph", "REGION": "WA-Whatcom", "ASSOCIATION": "USA - Washington", "POINTS": "8", "BONUSPOINTS": "3"}}, {"type": "Feature", "geometry": {"type": "Point", "coordinates": [-121.5097, 48.9722]}, "properties": {"NAME": "W7W/WH-063", "TITLE": "Silesia Ridge", "REGION": "WA-Whatcom", "ASSOCIATION": "USA - Washington", "POINTS": "8", "BONUSPOINTS": "3"}}, {"type": "Feature", "geometry": {"type": "Point", "coordinates": [-120.9486, 48.8589]}, "properties": {"NAME": "W7W/WH-064", "TITLE": "Spratt Mountain", "REGION": "WA-Whatcom", "ASSOCIATION": "USA - Washington", "POINTS": "8", "BONUSPOINTS": "3"}}, {"type": "Feature", "geometry": {"type": "Point", "coordinates": [-121.1199, 48.8336]}, "properties": {"NAME": "W7W/WH-065", "TITLE": "Genesis Peak", "REGION": "WA-Whatcom", "ASSOCIATION": "USA - Washington", "POINTS": "8", "BONUSPOINTS": "3"}}, {"type": "Feature", "geometry": {"type": "Point", "coordinates": [-121.5941, 48.8919]}, "properties": {"NAME": "W7W/WH-066", "TITLE": "Mount Sefrit", "REGION": "WA-Whatcom", "ASSOCIATION": "USA - Washington", "POINTS": "8", "BONUSPOINTS": "3"}}, {"type": "Feature", "geometry": {"type": "Point", "coordinates": [-121.1978, 48.8689]}, "properties": {"NAME": "W7W/WH-067", "TITLE": "The Saint", "REGION": "WA-Whatcom", "ASSOCIATION": "USA - Washington", "POINTS": "8", "BONUSPOINTS": "3"}}, {"type": "Feature", "geometry": {"type": "Point", "coordinates": [-121.2561, 48.7542]}, "properties": {"NAME": "W7W/WH-068", "TITLE": "Glee Peak", "REGION": "WA-Whatcom", "ASSOCIATION": "USA - Washington", "POINTS": "8", "BONUSPOINTS": "3"}}, {"type": "Feature", "geometry": {"type": "Point", "coordinates": [-120.9112, 48.6433]}, "properties": {"NAME": "W7W/WH-069", "TITLE": "Tarheel Peak", "REGION": "WA-Whatcom", "ASSOCIATION": "USA - Washington", "POINTS": "8", "BONUSPOINTS": "3"}}, {"type": "Feature", "geometry": {"type": "Point", "coordinates": [-121.202, 48.9592]}, "properties": {"NAME": "W7W/WH-070", "TITLE": "Rambling Mountain", "REGION": "WA-Whatcom", "ASSOCIATION": "USA - Washington", "POINTS": "8", "BONUSPOINTS": "3"}}, {"type": "Feature", "geometry": {"type": "Point", "coordinates": [-121.4669, 48.9408]}, "properties": {"NAME": "W7W/WH-071", "TITLE": "Copper Mountain", "REGION": "WA-Whatcom", "ASSOCIATION": "USA - Washington", "POINTS": "8", "BONUSPOINTS": "3"}}, {"type": "Feature", "geometry": {"type": "Point", "coordinates": [-121.3681, 48.8905]}, "properties": {"NAME": "W7W/WH-072", "TITLE": "Red Face Mountain", "REGION": "WA-Whatcom", "ASSOCIATION": "USA - Washington", "POINTS": "8", "BONUSPOINTS": "3"}}, {"type": "Feature", "geometry": {"type": "Point", "coordinates": [-121.3897, 48.8988]}, "properties": {"NAME": "W7W/WH-073", "TITLE": "Indian Mountain", "REGION": "WA-Whatcom", "ASSOCIATION": "USA - Washington", "POINTS": "8", "BONUSPOINTS": "3"}}, {"type": "Feature", "geometry": {"type": "Point", "coordinates": [-121.5328, 48.8597]}, "properties": {"NAME": "W7W/WH-074", "TITLE": "Ruth Mountain", "REGION": "WA-Whatcom", "ASSOCIATION": "USA - Washington", "POINTS": "8", "BONUSPOINTS": "3"}}, {"type": "Feature", "geometry": {"type": "Point", "coordinates": [-121.4911, 48.724]}, "properties": {"NAME": "W7W/WH-075", "TITLE": "Hagan Mountain", "REGION": "WA-Whatcom", "ASSOCIATION": "USA - Washington", "POINTS": "8", "BONUSPOINTS": "3"}}, {"type": "Feature", "geometry": {"type": "Point", "coordinates": [-121.3476, 48.8922]}, "properties": {"NAME": "W7W/WH-076", "TITLE": "Taps Mountain", "REGION": "WA-Whatcom", "ASSOCIATION": "USA - Washington", "POINTS": "8", "BONUSPOINTS": "3"}}, {"type": "Feature", "geometry": {"type": "Point", "coordinates": [-121.3519, 48.7978]}, "properties": {"NAME": "W7W/WH-077", "TITLE": "Mount Crowder", "REGION": "WA-Whatcom", "ASSOCIATION": "USA - Washington", "POINTS": "8", "BONUSPOINTS": "3"}}, {"type": "Feature", "geometry": {"type": "Point", "coordinates": [-121.5254, 48.8356]}, "properties": {"NAME": "W7W/WH-078", "TITLE": "Icy Peak", "REGION": "WA-Whatcom", "ASSOCIATION": "USA - Washington", "POINTS": "8", "BONUSPOINTS": "3"}}, {"type": "Feature", "geometry": {"type": "Point", "coordinates": [-120.7388, 48.8074]}, "properties": {"NAME": "W7W/WH-079", "TITLE": "Tall Jim", "REGION": "WA-Whatcom", "ASSOCIATION": "USA - Washington", "POINTS": "8", "BONUSPOINTS": "3"}}, {"type": "Feature", "geometry": {"type": "Point", "coordinates": [-121.5203, 48.6627]}, "properties": {"NAME": "W7W/WH-080", "TITLE": "Bacon Peak", "REGION": "WA-Whatcom", "ASSOCIATION": "USA - Washington", "POINTS": "8", "BONUSPOINTS": "3"}}, {"type": "Feature", "geometry": {"type": "Point", "coordinates": [-121.5517, 48.9894]}, "properties": {"NAME": "W7W/WH-081", "TITLE": "Pocket Peak", "REGION": "WA-Whatcom", "ASSOCIATION": "USA - Washington", "POINTS": "8", "BONUSPOINTS": "3"}}, {"type": "Feature", "geometry": {"type": "Point", "coordinates": [-121.2026, 48.7294]}, "properties": {"NAME": "W7W/WH-082", "TITLE": "Davis Peak", "REGION": "WA-Whatcom", "ASSOCIATION": "USA - Washington", "POINTS": "8", "BONUSPOINTS": "3"}}, {"type": "Feature", "geometry": {"type": "Point", "coordinates": [-120.8008, 48.9592]}, "properties": {"NAME": "W7W/WH-083", "TITLE": "Royal Mountain", "REGION": "WA-Whatcom", "ASSOCIATION": "USA - Washington", "POINTS": "8", "BONUSPOINTS": "3"}}, {"type": "Feature", "geometry": {"type": "Point", "coordinates": [-121.2105, 48.8735]}, "properties": {"NAME": "W7W/WH-084", "TITLE": "The Sinner", "REGION": "WA-Whatcom", "ASSOCIATION": "USA - Washington", "POINTS": "8", "BONUSPOINTS": "3"}}, {"type": "Feature", "geometry": {"type": "Point", "coordinates": [-120.8464, 48.6911]}, "properties": {"NAME": "W7W/WH-085", "TITLE": "McKay Ridge", "REGION": "WA-Whatcom", "ASSOCIATION": "USA - Washington", "POINTS": "8", "BONUSPOINTS": "3"}}, {"type": "Feature", "geometry": {"type": "Point", "coordinates": [-121.5658, 48.9275]}, "properties": {"NAME": "W7W/WH-086", "TITLE": "Mount Chardonnay", "REGION": "WA-Whatcom", "ASSOCIATION": "USA - Washington", "POINTS": "8", "BONUSPOINTS": "3"}}, {"type": "Feature", "geometry": {"type": "Point", "coordinates": [-121.989, 48.7056]}, "properties": {"NAME": "W7W/WH-087", "TITLE": "South Twin Sister", "REGION": "WA-Whatcom", "ASSOCIATION": "USA - Washington", "POINTS": "8", "BONUSPOINTS": "3"}}, {"type": "Feature", "geometry": {"type": "Point", "coordinates": [-121.2237, 48.9294]}, "properties": {"NAME": "W7W/WH-088", "TITLE": "Alien Peak", "REGION": "WA-Whatcom", "ASSOCIATION": "USA - Washington", "POINTS": "8", "BONUSPOINTS": "3"}}, {"type": "Feature", "geometry": {"type": "Point", "coordinates": [-121.3776, 48.7818]}, "properties": {"NAME": "W7W/WH-089", "TITLE": "Pioneer Peak", "REGION": "WA-Whatcom", "ASSOCIATION": "USA - Washington", "POINTS": "8", "BONUSPOINTS": "3"}}, {"type": "Feature", "geometry": {"type": "Point", "coordinates": [-120.9393, 48.982]}, "properties": {"NAME": "W7W/WH-090", "TITLE": "Outback Mountain", "REGION": "WA-Whatcom", "ASSOCIATION": "USA - Washington", "POINTS": "8", "BONUSPOINTS": "3"}}, {"type": "Feature", "geometry": {"type": "Point", "coordinates": [-121.5789, 48.8822]}, "properties": {"NAME": "W7W/WH-091", "TITLE": "Nooksack Ridge", "REGION": "WA-Whatcom", "ASSOCIATION": "USA - Washington", "POINTS": "8", "BONUSPOINTS": "3"}}, {"type": "Feature", "geometry": {"type": "Point", "coordinates": [-121.3519, 48.6978]}, "properties": {"NAME": "W7W/WH-092", "TITLE": "Old Damnation Peak", "REGION": "WA-Whatcom", "ASSOCIATION": "USA - Washington", "POINTS": "8", "BONUSPOINTS": "3"}}, {"type": "Feature", "geometry": {"type": "Point", "coordinates": [-121.2439, 48.7847]}, "properties": {"NAME": "W7W/WH-093", "TITLE": "Rhino Butte", "REGION": "WA-Whatcom", "ASSOCIATION": "USA - Washington", "POINTS": "8", "BONUSPOINTS": "3"}}, {"type": "Feature", "geometry": {"type": "Point", "coordinates": [-121.2358, 48.7897]}, "properties": {"NAME": "W7W/WH-094", "TITLE": "Hippo Butte", "REGION": "WA-Whatcom", "ASSOCIATION": "USA - Washington", "POINTS": "8", "BONUSPOINTS": "3"}}, {"type": "Feature", "geometry": {"type": "Point", "coordinates": [-120.917, 48.9837]}, "properties": {"NAME": "W7W/WH-095", "TITLE": "Buck Heaven", "REGION": "WA-Whatcom", "ASSOCIATION": "USA - Washington", "POINTS": "8", "BONUSPOINTS": "3"}}, {"type": "Feature", "geometry": {"type": "Point", "coordinates": [-121.3251, 48.8995]}, "properties": {"NAME": "W7W/WH-096", "TITLE": "Passover Peak", "REGION": "WA-Whatcom", "ASSOCIATION": "USA - Washington", "POINTS": "8", "BONUSPOINTS": "3"}}, {"type": "Feature", "geometry": {"type": "Point", "coordinates": [-121.1322, 48.9425]}, "properties": {"NAME": "W7W/WH-097", "TITLE": "Controversy Peak", "REGION": "WA-Whatcom", "ASSOCIATION": "USA - Washington", "POINTS": "8", "BONUSPOINTS": "3"}}, {"type": "Feature", "geometry": {"type": "Point", "coordinates": [-121.6264, 48.9283]}, "properties": {"NAME": "W7W/WH-098", "TITLE": "East Goat Mountain", "REGION": "WA-Whatcom", "ASSOCIATION": "USA - Washington", "POINTS": "8", "BONUSPOINTS": "3"}}, {"type": "Feature", "geometry": {"type": "Point", "coordinates": [-120.9501, 48.9164]}, "properties": {"NAME": "W7W/WH-099", "TITLE": "Skagit Peak", "REGION": "WA-Whatcom", "ASSOCIATION": "USA - Washington", "POINTS": "8", "BONUSPOINTS": "3"}}, {"type": "Feature", "geometry": {"type": "Point", "coordinates": [-120.8774, 48.9284]}, "properties": {"NAME": "W7W/WH-100", "TITLE": "Welbow Butte", "REGION": "WA-Whatcom", "ASSOCIATION": "USA - Washington", "POINTS": "8", "BONUSPOINTS": "3"}}, {"type": "Feature", "geometry": {"type": "Point", "coordinates": [-121.4636, 48.8597]}, "properties": {"NAME": "W7W/WH-101", "TITLE": "Mineral Mountain", "REGION": "WA-Whatcom", "ASSOCIATION": "USA - Washington", "POINTS": "8", "BONUSPOINTS": "3"}}, {"type": "Feature", "geometry": {"type": "Point", "coordinates": [-121.3081, 48.7548]}, "properties": {"NAME": "W7W/WH-102", "TITLE": "Pinnacle Peak", "REGION": "WA-Whatcom", "ASSOCIATION": "USA - Washington", "POINTS": "8", "BONUSPOINTS": "3"}}, {"type": "Feature", "geometry": {"type": "Point", "coordinates": [-121.4666, 48.7342]}, "properties": {"NAME": "W7W/WH-103", "TITLE": "Lonesome Peak", "REGION": "WA-Whatcom", "ASSOCIATION": "USA - Washington", "POINTS": "8", "BONUSPOINTS": "3"}}, {"type": "Feature", "geometry": {"type": "Point", "coordinates": [-121.5661, 48.875]}, "properties": {"NAME": "W7W/WH-104", "TITLE": "Nook Mountain", "REGION": "WA-Whatcom", "ASSOCIATION": "USA - Washington", "POINTS": "8", "BONUSPOINTS": "3"}}, {"type": "Feature", "geometry": {"type": "Point", "coordinates": [-120.9927, 48.6582]}, "properties": {"NAME": "W7W/WH-105", "TITLE": "Apple Peak", "REGION": "WA-Whatcom", "ASSOCIATION": "USA - Washington", "POINTS": "8", "BONUSPOINTS": "3"}}, {"type": "Feature", "geometry": {"type": "Point", "coordinates": [-120.9784, 48.7438]}, "properties": {"NAME": "W7W/WH-106", "TITLE": "Little Jack", "REGION": "WA-Whatcom", "ASSOCIATION": "USA - Washington", "POINTS": "8", "BONUSPOINTS": "3"}}, {"type": "Feature", "geometry": {"type": "Point", "coordinates": [-121.1718, 48.7834]}, "properties": {"NAME": "W7W/WH-107", "TITLE": "Mis-kai-whu Mountain", "REGION": "WA-Whatcom", "ASSOCIATION": "USA - Washington", "POINTS": "8", "BONUSPOINTS": "3"}}, {"type": "Feature", "geometry": {"type": "Point", "coordinates": [-121.6388, 48.9277]}, "properties": {"NAME": "W7W/WH-108", "TITLE": "West Goat Mountain", "REGION": "WA-Whatcom", "ASSOCIATION": "USA - Washington", "POINTS": "8", "BONUSPOINTS": "3"}}, {"type": "Feature", "geometry": {"type": "Point", "coordinates": [-121.2529, 48.7289]}, "properties": {"NAME": "W7W/WH-109", "TITLE": "R Roost", "REGION": "WA-Whatcom", "ASSOCIATION": "USA - Washington", "POINTS": "8", "BONUSPOINTS": "3"}}, {"type": "Feature", "geometry": {"type": "Point", "coordinates": [-121.5536, 48.9044]}, "properties": {"NAME": "W7W/WH-110", "TITLE": "Granite Mountain", "REGION": "WA-Whatcom", "ASSOCIATION": "USA - Washington", "POINTS": "8", "BONUSPOINTS": "3"}}, {"type": "Feature", "geometry": {"type": "Point", "coordinates": [-121.1273, 48.8697]}, "properties": {"NAME": "W7W/WH-111", "TITLE": "MontaÃ±a Sin Nombre", "REGION": "WA-Whatcom", "ASSOCIATION": "USA - Washington", "POINTS": "8", "BONUSPOINTS": "3"}}, {"type": "Feature", "geometry": {"type": "Point", "coordinates": [-121.9985, 48.7154]}, "properties": {"NAME": "W7W/WH-112", "TITLE": "North Twin", "REGION": "WA-Whatcom", "ASSOCIATION": "USA - Washington", "POINTS": "8", "BONUSPOINTS": "3"}}, {"type": "Feature", "geometry": {"type": "Point", "coordinates": [-121.9763, 48.6924]}, "properties": {"NAME": "W7W/WH-113", "TITLE": "Little Sister", "REGION": "WA-Whatcom", "ASSOCIATION": "USA - Washington", "POINTS": "8", "BONUSPOINTS": "3"}}, {"type": "Feature", "geometry": {"type": "Point", "coordinates": [-121.1108, 48.8814]}, "properties": {"NAME": "W7W/WH-114", "TITLE": "Nameless Mountain", "REGION": "WA-Whatcom", "ASSOCIATION": "USA - Washington", "POINTS": "8", "BONUSPOINTS": "3"}}, {"type": "Feature", "geometry": {"type": "Point", "coordinates": [-121.1133, 48.7684]}, "properties": {"NAME": "W7W/WH-115", "TITLE": "Nlaka-pamux Peak", "REGION": "WA-Whatcom", "ASSOCIATION": "USA - Washington", "POINTS": "8", "BONUSPOINTS": "3"}}, {"type": "Feature", "geometry": {"type": "Point", "coordinates": [-121.5549, 48.8703]}, "properties": {"NAME": "W7W/WH-116", "TITLE": "Sackout Mountain", "REGION": "WA-Whatcom", "ASSOCIATION": "USA - Washington", "POINTS": "8", "BONUSPOINTS": "3"}}, {"type": "Feature", "geometry": {"type": "Point", "coordinates": [-121.4259, 48.7442]}, "properties": {"NAME": "W7W/WH-117", "TITLE": "Mystery Ridge", "REGION": "WA-Whatcom", "ASSOCIATION": "USA - Washington", "POINTS": "8", "BONUSPOINTS": "3"}}, {"type": "Feature", "geometry": {"type": "Point", "coordinates": [-121.0859, 48.8574]}, "properties": {"NAME": "W7W/WH-118", "TITLE": "Skymo Mountain", "REGION": "WA-Whatcom", "ASSOCIATION": "USA - Washington", "POINTS": "8", "BONUSPOINTS": "3"}}, {"type": "Feature", "geometry": {"type": "Point", "coordinates": [-121.1684, 48.8903]}, "properties": {"NAME": "W7W/WH-119", "TITLE": "Mystic Mountain", "REGION": "WA-Whatcom", "ASSOCIATION": "USA - Washington", "POINTS": "8", "BONUSPOINTS": "3"}}, {"type": "Feature", "geometry": {"type": "Point", "coordinates": [-120.7959, 48.7355]}, "properties": {"NAME": "W7W/WH-120", "TITLE": "Cady Point", "REGION": "WA-Whatcom", "ASSOCIATION": "USA - Washington", "POINTS": "6", "BONUSPOINTS": "3"}}, {"type": "Feature", "geometry": {"type": "Point", "coordinates": [-121.757, 48.8295]}, "properties": {"NAME": "W7W/WH-121", "TITLE": "Lasiocarpa Ridge", "REGION": "WA-Whatcom", "ASSOCIATION": "USA - Washington", "POINTS": "6", "BONUSPOINTS": "3"}}, {"type": "Feature", "geometry": {"type": "Point", "coordinates": [-121.643, 48.9565]}, "properties": {"NAME": "W7W/WH-122", "TITLE": "Winchester Mountain", "REGION": "WA-Whatcom", "ASSOCIATION": "USA - Washington", "POINTS": "6", "BONUSPOINTS": "3"}}, {"type": "Feature", "geometry": {"type": "Point", "coordinates": [-121.6264, 48.9422]}, "properties": {"NAME": "W7W/WH-123", "TITLE": "30.06 Peak", "REGION": "WA-Whatcom", "ASSOCIATION": "USA - Washington", "POINTS": "6", "BONUSPOINTS": "3"}}, {"type": "Feature", "geometry": {"type": "Point", "coordinates": [-120.9903, 48.8006]}, "properties": {"NAME": "W7W/WH-124", "TITLE": "Angel Wing", "REGION": "WA-Whatcom", "ASSOCIATION": "USA - Washington", "POINTS": "6", "BONUSPOINTS": "3"}}, {"type": "Feature", "geometry": {"type": "Point", "coordinates": [-121.3728, 48.7111]}, "properties": {"NAME": "W7W/WH-125", "TITLE": "Mamook Mountain", "REGION": "WA-Whatcom", "ASSOCIATION": "USA - Washington", "POINTS": "6", "BONUSPOINTS": "3"}}, {"type": "Feature", "geometry": {"type": "Point", "coordinates": [-121.5127, 48.9071]}, "properties": {"NAME": "W7W/WH-126", "TITLE": "Silesia Mountain", "REGION": "WA-Whatcom", "ASSOCIATION": "USA - Washington", "POINTS": "6", "BONUSPOINTS": "3"}}, {"type": "Feature", "geometry": {"type": "Point", "coordinates": [-120.97, 48.8356]}, "properties": {"NAME": "W7W/WH-127", "TITLE": "Barnett Butte", "REGION": "WA-Whatcom", "ASSOCIATION": "USA - Washington", "POINTS": "6", "BONUSPOINTS": "3"}}, {"type": "Feature", "geometry": {"type": "Point", "coordinates": [-121.4583, 48.7254]}, "properties": {"NAME": "W7W/WH-128", "TITLE": "Native Knoll", "REGION": "WA-Whatcom", "ASSOCIATION": "USA - Washington", "POINTS": "6", "BONUSPOINTS": "3"}}, {"type": "Feature", "geometry": {"type": "Point", "coordinates": [-121.1605, 48.9938]}, "properties": {"NAME": "W7W/WH-129", "TITLE": "Silver Ridge", "REGION": "WA-Whatcom", "ASSOCIATION": "USA - Washington", "POINTS": "6", "BONUSPOINTS": "3"}}, {"type": "Feature", "geometry": {"type": "Point", "coordinates": [-121.4832, 48.6473]}, "properties": {"NAME": "W7W/WH-130", "TITLE": "Electric Butte", "REGION": "WA-Whatcom", "ASSOCIATION": "USA - Washington", "POINTS": "6", "BONUSPOINTS": "3"}}, {"type": "Feature", "geometry": {"type": "Point", "coordinates": [-121.4569, 48.7067]}, "properties": {"NAME": "W7W/WH-131", "TITLE": "Interloper Peak", "REGION": "WA-Whatcom", "ASSOCIATION": "USA - Washington", "POINTS": "6", "BONUSPOINTS": "3"}}, {"type": "Feature", "geometry": {"type": "Point", "coordinates": [-121.5881, 48.9594]}, "properties": {"NAME": "W7W/WH-132", "TITLE": "North Big Bosom Butte", "REGION": "WA-Whatcom", "ASSOCIATION": "USA - Washington", "POINTS": "6", "BONUSPOINTS": "3"}}, {"type": "Feature", "geometry": {"type": "Point", "coordinates": [-120.8748, 48.8395]}, "properties": {"NAME": "W7W/WH-133", "TITLE": "6362 Vee Beam Pk", "REGION": "WA-Whatcom", "ASSOCIATION": "USA - Washington", "POINTS": "6", "BONUSPOINTS": "3"}}, {"type": "Feature", "geometry": {"type": "Point", "coordinates": [-120.9575, 48.9275]}, "properties": {"NAME": "W7W/WH-134", "TITLE": "Ti-gaks Peak", "REGION": "WA-Whatcom", "ASSOCIATION": "USA - Washington", "POINTS": "6", "BONUSPOINTS": "3"}}, {"type": "Feature", "geometry": {"type": "Point", "coordinates": [-121.8828, 48.9283]}, "properties": {"NAME": "W7W/WH-135", "TITLE": "Church Mountain", "REGION": "WA-Whatcom", "ASSOCIATION": "USA - Washington", "POINTS": "6", "BONUSPOINTS": "3"}}, {"type": "Feature", "geometry": {"type": "Point", "coordinates": [-121.7024, 48.8662]}, "properties": {"NAME": "W7W/WH-136", "TITLE": "Mount Herman", "REGION": "WA-Whatcom", "ASSOCIATION": "USA - Washington", "POINTS": "6", "BONUSPOINTS": "3"}}, {"type": "Feature", "geometry": {"type": "Point", "coordinates": [-121.6819, 48.9544]}, "properties": {"NAME": "W7W/WH-137", "TITLE": "Yellow Aster Butte", "REGION": "WA-Whatcom", "ASSOCIATION": "USA - Washington", "POINTS": "6", "BONUSPOINTS": "3"}}, {"type": "Feature", "geometry": {"type": "Point", "coordinates": [-121.5767, 48.6556]}, "properties": {"NAME": "W7W/WH-138", "TITLE": "Mount Watson", "REGION": "WA-Whatcom", "ASSOCIATION": "USA - Washington", "POINTS": "6", "BONUSPOINTS": "3"}}, {"type": "Feature", "geometry": {"type": "Point", "coordinates": [-121.1075, 48.9317]}, "properties": {"NAME": "W7W/WH-139", "TITLE": "Burgler Bear", "REGION": "WA-Whatcom", "ASSOCIATION": "USA - Washington", "POINTS": "6", "BONUSPOINTS": "3"}}, {"type": "Feature", "geometry": {"type": "Point", "coordinates": [-120.865, 48.8744]}, "properties": {"NAME": "W7W/WH-140", "TITLE": "Foolish Mountain", "REGION": "WA-Whatcom", "ASSOCIATION": "USA - Washington", "POINTS": "6", "BONUSPOINTS": "3"}}, {"type": "Feature", "geometry": {"type": "Point", "coordinates": [-121.7358, 48.95]}, "properties": {"NAME": "W7W/WH-141", "TITLE": "Damfino Peak", "REGION": "WA-Whatcom", "ASSOCIATION": "USA - Washington", "POINTS": "6", "BONUSPOINTS": "3"}}, {"type": "Feature", "geometry": {"type": "Point", "coordinates": [-121.2269, 48.8239]}, "properties": {"NAME": "W7W/WH-142", "TITLE": "Lunatic Peak", "REGION": "WA-Whatcom", "ASSOCIATION": "USA - Washington", "POINTS": "6", "BONUSPOINTS": "3"}}, {"type": "Feature", "geometry": {"type": "Point", "coordinates": [-121.0166, 48.9112]}, "properties": {"NAME": "W7W/WH-143", "TITLE": "Desolation Peak", "REGION": "WA-Whatcom", "ASSOCIATION": "USA - Washington", "POINTS": "6", "BONUSPOINTS": "3"}}, {"type": "Feature", "geometry": {"type": "Point", "coordinates": [-121.9569, 48.6627]}, "properties": {"NAME": "W7W/WH-144", "TITLE": "Barbara Peak", "REGION": "WA-Whatcom", "ASSOCIATION": "USA - Washington", "POINTS": "6", "BONUSPOINTS": "3"}}, {"type": "Feature", "geometry": {"type": "Point", "coordinates": [-121.3308, 48.6925]}, "properties": {"NAME": "W7W/WH-145", "TITLE": "X Mountain", "REGION": "WA-Whatcom", "ASSOCIATION": "USA - Washington", "POINTS": "6", "BONUSPOINTS": "3"}}, {"type": "Feature", "geometry": {"type": "Point", "coordinates": [-121.7678, 48.9327]}, "properties": {"NAME": "W7W/WH-146", "TITLE": "5930 Shortwave Mtn", "REGION": "WA-Whatcom", "ASSOCIATION": "USA - Washington", "POINTS": "6", "BONUSPOINTS": "3"}}, {"type": "Feature", "geometry": {"type": "Point", "coordinates": [-121.6665, 48.8165]}, "properties": {"NAME": "W7W/WH-147", "TITLE": "Mount Ann", "REGION": "WA-Whatcom", "ASSOCIATION": "USA - Washington", "POINTS": "6", "BONUSPOINTS": "3"}}, {"type": "Feature", "geometry": {"type": "Point", "coordinates": [-121.7421, 48.8668]}, "properties": {"NAME": "W7W/WH-148", "TITLE": "Barometer Mountain", "REGION": "WA-Whatcom", "ASSOCIATION": "USA - Washington", "POINTS": "6", "BONUSPOINTS": "3"}}, {"type": "Feature", "geometry": {"type": "Point", "coordinates": [-121.5937, 48.6716]}, "properties": {"NAME": "W7W/WH-149", "TITLE": "Anderson Butte", "REGION": "WA-Whatcom", "ASSOCIATION": "USA - Washington", "POINTS": "6", "BONUSPOINTS": "3"}}, {"type": "Feature", "geometry": {"type": "Point", "coordinates": [-121.5342, 48.693]}, "properties": {"NAME": "W7W/WH-150", "TITLE": "5725 Twin Lead Pk", "REGION": "WA-Whatcom", "ASSOCIATION": "USA - Washington", "POINTS": "6", "BONUSPOINTS": "3"}}, {"type": "Feature", "geometry": {"type": "Point", "coordinates": [-121.4332, 48.8909]}, "properties": {"NAME": "W7W/WH-151", "TITLE": "North Easy Ridge", "REGION": "WA-Whatcom", "ASSOCIATION": "USA - Washington", "POINTS": "6", "BONUSPOINTS": "3"}}, {"type": "Feature", "geometry": {"type": "Point", "coordinates": [-121.3919, 48.6528]}, "properties": {"NAME": "W7W/WH-152", "TITLE": "Oakes Peak", "REGION": "WA-Whatcom", "ASSOCIATION": "USA - Washington", "POINTS": "6", "BONUSPOINTS": "3"}}, {"type": "Feature", "geometry": {"type": "Point", "coordinates": [-121.8004, 48.9697]}, "properties": {"NAME": "W7W/WH-153", "TITLE": "Cowap Peak", "REGION": "WA-Whatcom", "ASSOCIATION": "USA - Washington", "POINTS": "6", "BONUSPOINTS": "3"}}, {"type": "Feature", "geometry": {"type": "Point", "coordinates": [-121.3853, 48.6708]}, "properties": {"NAME": "W7W/WH-154", "TITLE": "Damnation Peak", "REGION": "WA-Whatcom", "ASSOCIATION": "USA - Washington", "POINTS": "6", "BONUSPOINTS": "3"}}, {"type": "Feature", "geometry": {"type": "Point", "coordinates": [-121.5473, 48.7155]}, "properties": {"NAME": "W7W/WH-155", "TITLE": "5622 Ipsoot Peak", "REGION": "WA-Whatcom", "ASSOCIATION": "USA - Washington", "POINTS": "6", "BONUSPOINTS": "3"}}, {"type": "Feature", "geometry": {"type": "Point", "coordinates": [-121.9094, 48.9267]}, "properties": {"NAME": "W7W/WH-156", "TITLE": "West Church Benchmark", "REGION": "WA-Whatcom", "ASSOCIATION": "USA - Washington", "POINTS": "6", "BONUSPOINTS": "3"}}, {"type": "Feature", "geometry": {"type": "Point", "coordinates": [-121.8456, 48.68]}, "properties": {"NAME": "W7W/WH-157", "TITLE": "Loomis Mountain", "REGION": "WA-Whatcom", "ASSOCIATION": "USA - Washington", "POINTS": "6", "BONUSPOINTS": "3"}}, {"type": "Feature", "geometry": {"type": "Point", "coordinates": [-121.967, 48.7849]}, "properties": {"NAME": "W7W/WH-158", "TITLE": "Groat Mountain", "REGION": "WA-Whatcom", "ASSOCIATION": "USA - Washington", "POINTS": "6", "BONUSPOINTS": "3"}}, {"type": "Feature", "geometry": {"type": "Point", "coordinates": [-121.5129, 48.6997]}, "properties": {"NAME": "W7W/WH-159", "TITLE": "5580 Tribander Mtn", "REGION": "WA-Whatcom", "ASSOCIATION": "USA - Washington", "POINTS": "6", "BONUSPOINTS": "3"}}, {"type": "Feature", "geometry": {"type": "Point", "coordinates": [-121.4006, 48.6761]}, "properties": {"NAME": "W7W/WH-160", "TITLE": "Salvation Peak", "REGION": "WA-Whatcom", "ASSOCIATION": "USA - Washington", "POINTS": "6", "BONUSPOINTS": "3"}}, {"type": "Feature", "geometry": {"type": "Point", "coordinates": [-121.9611, 48.9672]}, "properties": {"NAME": "W7W/WH-161", "TITLE": "Bald Mountain", "REGION": "WA-Whatcom", "ASSOCIATION": "USA - Washington", "POINTS": "6", "BONUSPOINTS": "3"}}, {"type": "Feature", "geometry": {"type": "Point", "coordinates": [-121.8564, 48.7167]}, "properties": {"NAME": "W7W/WH-162", "TITLE": "Park Butte", "REGION": "WA-Whatcom", "ASSOCIATION": "USA - Washington", "POINTS": "6", "BONUSPOINTS": "3"}}, {"type": "Feature", "geometry": {"type": "Point", "coordinates": [-121.4906, 48.8085]}, "properties": {"NAME": "W7W/WH-163", "TITLE": "Blister Mountain", "REGION": "WA-Whatcom", "ASSOCIATION": "USA - Washington", "POINTS": "6", "BONUSPOINTS": "3"}}, {"type": "Feature", "geometry": {"type": "Point", "coordinates": [-121.4175, 48.9664]}, "properties": {"NAME": "W7W/WH-164", "TITLE": "Little Chilly Hill", "REGION": "WA-Whatcom", "ASSOCIATION": "USA - Washington", "POINTS": "6", "BONUSPOINTS": "3"}}, {"type": "Feature", "geometry": {"type": "Point", "coordinates": [-121.9189, 48.8017]}, "properties": {"NAME": "W7W/WH-165", "TITLE": "5365 Skywave Pk", "REGION": "WA-Whatcom", "ASSOCIATION": "USA - Washington", "POINTS": "6", "BONUSPOINTS": "3"}}, {"type": "Feature", "geometry": {"type": "Point", "coordinates": [-121.9152, 48.9795]}, "properties": {"NAME": "W7W/WH-166", "TITLE": "West Canyon Ridge", "REGION": "WA-Whatcom", "ASSOCIATION": "USA - Washington", "POINTS": "6", "BONUSPOINTS": "3"}}, {"type": "Feature", "geometry": {"type": "Point", "coordinates": [-121.6237, 48.6503]}, "properties": {"NAME": "W7W/WH-167", "TITLE": "Wobegon Peak", "REGION": "WA-Whatcom", "ASSOCIATION": "USA - Washington", "POINTS": "6", "BONUSPOINTS": "3"}}, {"type": "Feature", "geometry": {"type": "Point", "coordinates": [-121.924, 48.8307]}, "properties": {"NAME": "W7W/WH-168", "TITLE": "North Lookout Mountain", "REGION": "WA-Whatcom", "ASSOCIATION": "USA - Washington", "POINTS": "6", "BONUSPOINTS": "3"}}, {"type": "Feature", "geometry": {"type": "Point", "coordinates": [-121.9428, 48.8065]}, "properties": {"NAME": "W7W/WH-169", "TITLE": "Grouse Butte", "REGION": "WA-Whatcom", "ASSOCIATION": "USA - Washington", "POINTS": "6", "BONUSPOINTS": "3"}}, {"type": "Feature", "geometry": {"type": "Point", "coordinates": [-121.6046, 48.6842]}, "properties": {"NAME": "W7W/WH-170", "TITLE": "5060 Space Station Pk", "REGION": "WA-Whatcom", "ASSOCIATION": "USA - Washington", "POINTS": "6", "BONUSPOINTS": "3"}}, {"type": "Feature", "geometry": {"type": "Point", "coordinates": [-122.0356, 48.8385]}, "properties": {"NAME": "W7W/WH-171", "TITLE": "Toboggan Mountain", "REGION": "WA-Whatcom", "ASSOCIATION": "USA - Washington", "POINTS": "6", "BONUSPOINTS": "3"}}, {"type": "Feature", "geometry": {"type": "Point", "coordinates": [-122.0192, 48.9854]}, "properties": {"NAME": "W7W/WH-172", "TITLE": "Black Mountain", "REGION": "WA-Whatcom", "ASSOCIATION": "USA - Washington", "POINTS": "6", "BONUSPOINTS": "3"}}, {"type": "Feature", "geometry": {"type": "Point", "coordinates": [-121.9633, 48.9989]}, "properties": {"NAME": "W7W/WH-173", "TITLE": "Isar Mtn", "REGION": "WA-Whatcom", "ASSOCIATION": "USA - Washington", "POINTS": "6", "BONUSPOINTS": "3"}}, {"type": "Feature", "geometry": {"type": "Point", "coordinates": [-121.9625, 48.8108]}, "properties": {"NAME": "W7W/WH-174", "TITLE": "4926 Mt Toroid", "REGION": "WA-Whatcom", "ASSOCIATION": "USA - Washington", "POINTS": "6", "BONUSPOINTS": "3"}}, {"type": "Feature", "geometry": {"type": "Point", "coordinates": [-122.0, 48.862]}, "properties": {"NAME": "W7W/WH-175", "TITLE": "Slide Mountain", "REGION": "WA-Whatcom", "ASSOCIATION": "USA - Washington", "POINTS": "4", "BONUSPOINTS": "0"}}, {"type": "Feature", "geometry": {"type": "Point", "coordinates": [-121.4736, 48.6614]}, "properties": {"NAME": "W7W/WH-176", "TITLE": "4820 Hot Wire", "REGION": "WA-Whatcom", "ASSOCIATION": "USA - Washington", "POINTS": "4", "BONUSPOINTS": "0"}}, {"type": "Feature", "geometry": {"type": "Point", "coordinates": [-121.9662, 48.8418]}, "properties": {"NAME": "W7W/WH-177", "TITLE": "4780 Squelch Pk", "REGION": "WA-Whatcom", "ASSOCIATION": "USA - Washington", "POINTS": "4", "BONUSPOINTS": "0"}}, {"type": "Feature", "geometry": {"type": "Point", "coordinates": [-122.0656, 48.8167]}, "properties": {"NAME": "W7W/WH-178", "TITLE": "Porter Peak", "REGION": "WA-Whatcom", "ASSOCIATION": "USA - Washington", "POINTS": "4", "BONUSPOINTS": "0"}}, {"type": "Feature", "geometry": {"type": "Point", "coordinates": [-121.9118, 48.7194]}, "properties": {"NAME": "W7W/WH-179", "TITLE": "4678 Tetrode Mtn", "REGION": "WA-Whatcom", "ASSOCIATION": "USA - Washington", "POINTS": "4", "BONUSPOINTS": "0"}}, {"type": "Feature", "geometry": {"type": "Point", "coordinates": [-122.0261, 48.6504]}, "properties": {"NAME": "W7W/WH-180", "TITLE": "Bald Mountain", "REGION": "WA-Whatcom", "ASSOCIATION": "USA - Washington", "POINTS": "4", "BONUSPOINTS": "0"}}, {"type": "Feature", "geometry": {"type": "Point", "coordinates": [-121.066, 48.9726]}, "properties": {"NAME": "W7W/WH-181", "TITLE": "Little Jackass Mountain", "REGION": "WA-Whatcom", "ASSOCIATION": "USA - Washington", "POINTS": "4", "BONUSPOINTS": "0"}}, {"type": "Feature", "geometry": {"type": "Point", "coordinates": [-122.0558, 48.7407]}, "properties": {"NAME": "W7W/WH-182", "TITLE": "Bowman Mountain", "REGION": "WA-Whatcom", "ASSOCIATION": "USA - Washington", "POINTS": "4", "BONUSPOINTS": "0"}}, {"type": "Feature", "geometry": {"type": "Point", "coordinates": [-121.6357, 48.754]}, "properties": {"NAME": "W7W/WH-183", "TITLE": "3804 Snowflea Hill", "REGION": "WA-Whatcom", "ASSOCIATION": "USA - Washington", "POINTS": "4", "BONUSPOINTS": "0"}}, {"type": "Feature", "geometry": {"type": "Point", "coordinates": [-121.0629, 48.7851]}, "properties": {"NAME": "W7W/WH-184", "TITLE": "Pumpkin Mountain", "REGION": "WA-Whatcom", "ASSOCIATION": "USA - Washington", "POINTS": "4", "BONUSPOINTS": "0"}}, {"type": "Feature", "geometry": {"type": "Point", "coordinates": [-122.2221, 48.9118]}, "properties": {"NAME": "W7W/WH-185", "TITLE": "Sumas Mountain", "REGION": "WA-Whatcom", "ASSOCIATION": "USA - Washington", "POINTS": "4", "BONUSPOINTS": "0"}}, {"type": "Feature", "geometry": {"type": "Point", "coordinates": [-121.0399, 48.9638]}, "properties": {"NAME": "W7W/WH-186", "TITLE": "3338 Last Mtn", "REGION": "WA-Whatcom", "ASSOCIATION": "USA - Washington", "POINTS": "4", "BONUSPOINTS": "0"}}, {"type": "Feature", "geometry": {"type": "Point", "coordinates": [-122.2732, 48.775]}, "properties": {"NAME": "W7W/WH-187", "TITLE": "Big Foot Hill", "REGION": "WA-Whatcom", "ASSOCIATION": "USA - Washington", "POINTS": "2", "BONUSPOINTS": "0"}}, {"type": "Feature", "geometry": {"type": "Point", "coordinates": [-122.1719, 48.9294]}, "properties": {"NAME": "W7W/WH-188", "TITLE": "Hades Hill", "REGION": "WA-Whatcom", "ASSOCIATION": "USA - Washington", "POINTS": "2", "BONUSPOINTS": "0"}}, {"type": "Feature", "geometry": {"type": "Point", "coordinates": [-122.1995, 48.8571]}, "properties": {"NAME": "W7W/WH-189", "TITLE": "Deming Lookout", "REGION": "WA-Whatcom", "ASSOCIATION": "USA - Washington", "POINTS": "2", "BONUSPOINTS": "0"}}, {"type": "Feature", "geometry": {"type": "Point", "coordinates": [-122.3607, 48.6887]}, "properties": {"NAME": "W7W/WH-190", "TITLE": "Lookout Mountain", "REGION": "WA-Whatcom", "ASSOCIATION": "USA - Washington", "POINTS": "2", "BONUSPOINTS": "0"}}, {"type": "Feature", "geometry": {"type": "Point", "coordinates": [-122.1268, 48.707]}, "properties": {"NAME": "W7W/WH-191", "TITLE": "Blue Mountain", "REGION": "WA-Whatcom", "ASSOCIATION": "USA - Washington", "POINTS": "2", "BONUSPOINTS": "0"}}, {"type": "Feature", "geometry": {"type": "Point", "coordinates": [-122.107, 48.945]}, "properties": {"NAME": "W7W/WH-192", "TITLE": "Red Mountain", "REGION": "WA-Whatcom", "ASSOCIATION": "USA - Washington", "POINTS": "2", "BONUSPOINTS": "0"}}, {"type": "Feature", "geometry": {"type": "Point", "coordinates": [-122.1395, 48.7766]}, "properties": {"NAME": "W7W/WH-193", "TITLE": "Van Zandt Dike", "REGION": "WA-Whatcom", "ASSOCIATION": "USA - Washington", "POINTS": "2", "BONUSPOINTS": "0"}}, {"type": "Feature", "geometry": {"type": "Point", "coordinates": [-122.4648, 48.6527]}, "properties": {"NAME": "W7W/WH-194", "TITLE": "Middle Chuckanut", "REGION": "WA-Whatcom", "ASSOCIATION": "USA - Washington", "POINTS": "2", "BONUSPOINTS": "0"}}, {"type": "Feature", "geometry": {"type": "Point", "coordinates": [-122.4523, 48.6782]}, "properties": {"NAME": "W7W/WH-195", "TITLE": "North Chuckanut Mountain", "REGION": "WA-Whatcom", "ASSOCIATION": "USA - Washington", "POINTS": "2", "BONUSPOINTS": "0"}}, {"type": "Feature", "geometry": {"type": "Point", "coordinates": [-122.1572, 48.9921]}, "properties": {"NAME": "W7W/WH-196", "TITLE": "Vedder Mountain", "REGION": "WA-Whatcom", "ASSOCIATION": "USA - Washington", "POINTS": "2", "BONUSPOINTS": "0"}}, {"type": "Feature", "geometry": {"type": "Point", "coordinates": [-122.6414, 48.6694]}, "properties": {"NAME": "W7W/WH-197", "TITLE": "Lummi Peak", "REGION": "WA-Whatcom", "ASSOCIATION": "USA - Washington", "POINTS": "2", "BONUSPOINTS": "0"}}, {"type": "Feature", "geometry": {"type": "Point", "coordinates": [-122.3696, 48.7821]}, "properties": {"NAME": "W7W/WH-198", "TITLE": "Squalicum Mountain", "REGION": "WA-Whatcom", "ASSOCIATION": "USA - Washington", "POINTS": "1", "BONUSPOINTS": "0"}}, {"type": "Feature", "geometry": {"type": "Point", "coordinates": [-122.2204, 48.8037]}, "properties": {"NAME": "W7W/WH-199", "TITLE": "Deming Tower Hill", "REGION": "WA-Whatcom", "ASSOCIATION": "USA - Washington", "POINTS": "1", "BONUSPOINTS": "0"}}, {"type": "Feature", "geometry": {"type": "Point", "coordinates": [-122.4126, 48.6814]}, "properties": {"NAME": "W7W/WH-200", "TITLE": "1335 Magnetic Hill", "REGION": "WA-Whatcom", "ASSOCIATION": "USA - Washington", "POINTS": "1", "BONUSPOINTS": "0"}}, {"type": "Feature", "geometry": {"type": "Point", "coordinates": [-122.1733, 48.9682]}, "properties": {"NAME": "W7W/WH-201", "TITLE": "Hilltop Hill", "REGION": "WA-Whatcom", "ASSOCIATION": "USA - Washington", "POINTS": "1", "BONUSPOINTS": "0"}}, {"type": "Feature", "geometry": {"type": "Point", "coordinates": [-122.2411, 48.9481]}, "properties": {"NAME": "W7W/WH-202", "TITLE": "Brokenridge Peak", "REGION": "WA-Whatcom", "ASSOCIATION": "USA - Washington", "POINTS": "1", "BONUSPOINTS": "0"}}, {"type": "Feature", "geometry": {"type": "Point", "coordinates": [-122.3031, 48.6595]}, "properties": {"NAME": "W7W/WH-203", "TITLE": "1060 Iowa Heights", "REGION": "WA-Whatcom", "ASSOCIATION": "USA - Washington", "POINTS": "1", "BONUSPOINTS": "0"}}, {"type": "Feature", "geometry": {"type": "Point", "coordinates": [-121.9875, 48.7049]}, "properties": {"NAME": "W7W/WH-204", "TITLE": "South Twin", "REGION": "WA-Whatcom", "ASSOCIATION": "USA - Washington", "POINTS": "8", "BONUSPOINTS": "3"}}, {"type": "Feature", "geometry": {"type": "Point", "coordinates": [-120.8071, 48.8299]}, "properties": {"NAME": "W7W/WH-205", "TITLE": "6234 Eccentric Mountain", "REGION": "WA-Whatcom", "ASSOCIATION": "USA - Washington", "POINTS": "6", "BONUSPOINTS": "3"}}, {"type": "Feature", "geometry": {"type": "Point", "coordinates": [-121.9315, 48.8223]}, "properties": {"NAME": "W7W/WH-206", "TITLE": "South Lookout Mountain", "REGION": "WA-Whatcom", "ASSOCIATION": "USA - Washington", "POINTS": "6", "BONUSPOINTS": "3"}}, {"type": "Feature", "geometry": {"type": "Point", "coordinates": [-122.3267, 48.6893]}, "properties": {"NAME": "W7W/WH-207", "TITLE": "1958Austin Hill", "REGION": "WA-Whatcom", "ASSOCIATION": "USA - Washington", "POINTS": "2", "BONUSPOINTS": "0"}}, {"type": "Feature", "geometry": {"type": "Point", "coordinates": [-121.1068, 48.7043]}, "properties": {"NAME": "W7W/WH-208", "TITLE": "Thunder Knob", "REGION": "WA-Whatcom", "ASSOCIATION": "USA - Washington", "POINTS": "2", "BONUSPOINTS": "0"}}, {"type": "Feature", "geometry": {"type": "Point", "coordinates": [-122.0793, 48.9893]}, "properties": {"NAME": "W7W/WH-209", "TITLE": "1316", "REGION": "WA-Whatcom", "ASSOCIATION": "USA - Washington", "POINTS": "1", "BONUSPOINTS": "0"}}]}