{"type": "FeatureCollection", "name": "US-OH POTA PARKS", "features": [{"type": "Feature", "geometry": {"type": "Point", "coordinates": [-81.5585, 41.2628]}, "properties": {"NAME": "US-0020", "TITLE": "Cuyahoga Valley National Park"}}, {"type": "Feature", "geometry": {"type": "Point", "coordinates": [-83.3125, 41.672]}, "properties": {"NAME": "US-0482", "TITLE": "Cedar Point National Wildlife Refuge"}}, {"type": "Feature", "geometry": {"type": "Point", "coordinates": [-83.2106, 41.6074]}, "properties": {"NAME": "US-0483", "TITLE": "Ottawa National Wildlife Refuge"}}, {"type": "Feature", "geometry": {"type": "Point", "coordinates": [-84.0663, 39.7999]}, "properties": {"NAME": "US-0732", "TITLE": "Dayton Aviation Heritage National Historical Park"}}, {"type": "Feature", "geometry": {"type": "Point", "coordinates": [-83.0066, 39.376]}, "properties": {"NAME": "US-0737", "TITLE": "Hopewell Culture National Historical Park"}}, {"type": "Feature", "geometry": {"type": "Point", "coordinates": [-82.8117, 41.6529]}, "properties": {"NAME": "US-0787", "TITLE": "Perry's Victory and International Peace National Memorial"}}, {"type": "Feature", "geometry": {"type": "Point", "coordinates": [-81.3754, 40.7976]}, "properties": {"NAME": "US-0813", "TITLE": "First Ladies National Historic Site"}}, {"type": "Feature", "geometry": {"type": "Point", "coordinates": [-81.3515, 41.6649]}, "properties": {"NAME": "US-0836", "TITLE": "James A. Garfield National Historic Site"}}, {"type": "Feature", "geometry": {"type": "Point", "coordinates": [-84.5081, 39.1198]}, "properties": {"NAME": "US-0875", "TITLE": "William Howard Taft National Historic Site"}}, {"type": "Feature", "geometry": {"type": "Point", "coordinates": [-83.8902, 39.7073]}, "properties": {"NAME": "US-0916", "TITLE": "Charles Young Buffalo Soldiers National Monument"}}, {"type": "Feature", "geometry": {"type": "Point", "coordinates": [-83.6554, 39.9468]}, "properties": {"NAME": "US-10632", "TITLE": "Clark Lake State Wildlife Area"}}, {"type": "Feature", "geometry": {"type": "Point", "coordinates": [-81.6596, 39.3473]}, "properties": {"NAME": "US-10697", "TITLE": "Veto Lake State Wildlife Area"}}, {"type": "Feature", "geometry": {"type": "Point", "coordinates": [-83.9372, 39.7293]}, "properties": {"NAME": "US-11673", "TITLE": "Great Council State Park"}}, {"type": "Feature", "geometry": {"type": "Point", "coordinates": [-82.8882, 39.6288]}, "properties": {"NAME": "US-1931", "TITLE": "A.W. Marion State Park"}}, {"type": "Feature", "geometry": {"type": "Point", "coordinates": [-83.5201, 38.8134]}, "properties": {"NAME": "US-1932", "TITLE": "Adams Lake State Park"}}, {"type": "Feature", "geometry": {"type": "Point", "coordinates": [-82.9723, 40.1907]}, "properties": {"NAME": "US-1933", "TITLE": "Alum Creek State Park"}}, {"type": "Feature", "geometry": {"type": "Point", "coordinates": [-81.028, 40.046]}, "properties": {"NAME": "US-1934", "TITLE": "Barkcamp State Park"}}, {"type": "Feature", "geometry": {"type": "Point", "coordinates": [-80.6136, 40.7261]}, "properties": {"NAME": "US-1935", "TITLE": "Beaver Creek State Park"}}, {"type": "Feature", "geometry": {"type": "Point", "coordinates": [-81.8584, 39.8323]}, "properties": {"NAME": "US-1936", "TITLE": "Blue Rock State Park"}}, {"type": "Feature", "geometry": {"type": "Point", "coordinates": [-83.7271, 39.9704]}, "properties": {"NAME": "US-1937", "TITLE": "Buck Creek State Park"}}, {"type": "Feature", "geometry": {"type": "Point", "coordinates": [-82.5255, 39.9067]}, "properties": {"NAME": "US-1938", "TITLE": "Buckeye Lake State Park"}}, {"type": "Feature", "geometry": {"type": "Point", "coordinates": [-82.0354, 39.5308]}, "properties": {"NAME": "US-1939", "TITLE": "Burr Oak State Park"}}, {"type": "Feature", "geometry": {"type": "Point", "coordinates": [-84.0245, 39.519]}, "properties": {"NAME": "US-1940", "TITLE": "Caesar Creek State Park"}}, {"type": "Feature", "geometry": {"type": "Point", "coordinates": [-82.8562, 41.5738]}, "properties": {"NAME": "US-1941", "TITLE": "Catawba Island State Park"}}, {"type": "Feature", "geometry": {"type": "Point", "coordinates": [-81.6293, 41.5409]}, "properties": {"NAME": "US-1942", "TITLE": "Cleveland Lakefront State Park"}}, {"type": "Feature", "geometry": {"type": "Point", "coordinates": [-83.9004, 39.3816]}, "properties": {"NAME": "US-1943", "TITLE": "Cowan Lake State Park"}}, {"type": "Feature", "geometry": {"type": "Point", "coordinates": [-83.193, 41.6037]}, "properties": {"NAME": "US-1944", "TITLE": "Magee Marsh State Wildlife Area"}}, {"type": "Feature", "geometry": {"type": "Point", "coordinates": [-83.2312, 39.6037]}, "properties": {"NAME": "US-1945", "TITLE": "Deer Creek State Park"}}, {"type": "Feature", "geometry": {"type": "Point", "coordinates": [-83.0734, 40.3777]}, "properties": {"NAME": "US-1946", "TITLE": "Delaware State Park"}}, {"type": "Feature", "geometry": {"type": "Point", "coordinates": [-82.1125, 40.0232]}, "properties": {"NAME": "US-1947", "TITLE": "Dillon State Park"}}, {"type": "Feature", "geometry": {"type": "Point", "coordinates": [-84.1406, 39.0046]}, "properties": {"NAME": "US-1948", "TITLE": "East Fork State Park"}}, {"type": "Feature", "geometry": {"type": "Point", "coordinates": [-82.8093, 41.5506]}, "properties": {"NAME": "US-1949", "TITLE": "East Harbor State Park"}}, {"type": "Feature", "geometry": {"type": "Point", "coordinates": [-82.2187, 41.1342]}, "properties": {"NAME": "US-1950", "TITLE": "Findley State Park"}}, {"type": "Feature", "geometry": {"type": "Point", "coordinates": [-81.7703, 39.0851]}, "properties": {"NAME": "US-1951", "TITLE": "Forked Run State Park"}}, {"type": "Feature", "geometry": {"type": "Point", "coordinates": [-80.9697, 41.8518]}, "properties": {"NAME": "US-1952", "TITLE": "Geneva State Park"}}, {"type": "Feature", "geometry": {"type": "Point", "coordinates": [-84.4214, 40.5214]}, "properties": {"NAME": "US-1953", "TITLE": "Grand Lake Saint Marys State Park"}}, {"type": "Feature", "geometry": {"type": "Point", "coordinates": [-82.9494, 39.3992]}, "properties": {"NAME": "US-1954", "TITLE": "Great Seal State Park"}}, {"type": "Feature", "geometry": {"type": "Point", "coordinates": [-80.8776, 40.8061]}, "properties": {"NAME": "US-1955", "TITLE": "Guilford Lake State Park"}}, {"type": "Feature", "geometry": {"type": "Point", "coordinates": [-84.367, 41.6429]}, "properties": {"NAME": "US-1956", "TITLE": "Harrison Lake State Park"}}, {"type": "Feature", "geometry": {"type": "Point", "coordinates": [-81.2892, 41.7573]}, "properties": {"NAME": "US-1957", "TITLE": "Headlands Beach State Park"}}, {"type": "Feature", "geometry": {"type": "Point", "coordinates": [-82.5357, 39.4266]}, "properties": {"NAME": "US-1958", "TITLE": "Hocking Hills State Park"}}, {"type": "Feature", "geometry": {"type": "Point", "coordinates": [-84.7469, 39.5812]}, "properties": {"NAME": "US-1959", "TITLE": "Hueston Woods State Park"}}, {"type": "Feature", "geometry": {"type": "Point", "coordinates": [-84.2756, 41.292]}, "properties": {"NAME": "US-1960", "TITLE": "Independence Dam State Park"}}, {"type": "Feature", "geometry": {"type": "Point", "coordinates": [-83.8988, 40.5143]}, "properties": {"NAME": "US-1961", "TITLE": "Indian Lake State Park"}}, {"type": "Feature", "geometry": {"type": "Point", "coordinates": [-82.5953, 38.8986]}, "properties": {"NAME": "US-1962", "TITLE": "Jackson Lake State Park"}}, {"type": "Feature", "geometry": {"type": "Point", "coordinates": [-80.8084, 40.4696]}, "properties": {"NAME": "US-1963", "TITLE": "Jefferson Lake State Park"}}, {"type": "Feature", "geometry": {"type": "Point", "coordinates": [-83.8539, 39.7892]}, "properties": {"NAME": "US-1964", "TITLE": "John Bryan State Park"}}, {"type": "Feature", "geometry": {"type": "Point", "coordinates": [-82.7062, 41.6152]}, "properties": {"NAME": "US-1965", "TITLE": "Kelleys Island State Park"}}, {"type": "Feature", "geometry": {"type": "Point", "coordinates": [-83.9492, 40.1798]}, "properties": {"NAME": "US-1966", "TITLE": "Kiser Lake State Park"}}, {"type": "Feature", "geometry": {"type": "Point", "coordinates": [-82.5227, 39.134]}, "properties": {"NAME": "US-1967", "TITLE": "Lake Alma State Park"}}, {"type": "Feature", "geometry": {"type": "Point", "coordinates": [-82.3497, 39.3279]}, "properties": {"NAME": "US-1968", "TITLE": "Lake Hope State Park"}}, {"type": "Feature", "geometry": {"type": "Point", "coordinates": [-82.4631, 39.5406]}, "properties": {"NAME": "US-1969", "TITLE": "Lake Logan State Park"}}, {"type": "Feature", "geometry": {"type": "Point", "coordinates": [-84.3572, 40.3577]}, "properties": {"NAME": "US-1970", "TITLE": "Lake Loramie State Park"}}, {"type": "Feature", "geometry": {"type": "Point", "coordinates": [-83.0308, 39.1073]}, "properties": {"NAME": "US-1971", "TITLE": "Lake White State Park"}}, {"type": "Feature", "geometry": {"type": "Point", "coordinates": [-84.0799, 39.5249]}, "properties": {"NAME": "US-1972", "TITLE": "Little Miami State Park"}}, {"type": "Feature", "geometry": {"type": "Point", "coordinates": [-83.3737, 39.8705]}, "properties": {"NAME": "US-1973", "TITLE": "Madison Lake State Park"}}, {"type": "Feature", "geometry": {"type": "Point", "coordinates": [-82.3991, 40.6522]}, "properties": {"NAME": "US-1974", "TITLE": "Malabar Farm State Park"}}, {"type": "Feature", "geometry": {"type": "Point", "coordinates": [-83.893, 41.4122]}, "properties": {"NAME": "US-1975", "TITLE": "Mary Jane Thurston State Park"}}, {"type": "Feature", "geometry": {"type": "Point", "coordinates": [-83.374, 41.6789]}, "properties": {"NAME": "US-1976", "TITLE": "Maumee Bay State Park"}}, {"type": "Feature", "geometry": {"type": "Point", "coordinates": [-82.2577, 40.6097]}, "properties": {"NAME": "US-1977", "TITLE": "Mohican State Park"}}, {"type": "Feature", "geometry": {"type": "Point", "coordinates": [-80.7543, 41.3475]}, "properties": {"NAME": "US-1978", "TITLE": "Mosquito Lake State Park"}}, {"type": "Feature", "geometry": {"type": "Point", "coordinates": [-82.8188, 40.5485]}, "properties": {"NAME": "US-1979", "TITLE": "Mt. Gilead State Park"}}, {"type": "Feature", "geometry": {"type": "Point", "coordinates": [-81.0396, 41.3294]}, "properties": {"NAME": "US-1980", "TITLE": "Nelson-Kennedy Ledges State Park"}}, {"type": "Feature", "geometry": {"type": "Point", "coordinates": [-82.826, 41.6565]}, "properties": {"NAME": "US-1981", "TITLE": "Oak Point State Park"}}, {"type": "Feature", "geometry": {"type": "Point", "coordinates": [-83.3851, 39.2696]}, "properties": {"NAME": "US-1982", "TITLE": "Paint Creek State Park"}}, {"type": "Feature", "geometry": {"type": "Point", "coordinates": [-83.2183, 39.16]}, "properties": {"NAME": "US-1983", "TITLE": "Pike Lake State Park"}}, {"type": "Feature", "geometry": {"type": "Point", "coordinates": [-81.5549, 40.9668]}, "properties": {"NAME": "US-1984", "TITLE": "Portage Lakes State Park"}}, {"type": "Feature", "geometry": {"type": "Point", "coordinates": [-81.2135, 41.4591]}, "properties": {"NAME": "US-1985", "TITLE": "Punderson State Park"}}, {"type": "Feature", "geometry": {"type": "Point", "coordinates": [-80.5355, 41.5783]}, "properties": {"NAME": "US-1986", "TITLE": "Pymatuning of Ohio State Park"}}, {"type": "Feature", "geometry": {"type": "Point", "coordinates": [-81.3105, 40.9783]}, "properties": {"NAME": "US-1987", "TITLE": "Quail Hollow State Park"}}, {"type": "Feature", "geometry": {"type": "Point", "coordinates": [-83.5313, 39.1884]}, "properties": {"NAME": "US-1988", "TITLE": "Rocky Fork State Park"}}, {"type": "Feature", "geometry": {"type": "Point", "coordinates": [-81.4602, 40.0827]}, "properties": {"NAME": "US-1989", "TITLE": "Salt Fork State Park"}}, {"type": "Feature", "geometry": {"type": "Point", "coordinates": [-82.9619, 39.2334]}, "properties": {"NAME": "US-1990", "TITLE": "Scioto Trail State Park"}}, {"type": "Feature", "geometry": {"type": "Point", "coordinates": [-83.1965, 38.7406]}, "properties": {"NAME": "US-1991", "TITLE": "Shawnee State Park"}}, {"type": "Feature", "geometry": {"type": "Point", "coordinates": [-82.8377, 41.6441]}, "properties": {"NAME": "US-1992", "TITLE": "South Bass Island State Park"}}, {"type": "Feature", "geometry": {"type": "Point", "coordinates": [-84.067, 39.2139]}, "properties": {"NAME": "US-1993", "TITLE": "Stonelick State Park"}}, {"type": "Feature", "geometry": {"type": "Point", "coordinates": [-82.0506, 39.3661]}, "properties": {"NAME": "US-1994", "TITLE": "Strouds Run State Park"}}, {"type": "Feature", "geometry": {"type": "Point", "coordinates": [-84.3678, 39.8139]}, "properties": {"NAME": "US-1995", "TITLE": "Sycamore State Park"}}, {"type": "Feature", "geometry": {"type": "Point", "coordinates": [-82.7464, 39.3835]}, "properties": {"NAME": "US-1996", "TITLE": "Tar Hollow State Park"}}, {"type": "Feature", "geometry": {"type": "Point", "coordinates": [-81.3732, 41.2765]}, "properties": {"NAME": "US-1997", "TITLE": "Tinker's Creek State Park"}}, {"type": "Feature", "geometry": {"type": "Point", "coordinates": [-83.6373, 41.1348]}, "properties": {"NAME": "US-1998", "TITLE": "Van Buren State Park"}}, {"type": "Feature", "geometry": {"type": "Point", "coordinates": [-81.1155, 41.141]}, "properties": {"NAME": "US-1999", "TITLE": "West Branch State Park"}}, {"type": "Feature", "geometry": {"type": "Point", "coordinates": [-81.5394, 39.7928]}, "properties": {"NAME": "US-2000", "TITLE": "Wolf Run State Park"}}, {"type": "Feature", "geometry": {"type": "Point", "coordinates": [-83.6261, 41.5725]}, "properties": {"NAME": "US-3514", "TITLE": "Fort Miamis Fallen Timbers Battlefield National Historic Site"}}, {"type": "Feature", "geometry": {"type": "Point", "coordinates": [-80.9717, 41.0943]}, "properties": {"NAME": "US-3515", "TITLE": "Lake Milton State Park"}}, {"type": "Feature", "geometry": {"type": "Point", "coordinates": [-81.3622, 41.0193]}, "properties": {"NAME": "US-3516", "TITLE": "Wingfoot Lake State Park"}}, {"type": "Feature", "geometry": {"type": "Point", "coordinates": [-82.8151, 41.7089]}, "properties": {"NAME": "US-3517", "TITLE": "North Bass Island State Park"}}, {"type": "Feature", "geometry": {"type": "Point", "coordinates": [-82.8115, 41.6803]}, "properties": {"NAME": "US-3518", "TITLE": "Middle Bass Island State Park"}}, {"type": "Feature", "geometry": {"type": "Point", "coordinates": [-82.7131, 41.5358]}, "properties": {"NAME": "US-3519", "TITLE": "MarbleHead Lighthouse State Park"}}, {"type": "Feature", "geometry": {"type": "Point", "coordinates": [-81.8467, 39.6388]}, "properties": {"NAME": "US-3520", "TITLE": "Muskingum River State Park"}}, {"type": "Feature", "geometry": {"type": "Point", "coordinates": [-101.453, 47.5195]}, "properties": {"NAME": "US-4239", "TITLE": "North Country Trail National Scenic Trail"}}, {"type": "Feature", "geometry": {"type": "Point", "coordinates": [-82.1674, 39.4032]}, "properties": {"NAME": "US-4521", "TITLE": "Wayne National Forest"}}, {"type": "Feature", "geometry": {"type": "Point", "coordinates": [-95.9246, 41.2646]}, "properties": {"NAME": "US-4572", "TITLE": "Lewis and Clark National Historic Trail"}}, {"type": "Feature", "geometry": {"type": "Point", "coordinates": [-80.5271, 40.6753]}, "properties": {"NAME": "US-5435", "TITLE": "Beaver Creek State Forest"}}, {"type": "Feature", "geometry": {"type": "Point", "coordinates": [-81.8584, 39.8412]}, "properties": {"NAME": "US-5436", "TITLE": "Blue Rock State Forest"}}, {"type": "Feature", "geometry": {"type": "Point", "coordinates": [-83.2881, 38.9771]}, "properties": {"NAME": "US-5437", "TITLE": "Brush Creek State Forest"}}, {"type": "Feature", "geometry": {"type": "Point", "coordinates": [-82.6213, 38.6872]}, "properties": {"NAME": "US-5438", "TITLE": "Dean State Forest"}}, {"type": "Feature", "geometry": {"type": "Point", "coordinates": [-80.7089, 40.324]}, "properties": {"NAME": "US-5439", "TITLE": "Fernwood State Forest"}}, {"type": "Feature", "geometry": {"type": "Point", "coordinates": [-81.9091, 39.4473]}, "properties": {"NAME": "US-5440", "TITLE": "Gifford State Forest"}}, {"type": "Feature", "geometry": {"type": "Point", "coordinates": [-81.0262, 40.3391]}, "properties": {"NAME": "US-5441", "TITLE": "Harrison State Forest"}}, {"type": "Feature", "geometry": {"type": "Point", "coordinates": [-82.5456, 39.4388]}, "properties": {"NAME": "US-5442", "TITLE": "Hocking State Forest"}}, {"type": "Feature", "geometry": {"type": "Point", "coordinates": [-83.9068, 41.5157]}, "properties": {"NAME": "US-5443", "TITLE": "Maumee State Forest"}}, {"type": "Feature", "geometry": {"type": "Point", "coordinates": [-82.2974, 40.6048]}, "properties": {"NAME": "US-5444", "TITLE": "Mohican-Memorial State Forest"}}, {"type": "Feature", "geometry": {"type": "Point", "coordinates": [-82.2082, 39.7695]}, "properties": {"NAME": "US-5445", "TITLE": "Perry State Forest"}}, {"type": "Feature", "geometry": {"type": "Point", "coordinates": [-83.3468, 39.0791]}, "properties": {"NAME": "US-5446", "TITLE": "Pike State Forest"}}, {"type": "Feature", "geometry": {"type": "Point", "coordinates": [-82.6061, 39.1631]}, "properties": {"NAME": "US-5447", "TITLE": "Richland Furnace State Forest"}}, {"type": "Feature", "geometry": {"type": "Point", "coordinates": [-82.9407, 39.2576]}, "properties": {"NAME": "US-5448", "TITLE": "Scioto Trail State Forest"}}, {"type": "Feature", "geometry": {"type": "Point", "coordinates": [-81.7951, 39.1153]}, "properties": {"NAME": "US-5449", "TITLE": "Shade River State Forest"}}, {"type": "Feature", "geometry": {"type": "Point", "coordinates": [-83.1977, 38.7412]}, "properties": {"NAME": "US-5450", "TITLE": "Shawnee State Forest"}}, {"type": "Feature", "geometry": {"type": "Point", "coordinates": [-80.8367, 39.8103]}, "properties": {"NAME": "US-5451", "TITLE": "Sunfish Creek State Forest"}}, {"type": "Feature", "geometry": {"type": "Point", "coordinates": [-82.7671, 39.3549]}, "properties": {"NAME": "US-5452", "TITLE": "Tar Hollow State Forest"}}, {"type": "Feature", "geometry": {"type": "Point", "coordinates": [-82.3994, 39.1868]}, "properties": {"NAME": "US-5453", "TITLE": "Vinton Furnace Experimental State Forest"}}, {"type": "Feature", "geometry": {"type": "Point", "coordinates": [-80.8004, 40.656]}, "properties": {"NAME": "US-5454", "TITLE": "Yellow Creek State Forest"}}, {"type": "Feature", "geometry": {"type": "Point", "coordinates": [-82.3901, 39.2905]}, "properties": {"NAME": "US-5455", "TITLE": "Zaleski State Forest"}}, {"type": "Feature", "geometry": {"type": "Point", "coordinates": [-81.725, 39.7067]}, "properties": {"NAME": "US-5641", "TITLE": "Jesse Owens State Park"}}, {"type": "Feature", "geometry": {"type": "Point", "coordinates": [-84.1016, 39.4917]}, "properties": {"NAME": "US-7847", "TITLE": "Caesar Creek Gorge State Nature Preserve"}}, {"type": "Feature", "geometry": {"type": "Point", "coordinates": [-83.8337, 39.7993]}, "properties": {"NAME": "US-7848", "TITLE": "Clifton Gorge State Nature Preserve"}}, {"type": "Feature", "geometry": {"type": "Point", "coordinates": [-84.0109, 39.5727]}, "properties": {"NAME": "US-7849", "TITLE": "Spring Valley State Wildlife Area"}}, {"type": "Feature", "geometry": {"type": "Point", "coordinates": [-84.0546, 39.5007]}, "properties": {"NAME": "US-7850", "TITLE": "Caesar Creek Lake State Wildlife Area"}}, {"type": "Feature", "geometry": {"type": "Point", "coordinates": [-80.8511, 40.0542]}, "properties": {"NAME": "US-8104", "TITLE": "Willow Grove State Forest"}}, {"type": "Feature", "geometry": {"type": "Point", "coordinates": [-82.0066, 39.8546]}, "properties": {"NAME": "US-8105", "TITLE": "West Blue Rock State Forest"}}, {"type": "Feature", "geometry": {"type": "Point", "coordinates": [-84.4386, 41.3466]}, "properties": {"NAME": "US-8106", "TITLE": "Oxbow Lake State Wildlife Area"}}, {"type": "Feature", "geometry": {"type": "Point", "coordinates": [-84.6944, 41.6801]}, "properties": {"NAME": "US-8107", "TITLE": "Lake La Su An State Wildlife Area"}}, {"type": "Feature", "geometry": {"type": "Point", "coordinates": [-83.2992, 40.721]}, "properties": {"NAME": "US-8108", "TITLE": "Killdeer Plains State Wildlife Area"}}, {"type": "Feature", "geometry": {"type": "Point", "coordinates": [-83.2741, 40.5685]}, "properties": {"NAME": "US-8109", "TITLE": "Big Island State Wildlife Area"}}, {"type": "Feature", "geometry": {"type": "Point", "coordinates": [-82.0249, 40.2847]}, "properties": {"NAME": "US-8110", "TITLE": "Woodbury State Wildlife Area"}}, {"type": "Feature", "geometry": {"type": "Point", "coordinates": [-81.9371, 40.1241]}, "properties": {"NAME": "US-8111", "TITLE": "Tri-Valley State Wildlife Area"}}, {"type": "Feature", "geometry": {"type": "Point", "coordinates": [-81.6701, 39.7213]}, "properties": {"NAME": "US-8112", "TITLE": "Appalachian Hills State Wildlife Area"}}, {"type": "Feature", "geometry": {"type": "Point", "coordinates": [-81.159, 40.08]}, "properties": {"NAME": "US-8113", "TITLE": "Egypt Valley State Wildlife Area"}}, {"type": "Feature", "geometry": {"type": "Point", "coordinates": [-84.0684, 39.0339]}, "properties": {"NAME": "US-8114", "TITLE": "East Fork State Wildlife Area"}}, {"type": "Feature", "geometry": {"type": "Point", "coordinates": [-82.1076, 40.7514]}, "properties": {"NAME": "US-8269", "TITLE": "Funk Bottoms State Wildlife Area"}}, {"type": "Feature", "geometry": {"type": "Point", "coordinates": [-81.9775, 40.6992]}, "properties": {"NAME": "US-8270", "TITLE": "Killbuck Marsh State Wildlife Area"}}, {"type": "Feature", "geometry": {"type": "Point", "coordinates": [-82.7804, 41.011]}, "properties": {"NAME": "US-8271", "TITLE": "Willard Marsh State Wildlife Area"}}, {"type": "Feature", "geometry": {"type": "Point", "coordinates": [-83.5117, 39.0108]}, "properties": {"NAME": "US-8630", "TITLE": "Tranquility State Wildlife Area"}}, {"type": "Feature", "geometry": {"type": "Point", "coordinates": [-81.6013, 40.6154]}, "properties": {"NAME": "US-8631", "TITLE": "Beach City State Wildlife Area"}}, {"type": "Feature", "geometry": {"type": "Point", "coordinates": [-81.7442, 40.8886]}, "properties": {"NAME": "US-8632", "TITLE": "Johnson Woods State Nature Preserve"}}, {"type": "Feature", "geometry": {"type": "Point", "coordinates": [-82.2532, 39.3475]}, "properties": {"NAME": "US-8633", "TITLE": "Waterloo State Wildlife Area"}}, {"type": "Feature", "geometry": {"type": "Point", "coordinates": [-82.5112, 38.9489]}, "properties": {"NAME": "US-8634", "TITLE": "Cooper Hollow State Wildlife Area"}}, {"type": "Feature", "geometry": {"type": "Point", "coordinates": [-82.0438, 40.683]}, "properties": {"NAME": "US-8635", "TITLE": "Shreve Lake State Wildlife Area"}}, {"type": "Feature", "geometry": {"type": "Point", "coordinates": [-83.3868, 39.2895]}, "properties": {"NAME": "US-8636", "TITLE": "Paint Creek State Wildlife Area"}}, {"type": "Feature", "geometry": {"type": "Point", "coordinates": [-83.2639, 39.6524]}, "properties": {"NAME": "US-8637", "TITLE": "Deer Creek State Wildlife Area"}}, {"type": "Feature", "geometry": {"type": "Point", "coordinates": [-83.895, 39.1754]}, "properties": {"NAME": "US-8638", "TITLE": "Indian Creek State Wildlife Area"}}, {"type": "Feature", "geometry": {"type": "Point", "coordinates": [-83.5296, 38.8125]}, "properties": {"NAME": "US-9391", "TITLE": "Adams Lake Prairie State Nature Preserve"}}, {"type": "Feature", "geometry": {"type": "Point", "coordinates": [-82.4079, 41.2727]}, "properties": {"NAME": "US-9392", "TITLE": "Augusta-Anne Olsen State Nature Preserve"}}, {"type": "Feature", "geometry": {"type": "Point", "coordinates": [-82.218, 40.0561]}, "properties": {"NAME": "US-9393", "TITLE": "Blackhand Gorge State Nature Preserve"}}, {"type": "Feature", "geometry": {"type": "Point", "coordinates": [-82.3984, 39.6151]}, "properties": {"NAME": "US-9394", "TITLE": "Boch Hollow State Nature Preserve"}}, {"type": "Feature", "geometry": {"type": "Point", "coordinates": [-81.7468, 39.3949]}, "properties": {"NAME": "US-9395", "TITLE": "Boord State Nature Preserve"}}, {"type": "Feature", "geometry": {"type": "Point", "coordinates": [-83.7616, 41.5909]}, "properties": {"NAME": "US-9396", "TITLE": "Campbell State Nature Preserve"}}, {"type": "Feature", "geometry": {"type": "Point", "coordinates": [-82.6501, 39.6392]}, "properties": {"NAME": "US-9397", "TITLE": "Christmas Rocks State Nature Preserve"}}, {"type": "Feature", "geometry": {"type": "Point", "coordinates": [-82.3063, 40.6082]}, "properties": {"NAME": "US-9398", "TITLE": "Clear Fork Gorge State Nature Preserve"}}, {"type": "Feature", "geometry": {"type": "Point", "coordinates": [-83.2019, 41.0042]}, "properties": {"NAME": "US-9399", "TITLE": "Collier State Nature Preserve"}}, {"type": "Feature", "geometry": {"type": "Point", "coordinates": [-82.5784, 39.4561]}, "properties": {"NAME": "US-9400", "TITLE": "Conkles Holow State Nature Preserve"}}, {"type": "Feature", "geometry": {"type": "Point", "coordinates": [-81.3537, 41.1294]}, "properties": {"NAME": "US-9401", "TITLE": "Cooperrider-Kent Bog State Nature Preserve"}}, {"type": "Feature", "geometry": {"type": "Point", "coordinates": [-83.9385, 39.3691]}, "properties": {"NAME": "US-9402", "TITLE": "Culberson Woods State Nature Preserve"}}, {"type": "Feature", "geometry": {"type": "Point", "coordinates": [-83.9046, 40.1383]}, "properties": {"NAME": "US-9403", "TITLE": "Davey Woods State Nature Preserve"}}, {"type": "Feature", "geometry": {"type": "Point", "coordinates": [-81.8682, 39.237]}, "properties": {"NAME": "US-9404", "TITLE": "Desonier State Nature Preserve"}}, {"type": "Feature", "geometry": {"type": "Point", "coordinates": [-81.0573, 41.2896]}, "properties": {"NAME": "US-9405", "TITLE": "Eagle Creek State Nature Preserve"}}, {"type": "Feature", "geometry": {"type": "Point", "coordinates": [-82.7078, 41.3601]}, "properties": {"NAME": "US-9406", "TITLE": "Erie Sand Barrens State Nature Preserve"}}, {"type": "Feature", "geometry": {"type": "Point", "coordinates": [-82.4699, 40.9737]}, "properties": {"NAME": "US-9407", "TITLE": "Fowler Woods State Nature Preserve"}}, {"type": "Feature", "geometry": {"type": "Point", "coordinates": [-83.7168, 39.9387]}, "properties": {"NAME": "US-9408", "TITLE": "Gallagher Fen State Nature Preserve"}}, {"type": "Feature", "geometry": {"type": "Point", "coordinates": [-84.3614, 41.5546]}, "properties": {"NAME": "US-9409", "TITLE": "Goll Woods State Nature Preserve"}}, {"type": "Feature", "geometry": {"type": "Point", "coordinates": [-84.0581, 40.4688]}, "properties": {"NAME": "US-9410", "TITLE": "Gross Memorial Woods State Nature Preserve"}}, {"type": "Feature", "geometry": {"type": "Point", "coordinates": [-84.1521, 39.3662]}, "properties": {"NAME": "US-9411", "TITLE": "Halls Creek Woods State Nature Preserve"}}, {"type": "Feature", "geometry": {"type": "Point", "coordinates": [-81.2848, 41.7594]}, "properties": {"NAME": "US-9412", "TITLE": "Headlands Dunes State Nature Preserve"}}, {"type": "Feature", "geometry": {"type": "Point", "coordinates": [-84.7557, 39.5688]}, "properties": {"NAME": "US-9413", "TITLE": "Hueston Woods State Nature Preserve"}}, {"type": "Feature", "geometry": {"type": "Point", "coordinates": [-83.7819, 41.6579]}, "properties": {"NAME": "US-9414", "TITLE": "Irwin Prairie State Nature Preserve"}}, {"type": "Feature", "geometry": {"type": "Point", "coordinates": [-81.4987, 40.8587]}, "properties": {"NAME": "US-9415", "TITLE": "Jackson Bog State Nature Preserve"}}, {"type": "Feature", "geometry": {"type": "Point", "coordinates": [-83.5351, 38.8568]}, "properties": {"NAME": "US-9416", "TITLE": "Johnson Ridge State Nature Preserve"}}, {"type": "Feature", "geometry": {"type": "Point", "coordinates": [-82.476, 39.6411]}, "properties": {"NAME": "US-9417", "TITLE": "Kessler Swamp State Nature Preserve"}}, {"type": "Feature", "geometry": {"type": "Point", "coordinates": [-80.7127, 41.0166]}, "properties": {"NAME": "US-9418", "TITLE": "Kyle Woods State Nature Preserve"}}, {"type": "Feature", "geometry": {"type": "Point", "coordinates": [-82.6697, 39.0859]}, "properties": {"NAME": "US-9419", "TITLE": "Lake Katharine State Nature Preserve"}}, {"type": "Feature", "geometry": {"type": "Point", "coordinates": [-83.6271, 40.5698]}, "properties": {"NAME": "US-9420", "TITLE": "Lawrence Woods State Nature Preserve"}}, {"type": "Feature", "geometry": {"type": "Point", "coordinates": [-81.2101, 41.2811]}, "properties": {"NAME": "US-9421", "TITLE": "Marsh Wetlands State Nature Preserve"}}, {"type": "Feature", "geometry": {"type": "Point", "coordinates": [-83.7825, 40.3066]}, "properties": {"NAME": "US-9422", "TITLE": "McCracken Fen State Nature Preserve"}}, {"type": "Feature", "geometry": {"type": "Point", "coordinates": [-83.3936, 39.2018]}, "properties": {"NAME": "US-9423", "TITLE": "Miller Nature Sanctuary State Nature Preserve"}}, {"type": "Feature", "geometry": {"type": "Point", "coordinates": [-82.7037, 41.6118]}, "properties": {"NAME": "US-9424", "TITLE": "North Pond State Nature Preserve"}}, {"type": "Feature", "geometry": {"type": "Point", "coordinates": [-82.5086, 41.3777]}, "properties": {"NAME": "US-9425", "TITLE": "Old Woman Creek (Nerr) State Nature Preserve"}}, {"type": "Feature", "geometry": {"type": "Point", "coordinates": [-83.7739, 40.2573]}, "properties": {"NAME": "US-9426", "TITLE": "Owens Fen State Nature Preserve"}}, {"type": "Feature", "geometry": {"type": "Point", "coordinates": [-82.5588, 39.6317]}, "properties": {"NAME": "US-9427", "TITLE": "Rhododendron Cove State Nature Preserve"}}, {"type": "Feature", "geometry": {"type": "Point", "coordinates": [-82.4993, 39.5663]}, "properties": {"NAME": "US-9428", "TITLE": "Rockbridge State Nature Preserve"}}, {"type": "Feature", "geometry": {"type": "Point", "coordinates": [-83.0951, 38.8416]}, "properties": {"NAME": "US-9429", "TITLE": "Scioto Brush Creek State Nature Preserve"}}, {"type": "Feature", "geometry": {"type": "Point", "coordinates": [-82.6573, 39.6916]}, "properties": {"NAME": "US-9430", "TITLE": "Shallenberger State Nature Preserve"}}, {"type": "Feature", "geometry": {"type": "Point", "coordinates": [-80.5371, 40.7511]}, "properties": {"NAME": "US-9431", "TITLE": "Sheepskin Hollow State Nature Preserve"}}, {"type": "Feature", "geometry": {"type": "Point", "coordinates": [-82.6024, 41.4084]}, "properties": {"NAME": "US-9432", "TITLE": "Sheldon Marsh State Nature Preserve"}}, {"type": "Feature", "geometry": {"type": "Point", "coordinates": [-83.3425, 38.9557]}, "properties": {"NAME": "US-9433", "TITLE": "Shoemaker State Nature Preserve"}}, {"type": "Feature", "geometry": {"type": "Point", "coordinates": [-83.8546, 40.2346]}, "properties": {"NAME": "US-9434", "TITLE": "Siegenthaler-Kaestner Esker State Nature Preserve"}}, {"type": "Feature", "geometry": {"type": "Point", "coordinates": [-83.4057, 41.0065]}, "properties": {"NAME": "US-9435", "TITLE": "Springville Marsh State Nature Preserve"}}, {"type": "Feature", "geometry": {"type": "Point", "coordinates": [-82.9332, 39.671]}, "properties": {"NAME": "US-9436", "TITLE": "Stage's Pond State Nature Preserve"}}, {"type": "Feature", "geometry": {"type": "Point", "coordinates": [-82.1553, 41.007]}, "properties": {"NAME": "US-9437", "TITLE": "Swamp Cottonwood State Nature Preserve"}}, {"type": "Feature", "geometry": {"type": "Point", "coordinates": [-81.3918, 41.2849]}, "properties": {"NAME": "US-9438", "TITLE": "Tinkers Creek State Nature Preserve"}}, {"type": "Feature", "geometry": {"type": "Point", "coordinates": [-81.263, 41.1234]}, "properties": {"NAME": "US-9439", "TITLE": "Triangle Lake Bog State Nature Preserve"}}, {"type": "Feature", "geometry": {"type": "Point", "coordinates": [-81.226, 41.2755]}, "properties": {"NAME": "US-9440", "TITLE": "Tummonds State Nature Preserve"}}, {"type": "Feature", "geometry": {"type": "Point", "coordinates": [-83.5096, 38.7137]}, "properties": {"NAME": "US-9441", "TITLE": "Whipple State Nature Preserve"}}, {"type": "Feature", "geometry": {"type": "Point", "coordinates": [-81.8469, 39.3223]}, "properties": {"NAME": "US-9442", "TITLE": "Acadia Cliffs State Wildlife Area"}}, {"type": "Feature", "geometry": {"type": "Point", "coordinates": [-81.3905, 39.6368]}, "properties": {"NAME": "US-9443", "TITLE": "Ales Run State Wildlife Area"}}, {"type": "Feature", "geometry": {"type": "Point", "coordinates": [-83.5138, 40.7561]}, "properties": {"NAME": "US-9444", "TITLE": "Andreoff State Wildlife Area"}}, {"type": "Feature", "geometry": {"type": "Point", "coordinates": [-81.2387, 41.3987]}, "properties": {"NAME": "US-9445", "TITLE": "Auburn Marsh State Wildlife Area"}}, {"type": "Feature", "geometry": {"type": "Point", "coordinates": [-84.0019, 39.7542]}, "properties": {"NAME": "US-9446", "TITLE": "Beaver Creek State Wildlife Area"}}, {"type": "Feature", "geometry": {"type": "Point", "coordinates": [-82.4943, 39.0549]}, "properties": {"NAME": "US-9447", "TITLE": "Broken ARO State Wildlife Area"}}, {"type": "Feature", "geometry": {"type": "Point", "coordinates": [-80.9929, 41.2763]}, "properties": {"NAME": "US-9448", "TITLE": "Brook State Wildlife Area"}}, {"type": "Feature", "geometry": {"type": "Point", "coordinates": [-80.7939, 40.5572]}, "properties": {"NAME": "US-9449", "TITLE": "Brush Creek State Wildlife Area"}}, {"type": "Feature", "geometry": {"type": "Point", "coordinates": [-82.0384, 41.2036]}, "properties": {"NAME": "US-9450", "TITLE": "Camp Belden State Wildlife Area"}}, {"type": "Feature", "geometry": {"type": "Point", "coordinates": [-83.1061, 39.6516]}, "properties": {"NAME": "US-9451", "TITLE": "Charles O. Trump State Wildlife Area"}}, {"type": "Feature", "geometry": {"type": "Point", "coordinates": [-82.3029, 39.765]}, "properties": {"NAME": "US-9452", "TITLE": "Clouse Lake State Wildlife Area"}}, {"type": "Feature", "geometry": {"type": "Point", "coordinates": [-82.6402, 39.1163]}, "properties": {"NAME": "US-9453", "TITLE": "Coalton State Wildlife Area"}}, {"type": "Feature", "geometry": {"type": "Point", "coordinates": [-82.3602, 38.6314]}, "properties": {"NAME": "US-9454", "TITLE": "Crown City State Wildlife Area"}}, {"type": "Feature", "geometry": {"type": "Point", "coordinates": [-84.5192, 40.1214]}, "properties": {"NAME": "US-9455", "TITLE": "Darke State Wildlife Area"}}, {"type": "Feature", "geometry": {"type": "Point", "coordinates": [-83.0543, 40.4299]}, "properties": {"NAME": "US-9456", "TITLE": "Delaware State Wildlife Area"}}, {"type": "Feature", "geometry": {"type": "Point", "coordinates": [-83.9908, 39.2376]}, "properties": {"NAME": "US-9457", "TITLE": "Della Gates & Edward Charles Bott State Wildlife Area"}}, {"type": "Feature", "geometry": {"type": "Point", "coordinates": [-82.1535, 40.0535]}, "properties": {"NAME": "US-9458", "TITLE": "Dillon State Wildlife Area"}}, {"type": "Feature", "geometry": {"type": "Point", "coordinates": [-80.6338, 41.6989]}, "properties": {"NAME": "US-9459", "TITLE": "Dorset State Wildlife Area"}}, {"type": "Feature", "geometry": {"type": "Point", "coordinates": [-83.7407, 38.7554]}, "properties": {"NAME": "US-9460", "TITLE": "Eagle Creek State Wildlife Area"}}, {"type": "Feature", "geometry": {"type": "Point", "coordinates": [-83.6301, 39.2855]}, "properties": {"NAME": "US-9461", "TITLE": "Fallsville State Wildlife Area"}}, {"type": "Feature", "geometry": {"type": "Point", "coordinates": [-83.6288, 39.2547]}, "properties": {"NAME": "US-9462", "TITLE": "Fallsville South State Wildlife Area"}}, {"type": "Feature", "geometry": {"type": "Point", "coordinates": [-84.801, 41.4674]}, "properties": {"NAME": "US-9463", "TITLE": "Fish Creek State Wildlife Area"}}, {"type": "Feature", "geometry": {"type": "Point", "coordinates": [-82.5142, 39.0616]}, "properties": {"NAME": "US-9464", "TITLE": "Flint Run State Wildlife Area"}}, {"type": "Feature", "geometry": {"type": "Point", "coordinates": [-82.1845, 39.3036]}, "properties": {"NAME": "US-9465", "TITLE": "Fox Lake State Wildlife Area"}}, {"type": "Feature", "geometry": {"type": "Point", "coordinates": [-80.9241, 41.3927]}, "properties": {"NAME": "US-9466", "TITLE": "Grand River State Wildlife Area"}}, {"type": "Feature", "geometry": {"type": "Point", "coordinates": [-83.9362, 39.0125]}, "properties": {"NAME": "US-9467", "TITLE": "Grant Lake State Wildlife Area"}}, {"type": "Feature", "geometry": {"type": "Point", "coordinates": [-81.1168, 41.5768]}, "properties": {"NAME": "US-9468", "TITLE": "Hambden Orchard State Wildlife Area"}}, {"type": "Feature", "geometry": {"type": "Point", "coordinates": [-80.7862, 40.6498]}, "properties": {"NAME": "US-9469", "TITLE": "Highlandtown State Wildlife Area"}}, {"type": "Feature", "geometry": {"type": "Point", "coordinates": [-81.165, 40.1723]}, "properties": {"NAME": "US-9470", "TITLE": "Jockey Hollow State Wildlife Area"}}, {"type": "Feature", "geometry": {"type": "Point", "coordinates": [-82.977, 39.4407]}, "properties": {"NAME": "US-9471", "TITLE": "Kinnikinnik Lake State Wildlife Area"}}, {"type": "Feature", "geometry": {"type": "Point", "coordinates": [-82.589, 40.5135]}, "properties": {"NAME": "US-9472", "TITLE": "Kokosing Lake State Wildlife Area"}}, {"type": "Feature", "geometry": {"type": "Point", "coordinates": [-81.0683, 40.9147]}, "properties": {"NAME": "US-9473", "TITLE": "Lake Park State Wildlife Area"}}, {"type": "Feature", "geometry": {"type": "Point", "coordinates": [-81.18, 40.4782]}, "properties": {"NAME": "US-9474", "TITLE": "Leesville State Wildlife Area"}}, {"type": "Feature", "geometry": {"type": "Point", "coordinates": [-82.7967, 39.1026]}, "properties": {"NAME": "US-9475", "TITLE": "Liberty State Wildlife Area"}}, {"type": "Feature", "geometry": {"type": "Point", "coordinates": [-83.0392, 41.4985]}, "properties": {"NAME": "US-9476", "TITLE": "Little Portage State Wildlife Area"}}, {"type": "Feature", "geometry": {"type": "Point", "coordinates": [-81.9892, 40.481]}, "properties": {"NAME": "US-9477", "TITLE": "Lower Killbuck Creek State Wildlife Area"}}, {"type": "Feature", "geometry": {"type": "Point", "coordinates": [-83.0027, 39.7738]}, "properties": {"NAME": "US-9478", "TITLE": "Mackey Ford State Wildlife Area"}}, {"type": "Feature", "geometry": {"type": "Point", "coordinates": [-83.3452, 41.6795]}, "properties": {"NAME": "US-9479", "TITLE": "Mallard Club State Wildlife Area"}}, {"type": "Feature", "geometry": {"type": "Point", "coordinates": [-84.5671, 40.5041]}, "properties": {"NAME": "US-9480", "TITLE": "Mercer State Wildlife Area"}}, {"type": "Feature", "geometry": {"type": "Point", "coordinates": [-83.2416, 41.6364]}, "properties": {"NAME": "US-9481", "TITLE": "Metzger Marsh State Wildlife Area"}}, {"type": "Feature", "geometry": {"type": "Point", "coordinates": [-82.6509, 41.2884]}, "properties": {"NAME": "US-9482", "TITLE": "Milan State Wildlife Area"}}, {"type": "Feature", "geometry": {"type": "Point", "coordinates": [-82.1936, 40.3988]}, "properties": {"NAME": "US-9483", "TITLE": "Mohican River State Wildlife Area"}}, {"type": "Feature", "geometry": {"type": "Point", "coordinates": [-81.136, 39.8196]}, "properties": {"NAME": "US-9484", "TITLE": "Monroe Lake State Wildlife Area"}}, {"type": "Feature", "geometry": {"type": "Point", "coordinates": [-80.8109, 41.4373]}, "properties": {"NAME": "US-9485", "TITLE": "Mosquito Creek State Wildlife Area"}}, {"type": "Feature", "geometry": {"type": "Point", "coordinates": [-82.7963, 41.4577]}, "properties": {"NAME": "US-9486", "TITLE": "Moxley State Wildlife Area"}}, {"type": "Feature", "geometry": {"type": "Point", "coordinates": [-80.7385, 41.5821]}, "properties": {"NAME": "US-9487", "TITLE": "New Lyme State Wildlife Area"}}, {"type": "Feature", "geometry": {"type": "Point", "coordinates": [-83.9967, 41.4125]}, "properties": {"NAME": "US-9488", "TITLE": "North Turkeyfoot State Wildlife Area"}}, {"type": "Feature", "geometry": {"type": "Point", "coordinates": [-83.735, 39.2187]}, "properties": {"NAME": "US-9489", "TITLE": "Oldaker State Wildlife Area"}}, {"type": "Feature", "geometry": {"type": "Point", "coordinates": [-80.8453, 41.5571]}, "properties": {"NAME": "US-9490", "TITLE": "Orwell State Wildlife Area"}}, {"type": "Feature", "geometry": {"type": "Point", "coordinates": [-84.526, 41.5414]}, "properties": {"NAME": "US-9491", "TITLE": "Parkersburg State Wildlife Area"}}, {"type": "Feature", "geometry": {"type": "Point", "coordinates": [-84.7326, 39.4204]}, "properties": {"NAME": "US-9492", "TITLE": "Pater State Wildlife Area"}}, {"type": "Feature", "geometry": {"type": "Point", "coordinates": [-82.9615, 41.4332]}, "properties": {"NAME": "US-9493", "TITLE": "Pickerel Creek State Wildlife Area"}}, {"type": "Feature", "geometry": {"type": "Point", "coordinates": [-83.0503, 39.3811]}, "properties": {"NAME": "US-9494", "TITLE": "Pleasant Valley State Wildlife Area"}}, {"type": "Feature", "geometry": {"type": "Point", "coordinates": [-82.0145, 40.0512]}, "properties": {"NAME": "US-9495", "TITLE": "Powelson State Wildlife Area"}}, {"type": "Feature", "geometry": {"type": "Point", "coordinates": [-82.8262, 41.4172]}, "properties": {"NAME": "US-9496", "TITLE": "Resthaven State Wildlife Area"}}, {"type": "Feature", "geometry": {"type": "Point", "coordinates": [-82.9131, 39.3418]}, "properties": {"NAME": "US-9497", "TITLE": "Ross Lake State Wildlife Area"}}, {"type": "Feature", "geometry": {"type": "Point", "coordinates": [-84.611, 39.5922]}, "properties": {"NAME": "US-9498", "TITLE": "Rush Run State Wildlife Area"}}, {"type": "Feature", "geometry": {"type": "Point", "coordinates": [-81.4463, 40.1057]}, "properties": {"NAME": "US-9499", "TITLE": "Salt Fork State Wildlife Area"}}, {"type": "Feature", "geometry": {"type": "Point", "coordinates": [-80.551, 41.3874]}, "properties": {"NAME": "US-9500", "TITLE": "Shenango State Wildlife Area"}}, {"type": "Feature", "geometry": {"type": "Point", "coordinates": [-81.8119, 40.1878]}, "properties": {"NAME": "US-9501", "TITLE": "Simco State Wildlife Area"}}, {"type": "Feature", "geometry": {"type": "Point", "coordinates": [-82.0879, 41.1126]}, "properties": {"NAME": "US-9502", "TITLE": "Spencer Lake State Wildlife Area"}}, {"type": "Feature", "geometry": {"type": "Point", "coordinates": [-84.6473, 41.5576]}, "properties": {"NAME": "US-9503", "TITLE": "St Joseph River State Wildlife Area"}}, {"type": "Feature", "geometry": {"type": "Point", "coordinates": [-83.1316, 41.1969]}, "properties": {"NAME": "US-9504", "TITLE": "Sugar Creek State Wildlife Area"}}, {"type": "Feature", "geometry": {"type": "Point", "coordinates": [-82.6047, 39.1983]}, "properties": {"NAME": "US-9505", "TITLE": "Superior State Wildlife Area"}}, {"type": "Feature", "geometry": {"type": "Point", "coordinates": [-82.4983, 38.7199]}, "properties": {"NAME": "US-9506", "TITLE": "Symmes Township State Wildlife Area"}}, {"type": "Feature", "geometry": {"type": "Point", "coordinates": [-84.2934, 41.6274]}, "properties": {"NAME": "US-9507", "TITLE": "Tiffin River State Wildlife Area"}}, {"type": "Feature", "geometry": {"type": "Point", "coordinates": [-83.1544, 41.5788]}, "properties": {"NAME": "US-9508", "TITLE": "Toussaint Creek State Wildlife Area"}}, {"type": "Feature", "geometry": {"type": "Point", "coordinates": [-82.4093, 39.3325]}, "properties": {"NAME": "US-9509", "TITLE": "Turkey Ridge State Wildlife Area"}}, {"type": "Feature", "geometry": {"type": "Point", "coordinates": [-82.3476, 38.9325]}, "properties": {"NAME": "US-9510", "TITLE": "Tycoon Lake State Wildlife Area"}}, {"type": "Feature", "geometry": {"type": "Point", "coordinates": [-83.7191, 40.1889]}, "properties": {"NAME": "US-9511", "TITLE": "Urbana State Wildlife Area"}}, {"type": "Feature", "geometry": {"type": "Point", "coordinates": [-81.1363, 40.6032]}, "properties": {"NAME": "US-9512", "TITLE": "Valley Run State Wildlife Area"}}, {"type": "Feature", "geometry": {"type": "Point", "coordinates": [-83.8291, 41.4281]}, "properties": {"NAME": "US-9513", "TITLE": "Van Tassel State Wildlife Area"}}, {"type": "Feature", "geometry": {"type": "Point", "coordinates": [-82.1262, 39.5313]}, "properties": {"NAME": "US-9514", "TITLE": "Wallace H. O'Dowd State Wildlife Area"}}, {"type": "Feature", "geometry": {"type": "Point", "coordinates": [-82.2228, 41.128]}, "properties": {"NAME": "US-9515", "TITLE": "Wellington State Wildlife Area"}}, {"type": "Feature", "geometry": {"type": "Point", "coordinates": [-82.5249, 39.1881]}, "properties": {"NAME": "US-9516", "TITLE": "Wellston State Wildlife Area"}}, {"type": "Feature", "geometry": {"type": "Point", "coordinates": [-82.8807, 41.4348]}, "properties": {"NAME": "US-9517", "TITLE": "Willow Point State Wildlife Area"}}, {"type": "Feature", "geometry": {"type": "Point", "coordinates": [-81.3706, 41.0191]}, "properties": {"NAME": "US-9518", "TITLE": "Wingfoot State Wildlife Area"}}, {"type": "Feature", "geometry": {"type": "Point", "coordinates": [-81.9491, 39.583]}, "properties": {"NAME": "US-9519", "TITLE": "Wolf Creek State Wildlife Area"}}, {"type": "Feature", "geometry": {"type": "Point", "coordinates": [-84.6796, 39.663]}, "properties": {"NAME": "US-9520", "TITLE": "Woodland Trails State Wildlife Area"}}, {"type": "Feature", "geometry": {"type": "Point", "coordinates": [-83.3767, 40.9256]}, "properties": {"NAME": "US-9521", "TITLE": "Wyandot State Wildlife Area"}}, {"type": "Feature", "geometry": {"type": "Point", "coordinates": [-80.9795, 40.7879]}, "properties": {"NAME": "US-9522", "TITLE": "Zepernick State Wildlife Area"}}]}