{"type": "FeatureCollection", "name": "W8O/SW SUMMITS", "features": [{"type": "Feature", "geometry": {"type": "Point", "coordinates": [-83.4258, 39.1377]}, "properties": {"NAME": "W8O/SW-001", "TITLE": "Washburn Hill", "REGION": "Southwest", "ASSOCIATION": "USA - Ohio", "POINTS": "2", "BONUSPOINTS": "0"}}, {"type": "Feature", "geometry": {"type": "Point", "coordinates": [-83.4218, 39.1216]}, "properties": {"NAME": "W8O/SW-002", "TITLE": "Reeds Hill", "REGION": "Southwest", "ASSOCIATION": "USA - Ohio", "POINTS": "2", "BONUSPOINTS": "0"}}, {"type": "Feature", "geometry": {"type": "Point", "coordinates": [-83.3621, 38.8954]}, "properties": {"NAME": "W8O/SW-003", "TITLE": "Peach Mountain", "REGION": "Southwest", "ASSOCIATION": "USA - Ohio", "POINTS": "2", "BONUSPOINTS": "0"}}, {"type": "Feature", "geometry": {"type": "Point", "coordinates": [-83.4275, 38.7326]}, "properties": {"NAME": "W8O/SW-004", "TITLE": "1270", "REGION": "Southwest", "ASSOCIATION": "USA - Ohio", "POINTS": "2", "BONUSPOINTS": "0"}}, {"type": "Feature", "geometry": {"type": "Point", "coordinates": [-83.4435, 38.7554]}, "properties": {"NAME": "W8O/SW-005", "TITLE": "Greenbrier Ridge", "REGION": "Southwest", "ASSOCIATION": "USA - Ohio", "POINTS": "2", "BONUSPOINTS": "0"}}, {"type": "Feature", "geometry": {"type": "Point", "coordinates": [-83.4264, 38.7145]}, "properties": {"NAME": "W8O/SW-006", "TITLE": "1250", "REGION": "Southwest", "ASSOCIATION": "USA - Ohio", "POINTS": "2", "BONUSPOINTS": "0"}}, {"type": "Feature", "geometry": {"type": "Point", "coordinates": [-83.3609, 38.8035]}, "properties": {"NAME": "W8O/SW-007", "TITLE": "1230", "REGION": "Southwest", "ASSOCIATION": "USA - Ohio", "POINTS": "2", "BONUSPOINTS": "0"}}, {"type": "Feature", "geometry": {"type": "Point", "coordinates": [-83.3495, 38.8521]}, "properties": {"NAME": "W8O/SW-008", "TITLE": "Coleman Ridge", "REGION": "Southwest", "ASSOCIATION": "USA - Ohio", "POINTS": "2", "BONUSPOINTS": "0"}}, {"type": "Feature", "geometry": {"type": "Point", "coordinates": [-83.4009, 38.7934]}, "properties": {"NAME": "W8O/SW-009", "TITLE": "1190", "REGION": "Southwest", "ASSOCIATION": "USA - Ohio", "POINTS": "2", "BONUSPOINTS": "0"}}, {"type": "Feature", "geometry": {"type": "Point", "coordinates": [-83.2843, 38.9176]}, "properties": {"NAME": "W8O/SW-010", "TITLE": "Grassy Hill", "REGION": "Southwest", "ASSOCIATION": "USA - Ohio", "POINTS": "2", "BONUSPOINTS": "0"}}, {"type": "Feature", "geometry": {"type": "Point", "coordinates": [-83.341, 38.9466]}, "properties": {"NAME": "W8O/SW-011", "TITLE": "Tolle Hill", "REGION": "Southwest", "ASSOCIATION": "USA - Ohio", "POINTS": "2", "BONUSPOINTS": "0"}}, {"type": "Feature", "geometry": {"type": "Point", "coordinates": [-84.5717, 39.1901]}, "properties": {"NAME": "W8O/SW-012", "TITLE": "Hamilton County HP", "REGION": "Southwest", "ASSOCIATION": "USA - Ohio", "POINTS": "1", "BONUSPOINTS": "0"}}]}