{"type": "FeatureCollection", "name": "W8O/SE SUMMITS", "features": [{"type": "Feature", "geometry": {"type": "Point", "coordinates": [-83.2379, 39.2598]}, "properties": {"NAME": "W8O/SE-001", "TITLE": "Farrell Hill", "REGION": "Southeast", "ASSOCIATION": "USA - Ohio", "POINTS": "2", "BONUSPOINTS": "0"}}, {"type": "Feature", "geometry": {"type": "Point", "coordinates": [-83.1544, 38.9352]}, "properties": {"NAME": "W8O/SE-002", "TITLE": "Scioto County HP", "REGION": "Southeast", "ASSOCIATION": "USA - Ohio", "POINTS": "2", "BONUSPOINTS": "0"}}, {"type": "Feature", "geometry": {"type": "Point", "coordinates": [-83.0907, 39.2378]}, "properties": {"NAME": "W8O/SE-003", "TITLE": "Horseback Knob", "REGION": "Southeast", "ASSOCIATION": "USA - Ohio", "POINTS": "2", "BONUSPOINTS": "0"}}, {"type": "Feature", "geometry": {"type": "Point", "coordinates": [-83.2569, 38.7123]}, "properties": {"NAME": "W8O/SE-004", "TITLE": "1310", "REGION": "Southeast", "ASSOCIATION": "USA - Ohio", "POINTS": "2", "BONUSPOINTS": "0"}}, {"type": "Feature", "geometry": {"type": "Point", "coordinates": [-82.9179, 39.3672]}, "properties": {"NAME": "W8O/SE-005", "TITLE": "Rocky Knob", "REGION": "Southeast", "ASSOCIATION": "USA - Ohio", "POINTS": "2", "BONUSPOINTS": "0"}}, {"type": "Feature", "geometry": {"type": "Point", "coordinates": [-83.3268, 39.2736]}, "properties": {"NAME": "W8O/SE-006", "TITLE": "Nevins Hill", "REGION": "Southeast", "ASSOCIATION": "USA - Ohio", "POINTS": "2", "BONUSPOINTS": "0"}}, {"type": "Feature", "geometry": {"type": "Point", "coordinates": [-81.7672, 39.8342]}, "properties": {"NAME": "W8O/SE-007", "TITLE": "High Hill", "REGION": "Southeast", "ASSOCIATION": "USA - Ohio", "POINTS": "2", "BONUSPOINTS": "0"}}, {"type": "Feature", "geometry": {"type": "Point", "coordinates": [-83.3288, 39.1095]}, "properties": {"NAME": "W8O/SE-008", "TITLE": "Staley Knob", "REGION": "Southeast", "ASSOCIATION": "USA - Ohio", "POINTS": "2", "BONUSPOINTS": "0"}}, {"type": "Feature", "geometry": {"type": "Point", "coordinates": [-82.947, 39.3751]}, "properties": {"NAME": "W8O/SE-009", "TITLE": "Bunker Hill", "REGION": "Southeast", "ASSOCIATION": "USA - Ohio", "POINTS": "2", "BONUSPOINTS": "0"}}, {"type": "Feature", "geometry": {"type": "Point", "coordinates": [-83.367, 39.0813]}, "properties": {"NAME": "W8O/SE-010", "TITLE": "Palmer Mountain", "REGION": "Southeast", "ASSOCIATION": "USA - Ohio", "POINTS": "2", "BONUSPOINTS": "0"}}, {"type": "Feature", "geometry": {"type": "Point", "coordinates": [-82.8759, 39.3701]}, "properties": {"NAME": "W8O/SE-011", "TITLE": "1230", "REGION": "Southeast", "ASSOCIATION": "USA - Ohio", "POINTS": "2", "BONUSPOINTS": "0"}}, {"type": "Feature", "geometry": {"type": "Point", "coordinates": [-82.8208, 39.4053]}, "properties": {"NAME": "W8O/SE-012", "TITLE": "1225", "REGION": "Southeast", "ASSOCIATION": "USA - Ohio", "POINTS": "2", "BONUSPOINTS": "0"}}, {"type": "Feature", "geometry": {"type": "Point", "coordinates": [-83.0631, 39.0359]}, "properties": {"NAME": "W8O/SE-013", "TITLE": "Jasper Knob", "REGION": "Southeast", "ASSOCIATION": "USA - Ohio", "POINTS": "2", "BONUSPOINTS": "0"}}, {"type": "Feature", "geometry": {"type": "Point", "coordinates": [-83.0621, 39.3235]}, "properties": {"NAME": "W8O/SE-014", "TITLE": "Schiff Benchmark", "REGION": "Southeast", "ASSOCIATION": "USA - Ohio", "POINTS": "2", "BONUSPOINTS": "0"}}, {"type": "Feature", "geometry": {"type": "Point", "coordinates": [-83.0254, 39.291]}, "properties": {"NAME": "W8O/SE-015", "TITLE": "1190A", "REGION": "Southeast", "ASSOCIATION": "USA - Ohio", "POINTS": "2", "BONUSPOINTS": "0"}}, {"type": "Feature", "geometry": {"type": "Point", "coordinates": [-82.7887, 39.3454]}, "properties": {"NAME": "W8O/SE-016", "TITLE": "1190B", "REGION": "Southeast", "ASSOCIATION": "USA - Ohio", "POINTS": "2", "BONUSPOINTS": "0"}}, {"type": "Feature", "geometry": {"type": "Point", "coordinates": [-82.9293, 39.0823]}, "properties": {"NAME": "W8O/SE-017", "TITLE": "1170", "REGION": "Southeast", "ASSOCIATION": "USA - Ohio", "POINTS": "2", "BONUSPOINTS": "0"}}, {"type": "Feature", "geometry": {"type": "Point", "coordinates": [-83.0653, 38.9463]}, "properties": {"NAME": "W8O/SE-018", "TITLE": "1161", "REGION": "Southeast", "ASSOCIATION": "USA - Ohio", "POINTS": "2", "BONUSPOINTS": "0"}}, {"type": "Feature", "geometry": {"type": "Point", "coordinates": [-82.9382, 38.9467]}, "properties": {"NAME": "W8O/SE-019", "TITLE": "McLaughlin Benchmark", "REGION": "Southeast", "ASSOCIATION": "USA - Ohio", "POINTS": "2", "BONUSPOINTS": "0"}}, {"type": "Feature", "geometry": {"type": "Point", "coordinates": [-82.8343, 39.3626]}, "properties": {"NAME": "W8O/SE-020", "TITLE": "Rattlesnake Knob", "REGION": "Southeast", "ASSOCIATION": "USA - Ohio", "POINTS": "2", "BONUSPOINTS": "0"}}, {"type": "Feature", "geometry": {"type": "Point", "coordinates": [-82.9723, 38.793]}, "properties": {"NAME": "W8O/SE-021", "TITLE": "1146", "REGION": "Southeast", "ASSOCIATION": "USA - Ohio", "POINTS": "2", "BONUSPOINTS": "0"}}, {"type": "Feature", "geometry": {"type": "Point", "coordinates": [-83.031, 38.8732]}, "properties": {"NAME": "W8O/SE-022", "TITLE": "Campbell Hill", "REGION": "Southeast", "ASSOCIATION": "USA - Ohio", "POINTS": "2", "BONUSPOINTS": "0"}}, {"type": "Feature", "geometry": {"type": "Point", "coordinates": [-82.9974, 38.9215]}, "properties": {"NAME": "W8O/SE-023", "TITLE": "1116", "REGION": "Southeast", "ASSOCIATION": "USA - Ohio", "POINTS": "2", "BONUSPOINTS": "0"}}, {"type": "Feature", "geometry": {"type": "Point", "coordinates": [-82.036, 40.1184]}, "properties": {"NAME": "W8O/SE-024", "TITLE": "Highlands, The", "REGION": "Southeast", "ASSOCIATION": "USA - Ohio", "POINTS": "2", "BONUSPOINTS": "0"}}, {"type": "Feature", "geometry": {"type": "Point", "coordinates": [-83.1418, 39.3757]}, "properties": {"NAME": "W8O/SE-025", "TITLE": "1104", "REGION": "Southeast", "ASSOCIATION": "USA - Ohio", "POINTS": "2", "BONUSPOINTS": "0"}}, {"type": "Feature", "geometry": {"type": "Point", "coordinates": [-82.8283, 39.2276]}, "properties": {"NAME": "W8O/SE-026", "TITLE": "1090A", "REGION": "Southeast", "ASSOCIATION": "USA - Ohio", "POINTS": "1", "BONUSPOINTS": "0"}}, {"type": "Feature", "geometry": {"type": "Point", "coordinates": [-83.0694, 38.8621]}, "properties": {"NAME": "W8O/SE-027", "TITLE": "1090B", "REGION": "Southeast", "ASSOCIATION": "USA - Ohio", "POINTS": "1", "BONUSPOINTS": "0"}}, {"type": "Feature", "geometry": {"type": "Point", "coordinates": [-82.8563, 39.2864]}, "properties": {"NAME": "W8O/SE-028", "TITLE": "Rattlesnake Knob", "REGION": "Southeast", "ASSOCIATION": "USA - Ohio", "POINTS": "1", "BONUSPOINTS": "0"}}, {"type": "Feature", "geometry": {"type": "Point", "coordinates": [-82.6095, 38.6637]}, "properties": {"NAME": "W8O/SE-029", "TITLE": "Lawrence County HP", "REGION": "Southeast", "ASSOCIATION": "USA - Ohio", "POINTS": "1", "BONUSPOINTS": "0"}}, {"type": "Feature", "geometry": {"type": "Point", "coordinates": [-82.7569, 39.2255]}, "properties": {"NAME": "W8O/SE-030", "TITLE": "1055", "REGION": "Southeast", "ASSOCIATION": "USA - Ohio", "POINTS": "1", "BONUSPOINTS": "0"}}, {"type": "Feature", "geometry": {"type": "Point", "coordinates": [-82.9792, 38.8486]}, "properties": {"NAME": "W8O/SE-031", "TITLE": "1050", "REGION": "Southeast", "ASSOCIATION": "USA - Ohio", "POINTS": "1", "BONUSPOINTS": "0"}}, {"type": "Feature", "geometry": {"type": "Point", "coordinates": [-82.3312, 38.6817]}, "properties": {"NAME": "W8O/SE-032", "TITLE": "Fairview Lookout", "REGION": "Southeast", "ASSOCIATION": "USA - Ohio", "POINTS": "1", "BONUSPOINTS": "0"}}, {"type": "Feature", "geometry": {"type": "Point", "coordinates": [-83.2633, 38.9171]}, "properties": {"NAME": "W8O/SE-033", "TITLE": "Newman Hill", "REGION": "Southeast", "ASSOCIATION": "USA - Ohio", "POINTS": "1", "BONUSPOINTS": "0"}}]}