{"type": "FeatureCollection", "name": "W8O/NE SUMMITS", "features": [{"type": "Feature", "geometry": {"type": "Point", "coordinates": [-82.6169, 40.7273]}, "properties": {"NAME": "W8O/NE-001", "TITLE": "Noblet Benchmark", "REGION": "Northeast", "ASSOCIATION": "USA - Ohio", "POINTS": "4", "BONUSPOINTS": "0"}}, {"type": "Feature", "geometry": {"type": "Point", "coordinates": [-80.6723, 40.6719]}, "properties": {"NAME": "W8O/NE-002", "TITLE": "Round Knob", "REGION": "Northeast", "ASSOCIATION": "USA - Ohio", "POINTS": "4", "BONUSPOINTS": "0"}}, {"type": "Feature", "geometry": {"type": "Point", "coordinates": [-82.3177, 40.7382]}, "properties": {"NAME": "W8O/NE-003", "TITLE": "Ashland County HP", "REGION": "Northeast", "ASSOCIATION": "USA - Ohio", "POINTS": "4", "BONUSPOINTS": "0"}}, {"type": "Feature", "geometry": {"type": "Point", "coordinates": [-81.1038, 41.3996]}, "properties": {"NAME": "W8O/NE-004", "TITLE": "Sugarloaf", "REGION": "Northeast", "ASSOCIATION": "USA - Ohio", "POINTS": "2", "BONUSPOINTS": "0"}}, {"type": "Feature", "geometry": {"type": "Point", "coordinates": [-82.1522, 40.594]}, "properties": {"NAME": "W8O/NE-005", "TITLE": "Holmes County HP", "REGION": "Northeast", "ASSOCIATION": "USA - Ohio", "POINTS": "2", "BONUSPOINTS": "0"}}, {"type": "Feature", "geometry": {"type": "Point", "coordinates": [-81.6064, 40.4369]}, "properties": {"NAME": "W8O/NE-006", "TITLE": "Tuscawaras County HP", "REGION": "Northeast", "ASSOCIATION": "USA - Ohio", "POINTS": "2", "BONUSPOINTS": "0"}}, {"type": "Feature", "geometry": {"type": "Point", "coordinates": [-81.6604, 41.2492]}, "properties": {"NAME": "W8O/NE-007", "TITLE": "Summit County HP", "REGION": "Northeast", "ASSOCIATION": "USA - Ohio", "POINTS": "2", "BONUSPOINTS": "0"}}, {"type": "Feature", "geometry": {"type": "Point", "coordinates": [-81.7913, 40.2548]}, "properties": {"NAME": "W8O/NE-008", "TITLE": "1170", "REGION": "Northeast", "ASSOCIATION": "USA - Ohio", "POINTS": "2", "BONUSPOINTS": "0"}}, {"type": "Feature", "geometry": {"type": "Point", "coordinates": [-80.6147, 40.4466]}, "properties": {"NAME": "W8O/NE-009", "TITLE": "Taylors Hill", "REGION": "Northeast", "ASSOCIATION": "USA - Ohio", "POINTS": "2", "BONUSPOINTS": "0"}}]}