{"type": "FeatureCollection", "name": "US-DC POTA PARKS", "features": [{"type": "Feature", "geometry": {"type": "Point", "coordinates": [-77.8265, 39.6007]}, "properties": {"NAME": "US-0015", "TITLE": "Chesapeake and Ohio Canal National Historical Park"}}, {"type": "Feature", "geometry": {"type": "Point", "coordinates": [-77.0436, 38.8904]}, "properties": {"NAME": "US-0653", "TITLE": "Constitution Gardens National Park"}}, {"type": "Feature", "geometry": {"type": "Point", "coordinates": [-76.9795, 38.8746]}, "properties": {"NAME": "US-0654", "TITLE": "National Capital Parks Park"}}, {"type": "Feature", "geometry": {"type": "Point", "coordinates": [-77.0282, 38.8897]}, "properties": {"NAME": "US-0655", "TITLE": "National Mall Park"}}, {"type": "Feature", "geometry": {"type": "Point", "coordinates": [-77.0531, 38.9596]}, "properties": {"NAME": "US-0656", "TITLE": "Rock Creek Park"}}, {"type": "Feature", "geometry": {"type": "Point", "coordinates": [-77.035, 38.8948]}, "properties": {"NAME": "US-0657", "TITLE": "President's Park (White House) Park"}}, {"type": "Feature", "geometry": {"type": "Point", "coordinates": [-77.1478, 38.9618]}, "properties": {"NAME": "US-0670", "TITLE": "George Washington Memorial Parkway"}}, {"type": "Feature", "geometry": {"type": "Point", "coordinates": [-77.043, 38.8835]}, "properties": {"NAME": "US-0776", "TITLE": "Franklin Delano Roosevelt National Memorial"}}, {"type": "Feature", "geometry": {"type": "Point", "coordinates": [-77.0478, 38.8878]}, "properties": {"NAME": "US-0780", "TITLE": "Korean War Veterans National Memorial"}}, {"type": "Feature", "geometry": {"type": "Point", "coordinates": [-77.0502, 38.8893]}, "properties": {"NAME": "US-0783", "TITLE": "Lincoln National Memorial"}}, {"type": "Feature", "geometry": {"type": "Point", "coordinates": [-77.0509, 38.8779]}, "properties": {"NAME": "US-0784", "TITLE": "Lyndon Baines Johnson Memorial Grove on the Potomac National Memorial"}}, {"type": "Feature", "geometry": {"type": "Point", "coordinates": [-77.0444, 38.8864]}, "properties": {"NAME": "US-0785", "TITLE": "Martin Luther King Jr. National Memorial"}}, {"type": "Feature", "geometry": {"type": "Point", "coordinates": [-77.064, 38.8972]}, "properties": {"NAME": "US-0791", "TITLE": "Theodore Roosevelt Island National Memorial"}}, {"type": "Feature", "geometry": {"type": "Point", "coordinates": [-77.0365, 38.8814]}, "properties": {"NAME": "US-0792", "TITLE": "Thomas Jefferson National Memorial"}}, {"type": "Feature", "geometry": {"type": "Point", "coordinates": [-77.0477, 38.8913]}, "properties": {"NAME": "US-0793", "TITLE": "Vietnam Veterans National Memorial"}}, {"type": "Feature", "geometry": {"type": "Point", "coordinates": [-77.0355, 38.8894]}, "properties": {"NAME": "US-0794", "TITLE": "Washington Monument National Memorial"}}, {"type": "Feature", "geometry": {"type": "Point", "coordinates": [-77.0329, 38.896]}, "properties": {"NAME": "US-0795", "TITLE": "World War I National Memorial"}}, {"type": "Feature", "geometry": {"type": "Point", "coordinates": [-77.0402, 38.8894]}, "properties": {"NAME": "US-0796", "TITLE": "World War II National Memorial"}}, {"type": "Feature", "geometry": {"type": "Point", "coordinates": [-77.0241, 38.9108]}, "properties": {"NAME": "US-0805", "TITLE": "Carter G. Woodson Home National Historic Site"}}, {"type": "Feature", "geometry": {"type": "Point", "coordinates": [-77.026, 38.8967]}, "properties": {"NAME": "US-0814", "TITLE": "Ford's Theatre National Historic Site"}}, {"type": "Feature", "geometry": {"type": "Point", "coordinates": [-76.9854, 38.863]}, "properties": {"NAME": "US-0825", "TITLE": "Frederick Douglass National Historic Site"}}, {"type": "Feature", "geometry": {"type": "Point", "coordinates": [-77.0307, 38.9081]}, "properties": {"NAME": "US-0848", "TITLE": "Mary McLeod Bethune Council House National Historic Site"}}, {"type": "Feature", "geometry": {"type": "Point", "coordinates": [-77.0313, 38.8958]}, "properties": {"NAME": "US-0853", "TITLE": "Pennsylvania Avenue National Historic Site"}}, {"type": "Feature", "geometry": {"type": "Point", "coordinates": [-77.2748, 38.6148]}, "properties": {"NAME": "US-4564", "TITLE": "Potomac Heritage Trail National Scenic Trail"}}, {"type": "Feature", "geometry": {"type": "Point", "coordinates": [-77.0681, 38.9049]}, "properties": {"NAME": "US-4567", "TITLE": "Captain John Smith Chesapeake National Historic Trail"}}, {"type": "Feature", "geometry": {"type": "Point", "coordinates": [-76.5836, 39.2652]}, "properties": {"NAME": "US-4581", "TITLE": "Star-Spangled Banner National Historic Trail"}}, {"type": "Feature", "geometry": {"type": "Point", "coordinates": [-73.9709, 41.312]}, "properties": {"NAME": "US-4582", "TITLE": "Washington-Rochambeau Revolutionary Route National Historic Trail"}}, {"type": "Feature", "geometry": {"type": "Point", "coordinates": [-77.0187, 38.887]}, "properties": {"NAME": "US-7499", "TITLE": "Dwight D. Eisenhower National Memorial"}}, {"type": "Feature", "geometry": {"type": "Point", "coordinates": [-77.0259, 38.9165]}, "properties": {"NAME": "US-7891", "TITLE": "African American Civil War National Memorial"}}, {"type": "Feature", "geometry": {"type": "Point", "coordinates": [-77.0037, 38.8923]}, "properties": {"NAME": "US-7892", "TITLE": "Belmont-Paul Women's Equality National Monument"}}, {"type": "Feature", "geometry": {"type": "Point", "coordinates": [-77.0496, 38.793]}, "properties": {"NAME": "US-9898", "TITLE": "Mount Vernon National Historic Trail"}}, {"type": "Feature", "geometry": {"type": "Point", "coordinates": [-77.126, 38.9346]}, "properties": {"NAME": "US-9901", "TITLE": "Civil War Defenses of Washington National Historic Trail"}}]}