{"type": "FeatureCollection", "name": "US-MS POTA PARKS", "features": [{"type": "Feature", "geometry": {"type": "Point", "coordinates": [-90.1436, 34.0806]}, "properties": {"NAME": "US-0382", "TITLE": "Coldwater River National Wildlife Refuge"}}, {"type": "Feature", "geometry": {"type": "Point", "coordinates": [-90.9107, 33.7037]}, "properties": {"NAME": "US-0383", "TITLE": "Dahomey National Wildlife Refuge"}}, {"type": "Feature", "geometry": {"type": "Point", "coordinates": [-88.4244, 30.4248]}, "properties": {"NAME": "US-0384", "TITLE": "Grand Bay National Wildlife Refuge"}}, {"type": "Feature", "geometry": {"type": "Point", "coordinates": [-90.3232, 33.0088]}, "properties": {"NAME": "US-0385", "TITLE": "Hillside National Wildlife Refuge"}}, {"type": "Feature", "geometry": {"type": "Point", "coordinates": [-90.7846, 33.2319]}, "properties": {"NAME": "US-0386", "TITLE": "Holt Collier National Wildlife Refuge"}}, {"type": "Feature", "geometry": {"type": "Point", "coordinates": [-90.2544, 33.3651]}, "properties": {"NAME": "US-0387", "TITLE": "Mathews Brake National Wildlife Refuge"}}, {"type": "Feature", "geometry": {"type": "Point", "coordinates": [-88.6618, 30.4458]}, "properties": {"NAME": "US-0388", "TITLE": "Mississippi Sandhill Crane National Wildlife Refuge"}}, {"type": "Feature", "geometry": {"type": "Point", "coordinates": [-90.2247, 33.2171]}, "properties": {"NAME": "US-0389", "TITLE": "Morgan Brake National Wildlife Refuge"}}, {"type": "Feature", "geometry": {"type": "Point", "coordinates": [-88.8728, 33.2715]}, "properties": {"NAME": "US-0390", "TITLE": "Noxubee National Wildlife Refuge"}}, {"type": "Feature", "geometry": {"type": "Point", "coordinates": [-90.5271, 32.8185]}, "properties": {"NAME": "US-0391", "TITLE": "Panther Swamp National Wildlife Refuge"}}, {"type": "Feature", "geometry": {"type": "Point", "coordinates": [-91.4508, 31.4094]}, "properties": {"NAME": "US-0392", "TITLE": "St. Catherine Creek National Wildlife Refuge"}}, {"type": "Feature", "geometry": {"type": "Point", "coordinates": [-90.1365, 33.7692]}, "properties": {"NAME": "US-0393", "TITLE": "Tallahatchie National Wildlife Refuge"}}, {"type": "Feature", "geometry": {"type": "Point", "coordinates": [-90.976, 33.0703]}, "properties": {"NAME": "US-0395", "TITLE": "Yazoo National Wildlife Refuge"}}, {"type": "Feature", "geometry": {"type": "Point", "coordinates": [-88.7105, 34.3305]}, "properties": {"NAME": "US-0642", "TITLE": "Natchez Trace Parkway National Parkway"}}, {"type": "Feature", "geometry": {"type": "Point", "coordinates": [-87.1301, 30.3641]}, "properties": {"NAME": "US-0661", "TITLE": "Gulf Islands National Seashore"}}, {"type": "Feature", "geometry": {"type": "Point", "coordinates": [-88.7368, 34.2553]}, "properties": {"NAME": "US-0709", "TITLE": "Tupelo National Battlefield"}}, {"type": "Feature", "geometry": {"type": "Point", "coordinates": [-88.7295, 34.506]}, "properties": {"NAME": "US-0715", "TITLE": "Brices Cross Roads National Battlefield"}}, {"type": "Feature", "geometry": {"type": "Point", "coordinates": [-88.3242, 35.131]}, "properties": {"NAME": "US-0722", "TITLE": "Shiloh National Battlefield"}}, {"type": "Feature", "geometry": {"type": "Point", "coordinates": [-90.8316, 32.3749]}, "properties": {"NAME": "US-0723", "TITLE": "Vicksburg National Military Park"}}, {"type": "Feature", "geometry": {"type": "Point", "coordinates": [-91.3857, 31.5441]}, "properties": {"NAME": "US-0747", "TITLE": "Natchez National Historical Park"}}, {"type": "Feature", "geometry": {"type": "Point", "coordinates": [-90.0809, 32.4257]}, "properties": {"NAME": "US-10297", "TITLE": "Old Trace Park Recreation Park"}}, {"type": "Feature", "geometry": {"type": "Point", "coordinates": [-91.0641, 33.4857]}, "properties": {"NAME": "US-11880", "TITLE": "Winterville Mounds State Historical Park"}}, {"type": "Feature", "geometry": {"type": "Point", "coordinates": [-88.7562, 33.0097]}, "properties": {"NAME": "US-11881", "TITLE": "Dancing Rabbit Creek Treaty State Historic Site"}}, {"type": "Feature", "geometry": {"type": "Point", "coordinates": [-91.3807, 31.5256]}, "properties": {"NAME": "US-11882", "TITLE": "Grand Village of the Natchez State Historic Site"}}, {"type": "Feature", "geometry": {"type": "Point", "coordinates": [-89.4056, 30.2644]}, "properties": {"NAME": "US-2532", "TITLE": "Buccaneer State Park"}}, {"type": "Feature", "geometry": {"type": "Point", "coordinates": [-88.6971, 32.1078]}, "properties": {"NAME": "US-2533", "TITLE": "Clarkco State Park"}}, {"type": "Feature", "geometry": {"type": "Point", "coordinates": [-90.2514, 33.5127]}, "properties": {"NAME": "US-2534", "TITLE": "Florewood State Park"}}, {"type": "Feature", "geometry": {"type": "Point", "coordinates": [-89.8867, 34.1327]}, "properties": {"NAME": "US-2535", "TITLE": "George P Cossar State Park"}}, {"type": "Feature", "geometry": {"type": "Point", "coordinates": [-89.4063, 32.5728]}, "properties": {"NAME": "US-2536", "TITLE": "Golden Memorial State Park"}}, {"type": "Feature", "geometry": {"type": "Point", "coordinates": [-91.0386, 33.8474]}, "properties": {"NAME": "US-2537", "TITLE": "Great River Road State Park"}}, {"type": "Feature", "geometry": {"type": "Point", "coordinates": [-89.9204, 33.0273]}, "properties": {"NAME": "US-2538", "TITLE": "Holmes County State Park"}}, {"type": "Feature", "geometry": {"type": "Point", "coordinates": [-89.7397, 33.8059]}, "properties": {"NAME": "US-2539", "TITLE": "Hugh White State Park"}}, {"type": "Feature", "geometry": {"type": "Point", "coordinates": [-89.8046, 34.428]}, "properties": {"NAME": "US-2540", "TITLE": "John W. Kyle State Park"}}, {"type": "Feature", "geometry": {"type": "Point", "coordinates": [-88.1667, 34.931]}, "properties": {"NAME": "US-2541", "TITLE": "J P Coleman State Park"}}, {"type": "Feature", "geometry": {"type": "Point", "coordinates": [-90.3392, 31.6797]}, "properties": {"NAME": "US-2542", "TITLE": "Lake Lincoln State Park"}}, {"type": "Feature", "geometry": {"type": "Point", "coordinates": [-88.2972, 33.4333]}, "properties": {"NAME": "US-2543", "TITLE": "Lake Lowndes State Park"}}, {"type": "Feature", "geometry": {"type": "Point", "coordinates": [-90.1485, 32.3314]}, "properties": {"NAME": "US-2544", "TITLE": "Lefleur's Bluff State Park"}}, {"type": "Feature", "geometry": {"type": "Point", "coordinates": [-89.0423, 33.157]}, "properties": {"NAME": "US-2545", "TITLE": "Legion State Park"}}, {"type": "Feature", "geometry": {"type": "Point", "coordinates": [-90.9361, 33.1606]}, "properties": {"NAME": "US-2546", "TITLE": "Leroy Percy State Park"}}, {"type": "Feature", "geometry": {"type": "Point", "coordinates": [-91.2308, 31.6118]}, "properties": {"NAME": "US-2547", "TITLE": "Natchez State Park"}}, {"type": "Feature", "geometry": {"type": "Point", "coordinates": [-89.2464, 31.1409]}, "properties": {"NAME": "US-2548", "TITLE": "Paul B. Johnson State Park"}}, {"type": "Feature", "geometry": {"type": "Point", "coordinates": [-90.5033, 31.1901]}, "properties": {"NAME": "US-2549", "TITLE": "Percy E Quin State Park"}}, {"type": "Feature", "geometry": {"type": "Point", "coordinates": [-89.6678, 32.3197]}, "properties": {"NAME": "US-2550", "TITLE": "Roosevelt State Park"}}, {"type": "Feature", "geometry": {"type": "Point", "coordinates": [-88.6263, 30.3727]}, "properties": {"NAME": "US-2551", "TITLE": "Shepard State Park"}}, {"type": "Feature", "geometry": {"type": "Point", "coordinates": [-88.1979, 34.6119]}, "properties": {"NAME": "US-2552", "TITLE": "Tishomingo State Park"}}, {"type": "Feature", "geometry": {"type": "Point", "coordinates": [-88.6298, 34.2325]}, "properties": {"NAME": "US-2553", "TITLE": "Tombigbee State Park"}}, {"type": "Feature", "geometry": {"type": "Point", "coordinates": [-88.9007, 34.2623]}, "properties": {"NAME": "US-2554", "TITLE": "Trace State Park"}}, {"type": "Feature", "geometry": {"type": "Point", "coordinates": [-89.4605, 34.6647]}, "properties": {"NAME": "US-2555", "TITLE": "Wall Doxey State Park"}}, {"type": "Feature", "geometry": {"type": "Point", "coordinates": [-89.5286, 32.3051]}, "properties": {"NAME": "US-4493", "TITLE": "Bienville National Forest"}}, {"type": "Feature", "geometry": {"type": "Point", "coordinates": [-89.1879, 30.9504]}, "properties": {"NAME": "US-4494", "TITLE": "De Soto National Forest"}}, {"type": "Feature", "geometry": {"type": "Point", "coordinates": [-90.7654, 32.8142]}, "properties": {"NAME": "US-4495", "TITLE": "Delta National Forest"}}, {"type": "Feature", "geometry": {"type": "Point", "coordinates": [-89.3166, 34.6192]}, "properties": {"NAME": "US-4496", "TITLE": "Holly Springs National Forest"}}, {"type": "Feature", "geometry": {"type": "Point", "coordinates": [-90.9853, 31.481]}, "properties": {"NAME": "US-4497", "TITLE": "Homochitto National Forest"}}, {"type": "Feature", "geometry": {"type": "Point", "coordinates": [-88.9368, 33.9855]}, "properties": {"NAME": "US-4498", "TITLE": "Tombigbee National Forest"}}, {"type": "Feature", "geometry": {"type": "Point", "coordinates": [-88.71, 34.3305]}, "properties": {"NAME": "US-4560", "TITLE": "Natchez Trace Trail National Scenic Trail"}}, {"type": "Feature", "geometry": {"type": "Point", "coordinates": [-90.2733, 34.1165]}, "properties": {"NAME": "US-7070", "TITLE": "O'Keefe Wildlife Management Area"}}, {"type": "Feature", "geometry": {"type": "Point", "coordinates": [-90.9577, 33.8643]}, "properties": {"NAME": "US-7071", "TITLE": "Charlie Capps Wildlife Management Area"}}, {"type": "Feature", "geometry": {"type": "Point", "coordinates": [-91.0549, 33.8578]}, "properties": {"NAME": "US-7072", "TITLE": "Riverfront Wildlife Management Area"}}, {"type": "Feature", "geometry": {"type": "Point", "coordinates": [-90.6513, 33.5871]}, "properties": {"NAME": "US-7073", "TITLE": "William C. Deviney Wildlife Management Area"}}, {"type": "Feature", "geometry": {"type": "Point", "coordinates": [-90.9292, 33.455]}, "properties": {"NAME": "US-7074", "TITLE": "Stoneville Wildlife Management Area"}}, {"type": "Feature", "geometry": {"type": "Point", "coordinates": [-90.9843, 33.2253]}, "properties": {"NAME": "US-7075", "TITLE": "Muscadine Farms Wildlife Management Area"}}, {"type": "Feature", "geometry": {"type": "Point", "coordinates": [-90.4816, 33.2846]}, "properties": {"NAME": "US-7076", "TITLE": "Sky Lake Wildlife Management Area"}}, {"type": "Feature", "geometry": {"type": "Point", "coordinates": [-90.9363, 33.162]}, "properties": {"NAME": "US-7077", "TITLE": "Leroy Percy Wildlife Management Area"}}, {"type": "Feature", "geometry": {"type": "Point", "coordinates": [-90.9811, 32.8303]}, "properties": {"NAME": "US-7078", "TITLE": "Howard Miller Wildlife Management Area"}}, {"type": "Feature", "geometry": {"type": "Point", "coordinates": [-90.857, 32.872]}, "properties": {"NAME": "US-7079", "TITLE": "Twin Oaks Wildlife Management Area"}}, {"type": "Feature", "geometry": {"type": "Point", "coordinates": [-90.7768, 32.8172]}, "properties": {"NAME": "US-7080", "TITLE": "Sunflower Wildlife Management Area"}}, {"type": "Feature", "geometry": {"type": "Point", "coordinates": [-90.6576, 32.7551]}, "properties": {"NAME": "US-7081", "TITLE": "Lake George Wildlife Management Area"}}, {"type": "Feature", "geometry": {"type": "Point", "coordinates": [-91.1353, 32.7797]}, "properties": {"NAME": "US-7082", "TITLE": "Shipland Wildlife Management Area"}}, {"type": "Feature", "geometry": {"type": "Point", "coordinates": [-90.8708, 32.5487]}, "properties": {"NAME": "US-7083", "TITLE": "Mahannah Wildlife Management Area"}}, {"type": "Feature", "geometry": {"type": "Point", "coordinates": [-90.8835, 32.4509]}, "properties": {"NAME": "US-7084", "TITLE": "Phil Bryant Wildlife Management Area"}}, {"type": "Feature", "geometry": {"type": "Point", "coordinates": [-88.8755, 33.3389]}, "properties": {"NAME": "US-7085", "TITLE": "John W. Starr Wildlife Management Area"}}, {"type": "Feature", "geometry": {"type": "Point", "coordinates": [-88.8435, 33.5236]}, "properties": {"NAME": "US-7086", "TITLE": "Trim Cane Wildlife Management Area"}}, {"type": "Feature", "geometry": {"type": "Point", "coordinates": [-88.5798, 33.3385]}, "properties": {"NAME": "US-7087", "TITLE": "Black Prairie Wildlife Management Area"}}, {"type": "Feature", "geometry": {"type": "Point", "coordinates": [-89.161, 33.2758]}, "properties": {"NAME": "US-7088", "TITLE": "Choctaw Wildlife Management Area"}}, {"type": "Feature", "geometry": {"type": "Point", "coordinates": [-89.4266, 33.1669]}, "properties": {"NAME": "US-7089", "TITLE": "Yockanookany Wildlife Management Area"}}, {"type": "Feature", "geometry": {"type": "Point", "coordinates": [-89.0058, 32.9275]}, "properties": {"NAME": "US-7090", "TITLE": "Nanih Waiya Wildlife Management Area"}}, {"type": "Feature", "geometry": {"type": "Point", "coordinates": [-88.8124, 32.5236]}, "properties": {"NAME": "US-7091", "TITLE": "Okatibbee Wildlife Management Area"}}, {"type": "Feature", "geometry": {"type": "Point", "coordinates": [-88.5866, 34.9459]}, "properties": {"NAME": "US-7092", "TITLE": "Tuscumbia Wildlife Management Area"}}, {"type": "Feature", "geometry": {"type": "Point", "coordinates": [-88.2913, 34.7244]}, "properties": {"NAME": "US-7093", "TITLE": "Divide Section Wildlife Management Area"}}, {"type": "Feature", "geometry": {"type": "Point", "coordinates": [-89.0648, 34.6199]}, "properties": {"NAME": "US-7094", "TITLE": "Hell Creek Wildlife Management Area"}}, {"type": "Feature", "geometry": {"type": "Point", "coordinates": [-88.3569, 34.487]}, "properties": {"NAME": "US-7095", "TITLE": "John Bell Williams Wildlife Management Area"}}, {"type": "Feature", "geometry": {"type": "Point", "coordinates": [-88.4508, 34.261]}, "properties": {"NAME": "US-7096", "TITLE": "Canal Section Wildlife Management Area"}}, {"type": "Feature", "geometry": {"type": "Point", "coordinates": [-88.9355, 33.9856]}, "properties": {"NAME": "US-7097", "TITLE": "Chickasaw Wildlife Management Area"}}, {"type": "Feature", "geometry": {"type": "Point", "coordinates": [-89.4647, 34.5236]}, "properties": {"NAME": "US-7098", "TITLE": "Graham Waterfowl Wildlife Management Area"}}, {"type": "Feature", "geometry": {"type": "Point", "coordinates": [-89.5959, 34.4751]}, "properties": {"NAME": "US-7099", "TITLE": "Sardis Waterfowl Wildlife Management Area"}}, {"type": "Feature", "geometry": {"type": "Point", "coordinates": [-89.3256, 34.4111]}, "properties": {"NAME": "US-7100", "TITLE": "Upper Sardis Wildlife Management Area"}}, {"type": "Feature", "geometry": {"type": "Point", "coordinates": [-89.9873, 34.4217]}, "properties": {"NAME": "US-7101", "TITLE": "Charles Ray Nix Wildlife Management Area"}}, {"type": "Feature", "geometry": {"type": "Point", "coordinates": [-89.46, 33.8989]}, "properties": {"NAME": "US-7102", "TITLE": "Calhoun County Wildlife Management Area"}}, {"type": "Feature", "geometry": {"type": "Point", "coordinates": [-90.0548, 33.6926]}, "properties": {"NAME": "US-7103", "TITLE": "Malmaison Wildlife Management Area"}}, {"type": "Feature", "geometry": {"type": "Point", "coordinates": [-88.8285, 31.4999]}, "properties": {"NAME": "US-7104", "TITLE": "Chickasawhay Wildlife Management Area"}}, {"type": "Feature", "geometry": {"type": "Point", "coordinates": [-88.7033, 31.3792]}, "properties": {"NAME": "US-7105", "TITLE": "Mason Creek Wildlife Management Area"}}, {"type": "Feature", "geometry": {"type": "Point", "coordinates": [-88.8844, 31.0013]}, "properties": {"NAME": "US-7106", "TITLE": "Leaf River Wildlife Management Area"}}, {"type": "Feature", "geometry": {"type": "Point", "coordinates": [-89.4975, 30.7608]}, "properties": {"NAME": "US-7107", "TITLE": "Theodore Mars Wildlife Management Area"}}, {"type": "Feature", "geometry": {"type": "Point", "coordinates": [-88.5803, 30.6419]}, "properties": {"NAME": "US-7108", "TITLE": "Pascagoula River Wildlife Management Area"}}, {"type": "Feature", "geometry": {"type": "Point", "coordinates": [-89.7744, 30.7529]}, "properties": {"NAME": "US-7109", "TITLE": "Old River Wildlife Management Area"}}, {"type": "Feature", "geometry": {"type": "Point", "coordinates": [-89.1883, 30.6633]}, "properties": {"NAME": "US-7110", "TITLE": "Little Biloxi Wildlife Management Area"}}, {"type": "Feature", "geometry": {"type": "Point", "coordinates": [-88.901, 30.6852]}, "properties": {"NAME": "US-7111", "TITLE": "Red Creek Wildlife Management Area"}}, {"type": "Feature", "geometry": {"type": "Point", "coordinates": [-88.6323, 30.5667]}, "properties": {"NAME": "US-7112", "TITLE": "Ward Bayou Wildlife Management Area"}}, {"type": "Feature", "geometry": {"type": "Point", "coordinates": [-89.889, 32.5694]}, "properties": {"NAME": "US-7113", "TITLE": "Pearl River Wildlife Management Area"}}, {"type": "Feature", "geometry": {"type": "Point", "coordinates": [-89.6116, 32.4738]}, "properties": {"NAME": "US-7114", "TITLE": "Bienville Wildlife Management Area"}}, {"type": "Feature", "geometry": {"type": "Point", "coordinates": [-89.2819, 32.2073]}, "properties": {"NAME": "US-7115", "TITLE": "Tallahala Wildlife Management Area"}}, {"type": "Feature", "geometry": {"type": "Point", "coordinates": [-89.4376, 32.3349]}, "properties": {"NAME": "US-7116", "TITLE": "Caney Creek Wildlife Management Area"}}, {"type": "Feature", "geometry": {"type": "Point", "coordinates": [-91.1295, 31.9057]}, "properties": {"NAME": "US-7117", "TITLE": "Canemount Wildlife Management Area"}}, {"type": "Feature", "geometry": {"type": "Point", "coordinates": [-90.6895, 31.8296]}, "properties": {"NAME": "US-7118", "TITLE": "Copiah County Wildlife Management Area"}}, {"type": "Feature", "geometry": {"type": "Point", "coordinates": [-91.2297, 31.6103]}, "properties": {"NAME": "US-7119", "TITLE": "Natchez Wildlife Management Area"}}, {"type": "Feature", "geometry": {"type": "Point", "coordinates": [-90.8549, 31.4335]}, "properties": {"NAME": "US-7120", "TITLE": "Caston Creek Wildlife Management Area"}}, {"type": "Feature", "geometry": {"type": "Point", "coordinates": [-91.185, 31.4013]}, "properties": {"NAME": "US-7121", "TITLE": "Sandy Creek Wildlife Management Area"}}, {"type": "Feature", "geometry": {"type": "Point", "coordinates": [-89.7308, 31.1794]}, "properties": {"NAME": "US-7122", "TITLE": "Marion County Wildlife Management Area"}}, {"type": "Feature", "geometry": {"type": "Point", "coordinates": [-89.576, 31.0013]}, "properties": {"NAME": "US-7123", "TITLE": "Wolf River Wildlife Management Area"}}, {"type": "Feature", "geometry": {"type": "Point", "coordinates": [-90.122, 34.7419]}, "properties": {"NAME": "US-7124", "TITLE": "Arkabutla Lake State Recreation Area"}}, {"type": "Feature", "geometry": {"type": "Point", "coordinates": [-89.8262, 34.139]}, "properties": {"NAME": "US-7125", "TITLE": "Enid Lake State Recreation Area"}}, {"type": "Feature", "geometry": {"type": "Point", "coordinates": [-89.7511, 33.8033]}, "properties": {"NAME": "US-7126", "TITLE": "Grenada Lake State Recreation Area"}}, {"type": "Feature", "geometry": {"type": "Point", "coordinates": [-88.8044, 32.5006]}, "properties": {"NAME": "US-7127", "TITLE": "Okatibbee Lake State Recreation Area"}}, {"type": "Feature", "geometry": {"type": "Point", "coordinates": [-89.7004, 34.4302]}, "properties": {"NAME": "US-7128", "TITLE": "Sardis Lake State Recreation Area"}}, {"type": "Feature", "geometry": {"type": "Point", "coordinates": [-88.4834, 33.5218]}, "properties": {"NAME": "US-7129", "TITLE": "Columbus Lake State Recreation Area"}}, {"type": "Feature", "geometry": {"type": "Point", "coordinates": [-88.5272, 33.835]}, "properties": {"NAME": "US-7130", "TITLE": "Aberdeen Lake State Recreation Area"}}, {"type": "Feature", "geometry": {"type": "Point", "coordinates": [-88.3129, 34.5328]}, "properties": {"NAME": "US-7131", "TITLE": "Bay Springs Lake State Recreation Area"}}, {"type": "Feature", "geometry": {"type": "Point", "coordinates": [-88.4156, 34.2894]}, "properties": {"NAME": "US-7132", "TITLE": "Jamie Whitten Historical Center State Recreation Area"}}, {"type": "Feature", "geometry": {"type": "Point", "coordinates": [-88.4735, 34.007]}, "properties": {"NAME": "US-7133", "TITLE": "Amory Recreation Area State Recreation Area"}}, {"type": "Feature", "geometry": {"type": "Point", "coordinates": [-88.3061, 34.7292]}, "properties": {"NAME": "US-7134", "TITLE": "Holcut Memorial State Recreation Area"}}, {"type": "Feature", "geometry": {"type": "Point", "coordinates": [-88.9349, 34.0484]}, "properties": {"NAME": "US-7629", "TITLE": "Davis Lake State Recreation Area"}}, {"type": "Feature", "geometry": {"type": "Point", "coordinates": [-89.3384, 34.7352]}, "properties": {"NAME": "US-7630", "TITLE": "Chewalla Lake State Recreation Area"}}, {"type": "Feature", "geometry": {"type": "Point", "coordinates": [-88.9238, 34.0559]}, "properties": {"NAME": "US-7631", "TITLE": "Owl Creek Mounds Archeological Reserve"}}, {"type": "Feature", "geometry": {"type": "Point", "coordinates": [-88.7028, 34.2492]}, "properties": {"NAME": "US-7632", "TITLE": "Pvt. John Allen National Fish Hatchery"}}, {"type": "Feature", "geometry": {"type": "Point", "coordinates": [-88.7026, 31.339]}, "properties": {"NAME": "US-7633", "TITLE": "Turkey Fork Lake State Recreation Area"}}, {"type": "Feature", "geometry": {"type": "Point", "coordinates": [-89.169, 31.0318]}, "properties": {"NAME": "US-7634", "TITLE": "Ashe Lake State Recreation Area"}}, {"type": "Feature", "geometry": {"type": "Point", "coordinates": [-89.0608, 30.6884]}, "properties": {"NAME": "US-7635", "TITLE": "Airey Lake State Recreation Area"}}, {"type": "Feature", "geometry": {"type": "Point", "coordinates": [-88.704, 32.0301]}, "properties": {"NAME": "US-8513", "TITLE": "Archusa Creek State Recreation Area"}}, {"type": "Feature", "geometry": {"type": "Point", "coordinates": [-89.337, 31.683]}, "properties": {"NAME": "US-8514", "TITLE": "Big Creek State Recreation Area"}}, {"type": "Feature", "geometry": {"type": "Point", "coordinates": [-89.726, 31.752]}, "properties": {"NAME": "US-8515", "TITLE": "Dry Creek State Recreation Area"}}, {"type": "Feature", "geometry": {"type": "Point", "coordinates": [-88.82, 32.228]}, "properties": {"NAME": "US-8516", "TITLE": "Dunn's Falls State Recreation Area"}}, {"type": "Feature", "geometry": {"type": "Point", "coordinates": [-89.121, 30.871]}, "properties": {"NAME": "US-8517", "TITLE": "Flint Creek State Recreation Area"}}, {"type": "Feature", "geometry": {"type": "Point", "coordinates": [-88.723, 31.655]}, "properties": {"NAME": "US-8518", "TITLE": "Maynor Creek State Recreation Area"}}, {"type": "Feature", "geometry": {"type": "Point", "coordinates": [-89.153, 32.401]}, "properties": {"NAME": "US-8519", "TITLE": "Turkey Creek State Recreation Area"}}, {"type": "Feature", "geometry": {"type": "Point", "coordinates": [-91.5115, 31.0719]}, "properties": {"NAME": "US-9847", "TITLE": "Clark Creek Natural Area State Park"}}, {"type": "Feature", "geometry": {"type": "Point", "coordinates": [-88.8728, 30.3845]}, "properties": {"NAME": "US-9849", "TITLE": "Deer Island Coastal Park"}}]}