{"type": "FeatureCollection", "name": "W5O/KI SUMMITS", "features": [{"type": "Feature", "geometry": {"type": "Point", "coordinates": [-94.8122, 34.6264]}, "properties": {"NAME": "W5O/KI-001", "TITLE": "Kiamichi Mountain", "REGION": "Kiamichi Mountains", "ASSOCIATION": "USA - Oklahoma", "POINTS": "10", "BONUSPOINTS": "0"}}, {"type": "Feature", "geometry": {"type": "Point", "coordinates": [-94.8309, 34.5104]}, "properties": {"NAME": "W5O/KI-002", "TITLE": "Boktuklo Mountains (HP)", "REGION": "Kiamichi Mountains", "ASSOCIATION": "USA - Oklahoma", "POINTS": "6", "BONUSPOINTS": "0"}}, {"type": "Feature", "geometry": {"type": "Point", "coordinates": [-94.5827, 34.5484]}, "properties": {"NAME": "W5O/KI-003", "TITLE": "1978", "REGION": "Kiamichi Mountains", "ASSOCIATION": "USA - Oklahoma", "POINTS": "6", "BONUSPOINTS": "0"}}, {"type": "Feature", "geometry": {"type": "Point", "coordinates": [-95.4151, 34.6022]}, "properties": {"NAME": "W5O/KI-004", "TITLE": "Flagpole Lookout", "REGION": "Kiamichi Mountains", "ASSOCIATION": "USA - Oklahoma", "POINTS": "4", "BONUSPOINTS": "0"}}, {"type": "Feature", "geometry": {"type": "Point", "coordinates": [-95.4296, 34.693]}, "properties": {"NAME": "W5O/KI-005", "TITLE": "Wolf Mountain", "REGION": "Kiamichi Mountains", "ASSOCIATION": "USA - Oklahoma", "POINTS": "4", "BONUSPOINTS": "0"}}, {"type": "Feature", "geometry": {"type": "Point", "coordinates": [-95.4947, 34.6627]}, "properties": {"NAME": "W5O/KI-006", "TITLE": "Middle Mountain", "REGION": "Kiamichi Mountains", "ASSOCIATION": "USA - Oklahoma", "POINTS": "4", "BONUSPOINTS": "0"}}, {"type": "Feature", "geometry": {"type": "Point", "coordinates": [-95.0372, 34.3318]}, "properties": {"NAME": "W5O/KI-007", "TITLE": "East Signal Peak", "REGION": "Kiamichi Mountains", "ASSOCIATION": "USA - Oklahoma", "POINTS": "2", "BONUSPOINTS": "0"}}, {"type": "Feature", "geometry": {"type": "Point", "coordinates": [-95.6214, 34.6625]}, "properties": {"NAME": "W5O/KI-008", "TITLE": "1470", "REGION": "Kiamichi Mountains", "ASSOCIATION": "USA - Oklahoma", "POINTS": "2", "BONUSPOINTS": "0"}}, {"type": "Feature", "geometry": {"type": "Point", "coordinates": [-95.1753, 34.7045]}, "properties": {"NAME": "W5O/KI-009", "TITLE": "Potato Hills", "REGION": "Kiamichi Mountains", "ASSOCIATION": "USA - Oklahoma", "POINTS": "2", "BONUSPOINTS": "0"}}, {"type": "Feature", "geometry": {"type": "Point", "coordinates": [-95.1753, 34.6771]}, "properties": {"NAME": "W5O/KI-010", "TITLE": "1409", "REGION": "Kiamichi Mountains", "ASSOCIATION": "USA - Oklahoma", "POINTS": "2", "BONUSPOINTS": "0"}}, {"type": "Feature", "geometry": {"type": "Point", "coordinates": [-95.1782, 34.6563]}, "properties": {"NAME": "W5O/KI-011", "TITLE": "1390", "REGION": "Kiamichi Mountains", "ASSOCIATION": "USA - Oklahoma", "POINTS": "2", "BONUSPOINTS": "0"}}, {"type": "Feature", "geometry": {"type": "Point", "coordinates": [-95.2812, 34.4566]}, "properties": {"NAME": "W5O/KI-012", "TITLE": "1353", "REGION": "Kiamichi Mountains", "ASSOCIATION": "USA - Oklahoma", "POINTS": "2", "BONUSPOINTS": "0"}}, {"type": "Feature", "geometry": {"type": "Point", "coordinates": [-94.5734, 34.5726]}, "properties": {"NAME": "W5O/KI-013", "TITLE": "Blue Bouncer Mountain", "REGION": "Kiamichi Mountains", "ASSOCIATION": "USA - Oklahoma", "POINTS": "8", "BONUSPOINTS": "0"}}, {"type": "Feature", "geometry": {"type": "Point", "coordinates": [-94.7637, 34.5723]}, "properties": {"NAME": "W5O/KI-014", "TITLE": "High Top", "REGION": "Kiamichi Mountains", "ASSOCIATION": "USA - Oklahoma", "POINTS": "6", "BONUSPOINTS": "0"}}, {"type": "Feature", "geometry": {"type": "Point", "coordinates": [-94.8902, 34.5626]}, "properties": {"NAME": "W5O/KI-015", "TITLE": "Gobblers Knob", "REGION": "Kiamichi Mountains", "ASSOCIATION": "USA - Oklahoma", "POINTS": "6", "BONUSPOINTS": "0"}}, {"type": "Feature", "geometry": {"type": "Point", "coordinates": [-95.1308, 34.5421]}, "properties": {"NAME": "W5O/KI-016", "TITLE": "1846", "REGION": "Kiamichi Mountains", "ASSOCIATION": "USA - Oklahoma", "POINTS": "4", "BONUSPOINTS": "0"}}, {"type": "Feature", "geometry": {"type": "Point", "coordinates": [-95.2869, 34.5878]}, "properties": {"NAME": "W5O/KI-017", "TITLE": "1750", "REGION": "Kiamichi Mountains", "ASSOCIATION": "USA - Oklahoma", "POINTS": "4", "BONUSPOINTS": "0"}}, {"type": "Feature", "geometry": {"type": "Point", "coordinates": [-95.0097, 34.4796]}, "properties": {"NAME": "W5O/KI-018", "TITLE": "Flashman Lookout", "REGION": "Kiamichi Mountains", "ASSOCIATION": "USA - Oklahoma", "POINTS": "4", "BONUSPOINTS": "0"}}, {"type": "Feature", "geometry": {"type": "Point", "coordinates": [-94.6103, 34.5469]}, "properties": {"NAME": "W5O/KI-019", "TITLE": "1742", "REGION": "Kiamichi Mountains", "ASSOCIATION": "USA - Oklahoma", "POINTS": "4", "BONUSPOINTS": "0"}}, {"type": "Feature", "geometry": {"type": "Point", "coordinates": [-95.4822, 34.5807]}, "properties": {"NAME": "W5O/KI-020", "TITLE": "1670", "REGION": "Kiamichi Mountains", "ASSOCIATION": "USA - Oklahoma", "POINTS": "4", "BONUSPOINTS": "0"}}, {"type": "Feature", "geometry": {"type": "Point", "coordinates": [-95.2608, 34.5567]}, "properties": {"NAME": "W5O/KI-021", "TITLE": "1505", "REGION": "Kiamichi Mountains", "ASSOCIATION": "USA - Oklahoma", "POINTS": "2", "BONUSPOINTS": "0"}}, {"type": "Feature", "geometry": {"type": "Point", "coordinates": [-94.885, 34.4275]}, "properties": {"NAME": "W5O/KI-022", "TITLE": "High Peak", "REGION": "Kiamichi Mountains", "ASSOCIATION": "USA - Oklahoma", "POINTS": "2", "BONUSPOINTS": "0"}}, {"type": "Feature", "geometry": {"type": "Point", "coordinates": [-95.3358, 34.5018]}, "properties": {"NAME": "W5O/KI-023", "TITLE": "1436", "REGION": "Kiamichi Mountains", "ASSOCIATION": "USA - Oklahoma", "POINTS": "2", "BONUSPOINTS": "0"}}, {"type": "Feature", "geometry": {"type": "Point", "coordinates": [-95.5127, 34.6981]}, "properties": {"NAME": "W5O/KI-024", "TITLE": "1426", "REGION": "Kiamichi Mountains", "ASSOCIATION": "USA - Oklahoma", "POINTS": "2", "BONUSPOINTS": "0"}}, {"type": "Feature", "geometry": {"type": "Point", "coordinates": [-95.3593, 34.539]}, "properties": {"NAME": "W5O/KI-025", "TITLE": "1418", "REGION": "Kiamichi Mountains", "ASSOCIATION": "USA - Oklahoma", "POINTS": "2", "BONUSPOINTS": "0"}}, {"type": "Feature", "geometry": {"type": "Point", "coordinates": [-95.4344, 34.5288]}, "properties": {"NAME": "W5O/KI-026", "TITLE": "1386", "REGION": "Kiamichi Mountains", "ASSOCIATION": "USA - Oklahoma", "POINTS": "2", "BONUSPOINTS": "0"}}, {"type": "Feature", "geometry": {"type": "Point", "coordinates": [-95.2449, 34.6686]}, "properties": {"NAME": "W5O/KI-027", "TITLE": "1370", "REGION": "Kiamichi Mountains", "ASSOCIATION": "USA - Oklahoma", "POINTS": "2", "BONUSPOINTS": "0"}}, {"type": "Feature", "geometry": {"type": "Point", "coordinates": [-95.2259, 34.6766]}, "properties": {"NAME": "W5O/KI-028", "TITLE": "1330", "REGION": "Kiamichi Mountains", "ASSOCIATION": "USA - Oklahoma", "POINTS": "1", "BONUSPOINTS": "0"}}, {"type": "Feature", "geometry": {"type": "Point", "coordinates": [-95.2829, 34.6672]}, "properties": {"NAME": "W5O/KI-029", "TITLE": "1310", "REGION": "Kiamichi Mountains", "ASSOCIATION": "USA - Oklahoma", "POINTS": "1", "BONUSPOINTS": "0"}}, {"type": "Feature", "geometry": {"type": "Point", "coordinates": [-95.2503, 34.3898]}, "properties": {"NAME": "W5O/KI-030", "TITLE": "Blackjack Mountain", "REGION": "Kiamichi Mountains", "ASSOCIATION": "USA - Oklahoma", "POINTS": "1", "BONUSPOINTS": "0"}}, {"type": "Feature", "geometry": {"type": "Point", "coordinates": [-95.4383, 34.4265]}, "properties": {"NAME": "W5O/KI-031", "TITLE": "1160", "REGION": "Kiamichi Mountains", "ASSOCIATION": "USA - Oklahoma", "POINTS": "1", "BONUSPOINTS": "0"}}, {"type": "Feature", "geometry": {"type": "Point", "coordinates": [-95.4913, 34.3895]}, "properties": {"NAME": "W5O/KI-032", "TITLE": "1110", "REGION": "Kiamichi Mountains", "ASSOCIATION": "USA - Oklahoma", "POINTS": "1", "BONUSPOINTS": "0"}}, {"type": "Feature", "geometry": {"type": "Point", "coordinates": [-95.1839, 34.2907]}, "properties": {"NAME": "W5O/KI-033", "TITLE": "Caney Mountain", "REGION": "Kiamichi Mountains", "ASSOCIATION": "USA - Oklahoma", "POINTS": "1", "BONUSPOINTS": "0"}}]}