{"type": "FeatureCollection", "name": "W5O/WO SUMMITS", "features": [{"type": "Feature", "geometry": {"type": "Point", "coordinates": [-94.5717, 34.3041]}, "properties": {"NAME": "W5O/WO-001", "TITLE": "1550", "REGION": "White Oak Mountains", "ASSOCIATION": "USA - Oklahoma", "POINTS": "4", "BONUSPOINTS": "0"}}, {"type": "Feature", "geometry": {"type": "Point", "coordinates": [-94.5515, 34.2491]}, "properties": {"NAME": "W5O/WO-002", "TITLE": "Williams Mountain", "REGION": "White Oak Mountains", "ASSOCIATION": "USA - Oklahoma", "POINTS": "2", "BONUSPOINTS": "0"}}, {"type": "Feature", "geometry": {"type": "Point", "coordinates": [-94.5807, 34.3453]}, "properties": {"NAME": "W5O/WO-003", "TITLE": "1490", "REGION": "White Oak Mountains", "ASSOCIATION": "USA - Oklahoma", "POINTS": "2", "BONUSPOINTS": "0"}}, {"type": "Feature", "geometry": {"type": "Point", "coordinates": [-94.5412, 34.2294]}, "properties": {"NAME": "W5O/WO-004", "TITLE": "Turkey Mountain", "REGION": "White Oak Mountains", "ASSOCIATION": "USA - Oklahoma", "POINTS": "2", "BONUSPOINTS": "0"}}, {"type": "Feature", "geometry": {"type": "Point", "coordinates": [-94.6224, 34.3257]}, "properties": {"NAME": "W5O/WO-005", "TITLE": "1450", "REGION": "White Oak Mountains", "ASSOCIATION": "USA - Oklahoma", "POINTS": "2", "BONUSPOINTS": "0"}}, {"type": "Feature", "geometry": {"type": "Point", "coordinates": [-94.6567, 34.3414]}, "properties": {"NAME": "W5O/WO-006", "TITLE": "Hee Benchmark", "REGION": "White Oak Mountains", "ASSOCIATION": "USA - Oklahoma", "POINTS": "2", "BONUSPOINTS": "0"}}, {"type": "Feature", "geometry": {"type": "Point", "coordinates": [-94.7754, 34.3548]}, "properties": {"NAME": "W5O/WO-007", "TITLE": "Hee Mountain", "REGION": "White Oak Mountains", "ASSOCIATION": "USA - Oklahoma", "POINTS": "2", "BONUSPOINTS": "0"}}, {"type": "Feature", "geometry": {"type": "Point", "coordinates": [-94.7764, 34.2503]}, "properties": {"NAME": "W5O/WO-008", "TITLE": "Carter Mountain", "REGION": "White Oak Mountains", "ASSOCIATION": "USA - Oklahoma", "POINTS": "2", "BONUSPOINTS": "0"}}, {"type": "Feature", "geometry": {"type": "Point", "coordinates": [-94.754, 34.2346]}, "properties": {"NAME": "W5O/WO-009", "TITLE": "East High Peak", "REGION": "White Oak Mountains", "ASSOCIATION": "USA - Oklahoma", "POINTS": "1", "BONUSPOINTS": "0"}}, {"type": "Feature", "geometry": {"type": "Point", "coordinates": [-94.6141, 34.2673]}, "properties": {"NAME": "W5O/WO-010", "TITLE": "White Oak Mountain", "REGION": "White Oak Mountains", "ASSOCIATION": "USA - Oklahoma", "POINTS": "1", "BONUSPOINTS": "0"}}, {"type": "Feature", "geometry": {"type": "Point", "coordinates": [-94.6749, 34.3909]}, "properties": {"NAME": "W5O/WO-011", "TITLE": "1270", "REGION": "White Oak Mountains", "ASSOCIATION": "USA - Oklahoma", "POINTS": "1", "BONUSPOINTS": "0"}}, {"type": "Feature", "geometry": {"type": "Point", "coordinates": [-94.6454, 34.3521]}, "properties": {"NAME": "W5O/WO-012", "TITLE": "1268", "REGION": "White Oak Mountains", "ASSOCIATION": "USA - Oklahoma", "POINTS": "1", "BONUSPOINTS": "0"}}]}