{"type": "FeatureCollection", "name": "W5O/SO SUMMITS", "features": [{"type": "Feature", "geometry": {"type": "Point", "coordinates": [-94.4685, 35.0263]}, "properties": {"NAME": "W5O/SO-001", "TITLE": "Sugar Loaf Mountain", "REGION": "Sans Bois Mountains", "ASSOCIATION": "USA - Oklahoma", "POINTS": "10", "BONUSPOINTS": "0"}}, {"type": "Feature", "geometry": {"type": "Point", "coordinates": [-94.6795, 35.0707]}, "properties": {"NAME": "W5O/SO-002", "TITLE": "Cavanal Mountain", "REGION": "Sans Bois Mountains", "ASSOCIATION": "USA - Oklahoma", "POINTS": "8", "BONUSPOINTS": "0"}}, {"type": "Feature", "geometry": {"type": "Point", "coordinates": [-95.1686, 35.0324]}, "properties": {"NAME": "W5O/SO-003", "TITLE": "Blue Mountain", "REGION": "Sans Bois Mountains", "ASSOCIATION": "USA - Oklahoma", "POINTS": "4", "BONUSPOINTS": "0"}}, {"type": "Feature", "geometry": {"type": "Point", "coordinates": [-94.9761, 35.0826]}, "properties": {"NAME": "W5O/SO-004", "TITLE": "Sans Bois Mountain", "REGION": "Sans Bois Mountains", "ASSOCIATION": "USA - Oklahoma", "POINTS": "4", "BONUSPOINTS": "0"}}, {"type": "Feature", "geometry": {"type": "Point", "coordinates": [-95.0694, 35.0495]}, "properties": {"NAME": "W5O/SO-005", "TITLE": "1675", "REGION": "Sans Bois Mountains", "ASSOCIATION": "USA - Oklahoma", "POINTS": "4", "BONUSPOINTS": "0"}}, {"type": "Feature", "geometry": {"type": "Point", "coordinates": [-94.7536, 35.0618]}, "properties": {"NAME": "W5O/SO-006", "TITLE": "North Potato Peaks", "REGION": "Sans Bois Mountains", "ASSOCIATION": "USA - Oklahoma", "POINTS": "4", "BONUSPOINTS": "0"}}, {"type": "Feature", "geometry": {"type": "Point", "coordinates": [-95.3146, 35.0696]}, "properties": {"NAME": "W5O/SO-007", "TITLE": "Tucker Knob", "REGION": "Sans Bois Mountains", "ASSOCIATION": "USA - Oklahoma", "POINTS": "2", "BONUSPOINTS": "0"}}, {"type": "Feature", "geometry": {"type": "Point", "coordinates": [-94.8179, 35.0283]}, "properties": {"NAME": "W5O/SO-008", "TITLE": "Wolf Mountain", "REGION": "Sans Bois Mountains", "ASSOCIATION": "USA - Oklahoma", "POINTS": "2", "BONUSPOINTS": "0"}}, {"type": "Feature", "geometry": {"type": "Point", "coordinates": [-95.374, 35.0613]}, "properties": {"NAME": "W5O/SO-009", "TITLE": "Shoe Mountain", "REGION": "Sans Bois Mountains", "ASSOCIATION": "USA - Oklahoma", "POINTS": "2", "BONUSPOINTS": "0"}}, {"type": "Feature", "geometry": {"type": "Point", "coordinates": [-95.0355, 34.9674]}, "properties": {"NAME": "W5O/SO-010", "TITLE": "Red Oak Peak", "REGION": "Sans Bois Mountains", "ASSOCIATION": "USA - Oklahoma", "POINTS": "2", "BONUSPOINTS": "0"}}, {"type": "Feature", "geometry": {"type": "Point", "coordinates": [-94.864, 35.0077]}, "properties": {"NAME": "W5O/SO-011", "TITLE": "Sulphur Spring Mountain", "REGION": "Sans Bois Mountains", "ASSOCIATION": "USA - Oklahoma", "POINTS": "2", "BONUSPOINTS": "0"}}, {"type": "Feature", "geometry": {"type": "Point", "coordinates": [-95.3373, 35.1818]}, "properties": {"NAME": "W5O/SO-012", "TITLE": "Blue Mountain", "REGION": "Sans Bois Mountains", "ASSOCIATION": "USA - Oklahoma", "POINTS": "2", "BONUSPOINTS": "0"}}, {"type": "Feature", "geometry": {"type": "Point", "coordinates": [-95.0788, 34.9709]}, "properties": {"NAME": "W5O/SO-013", "TITLE": "Red Oak Mountain", "REGION": "Sans Bois Mountains", "ASSOCIATION": "USA - Oklahoma", "POINTS": "1", "BONUSPOINTS": "0"}}, {"type": "Feature", "geometry": {"type": "Point", "coordinates": [-95.1614, 34.9604]}, "properties": {"NAME": "W5O/SO-014", "TITLE": "Second Mountain", "REGION": "Sans Bois Mountains", "ASSOCIATION": "USA - Oklahoma", "POINTS": "4", "BONUSPOINTS": "0"}}, {"type": "Feature", "geometry": {"type": "Point", "coordinates": [-95.1023, 35.061]}, "properties": {"NAME": "W5O/SO-015", "TITLE": "Long Mountain", "REGION": "Sans Bois Mountains", "ASSOCIATION": "USA - Oklahoma", "POINTS": "4", "BONUSPOINTS": "0"}}, {"type": "Feature", "geometry": {"type": "Point", "coordinates": [-94.9261, 35.0962]}, "properties": {"NAME": "W5O/SO-016", "TITLE": "1530", "REGION": "Sans Bois Mountains", "ASSOCIATION": "USA - Oklahoma", "POINTS": "2", "BONUSPOINTS": "0"}}, {"type": "Feature", "geometry": {"type": "Point", "coordinates": [-95.3281, 35.03]}, "properties": {"NAME": "W5O/SO-017", "TITLE": "Iron Post Mountain", "REGION": "Sans Bois Mountains", "ASSOCIATION": "USA - Oklahoma", "POINTS": "2", "BONUSPOINTS": "0"}}, {"type": "Feature", "geometry": {"type": "Point", "coordinates": [-94.8191, 35.0615]}, "properties": {"NAME": "W5O/SO-018", "TITLE": "Russell Mountain", "REGION": "Sans Bois Mountains", "ASSOCIATION": "USA - Oklahoma", "POINTS": "2", "BONUSPOINTS": "0"}}, {"type": "Feature", "geometry": {"type": "Point", "coordinates": [-95.3517, 35.0659]}, "properties": {"NAME": "W5O/SO-019", "TITLE": "Panther Mountain", "REGION": "Sans Bois Mountains", "ASSOCIATION": "USA - Oklahoma", "POINTS": "2", "BONUSPOINTS": "0"}}, {"type": "Feature", "geometry": {"type": "Point", "coordinates": [-97.2541, 34.4568]}, "properties": {"NAME": "W5O/SO-020", "TITLE": "Arbuckle Mountains (HP)", "REGION": "Sans Bois Mountains", "ASSOCIATION": "USA - Oklahoma", "POINTS": "2", "BONUSPOINTS": "0"}}, {"type": "Feature", "geometry": {"type": "Point", "coordinates": [-95.4135, 34.9986]}, "properties": {"NAME": "W5O/SO-021", "TITLE": "1353", "REGION": "Sans Bois Mountains", "ASSOCIATION": "USA - Oklahoma", "POINTS": "2", "BONUSPOINTS": "0"}}, {"type": "Feature", "geometry": {"type": "Point", "coordinates": [-95.4103, 35.123]}, "properties": {"NAME": "W5O/SO-022", "TITLE": "1127", "REGION": "Sans Bois Mountains", "ASSOCIATION": "USA - Oklahoma", "POINTS": "1", "BONUSPOINTS": "0"}}, {"type": "Feature", "geometry": {"type": "Point", "coordinates": [-95.4031, 35.2322]}, "properties": {"NAME": "W5O/SO-023", "TITLE": "Brooken Mountain", "REGION": "Sans Bois Mountains", "ASSOCIATION": "USA - Oklahoma", "POINTS": "1", "BONUSPOINTS": "0"}}, {"type": "Feature", "geometry": {"type": "Point", "coordinates": [-95.5817, 35.0911]}, "properties": {"NAME": "W5O/SO-024", "TITLE": "Scaffold Mountain", "REGION": "Sans Bois Mountains", "ASSOCIATION": "USA - Oklahoma", "POINTS": "1", "BONUSPOINTS": "0"}}, {"type": "Feature", "geometry": {"type": "Point", "coordinates": [-96.0122, 34.9988]}, "properties": {"NAME": "W5O/SO-025", "TITLE": "1095", "REGION": "Sans Bois Mountains", "ASSOCIATION": "USA - Oklahoma", "POINTS": "1", "BONUSPOINTS": "0"}}, {"type": "Feature", "geometry": {"type": "Point", "coordinates": [-95.2903, 35.354]}, "properties": {"NAME": "W5O/SO-026", "TITLE": "Hi Early Mountain", "REGION": "Sans Bois Mountains", "ASSOCIATION": "USA - Oklahoma", "POINTS": "1", "BONUSPOINTS": "0"}}, {"type": "Feature", "geometry": {"type": "Point", "coordinates": [-95.52, 35.0354]}, "properties": {"NAME": "W5O/SO-027", "TITLE": "Blue Mountain", "REGION": "Sans Bois Mountains", "ASSOCIATION": "USA - Oklahoma", "POINTS": "1", "BONUSPOINTS": "0"}}, {"type": "Feature", "geometry": {"type": "Point", "coordinates": [-95.1641, 35.379]}, "properties": {"NAME": "W5O/SO-028", "TITLE": "Holt Mountain", "REGION": "Sans Bois Mountains", "ASSOCIATION": "USA - Oklahoma", "POINTS": "1", "BONUSPOINTS": "0"}}, {"type": "Feature", "geometry": {"type": "Point", "coordinates": [-94.7975, 35.1604]}, "properties": {"NAME": "W5O/SO-029", "TITLE": "Bokoshe Mountain", "REGION": "Sans Bois Mountains", "ASSOCIATION": "USA - Oklahoma", "POINTS": "1", "BONUSPOINTS": "0"}}, {"type": "Feature", "geometry": {"type": "Point", "coordinates": [-94.9288, 35.2859]}, "properties": {"NAME": "W5O/SO-030", "TITLE": "Hancock Mountain", "REGION": "Sans Bois Mountains", "ASSOCIATION": "USA - Oklahoma", "POINTS": "1", "BONUSPOINTS": "0"}}]}