{"type": "FeatureCollection", "name": "US-MO POTA PARKS", "features": [{"type": "Feature", "geometry": {"type": "Point", "coordinates": [-92.5721, 38.9615]}, "properties": {"NAME": "K-0374", "TITLE": "Big Muddy National Wildlife Refuge"}}, {"type": "Feature", "geometry": {"type": "Point", "coordinates": [-90.7814, 39.2661]}, "properties": {"NAME": "K-0375", "TITLE": "Clarence Cannon National Wildlife Refuge"}}, {"type": "Feature", "geometry": {"type": "Point", "coordinates": [-91.4985, 40.3279]}, "properties": {"NAME": "K-0376", "TITLE": "Great River National Wildlife Refuge"}}, {"type": "Feature", "geometry": {"type": "Point", "coordinates": [-90.1512, 36.9699]}, "properties": {"NAME": "K-0377", "TITLE": "Mingo National Wildlife Refuge"}}, {"type": "Feature", "geometry": {"type": "Point", "coordinates": [-95.2348, 40.0697]}, "properties": {"NAME": "K-0380", "TITLE": "Loess Bluffs National Wildlife Refuge"}}, {"type": "Feature", "geometry": {"type": "Point", "coordinates": [-93.2325, 39.6332]}, "properties": {"NAME": "K-0381", "TITLE": "Swan Lake National Wildlife Refuge"}}, {"type": "Feature", "geometry": {"type": "Point", "coordinates": [-93.419, 37.1159]}, "properties": {"NAME": "K-0710", "TITLE": "Wilson's Creek National Battlefield"}}, {"type": "Feature", "geometry": {"type": "Point", "coordinates": [-90.1859, 38.6249]}, "properties": {"NAME": "K-0779", "TITLE": "Gateway Arch National Park"}}, {"type": "Feature", "geometry": {"type": "Point", "coordinates": [-91.2681, 37.0529]}, "properties": {"NAME": "K-0788", "TITLE": "Rocky Creek State Conservation Area"}}, {"type": "Feature", "geometry": {"type": "Point", "coordinates": [-94.5312, 38.9015]}, "properties": {"NAME": "K-0831", "TITLE": "Harry S. Truman Family Farm National Historic Site"}}, {"type": "Feature", "geometry": {"type": "Point", "coordinates": [-90.3525, 38.5509]}, "properties": {"NAME": "K-0870", "TITLE": "Ulysses S. Grant National Historic Site"}}, {"type": "Feature", "geometry": {"type": "Point", "coordinates": [-94.3557, 36.9873]}, "properties": {"NAME": "K-0936", "TITLE": "George Washington Carver National Monument"}}, {"type": "Feature", "geometry": {"type": "Point", "coordinates": [-93.588, 36.9249]}, "properties": {"NAME": "K-10110", "TITLE": "Wire Road State Conservation Area"}}, {"type": "Feature", "geometry": {"type": "Point", "coordinates": [-93.6119, 37.9948]}, "properties": {"NAME": "K-10116", "TITLE": "Kings Prairie Access State Conservation Area"}}, {"type": "Feature", "geometry": {"type": "Point", "coordinates": [-89.8887, 37.7904]}, "properties": {"NAME": "K-10135", "TITLE": "Blue Spring Branch State Conservation Area"}}, {"type": "Feature", "geometry": {"type": "Point", "coordinates": [-94.2448, 39.0745]}, "properties": {"NAME": "K-10143", "TITLE": "Lake City Range State Recreation Site"}}, {"type": "Feature", "geometry": {"type": "Point", "coordinates": [-89.5148, 37.6318]}, "properties": {"NAME": "K-10147", "TITLE": "Tower Rock State Natural Area"}}, {"type": "Feature", "geometry": {"type": "Point", "coordinates": [-90.0126, 37.6186]}, "properties": {"NAME": "K-10152", "TITLE": "Perry Tower Site State Conservation Area"}}, {"type": "Feature", "geometry": {"type": "Point", "coordinates": [-91.6212, 38.7113]}, "properties": {"NAME": "K-10165", "TITLE": "Grand Bluffs State Conservation Area"}}, {"type": "Feature", "geometry": {"type": "Point", "coordinates": [-91.9874, 38.5726]}, "properties": {"NAME": "K-10207", "TITLE": "Smoky Waters State Conservation Area"}}, {"type": "Feature", "geometry": {"type": "Point", "coordinates": [-92.316, 38.705]}, "properties": {"NAME": "K-10208", "TITLE": "Hart Creek State Conservation Area"}}, {"type": "Feature", "geometry": {"type": "Point", "coordinates": [-92.7196, 38.9863]}, "properties": {"NAME": "K-10209", "TITLE": "Franklin Island State Conservation Area"}}, {"type": "Feature", "geometry": {"type": "Point", "coordinates": [-91.7698, 37.2102]}, "properties": {"NAME": "K-10210", "TITLE": "Gist Ranch State Conservation Area"}}, {"type": "Feature", "geometry": {"type": "Point", "coordinates": [-91.413, 37.2848]}, "properties": {"NAME": "K-10211", "TITLE": "Sunklands State Conservation Area"}}, {"type": "Feature", "geometry": {"type": "Point", "coordinates": [-94.6173, 37.3673]}, "properties": {"NAME": "K-10212", "TITLE": "Mon-Shon State Conservation Area"}}, {"type": "Feature", "geometry": {"type": "Point", "coordinates": [-94.0878, 36.8879]}, "properties": {"NAME": "K-10213", "TITLE": "Capps Creek State Conservation Area"}}, {"type": "Feature", "geometry": {"type": "Point", "coordinates": [-92.9102, 37.4261]}, "properties": {"NAME": "K-10214", "TITLE": "Niangua State Conservation Area"}}, {"type": "Feature", "geometry": {"type": "Point", "coordinates": [-92.6687, 37.1008]}, "properties": {"NAME": "K-10215", "TITLE": "Cedar Gap State Conservation Area"}}, {"type": "Feature", "geometry": {"type": "Point", "coordinates": [-93.9207, 37.1288]}, "properties": {"NAME": "K-10216", "TITLE": "Robert E. Talbot State Conservation Area"}}, {"type": "Feature", "geometry": {"type": "Point", "coordinates": [-90.2006, 36.1855]}, "properties": {"NAME": "K-10217", "TITLE": "Ben Cash State Conservation Area"}}, {"type": "Feature", "geometry": {"type": "Point", "coordinates": [-93.1717, 36.7193]}, "properties": {"NAME": "K-10218", "TITLE": "The Lewis Family, Dean, Anna Mae and David D. Lewis State Conservation Area"}}, {"type": "Feature", "geometry": {"type": "Point", "coordinates": [-93.3868, 37.0511]}, "properties": {"NAME": "K-10219", "TITLE": "Delaware Town Access State Conservation Area"}}, {"type": "Feature", "geometry": {"type": "Point", "coordinates": [-93.6173, 36.7512]}, "properties": {"NAME": "K-10220", "TITLE": "Lower Flat Creek Access State Conservation Area"}}, {"type": "Feature", "geometry": {"type": "Point", "coordinates": [-93.3682, 36.9947]}, "properties": {"NAME": "K-10221", "TITLE": "Shelvin Rock Access State Conservation Area"}}, {"type": "Feature", "geometry": {"type": "Point", "coordinates": [-93.7209, 36.7884]}, "properties": {"NAME": "K-10222", "TITLE": "Stubblefield Access State Conservation Area"}}, {"type": "Feature", "geometry": {"type": "Point", "coordinates": [-92.4265, 38.2672]}, "properties": {"NAME": "K-10264", "TITLE": "Saline Valley State Conservation Area"}}, {"type": "Feature", "geometry": {"type": "Point", "coordinates": [-90.5436, 38.204]}, "properties": {"NAME": "K-10265", "TITLE": "Victoria Glades State Conservation Area"}}, {"type": "Feature", "geometry": {"type": "Point", "coordinates": [-90.6273, 38.2554]}, "properties": {"NAME": "K-10266", "TITLE": "Valley View Glades State Conservation Area"}}, {"type": "Feature", "geometry": {"type": "Point", "coordinates": [-90.6764, 38.1211]}, "properties": {"NAME": "K-10267", "TITLE": "Mammoth Access State Conservation Area"}}, {"type": "Feature", "geometry": {"type": "Point", "coordinates": [-90.6632, 38.4472]}, "properties": {"NAME": "K-10269", "TITLE": "Young State Conservation Area"}}, {"type": "Feature", "geometry": {"type": "Point", "coordinates": [-90.6756, 38.4357]}, "properties": {"NAME": "K-10270", "TITLE": "Myron and Sonya Glassberg Family State Conservation Area"}}, {"type": "Feature", "geometry": {"type": "Point", "coordinates": [-92.4144, 38.812]}, "properties": {"NAME": "K-10309", "TITLE": "Plowboy Bend State Conservation Area"}}, {"type": "Feature", "geometry": {"type": "Point", "coordinates": [-92.4365, 38.6566]}, "properties": {"NAME": "K-10310", "TITLE": "Roger V. and Viola Wachal Smith State Conservation Area"}}, {"type": "Feature", "geometry": {"type": "Point", "coordinates": [-92.0584, 38.6957]}, "properties": {"NAME": "K-10312", "TITLE": "Earthquake Hollow State Conservation Area"}}, {"type": "Feature", "geometry": {"type": "Point", "coordinates": [-93.0086, 37.2266]}, "properties": {"NAME": "K-10386", "TITLE": "Compton Hollow State Recreation Area"}}, {"type": "Feature", "geometry": {"type": "Point", "coordinates": [-93.1993, 37.1547]}, "properties": {"NAME": "K-10387", "TITLE": "Joe Crighton Beach Access State Conservation Area"}}, {"type": "Feature", "geometry": {"type": "Point", "coordinates": [-93.2008, 36.6963]}, "properties": {"NAME": "K-10392", "TITLE": "Boston Ferry State Conservation Area"}}, {"type": "Feature", "geometry": {"type": "Point", "coordinates": [-92.6278, 38.3229]}, "properties": {"NAME": "K-10457", "TITLE": "Rocky Mount Tower Site State Conservation Area"}}, {"type": "Feature", "geometry": {"type": "Point", "coordinates": [-92.3908, 38.479]}, "properties": {"NAME": "K-10458", "TITLE": "Scrivner Road State Conservation Area"}}, {"type": "Feature", "geometry": {"type": "Point", "coordinates": [-93.3087, 37.4402]}, "properties": {"NAME": "K-10555", "TITLE": "Pleasant Hope State Conservation Area"}}, {"type": "Feature", "geometry": {"type": "Point", "coordinates": [-93.3838, 37.388]}, "properties": {"NAME": "K-10556", "TITLE": "Little Sac Woods State Conservation Area"}}, {"type": "Feature", "geometry": {"type": "Point", "coordinates": [-93.3207, 37.3677]}, "properties": {"NAME": "K-10557", "TITLE": "Dale Sare State Conservation Area"}}, {"type": "Feature", "geometry": {"type": "Point", "coordinates": [-90.1553, 37.569]}, "properties": {"NAME": "K-10572", "TITLE": "Amidon Memorial State Conservation Area"}}, {"type": "Feature", "geometry": {"type": "Point", "coordinates": [-90.4208, 37.2764]}, "properties": {"NAME": "K-10573", "TITLE": "Coldwater State Conservation Area"}}, {"type": "Feature", "geometry": {"type": "Point", "coordinates": [-94.4213, 39.064]}, "properties": {"NAME": "K-10574", "TITLE": "Lipton State Conservation Area"}}, {"type": "Feature", "geometry": {"type": "Point", "coordinates": [-94.3826, 39.2335]}, "properties": {"NAME": "K-10575", "TITLE": "Walnut Woods State Conservation Area"}}, {"type": "Feature", "geometry": {"type": "Point", "coordinates": [-94.3922, 39.2498]}, "properties": {"NAME": "K-10576", "TITLE": "Rush Creek State Conservation Area"}}, {"type": "Feature", "geometry": {"type": "Point", "coordinates": [-94.1571, 39.2211]}, "properties": {"NAME": "K-10577", "TITLE": "Pigg's Landing Access State Conservation Area"}}, {"type": "Feature", "geometry": {"type": "Point", "coordinates": [-94.8189, 39.2916]}, "properties": {"NAME": "K-10578", "TITLE": "Schimmel City Access State Conservation Area"}}, {"type": "Feature", "geometry": {"type": "Point", "coordinates": [-94.8248, 39.3229]}, "properties": {"NAME": "K-10579", "TITLE": "Dr. Frederick Marshall State Conservation Area"}}, {"type": "Feature", "geometry": {"type": "Point", "coordinates": [-93.8955, 39.3856]}, "properties": {"NAME": "K-10580", "TITLE": "Wagner State Conservation Area"}}, {"type": "Feature", "geometry": {"type": "Point", "coordinates": [-93.8782, 38.3037]}, "properties": {"NAME": "K-10581", "TITLE": "La Due Bottoms State Conservation Area"}}, {"type": "Feature", "geometry": {"type": "Point", "coordinates": [-93.4724, 38.6005]}, "properties": {"NAME": "K-10582", "TITLE": "Kearn Memorial State Conservation Area"}}, {"type": "Feature", "geometry": {"type": "Point", "coordinates": [-93.4728, 38.5885]}, "properties": {"NAME": "K-10583", "TITLE": "Bryson's Hope State Conservation Area"}}, {"type": "Feature", "geometry": {"type": "Point", "coordinates": [-94.3913, 38.0259]}, "properties": {"NAME": "K-10584", "TITLE": "Gama Grass Prairie State Conservation Area"}}, {"type": "Feature", "geometry": {"type": "Point", "coordinates": [-94.932, 39.7187]}, "properties": {"NAME": "K-10585", "TITLE": "Kneib Memorial State Conservation Area"}}, {"type": "Feature", "geometry": {"type": "Point", "coordinates": [-94.8146, 39.7657]}, "properties": {"NAME": "K-10586", "TITLE": "Youngdahl Urban State Conservation Area"}}, {"type": "Feature", "geometry": {"type": "Point", "coordinates": [-93.2234, 39.0094]}, "properties": {"NAME": "K-10587", "TITLE": "Blue Lick State Conservation Area"}}, {"type": "Feature", "geometry": {"type": "Point", "coordinates": [-93.2989, 38.5503]}, "properties": {"NAME": "K-10589", "TITLE": "Friendly Prairie State Conservation Area"}}, {"type": "Feature", "geometry": {"type": "Point", "coordinates": [-90.3848, 37.6637]}, "properties": {"NAME": "K-10595", "TITLE": "Knob Lick State Conservation Area"}}, {"type": "Feature", "geometry": {"type": "Point", "coordinates": [-91.8087, 38.1403]}, "properties": {"NAME": "K-10596", "TITLE": "Spring Creek Gap State Conservation Area"}}, {"type": "Feature", "geometry": {"type": "Point", "coordinates": [-90.4997, 37.5962]}, "properties": {"NAME": "K-10597", "TITLE": "Roselle Access State Conservation Area"}}, {"type": "Feature", "geometry": {"type": "Point", "coordinates": [-90.1575, 37.3818]}, "properties": {"NAME": "K-10598", "TITLE": "Marquand Access State Conservation Area"}}, {"type": "Feature", "geometry": {"type": "Point", "coordinates": [-90.3568, 37.5559]}, "properties": {"NAME": "K-10599", "TITLE": "Thompson Ford Access State Conservation Area"}}, {"type": "Feature", "geometry": {"type": "Point", "coordinates": [-93.0997, 37.9894]}, "properties": {"NAME": "K-10600", "TITLE": "Mule Shoe State Conservation Area"}}, {"type": "Feature", "geometry": {"type": "Point", "coordinates": [-91.7308, 40.0548]}, "properties": {"NAME": "K-10698", "TITLE": "Tolona Access State Conservation Area"}}, {"type": "Feature", "geometry": {"type": "Point", "coordinates": [-91.5438, 40.087]}, "properties": {"NAME": "K-10699", "TITLE": "Sunnyside School Access State Conservation Area"}}, {"type": "Feature", "geometry": {"type": "Point", "coordinates": [-92.0239, 40.0001]}, "properties": {"NAME": "K-10700", "TITLE": "White Oak Bend Access State Conservation Area"}}, {"type": "Feature", "geometry": {"type": "Point", "coordinates": [-92.0079, 40.3422]}, "properties": {"NAME": "K-10701", "TITLE": "Ella Ewing Lake State Conservation Area"}}, {"type": "Feature", "geometry": {"type": "Point", "coordinates": [-91.8977, 40.0916]}, "properties": {"NAME": "K-10702", "TITLE": "LaBelle Lake State Conservation Area"}}, {"type": "Feature", "geometry": {"type": "Point", "coordinates": [-91.7503, 40.3229]}, "properties": {"NAME": "K-10703", "TITLE": "Neeper State Conservation Area"}}, {"type": "Feature", "geometry": {"type": "Point", "coordinates": [-91.9284, 40.3038]}, "properties": {"NAME": "K-10704", "TITLE": "Clark State Conservation Area"}}, {"type": "Feature", "geometry": {"type": "Point", "coordinates": [-91.9013, 40.5769]}, "properties": {"NAME": "K-10705", "TITLE": "Charlie Heath Memorial State Conservation Area"}}, {"type": "Feature", "geometry": {"type": "Point", "coordinates": [-90.5329, 38.5233]}, "properties": {"NAME": "K-10866", "TITLE": "Forest 44 State Conservation Area"}}, {"type": "Feature", "geometry": {"type": "Point", "coordinates": [-93.8014, 40.2484]}, "properties": {"NAME": "K-10867", "TITLE": "Wayne Helton Memorial State Conservation Area"}}, {"type": "Feature", "geometry": {"type": "Point", "coordinates": [-89.3099, 36.7391]}, "properties": {"NAME": "K-10868", "TITLE": "Ten Mile Pond State Conservation Area"}}, {"type": "Feature", "geometry": {"type": "Point", "coordinates": [-89.4392, 36.5545]}, "properties": {"NAME": "K-10869", "TITLE": "Donaldson Point State Conservation Area"}}, {"type": "Feature", "geometry": {"type": "Point", "coordinates": [-90.9285, 38.2223]}, "properties": {"NAME": "K-10870", "TITLE": "Little Indian Creek State Conservation Area"}}, {"type": "Feature", "geometry": {"type": "Point", "coordinates": [-90.9895, 38.076]}, "properties": {"NAME": "K-10871", "TITLE": "Pea Ridge State Conservation Area"}}, {"type": "Feature", "geometry": {"type": "Point", "coordinates": [-91.5079, 37.9502]}, "properties": {"NAME": "K-10872", "TITLE": "Woodson K Woods Memorial State Conservation Area"}}, {"type": "Feature", "geometry": {"type": "Point", "coordinates": [-91.7269, 37.6243]}, "properties": {"NAME": "K-10873", "TITLE": "White River Trace State Conservation Area"}}, {"type": "Feature", "geometry": {"type": "Point", "coordinates": [-91.6437, 37.6727]}, "properties": {"NAME": "K-10874", "TITLE": "Gerhild and Graham Brown State Conservation Area"}}, {"type": "Feature", "geometry": {"type": "Point", "coordinates": [-91.2448, 39.6291]}, "properties": {"NAME": "K-10903", "TITLE": "Robert H. Thompson State Conservation Area"}}, {"type": "Feature", "geometry": {"type": "Point", "coordinates": [-94.3559, 37.9493]}, "properties": {"NAME": "K-10950", "TITLE": "Cephas Ford Access State Conservation Area"}}, {"type": "Feature", "geometry": {"type": "Point", "coordinates": [-90.3934, 38.8128]}, "properties": {"NAME": "K-10954", "TITLE": "Saint Stanislaus State Conservation Area"}}, {"type": "Feature", "geometry": {"type": "Point", "coordinates": [-89.8486, 37.4729]}, "properties": {"NAME": "K-10955", "TITLE": "Old Plantation Access State Conservation Area"}}, {"type": "Feature", "geometry": {"type": "Point", "coordinates": [-89.7955, 37.489]}, "properties": {"NAME": "K-10956", "TITLE": "Maintz Wildlife Reserve"}}, {"type": "Feature", "geometry": {"type": "Point", "coordinates": [-89.8422, 37.2132]}, "properties": {"NAME": "K-10957", "TITLE": "Block Hole Access State Conservation Area"}}, {"type": "Feature", "geometry": {"type": "Point", "coordinates": [-89.6395, 37.1875]}, "properties": {"NAME": "K-10958", "TITLE": "Tywappity Community Lake State Conservation Area"}}, {"type": "Feature", "geometry": {"type": "Point", "coordinates": [-89.5066, 37.0955]}, "properties": {"NAME": "K-10959", "TITLE": "Sand Prairie State Conservation Area"}}, {"type": "Feature", "geometry": {"type": "Point", "coordinates": [-94.4236, 39.0938]}, "properties": {"NAME": "K-11015", "TITLE": "Harry S Truman Home National Historical Site"}}, {"type": "Feature", "geometry": {"type": "Point", "coordinates": [-94.3501, 37.0065]}, "properties": {"NAME": "K-11021", "TITLE": "Diamond Grove Prairie State Conservation Area"}}, {"type": "Feature", "geometry": {"type": "Point", "coordinates": [-91.8288, 37.9207]}, "properties": {"NAME": "K-11029", "TITLE": "Marguerite Bray State Conservation Area"}}, {"type": "Feature", "geometry": {"type": "Point", "coordinates": [-91.7934, 37.8727]}, "properties": {"NAME": "K-11030", "TITLE": "Beaver Creek State Conservation Area"}}, {"type": "Feature", "geometry": {"type": "Point", "coordinates": [-94.5545, 36.7367]}, "properties": {"NAME": "K-11031", "TITLE": "Buffalo Hills Natural Area"}}, {"type": "Feature", "geometry": {"type": "Point", "coordinates": [-94.101, 39.4642]}, "properties": {"NAME": "K-11034", "TITLE": "Blue Jay Trail Access State Conservation Area"}}, {"type": "Feature", "geometry": {"type": "Point", "coordinates": [-93.2285, 39.3256]}, "properties": {"NAME": "K-11035", "TITLE": "Miami Access State Conservation Area"}}, {"type": "Feature", "geometry": {"type": "Point", "coordinates": [-93.2421, 39.3707]}, "properties": {"NAME": "K-11036", "TITLE": "McKinny State Conservation Area"}}, {"type": "Feature", "geometry": {"type": "Point", "coordinates": [-93.3032, 38.5649]}, "properties": {"NAME": "K-11038", "TITLE": "Grandfather Prairie State Conservation Area"}}, {"type": "Feature", "geometry": {"type": "Point", "coordinates": [-94.8676, 39.8092]}, "properties": {"NAME": "K-11039", "TITLE": "Sunbridge Hills State Conservation Area"}}, {"type": "Feature", "geometry": {"type": "Point", "coordinates": [-94.8708, 39.8193]}, "properties": {"NAME": "K-11040", "TITLE": "Caroline Sheridan Logan Memorial Wildlife Area"}}, {"type": "Feature", "geometry": {"type": "Point", "coordinates": [-92.232, 38.5881]}, "properties": {"NAME": "K-11041", "TITLE": "Runge Nature Center State Conservation Area"}}, {"type": "Feature", "geometry": {"type": "Point", "coordinates": [-93.1209, 38.5786]}, "properties": {"NAME": "K-11042", "TITLE": "Kahrs-Boger State Conservation Area"}}, {"type": "Feature", "geometry": {"type": "Point", "coordinates": [-89.5902, 36.3723]}, "properties": {"NAME": "K-11052", "TITLE": "Twin Borrow Pits State Conservation Area"}}, {"type": "Feature", "geometry": {"type": "Point", "coordinates": [-90.0622, 36.003]}, "properties": {"NAME": "K-11053", "TITLE": "Warbler Woods State Conservation Area"}}, {"type": "Feature", "geometry": {"type": "Point", "coordinates": [-90.1759, 36.5267]}, "properties": {"NAME": "K-11054", "TITLE": "Wilhelmina State Conservation Area"}}, {"type": "Feature", "geometry": {"type": "Point", "coordinates": [-90.0735, 36.3463]}, "properties": {"NAME": "K-11055", "TITLE": "Frisbee Cutoff Access State Conservation Area"}}, {"type": "Feature", "geometry": {"type": "Point", "coordinates": [-90.1567, 36.4839]}, "properties": {"NAME": "K-11056", "TITLE": "Calk Bluff Trail Access State Conservation Area"}}, {"type": "Feature", "geometry": {"type": "Point", "coordinates": [-94.4943, 37.6512]}, "properties": {"NAME": "K-11057", "TITLE": "Comstock Prairie State Conservation Area"}}, {"type": "Feature", "geometry": {"type": "Point", "coordinates": [-94.5144, 36.9951]}, "properties": {"NAME": "K-11058", "TITLE": "Walter Woods State Conservation Area"}}, {"type": "Feature", "geometry": {"type": "Point", "coordinates": [-93.7335, 37.482]}, "properties": {"NAME": "K-11059", "TITLE": "Corry Flatrocks State Conservation Area"}}, {"type": "Feature", "geometry": {"type": "Point", "coordinates": [-93.9869, 37.4605]}, "properties": {"NAME": "K-11060", "TITLE": "Wade & June Shelton Memorial State Conservation Area"}}, {"type": "Feature", "geometry": {"type": "Point", "coordinates": [-93.9071, 37.3749]}, "properties": {"NAME": "K-11061", "TITLE": "Indigo Prairie State Conservation Area"}}, {"type": "Feature", "geometry": {"type": "Point", "coordinates": [-93.8932, 37.3897]}, "properties": {"NAME": "K-11062", "TITLE": "Sloan State Conservation Area"}}, {"type": "Feature", "geometry": {"type": "Point", "coordinates": [-91.6091, 40.4985]}, "properties": {"NAME": "K-11064", "TITLE": "William E. Crawford State Conservation Area"}}, {"type": "Feature", "geometry": {"type": "Point", "coordinates": [-91.5176, 40.3359]}, "properties": {"NAME": "K-11065", "TITLE": "Rose Pond State Conservation Area"}}, {"type": "Feature", "geometry": {"type": "Point", "coordinates": [-91.6097, 40.186]}, "properties": {"NAME": "K-11066", "TITLE": "Wyaconda Crossing State Conservation Area"}}, {"type": "Feature", "geometry": {"type": "Point", "coordinates": [-91.3866, 39.7411]}, "properties": {"NAME": "K-11067", "TITLE": "Steyermark Woods State Conservation Area"}}, {"type": "Feature", "geometry": {"type": "Point", "coordinates": [-91.4124, 39.7293]}, "properties": {"NAME": "K-11068", "TITLE": "J. Thad Ray Memorial Wildlife Area"}}, {"type": "Feature", "geometry": {"type": "Point", "coordinates": [-91.7396, 39.7494]}, "properties": {"NAME": "K-11069", "TITLE": "Elmslie State Conservation Area"}}, {"type": "Feature", "geometry": {"type": "Point", "coordinates": [-94.5495, 37.6175]}, "properties": {"NAME": "K-11070", "TITLE": "Drywood State Conservation Area"}}, {"type": "Feature", "geometry": {"type": "Point", "coordinates": [-93.9893, 37.4053]}, "properties": {"NAME": "K-11071", "TITLE": "Horse Creek Prairie State Conservation Area"}}, {"type": "Feature", "geometry": {"type": "Point", "coordinates": [-93.9557, 37.2204]}, "properties": {"NAME": "K-11072", "TITLE": "Kickapoo Prairie State Conservation Area"}}, {"type": "Feature", "geometry": {"type": "Point", "coordinates": [-93.982, 37.2678]}, "properties": {"NAME": "K-11073", "TITLE": "Providence Prairie State Conservation Area"}}, {"type": "Feature", "geometry": {"type": "Point", "coordinates": [-94.4834, 37.84]}, "properties": {"NAME": "K-11074", "TITLE": "Big Drywood Creek State Conservation Area"}}, {"type": "Feature", "geometry": {"type": "Point", "coordinates": [-93.7997, 37.3826]}, "properties": {"NAME": "K-11075", "TITLE": "Fiddler's Ford Access State Conservation Area"}}, {"type": "Feature", "geometry": {"type": "Point", "coordinates": [-94.4408, 36.9835]}, "properties": {"NAME": "K-11076", "TITLE": "Tipton Ford Access State Conservation Area"}}, {"type": "Feature", "geometry": {"type": "Point", "coordinates": [-94.3455, 36.92]}, "properties": {"NAME": "K-11077", "TITLE": "Allen Bridge Access State Conservation Area"}}, {"type": "Feature", "geometry": {"type": "Point", "coordinates": [-92.6264, 37.4571]}, "properties": {"NAME": "K-11078", "TITLE": "John Alva Fuson MD State Conservation Area"}}, {"type": "Feature", "geometry": {"type": "Point", "coordinates": [-92.3993, 37.3964]}, "properties": {"NAME": "K-11079", "TITLE": "Wilbur Allen Memorial State Conservation Area"}}, {"type": "Feature", "geometry": {"type": "Point", "coordinates": [-92.8618, 37.7875]}, "properties": {"NAME": "K-11080", "TITLE": "Barclay State Conservation Area"}}, {"type": "Feature", "geometry": {"type": "Point", "coordinates": [-92.9112, 37.6812]}, "properties": {"NAME": "K-11081", "TITLE": "Alfred Newton Gossett State Conservation Area"}}, {"type": "Feature", "geometry": {"type": "Point", "coordinates": [-93.0435, 37.6438]}, "properties": {"NAME": "K-11082", "TITLE": "Big John Access State Conservation Area"}}, {"type": "Feature", "geometry": {"type": "Point", "coordinates": [-92.9782, 37.5278]}, "properties": {"NAME": "K-11083", "TITLE": "Goose Creek State Conservation Area"}}, {"type": "Feature", "geometry": {"type": "Point", "coordinates": [-92.9847, 37.52]}, "properties": {"NAME": "K-11084", "TITLE": "Charity Access State Conservation Area"}}, {"type": "Feature", "geometry": {"type": "Point", "coordinates": [-92.8249, 37.8654]}, "properties": {"NAME": "K-11085", "TITLE": "Mary Lawson State Conservation Area"}}, {"type": "Feature", "geometry": {"type": "Point", "coordinates": [-92.5795, 37.7339]}, "properties": {"NAME": "K-11086", "TITLE": "Bear Creek State Conservation Area"}}, {"type": "Feature", "geometry": {"type": "Point", "coordinates": [-91.692, 37.9979]}, "properties": {"NAME": "K-11128", "TITLE": "Little Prairie State Conservation Area"}}, {"type": "Feature", "geometry": {"type": "Point", "coordinates": [-92.5141, 37.588]}, "properties": {"NAME": "K-11129", "TITLE": "Long Ford Access State Conservation Area"}}, {"type": "Feature", "geometry": {"type": "Point", "coordinates": [-92.4526, 37.6345]}, "properties": {"NAME": "K-11130", "TITLE": "Drynob Access State Conservation Area"}}, {"type": "Feature", "geometry": {"type": "Point", "coordinates": [-92.6057, 37.2703]}, "properties": {"NAME": "K-11131", "TITLE": "Odin Access State Conservation Area"}}, {"type": "Feature", "geometry": {"type": "Point", "coordinates": [-92.3946, 37.3316]}, "properties": {"NAME": "K-11132", "TITLE": "Buzzard Bluff Access State Conservation Area"}}, {"type": "Feature", "geometry": {"type": "Point", "coordinates": [-92.2367, 37.3143]}, "properties": {"NAME": "K-11133", "TITLE": "Lamberson Memorial State Conservation Area"}}, {"type": "Feature", "geometry": {"type": "Point", "coordinates": [-92.1338, 37.3069]}, "properties": {"NAME": "K-11134", "TITLE": "P.F. Barnes State Conservation Area"}}, {"type": "Feature", "geometry": {"type": "Point", "coordinates": [-92.0048, 37.3229]}, "properties": {"NAME": "K-11135", "TITLE": "Piney River Narrows Natural Area"}}, {"type": "Feature", "geometry": {"type": "Point", "coordinates": [-92.0048, 37.3229]}, "properties": {"NAME": "K-11136", "TITLE": "George O. White Nursery State Forest"}}, {"type": "Feature", "geometry": {"type": "Point", "coordinates": [-92.0219, 37.5839]}, "properties": {"NAME": "K-11137", "TITLE": "Peter A. Eck State Conservation Area"}}, {"type": "Feature", "geometry": {"type": "Point", "coordinates": [-93.8011, 36.5727]}, "properties": {"NAME": "K-11138", "TITLE": "Roaring River State Conservation Area"}}, {"type": "Feature", "geometry": {"type": "Point", "coordinates": [-94.5879, 36.6314]}, "properties": {"NAME": "K-11139", "TITLE": "Cowskin Access State Conservation Area"}}, {"type": "Feature", "geometry": {"type": "Point", "coordinates": [-94.4637, 36.5784]}, "properties": {"NAME": "K-11140", "TITLE": "Mount Shira Access State Conservation Area"}}, {"type": "Feature", "geometry": {"type": "Point", "coordinates": [-94.3527, 36.6168]}, "properties": {"NAME": "K-11141", "TITLE": "Deep Ford Access State Conservation Area"}}, {"type": "Feature", "geometry": {"type": "Point", "coordinates": [-90.6903, 38.6175]}, "properties": {"NAME": "K-1745", "TITLE": "Babler Memorial State Park"}}, {"type": "Feature", "geometry": {"type": "Point", "coordinates": [-90.5159, 37.2335]}, "properties": {"NAME": "K-1746", "TITLE": "Sam A. Baker State Park"}}, {"type": "Feature", "geometry": {"type": "Point", "coordinates": [-92.8447, 37.7067]}, "properties": {"NAME": "K-1747", "TITLE": "Bennett Spring State Park"}}, {"type": "Feature", "geometry": {"type": "Point", "coordinates": [-95.3435, 40.086]}, "properties": {"NAME": "K-1748", "TITLE": "Big Lake State Park"}}, {"type": "Feature", "geometry": {"type": "Point", "coordinates": [-89.3061, 36.6479]}, "properties": {"NAME": "K-1749", "TITLE": "Big Oak Tree State Park"}}, {"type": "Feature", "geometry": {"type": "Point", "coordinates": [-94.2943, 36.6214]}, "properties": {"NAME": "K-1750", "TITLE": "Big Sugar Creek State Park"}}, {"type": "Feature", "geometry": {"type": "Point", "coordinates": [-90.545, 38.5487]}, "properties": {"NAME": "K-1751", "TITLE": "Castlewood State Park"}}, {"type": "Feature", "geometry": {"type": "Point", "coordinates": [-93.6673, 40.0892]}, "properties": {"NAME": "K-1752", "TITLE": "Crowder State Park"}}, {"type": "Feature", "geometry": {"type": "Point", "coordinates": [-90.9301, 39.0356]}, "properties": {"NAME": "K-1753", "TITLE": "Cuivre River State Park"}}, {"type": "Feature", "geometry": {"type": "Point", "coordinates": [-91.4202, 37.3316]}, "properties": {"NAME": "K-1754", "TITLE": "Current River State Park"}}, {"type": "Feature", "geometry": {"type": "Point", "coordinates": [-90.6972, 38.384]}, "properties": {"NAME": "K-1755", "TITLE": "Don Robinson State Park"}}, {"type": "Feature", "geometry": {"type": "Point", "coordinates": [-91.4072, 37.3076]}, "properties": {"NAME": "K-1756", "TITLE": "Echo Bluff State Park"}}, {"type": "Feature", "geometry": {"type": "Point", "coordinates": [-90.6886, 37.6546]}, "properties": {"NAME": "K-1757", "TITLE": "Elephant Rocks State Park"}}, {"type": "Feature", "geometry": {"type": "Point", "coordinates": [-92.3197, 39.0871]}, "properties": {"NAME": "K-1758", "TITLE": "Finger Lakes State Park"}}, {"type": "Feature", "geometry": {"type": "Point", "coordinates": [-91.579, 38.9064]}, "properties": {"NAME": "K-1759", "TITLE": "Graham Cave State Park"}}, {"type": "Feature", "geometry": {"type": "Point", "coordinates": [-91.6461, 36.5452]}, "properties": {"NAME": "K-1760", "TITLE": "Grand Gulf State Park"}}, {"type": "Feature", "geometry": {"type": "Point", "coordinates": [-92.7604, 37.967]}, "properties": {"NAME": "K-1761", "TITLE": "Ha Ha Tonka State Park"}}, {"type": "Feature", "geometry": {"type": "Point", "coordinates": [-93.4436, 38.2777]}, "properties": {"NAME": "K-1762", "TITLE": "Harry S Truman State Park"}}, {"type": "Feature", "geometry": {"type": "Point", "coordinates": [-90.2411, 37.8338]}, "properties": {"NAME": "K-1763", "TITLE": "Hawn State Park"}}, {"type": "Feature", "geometry": {"type": "Point", "coordinates": [-90.8856, 37.5594]}, "properties": {"NAME": "K-1764", "TITLE": "Johnson's Shut-Ins State Park"}}, {"type": "Feature", "geometry": {"type": "Point", "coordinates": [-90.1261, 38.8362]}, "properties": {"NAME": "K-1765", "TITLE": "Jones-Confluence Point State Park"}}, {"type": "Feature", "geometry": {"type": "Point", "coordinates": [-93.6234, 38.4685]}, "properties": {"NAME": "K-1766", "TITLE": "Katy Trail State Park"}}, {"type": "Feature", "geometry": {"type": "Point", "coordinates": [-93.6066, 38.7494]}, "properties": {"NAME": "K-1767", "TITLE": "Knob Noster State Park"}}, {"type": "Feature", "geometry": {"type": "Point", "coordinates": [-92.5711, 38.0791]}, "properties": {"NAME": "K-1768", "TITLE": "Lake of the Ozarks State Park"}}, {"type": "Feature", "geometry": {"type": "Point", "coordinates": [-90.3438, 36.9422]}, "properties": {"NAME": "K-1769", "TITLE": "Lake Wappapello State Park"}}, {"type": "Feature", "geometry": {"type": "Point", "coordinates": [-95.0587, 39.5397]}, "properties": {"NAME": "K-1770", "TITLE": "Lewis and Clark State Park"}}, {"type": "Feature", "geometry": {"type": "Point", "coordinates": [-92.5291, 39.7724]}, "properties": {"NAME": "K-1771", "TITLE": "Long Branch State Park"}}, {"type": "Feature", "geometry": {"type": "Point", "coordinates": [-91.7907, 39.4875]}, "properties": {"NAME": "K-1772", "TITLE": "Mark Twain State Park"}}, {"type": "Feature", "geometry": {"type": "Point", "coordinates": [-91.1065, 38.2165]}, "properties": {"NAME": "K-1773", "TITLE": "Meramec State Park"}}, {"type": "Feature", "geometry": {"type": "Point", "coordinates": [-91.6825, 37.4515]}, "properties": {"NAME": "K-1774", "TITLE": "Montauk State Park"}}, {"type": "Feature", "geometry": {"type": "Point", "coordinates": [-90.0474, 36.5537]}, "properties": {"NAME": "K-1775", "TITLE": "Morris State Park"}}, {"type": "Feature", "geometry": {"type": "Point", "coordinates": [-91.2268, 38.0619]}, "properties": {"NAME": "K-1776", "TITLE": "Onondaga Cave State Park"}}, {"type": "Feature", "geometry": {"type": "Point", "coordinates": [-93.2163, 39.7634]}, "properties": {"NAME": "K-1777", "TITLE": "Pershing State Park"}}, {"type": "Feature", "geometry": {"type": "Point", "coordinates": [-93.3175, 37.8776]}, "properties": {"NAME": "K-1778", "TITLE": "Pomme de Terre State Park"}}, {"type": "Feature", "geometry": {"type": "Point", "coordinates": [-94.5708, 37.5254]}, "properties": {"NAME": "K-1779", "TITLE": "Prairie State Park"}}, {"type": "Feature", "geometry": {"type": "Point", "coordinates": [-93.8402, 36.5951]}, "properties": {"NAME": "K-1780", "TITLE": "Roaring River State Park"}}, {"type": "Feature", "geometry": {"type": "Point", "coordinates": [-90.8163, 38.4174]}, "properties": {"NAME": "K-1781", "TITLE": "Robertsville State Park"}}, {"type": "Feature", "geometry": {"type": "Point", "coordinates": [-92.3283, 38.8737]}, "properties": {"NAME": "K-1782", "TITLE": "Rock Bridge Memorial State Park"}}, {"type": "Feature", "geometry": {"type": "Point", "coordinates": [-90.5935, 38.5029]}, "properties": {"NAME": "K-1783", "TITLE": "Route 66 State Park"}}, {"type": "Feature", "geometry": {"type": "Point", "coordinates": [-90.5169, 37.9761]}, "properties": {"NAME": "K-1784", "TITLE": "St. Francois State Park"}}, {"type": "Feature", "geometry": {"type": "Point", "coordinates": [-90.4974, 37.8183]}, "properties": {"NAME": "K-1785", "TITLE": "St. Joe State Park"}}, {"type": "Feature", "geometry": {"type": "Point", "coordinates": [-93.7503, 37.6138]}, "properties": {"NAME": "K-1786", "TITLE": "Stockton State Park"}}, {"type": "Feature", "geometry": {"type": "Point", "coordinates": [-93.3105, 36.5825]}, "properties": {"NAME": "K-1787", "TITLE": "Table Rock State Park"}}, {"type": "Feature", "geometry": {"type": "Point", "coordinates": [-90.7272, 37.5724]}, "properties": {"NAME": "K-1788", "TITLE": "Taum Sauk Mountain State Park"}}, {"type": "Feature", "geometry": {"type": "Point", "coordinates": [-92.6468, 40.1854]}, "properties": {"NAME": "K-1789", "TITLE": "Thousand Hills State Park"}}, {"type": "Feature", "geometry": {"type": "Point", "coordinates": [-89.4642, 37.4491]}, "properties": {"NAME": "K-1790", "TITLE": "Trail of Tears State Park"}}, {"type": "Feature", "geometry": {"type": "Point", "coordinates": [-93.2624, 39.2583]}, "properties": {"NAME": "K-1791", "TITLE": "Van Meter State Park"}}, {"type": "Feature", "geometry": {"type": "Point", "coordinates": [-91.5186, 40.0068]}, "properties": {"NAME": "K-1792", "TITLE": "Wakonda State Park"}}, {"type": "Feature", "geometry": {"type": "Point", "coordinates": [-94.2167, 39.6585]}, "properties": {"NAME": "K-1793", "TITLE": "Wallace State Park"}}, {"type": "Feature", "geometry": {"type": "Point", "coordinates": [-90.6755, 38.0817]}, "properties": {"NAME": "K-1794", "TITLE": "Washington State Park"}}, {"type": "Feature", "geometry": {"type": "Point", "coordinates": [-94.2616, 39.4012]}, "properties": {"NAME": "K-1795", "TITLE": "Watkins Mill State Park"}}, {"type": "Feature", "geometry": {"type": "Point", "coordinates": [-94.8719, 39.3885]}, "properties": {"NAME": "K-1796", "TITLE": "Weston Bend State Park"}}, {"type": "Feature", "geometry": {"type": "Point", "coordinates": [-92.9488, 39.0663]}, "properties": {"NAME": "K-3335", "TITLE": "Arrow Rock State Historic Site"}}, {"type": "Feature", "geometry": {"type": "Point", "coordinates": [-91.7089, 40.5878]}, "properties": {"NAME": "K-3336", "TITLE": "Battle of Athens State Historic Site"}}, {"type": "Feature", "geometry": {"type": "Point", "coordinates": [-94.2975, 37.173]}, "properties": {"NAME": "K-3337", "TITLE": "Battle of Carthage State Historic Site"}}, {"type": "Feature", "geometry": {"type": "Point", "coordinates": [-94.439, 38.2366]}, "properties": {"NAME": "K-3338", "TITLE": "Battle of Island Mound State Historic Site"}}, {"type": "Feature", "geometry": {"type": "Point", "coordinates": [-93.8784, 39.1912]}, "properties": {"NAME": "K-3339", "TITLE": "Battle of Lexington State Historic Site"}}, {"type": "Feature", "geometry": {"type": "Point", "coordinates": [-90.6395, 37.6203]}, "properties": {"NAME": "K-3340", "TITLE": "Battle of Pilot Knob State Historic Site"}}, {"type": "Feature", "geometry": {"type": "Point", "coordinates": [-89.8031, 37.3681]}, "properties": {"NAME": "K-3341", "TITLE": "Bollinger Mill State Historic Site"}}, {"type": "Feature", "geometry": {"type": "Point", "coordinates": [-92.8787, 39.0784]}, "properties": {"NAME": "K-3342", "TITLE": "Boone's Lick State Historic Site"}}, {"type": "Feature", "geometry": {"type": "Point", "coordinates": [-93.2226, 38.7945]}, "properties": {"NAME": "K-3343", "TITLE": "Bothwell Lodge State Historic Site"}}, {"type": "Feature", "geometry": {"type": "Point", "coordinates": [-92.0301, 38.5579]}, "properties": {"NAME": "K-3344", "TITLE": "Clark's Hill/Norton State Historic Site"}}, {"type": "Feature", "geometry": {"type": "Point", "coordinates": [-93.7245, 39.0964]}, "properties": {"NAME": "K-3345", "TITLE": "Confederate Memorial State Historic Site"}}, {"type": "Feature", "geometry": {"type": "Point", "coordinates": [-91.4384, 38.7063]}, "properties": {"NAME": "K-3346", "TITLE": "Deutschheim State Historic Site"}}, {"type": "Feature", "geometry": {"type": "Point", "coordinates": [-91.2064, 37.7217]}, "properties": {"NAME": "K-3347", "TITLE": "Dillard Mill State Historic Site"}}, {"type": "Feature", "geometry": {"type": "Point", "coordinates": [-90.0444, 37.9799]}, "properties": {"NAME": "K-3348", "TITLE": "Felix Vall√© House State Historic Site"}}, {"type": "Feature", "geometry": {"type": "Point", "coordinates": [-90.4819, 38.78]}, "properties": {"NAME": "K-3349", "TITLE": "First Missouri State Capitol State Historic Site"}}, {"type": "Feature", "geometry": {"type": "Point", "coordinates": [-93.1693, 39.7882]}, "properties": {"NAME": "K-3350", "TITLE": "Gen. John J. Pershing Boyhood Home State Historic Site"}}, {"type": "Feature", "geometry": {"type": "Point", "coordinates": [-90.3776, 38.2809]}, "properties": {"NAME": "K-3351", "TITLE": "Gov. Daniel Dunklin's Grave State Historic Site"}}, {"type": "Feature", "geometry": {"type": "Point", "coordinates": [-89.5234, 36.5964]}, "properties": {"NAME": "K-3352", "TITLE": "Hunter-Dawson State Historic Site"}}, {"type": "Feature", "geometry": {"type": "Point", "coordinates": [-91.5579, 40.4291]}, "properties": {"NAME": "K-3353", "TITLE": "Iliniwek Village State Historic Site"}}, {"type": "Feature", "geometry": {"type": "Point", "coordinates": [-92.3363, 38.9198]}, "properties": {"NAME": "K-3354", "TITLE": "Jewell Cemetery State Historic Site"}}, {"type": "Feature", "geometry": {"type": "Point", "coordinates": [-93.2326, 39.7892]}, "properties": {"NAME": "K-3355", "TITLE": "Locust Creek Covered Bridge State Historic Site"}}, {"type": "Feature", "geometry": {"type": "Point", "coordinates": [-91.7857, 39.4884]}, "properties": {"NAME": "K-3356", "TITLE": "Mark Twain Birthplace State Historic Site"}}, {"type": "Feature", "geometry": {"type": "Point", "coordinates": [-90.3848, 38.379]}, "properties": {"NAME": "K-3357", "TITLE": "Mastodon State Historic Site"}}, {"type": "Feature", "geometry": {"type": "Point", "coordinates": [-90.5098, 37.8375]}, "properties": {"NAME": "K-3358", "TITLE": "Missouri Mines State Historic Site"}}, {"type": "Feature", "geometry": {"type": "Point", "coordinates": [-92.1703, 38.5789]}, "properties": {"NAME": "K-3359", "TITLE": "Missouri State Museum/Jefferson Landing State Historic Site"}}, {"type": "Feature", "geometry": {"type": "Point", "coordinates": [-93.5797, 37.348]}, "properties": {"NAME": "K-3360", "TITLE": "Nathan Boone Homestead State Historic Site"}}, {"type": "Feature", "geometry": {"type": "Point", "coordinates": [-94.2071, 37.9821]}, "properties": {"NAME": "K-3361", "TITLE": "Osage Village State Historic Site"}}, {"type": "Feature", "geometry": {"type": "Point", "coordinates": [-90.5266, 38.2944]}, "properties": {"NAME": "K-3362", "TITLE": "Sandy Creek Covered Bridge State Historic Site"}}, {"type": "Feature", "geometry": {"type": "Point", "coordinates": [-93.0071, 39.0329]}, "properties": {"NAME": "K-3363", "TITLE": "Sappington Cemetery State Historic Site"}}, {"type": "Feature", "geometry": {"type": "Point", "coordinates": [-90.215, 38.637]}, "properties": {"NAME": "K-3364", "TITLE": "Scott Joplin House State Historic Site"}}, {"type": "Feature", "geometry": {"type": "Point", "coordinates": [-94.5978, 39.0621]}, "properties": {"NAME": "K-3365", "TITLE": "Thomas Hart Benton Home and Studio State Historic Site"}}, {"type": "Feature", "geometry": {"type": "Point", "coordinates": [-89.2336, 36.6923]}, "properties": {"NAME": "K-3366", "TITLE": "Towosahgy State Historic Site"}}, {"type": "Feature", "geometry": {"type": "Point", "coordinates": [-92.1028, 39.4331]}, "properties": {"NAME": "K-3367", "TITLE": "Union Covered Bridge State Historic Site"}}, {"type": "Feature", "geometry": {"type": "Point", "coordinates": [-94.2586, 39.4108]}, "properties": {"NAME": "K-3368", "TITLE": "Watkins Woolen Mill State Historic Site"}}, {"type": "Feature", "geometry": {"type": "Point", "coordinates": [-92.4272, 36.8353]}, "properties": {"NAME": "K-3369", "TITLE": "Bryant Creek State Park"}}, {"type": "Feature", "geometry": {"type": "Point", "coordinates": [-91.1742, 36.6168]}, "properties": {"NAME": "K-3370", "TITLE": "Eleven Point State Park"}}, {"type": "Feature", "geometry": {"type": "Point", "coordinates": [-93.845, 38.2231]}, "properties": {"NAME": "K-3521", "TITLE": "Chapel View Prairie State Conservation Area"}}, {"type": "Feature", "geometry": {"type": "Point", "coordinates": [-93.6898, 37.1933]}, "properties": {"NAME": "K-3674", "TITLE": "Paris Springs State Conservation Area"}}, {"type": "Feature", "geometry": {"type": "Point", "coordinates": [-87.4701, 36.8532]}, "properties": {"NAME": "K-3791", "TITLE": "Trail of Tears National Historic Trail"}}, {"type": "Feature", "geometry": {"type": "Point", "coordinates": [-91.0166, 37.0001]}, "properties": {"NAME": "K-4009", "TITLE": "Ozark National Wild and Scenic River"}}, {"type": "Feature", "geometry": {"type": "Point", "coordinates": [-91.1267, 37.7168]}, "properties": {"NAME": "K-4492", "TITLE": "Mark Twain National Forest"}}, {"type": "Feature", "geometry": {"type": "Point", "coordinates": [-94.4833, 38.9943]}, "properties": {"NAME": "K-4566", "TITLE": "California National Historic Trail"}}, {"type": "Feature", "geometry": {"type": "Point", "coordinates": [-95.9246, 41.2646]}, "properties": {"NAME": "K-4572", "TITLE": "Lewis and Clark National Historic Trail"}}, {"type": "Feature", "geometry": {"type": "Point", "coordinates": [-96.4057, 39.3826]}, "properties": {"NAME": "K-4576", "TITLE": "Oregon National Historic Trail"}}, {"type": "Feature", "geometry": {"type": "Point", "coordinates": [-94.8486, 39.7562]}, "properties": {"NAME": "K-4578", "TITLE": "Pony Express National Historic Trail"}}, {"type": "Feature", "geometry": {"type": "Point", "coordinates": [-94.5757, 38.9248]}, "properties": {"NAME": "K-4579", "TITLE": "Santa Fe National Historic Trail"}}, {"type": "Feature", "geometry": {"type": "Point", "coordinates": [-94.2716, 37.4939]}, "properties": {"NAME": "K-4587", "TITLE": "Harry S. Truman Birthplace State Historic Site"}}, {"type": "Feature", "geometry": {"type": "Point", "coordinates": [-94.5862, 39.0804]}, "properties": {"NAME": "K-4591", "TITLE": "World War I Museum National Memorial"}}, {"type": "Feature", "geometry": {"type": "Point", "coordinates": [-93.2362, 36.8635]}, "properties": {"NAME": "K-4838", "TITLE": "Busiek State Forest"}}, {"type": "Feature", "geometry": {"type": "Point", "coordinates": [-94.5743, 37.5064]}, "properties": {"NAME": "K-4839", "TITLE": "Lester R. Davis Memorial State Forest"}}, {"type": "Feature", "geometry": {"type": "Point", "coordinates": [-91.1116, 38.7824]}, "properties": {"NAME": "K-4840", "TITLE": "Reifsnider State Forest"}}, {"type": "Feature", "geometry": {"type": "Point", "coordinates": [-91.8879, 36.5539]}, "properties": {"NAME": "K-4842", "TITLE": "Vanderhoef (Archie and Gracie) Memorial State Forest"}}, {"type": "Feature", "geometry": {"type": "Point", "coordinates": [-93.3898, 37.9464]}, "properties": {"NAME": "K-4843", "TITLE": "Murphy (John F.) Memorial State Forest"}}, {"type": "Feature", "geometry": {"type": "Point", "coordinates": [-91.8769, 37.5566]}, "properties": {"NAME": "K-5636", "TITLE": "White Nursery State Forest"}}, {"type": "Feature", "geometry": {"type": "Point", "coordinates": [-93.367, 36.8968]}, "properties": {"NAME": "K-5637", "TITLE": "Holland State Forest"}}, {"type": "Feature", "geometry": {"type": "Point", "coordinates": [-90.7279, 37.3075]}, "properties": {"NAME": "K-5638", "TITLE": "Funk  Memorial State Forest"}}, {"type": "Feature", "geometry": {"type": "Point", "coordinates": [-91.3538, 37.1624]}, "properties": {"NAME": "K-5696", "TITLE": "Angeline State Conservation Area"}}, {"type": "Feature", "geometry": {"type": "Point", "coordinates": [-92.505, 39.8773]}, "properties": {"NAME": "K-5697", "TITLE": "Atlanta Wildlife Area"}}, {"type": "Feature", "geometry": {"type": "Point", "coordinates": [-93.3674, 39.0381]}, "properties": {"NAME": "K-5698", "TITLE": "Blind Pony State Conservation Area"}}, {"type": "Feature", "geometry": {"type": "Point", "coordinates": [-90.74, 38.7052]}, "properties": {"NAME": "K-5699", "TITLE": "August A. Busch Memorial State Conservation Area"}}, {"type": "Feature", "geometry": {"type": "Point", "coordinates": [-93.3134, 39.2897]}, "properties": {"NAME": "K-5700", "TITLE": "Grand Pass State Conservation Area"}}, {"type": "Feature", "geometry": {"type": "Point", "coordinates": [-93.3059, 39.7025]}, "properties": {"NAME": "K-5701", "TITLE": "Fountain Grove State Conservation Area"}}, {"type": "Feature", "geometry": {"type": "Point", "coordinates": [-94.3985, 39.6034]}, "properties": {"NAME": "K-5702", "TITLE": "Hartell (Ronald and Maude) State Conservation Area"}}, {"type": "Feature", "geometry": {"type": "Point", "coordinates": [-91.8633, 39.711]}, "properties": {"NAME": "K-5703", "TITLE": "Hunnewell Lake State Conservation Area"}}, {"type": "Feature", "geometry": {"type": "Point", "coordinates": [-91.3366, 37.7266]}, "properties": {"NAME": "K-5704", "TITLE": "Indian Trail State Conservation Area"}}, {"type": "Feature", "geometry": {"type": "Point", "coordinates": [-93.6572, 40.3995]}, "properties": {"NAME": "K-5705", "TITLE": "Lake Paho State Conservation Area"}}, {"type": "Feature", "geometry": {"type": "Point", "coordinates": [-92.1259, 38.9052]}, "properties": {"NAME": "K-5706", "TITLE": "Little Dixie Lake State Conservation Area"}}, {"type": "Feature", "geometry": {"type": "Point", "coordinates": [-93.3494, 38.2785]}, "properties": {"NAME": "K-5707", "TITLE": "Lost Valley State Fish and Wildlife Area"}}, {"type": "Feature", "geometry": {"type": "Point", "coordinates": [-93.9696, 38.299]}, "properties": {"NAME": "K-5708", "TITLE": "Montrose State Conservation Area"}}, {"type": "Feature", "geometry": {"type": "Point", "coordinates": [-95.078, 40.0875]}, "properties": {"NAME": "K-5709", "TITLE": "Nodaway State Conservation Area"}}, {"type": "Feature", "geometry": {"type": "Point", "coordinates": [-94.7587, 39.3889]}, "properties": {"NAME": "K-5710", "TITLE": "Platte Falls State Conservation Area"}}, {"type": "Feature", "geometry": {"type": "Point", "coordinates": [-94.3792, 39.8006]}, "properties": {"NAME": "K-5711", "TITLE": "Pony Express Lake State Conservation Area"}}, {"type": "Feature", "geometry": {"type": "Point", "coordinates": [-94.3357, 38.889]}, "properties": {"NAME": "K-5712", "TITLE": "James A. Reed Memorial Wildlife Area"}}, {"type": "Feature", "geometry": {"type": "Point", "coordinates": [-90.7858, 37.5695]}, "properties": {"NAME": "K-5713", "TITLE": "Jay Nixon State Park"}}, {"type": "Feature", "geometry": {"type": "Point", "coordinates": [-93.2943, 36.7126]}, "properties": {"NAME": "K-5714", "TITLE": "Shepherd of the Hills State Park"}}, {"type": "Feature", "geometry": {"type": "Point", "coordinates": [-91.4074, 37.3158]}, "properties": {"NAME": "K-5715", "TITLE": "Roger Pryor Pioneer Backcountry State Park"}}, {"type": "Feature", "geometry": {"type": "Point", "coordinates": [-94.5414, 39.0365]}, "properties": {"NAME": "K-5716", "TITLE": "Bruce R. Watkins Cultural Heritage Center State Park"}}, {"type": "Feature", "geometry": {"type": "Point", "coordinates": [-94.0752, 38.9743]}, "properties": {"NAME": "K-6469", "TITLE": "Ferguson Herold State Conservation Area"}}, {"type": "Feature", "geometry": {"type": "Point", "coordinates": [-94.2877, 39.0488]}, "properties": {"NAME": "K-6470", "TITLE": "Burr Oak Woods State Conservation Area"}}, {"type": "Feature", "geometry": {"type": "Point", "coordinates": [-94.2042, 38.8968]}, "properties": {"NAME": "K-6471", "TITLE": "Lone Jack Lake State Conservation Area"}}, {"type": "Feature", "geometry": {"type": "Point", "coordinates": [-94.5743, 39.0403]}, "properties": {"NAME": "K-6472", "TITLE": "Anita B Gorman Discovery Center State Conservation Area"}}, {"type": "Feature", "geometry": {"type": "Point", "coordinates": [-94.8041, 39.4212]}, "properties": {"NAME": "K-6474", "TITLE": "Guy B Park State Conservation Area"}}, {"type": "Feature", "geometry": {"type": "Point", "coordinates": [-94.6446, 39.5261]}, "properties": {"NAME": "K-6475", "TITLE": "Kendzora State Conservation Area"}}, {"type": "Feature", "geometry": {"type": "Point", "coordinates": [-94.2342, 39.2437]}, "properties": {"NAME": "K-6476", "TITLE": "Cooley Lake State Conservation Area"}}, {"type": "Feature", "geometry": {"type": "Point", "coordinates": [-94.4369, 38.539]}, "properties": {"NAME": "K-6477", "TITLE": "Amarugia Highlands State Conservation Area"}}, {"type": "Feature", "geometry": {"type": "Point", "coordinates": [-93.7918, 39.0014]}, "properties": {"NAME": "K-6478", "TITLE": "Maple Leaf Lake State Conservation Area"}}, {"type": "Feature", "geometry": {"type": "Point", "coordinates": [-94.0423, 39.3997]}, "properties": {"NAME": "K-6479", "TITLE": "Crooked River State Conservation Area"}}, {"type": "Feature", "geometry": {"type": "Point", "coordinates": [-93.8326, 38.4146]}, "properties": {"NAME": "K-6480", "TITLE": "Poague Haysler State Conservation Area"}}, {"type": "Feature", "geometry": {"type": "Point", "coordinates": [-94.432, 38.0732]}, "properties": {"NAME": "K-6481", "TITLE": "Harmony Mission Lake State Conservation Area"}}, {"type": "Feature", "geometry": {"type": "Point", "coordinates": [-94.0875, 38.011]}, "properties": {"NAME": "K-6482", "TITLE": "Schell-Osage State Conservation Area"}}, {"type": "Feature", "geometry": {"type": "Point", "coordinates": [-94.4344, 40.0206]}, "properties": {"NAME": "K-6483", "TITLE": "King Lake State Conservation Area"}}, {"type": "Feature", "geometry": {"type": "Point", "coordinates": [-92.9775, 38.7028]}, "properties": {"NAME": "K-6484", "TITLE": "Lamine River State Conservation Area"}}, {"type": "Feature", "geometry": {"type": "Point", "coordinates": [-94.7344, 40.0284]}, "properties": {"NAME": "K-6485", "TITLE": "Happy Holler Lake State Conservation Area"}}, {"type": "Feature", "geometry": {"type": "Point", "coordinates": [-91.7877, 38.577]}, "properties": {"NAME": "K-6486", "TITLE": "Ben Branch Lake State Conservation Area"}}, {"type": "Feature", "geometry": {"type": "Point", "coordinates": [-89.566, 37.5557]}, "properties": {"NAME": "K-6487", "TITLE": "Apple Creek State Conservation Area"}}, {"type": "Feature", "geometry": {"type": "Point", "coordinates": [-90.0742, 37.0474]}, "properties": {"NAME": "K-6488", "TITLE": "Duck Creek State Conservation Area"}}, {"type": "Feature", "geometry": {"type": "Point", "coordinates": [-90.68, 38.664]}, "properties": {"NAME": "K-6489", "TITLE": "Howell Island State Conservation Area"}}, {"type": "Feature", "geometry": {"type": "Point", "coordinates": [-91.3703, 38.7889]}, "properties": {"NAME": "K-6490", "TITLE": "Daniel Boone State Conservation Area"}}, {"type": "Feature", "geometry": {"type": "Point", "coordinates": [-91.1869, 37.0429]}, "properties": {"NAME": "K-6491", "TITLE": "Peck Ranch State Conservation Area"}}, {"type": "Feature", "geometry": {"type": "Point", "coordinates": [-90.7247, 38.692]}, "properties": {"NAME": "K-6492", "TITLE": "Weldon Spring State Conservation Area"}}, {"type": "Feature", "geometry": {"type": "Point", "coordinates": [-89.6135, 37.0605]}, "properties": {"NAME": "K-6493", "TITLE": "General Watkins State Conservation Area"}}, {"type": "Feature", "geometry": {"type": "Point", "coordinates": [-90.1842, 38.8115]}, "properties": {"NAME": "K-6494", "TITLE": "Columbia Bottom State Conservation Area"}}, {"type": "Feature", "geometry": {"type": "Point", "coordinates": [-90.8183, 36.7515]}, "properties": {"NAME": "K-6495", "TITLE": "Little Black State Conservation Area"}}, {"type": "Feature", "geometry": {"type": "Point", "coordinates": [-90.1012, 36.7247]}, "properties": {"NAME": "K-6496", "TITLE": "Otter Slough State Conservation Area"}}, {"type": "Feature", "geometry": {"type": "Point", "coordinates": [-90.3367, 36.5522]}, "properties": {"NAME": "K-6497", "TITLE": "Coon Island State Conservation Area"}}, {"type": "Feature", "geometry": {"type": "Point", "coordinates": [-90.9743, 37.221]}, "properties": {"NAME": "K-6498", "TITLE": "Current River State Conservation Area"}}, {"type": "Feature", "geometry": {"type": "Point", "coordinates": [-91.2136, 38.029]}, "properties": {"NAME": "K-6499", "TITLE": "Huzzah State Conservation Area"}}, {"type": "Feature", "geometry": {"type": "Point", "coordinates": [-91.0735, 38.2105]}, "properties": {"NAME": "K-6500", "TITLE": "Meramec State Conservation Area"}}, {"type": "Feature", "geometry": {"type": "Point", "coordinates": [-89.8454, 37.2816]}, "properties": {"NAME": "K-6501", "TITLE": "Lake Girardeau State Conservation Area"}}, {"type": "Feature", "geometry": {"type": "Point", "coordinates": [-90.1553, 37.1837]}, "properties": {"NAME": "K-6502", "TITLE": "Castor River State Conservation Area"}}, {"type": "Feature", "geometry": {"type": "Point", "coordinates": [-90.1593, 38.0365]}, "properties": {"NAME": "K-6503", "TITLE": "Magnolia Hollow State Conservation Area"}}, {"type": "Feature", "geometry": {"type": "Point", "coordinates": [-90.4695, 37.5765]}, "properties": {"NAME": "K-6504", "TITLE": "Millstream Gardens State Conservation Area"}}, {"type": "Feature", "geometry": {"type": "Point", "coordinates": [-91.6427, 39.0686]}, "properties": {"NAME": "K-6505", "TITLE": "Diggs-Marshall State Conservation Area"}}, {"type": "Feature", "geometry": {"type": "Point", "coordinates": [-91.7186, 38.9418]}, "properties": {"NAME": "K-6506", "TITLE": "Whetstone Creek State Conservation Area"}}, {"type": "Feature", "geometry": {"type": "Point", "coordinates": [-92.7223, 40.5527]}, "properties": {"NAME": "K-6507", "TITLE": "Rebel's Cove State Conservation Area"}}, {"type": "Feature", "geometry": {"type": "Point", "coordinates": [-92.1523, 38.0889]}, "properties": {"NAME": "K-6508", "TITLE": "Rinquelin Trail Lake State Conservation Area"}}, {"type": "Feature", "geometry": {"type": "Point", "coordinates": [-92.1014, 38.4039]}, "properties": {"NAME": "K-6509", "TITLE": "Painted Rock State Conservation Area"}}, {"type": "Feature", "geometry": {"type": "Point", "coordinates": [-93.516, 37.2871]}, "properties": {"NAME": "K-6510", "TITLE": "Bois D'Arc State Conservation Area"}}, {"type": "Feature", "geometry": {"type": "Point", "coordinates": [-92.3138, 39.0754]}, "properties": {"NAME": "K-6511", "TITLE": "Rocky Fork Lakes State Conservation Area"}}, {"type": "Feature", "geometry": {"type": "Point", "coordinates": [-93.1702, 40.183]}, "properties": {"NAME": "K-6512", "TITLE": "Locust Creek State Conservation Area"}}, {"type": "Feature", "geometry": {"type": "Point", "coordinates": [-93.6912, 39.8982]}, "properties": {"NAME": "K-6513", "TITLE": "Poosey State Conservation Area"}}, {"type": "Feature", "geometry": {"type": "Point", "coordinates": [-93.0958, 38.3151]}, "properties": {"NAME": "K-6514", "TITLE": "Big Buffalo Creek State Conservation Area"}}, {"type": "Feature", "geometry": {"type": "Point", "coordinates": [-95.2501, 39.9771]}, "properties": {"NAME": "K-6515", "TITLE": "Bob Brown State Conservation Area"}}, {"type": "Feature", "geometry": {"type": "Point", "coordinates": [-92.803, 38.5906]}, "properties": {"NAME": "K-6516", "TITLE": "Manito Lake State Conservation Area"}}, {"type": "Feature", "geometry": {"type": "Point", "coordinates": [-92.6189, 38.9915]}, "properties": {"NAME": "K-6517", "TITLE": "Diana Bend State Conservation Area"}}, {"type": "Feature", "geometry": {"type": "Point", "coordinates": [-92.9484, 38.0843]}, "properties": {"NAME": "K-6518", "TITLE": "Fiery Fork State Conservation Area"}}, {"type": "Feature", "geometry": {"type": "Point", "coordinates": [-92.599, 38.7821]}, "properties": {"NAME": "K-6519", "TITLE": "Prairie Home State Conservation Area"}}, {"type": "Feature", "geometry": {"type": "Point", "coordinates": [-94.1293, 40.3259]}, "properties": {"NAME": "K-6520", "TITLE": "Grand Trace State Conservation Area"}}, {"type": "Feature", "geometry": {"type": "Point", "coordinates": [-94.5688, 37.4344]}, "properties": {"NAME": "K-6521", "TITLE": "Shawnee Trail State Conservation Area"}}, {"type": "Feature", "geometry": {"type": "Point", "coordinates": [-94.2475, 40.4105]}, "properties": {"NAME": "K-6522", "TITLE": "Emmett and Leah Seat Memorial State Conservation Area"}}, {"type": "Feature", "geometry": {"type": "Point", "coordinates": [-95.4571, 40.1695]}, "properties": {"NAME": "K-6523", "TITLE": "Thurnau State Conservation Area"}}, {"type": "Feature", "geometry": {"type": "Point", "coordinates": [-92.4475, 38.8881]}, "properties": {"NAME": "K-6524", "TITLE": "Eagle Bluffs State Conservation Area"}}, {"type": "Feature", "geometry": {"type": "Point", "coordinates": [-95.1611, 40.3342]}, "properties": {"NAME": "K-6525", "TITLE": "Bilby Ranch Lake State Conservation Area"}}, {"type": "Feature", "geometry": {"type": "Point", "coordinates": [-92.4601, 39.2467]}, "properties": {"NAME": "K-6526", "TITLE": "Rudolf Bennitt State Conservation Area"}}, {"type": "Feature", "geometry": {"type": "Point", "coordinates": [-92.6175, 39.6225]}, "properties": {"NAME": "K-6527", "TITLE": "Thomas Hill Reservoir State Conservation Area"}}, {"type": "Feature", "geometry": {"type": "Point", "coordinates": [-92.9511, 37.8288]}, "properties": {"NAME": "K-6528", "TITLE": "Lead Mine State Conservation Area"}}, {"type": "Feature", "geometry": {"type": "Point", "coordinates": [-93.8066, 38.2872]}, "properties": {"NAME": "K-6529", "TITLE": "Truman Reservoir Management Lands State Park"}}, {"type": "Feature", "geometry": {"type": "Point", "coordinates": [-91.974, 40.0082]}, "properties": {"NAME": "K-6530", "TITLE": "Sever Lake State Conservation Area"}}, {"type": "Feature", "geometry": {"type": "Point", "coordinates": [-91.829, 40.1817]}, "properties": {"NAME": "K-6531", "TITLE": "Deer Ridge State Conservation Area"}}, {"type": "Feature", "geometry": {"type": "Point", "coordinates": [-93.0442, 36.6383]}, "properties": {"NAME": "K-7189", "TITLE": "Beaver Creek State Recreation Area"}}, {"type": "Feature", "geometry": {"type": "Point", "coordinates": [-91.7707, 40.5034]}, "properties": {"NAME": "K-7496", "TITLE": "Fox Valley State Conservation Area"}}, {"type": "Feature", "geometry": {"type": "Point", "coordinates": [-91.5559, 40.4479]}, "properties": {"NAME": "K-7497", "TITLE": "Frost Island State Conservation Area"}}, {"type": "Feature", "geometry": {"type": "Point", "coordinates": [-91.5048, 38.8654]}, "properties": {"NAME": "K-7498", "TITLE": "Danville State Conservation Area"}}, {"type": "Feature", "geometry": {"type": "Point", "coordinates": [-94.575, 38.883]}, "properties": {"NAME": "K-7500", "TITLE": "Saeger Woods State Conservation Area"}}, {"type": "Feature", "geometry": {"type": "Point", "coordinates": [-94.734, 39.5841]}, "properties": {"NAME": "K-7501", "TITLE": "Belcher Branch Lake State Conservation Area"}}, {"type": "Feature", "geometry": {"type": "Point", "coordinates": [-94.3065, 38.0238]}, "properties": {"NAME": "K-7502", "TITLE": "A. Busch Jr at Four Rivers Wetland Reserve"}}, {"type": "Feature", "geometry": {"type": "Point", "coordinates": [-94.415, 37.6681]}, "properties": {"NAME": "K-7503", "TITLE": "Bushwacker Lake State Conservation Area"}}, {"type": "Feature", "geometry": {"type": "Point", "coordinates": [-93.5808, 39.2018]}, "properties": {"NAME": "K-7512", "TITLE": "Baltimore Bend State Conservation Area"}}, {"type": "Feature", "geometry": {"type": "Point", "coordinates": [-90.6433, 37.73]}, "properties": {"NAME": "K-7513", "TITLE": "Bismarck State Conservation Area"}}, {"type": "Feature", "geometry": {"type": "Point", "coordinates": [-93.2454, 38.9422]}, "properties": {"NAME": "K-7514", "TITLE": "Marshall Junction State Conservation Area"}}, {"type": "Feature", "geometry": {"type": "Point", "coordinates": [-93.6822, 39.3727]}, "properties": {"NAME": "K-7515", "TITLE": "Schifferdecker Memorial State Conservation Area"}}, {"type": "Feature", "geometry": {"type": "Point", "coordinates": [-91.0122, 39.1743]}, "properties": {"NAME": "K-7516", "TITLE": "White Memorial State Conservation Area"}}, {"type": "Feature", "geometry": {"type": "Point", "coordinates": [-94.1416, 38.4747]}, "properties": {"NAME": "K-7517", "TITLE": "Settle's Ford State Conservation Area"}}, {"type": "Feature", "geometry": {"type": "Point", "coordinates": [-94.2862, 38.9662]}, "properties": {"NAME": "K-7519", "TITLE": "Bridger State Conservation Area"}}, {"type": "Feature", "geometry": {"type": "Point", "coordinates": [-94.9663, 39.6229]}, "properties": {"NAME": "K-7521", "TITLE": "Bluffwoods State Conservation Area"}}, {"type": "Feature", "geometry": {"type": "Point", "coordinates": [-92.5046, 37.9996]}, "properties": {"NAME": "K-7586", "TITLE": "Toronto Springs State Conservation Area"}}, {"type": "Feature", "geometry": {"type": "Point", "coordinates": [-94.6923, 39.9085]}, "properties": {"NAME": "K-7604", "TITLE": "Rochester Falls State Conservation Area"}}, {"type": "Feature", "geometry": {"type": "Point", "coordinates": [-93.78, 38.8454]}, "properties": {"NAME": "K-7654", "TITLE": "Hazel Hill Lake State Conservation Area"}}, {"type": "Feature", "geometry": {"type": "Point", "coordinates": [-93.523, 38.6385]}, "properties": {"NAME": "K-7655", "TITLE": "J.N. Turkey Kearn Memorial Wildlife Area"}}, {"type": "Feature", "geometry": {"type": "Point", "coordinates": [-93.5711, 38.9131]}, "properties": {"NAME": "K-7656", "TITLE": "Ralph and Martha Perry Memorial State Wildlife Area"}}, {"type": "Feature", "geometry": {"type": "Point", "coordinates": [-93.7037, 38.4709]}, "properties": {"NAME": "K-7657", "TITLE": "Connor O. Fewel State Conservation Area"}}, {"type": "Feature", "geometry": {"type": "Point", "coordinates": [-94.4251, 37.8815]}, "properties": {"NAME": "K-7658", "TITLE": "Flight Lake Conservation Reserve"}}, {"type": "Feature", "geometry": {"type": "Point", "coordinates": [-94.3351, 36.5884]}, "properties": {"NAME": "K-7659", "TITLE": "Huckleberry Ridge Conservation Reserve"}}, {"type": "Feature", "geometry": {"type": "Point", "coordinates": [-94.319, 36.8234]}, "properties": {"NAME": "K-7660", "TITLE": "Fort Crowder Conservation Reserve"}}, {"type": "Feature", "geometry": {"type": "Point", "coordinates": [-94.3777, 37.9242]}, "properties": {"NAME": "K-7661", "TITLE": "Douglas Branch Conservation Reserve"}}, {"type": "Feature", "geometry": {"type": "Point", "coordinates": [-94.2658, 38.5982]}, "properties": {"NAME": "K-7662", "TITLE": "James R. Harter Conservation Reserve"}}, {"type": "Feature", "geometry": {"type": "Point", "coordinates": [-91.2104, 39.5936]}, "properties": {"NAME": "K-7663", "TITLE": "Edward Anderson Conservation Reserve"}}, {"type": "Feature", "geometry": {"type": "Point", "coordinates": [-91.1882, 39.5674]}, "properties": {"NAME": "K-7664", "TITLE": "Dupont Reservation Conservation Reserve"}}, {"type": "Feature", "geometry": {"type": "Point", "coordinates": [-91.1656, 39.5444]}, "properties": {"NAME": "K-7665", "TITLE": "Ted Shanks Conservation Reserve"}}, {"type": "Feature", "geometry": {"type": "Point", "coordinates": [-92.6293, 39.036]}, "properties": {"NAME": "K-7666", "TITLE": "Davisdale Conservation Reserve"}}, {"type": "Feature", "geometry": {"type": "Point", "coordinates": [-91.5806, 39.0354]}, "properties": {"NAME": "K-7667", "TITLE": "Wellsville Lake Conservation Reserve"}}, {"type": "Feature", "geometry": {"type": "Point", "coordinates": [-91.2894, 38.7792]}, "properties": {"NAME": "K-7668", "TITLE": "Little Lost Creek Conservation Reserve"}}, {"type": "Feature", "geometry": {"type": "Point", "coordinates": [-94.0452, 36.6053]}, "properties": {"NAME": "K-7669", "TITLE": "Flag Spring Conservation Reserve"}}, {"type": "Feature", "geometry": {"type": "Point", "coordinates": [-94.4065, 38.5608]}, "properties": {"NAME": "K-7670", "TITLE": "Bittern Bottoms Conservation Reserve"}}, {"type": "Feature", "geometry": {"type": "Point", "coordinates": [-94.4169, 38.517]}, "properties": {"NAME": "K-7671", "TITLE": "Dorsett Hill Prairie Conservation Reserve"}}, {"type": "Feature", "geometry": {"type": "Point", "coordinates": [-94.0995, 39.0478]}, "properties": {"NAME": "K-7672", "TITLE": "Sni-A Bar Conservation Reserve"}}, {"type": "Feature", "geometry": {"type": "Point", "coordinates": [-94.3894, 39.1671]}, "properties": {"NAME": "K-7673", "TITLE": "Liberty Bend Conservation Reserve"}}, {"type": "Feature", "geometry": {"type": "Point", "coordinates": [-94.5483, 39.2311]}, "properties": {"NAME": "K-7674", "TITLE": "Maple Woods Natural Area"}}, {"type": "Feature", "geometry": {"type": "Point", "coordinates": [-94.1219, 39.391]}, "properties": {"NAME": "K-7675", "TITLE": "Foxglove Conservation Reserve"}}, {"type": "Feature", "geometry": {"type": "Point", "coordinates": [-93.8341, 39.2541]}, "properties": {"NAME": "K-7676", "TITLE": "Hardin Conservation Reserve"}}, {"type": "Feature", "geometry": {"type": "Point", "coordinates": [-94.778, 39.6724]}, "properties": {"NAME": "K-7677", "TITLE": "Pigeon Hill Conservation Reserve"}}, {"type": "Feature", "geometry": {"type": "Point", "coordinates": [-92.3851, 39.15]}, "properties": {"NAME": "K-7678", "TITLE": "Lick Creek Conservation Reserve"}}, {"type": "Feature", "geometry": {"type": "Point", "coordinates": [-92.6028, 39.0863]}, "properties": {"NAME": "K-7679", "TITLE": "Moniteau Creek Conservation Reserve"}}, {"type": "Feature", "geometry": {"type": "Point", "coordinates": [-90.2628, 38.9043]}, "properties": {"NAME": "K-7680", "TITLE": "Upper Mississippi Conservation Reserve"}}, {"type": "Feature", "geometry": {"type": "Point", "coordinates": [-91.0195, 39.1461]}, "properties": {"NAME": "K-7681", "TITLE": "William R Logan Conservation Reserve"}}, {"type": "Feature", "geometry": {"type": "Point", "coordinates": [-91.0424, 37.5638]}, "properties": {"NAME": "K-7836", "TITLE": "Ozark State Trail"}}, {"type": "Feature", "geometry": {"type": "Point", "coordinates": [-93.966, 38.0431]}, "properties": {"NAME": "K-7837", "TITLE": "Taberville Prairie State Conservation Area"}}, {"type": "Feature", "geometry": {"type": "Point", "coordinates": [-94.2681, 40.0897]}, "properties": {"NAME": "K-7840", "TITLE": "Elam Bend State Conservation Area"}}, {"type": "Feature", "geometry": {"type": "Point", "coordinates": [-93.9199, 39.8439]}, "properties": {"NAME": "K-7846", "TITLE": "Gallatin State Conservation Area"}}, {"type": "Feature", "geometry": {"type": "Point", "coordinates": [-90.4155, 38.8937]}, "properties": {"NAME": "K-7851", "TITLE": "Marais Temps Clair State Conservation Area"}}, {"type": "Feature", "geometry": {"type": "Point", "coordinates": [-95.0212, 39.4972]}, "properties": {"NAME": "K-7863", "TITLE": "Little Bean Marsh State Conservation Area"}}, {"type": "Feature", "geometry": {"type": "Point", "coordinates": [-93.2651, 38.5495]}, "properties": {"NAME": "K-7864", "TITLE": "Paint Brush Prairie State Conservation Area"}}, {"type": "Feature", "geometry": {"type": "Point", "coordinates": [-94.1552, 40.5177]}, "properties": {"NAME": "K-7868", "TITLE": "Pawnee Prairie State Natural Area"}}, {"type": "Feature", "geometry": {"type": "Point", "coordinates": [-94.7332, 39.6274]}, "properties": {"NAME": "K-7873", "TITLE": "Agency State Conservation Area"}}, {"type": "Feature", "geometry": {"type": "Point", "coordinates": [-94.8831, 39.786]}, "properties": {"NAME": "K-7874", "TITLE": "Arthur Dupree Memorial State Conservation Area"}}, {"type": "Feature", "geometry": {"type": "Point", "coordinates": [-95.6261, 40.3167]}, "properties": {"NAME": "K-7875", "TITLE": "Aspinwall Bend State Conservation Area"}}, {"type": "Feature", "geometry": {"type": "Point", "coordinates": [-90.0409, 37.9741]}, "properties": {"NAME": "K-7984", "TITLE": "St Genevieve (Beauvais House) National Historical Park"}}, {"type": "Feature", "geometry": {"type": "Point", "coordinates": [-95.5839, 40.475]}, "properties": {"NAME": "K-8229", "TITLE": "Brickyard Hill State Conservation Area"}}, {"type": "Feature", "geometry": {"type": "Point", "coordinates": [-95.4909, 40.2528]}, "properties": {"NAME": "K-8230", "TITLE": "Corning State Conservation Area"}}, {"type": "Feature", "geometry": {"type": "Point", "coordinates": [-95.5488, 40.2798]}, "properties": {"NAME": "K-8231", "TITLE": "Deroin Bend State Conservation Area"}}, {"type": "Feature", "geometry": {"type": "Point", "coordinates": [-95.7554, 40.5846]}, "properties": {"NAME": "K-8232", "TITLE": "Lower Hamburg Bend State Conservation Area"}}, {"type": "Feature", "geometry": {"type": "Point", "coordinates": [-95.3955, 40.1026]}, "properties": {"NAME": "K-8233", "TITLE": "Rush Bottoms State Conservation Area"}}, {"type": "Feature", "geometry": {"type": "Point", "coordinates": [-95.6342, 40.5605]}, "properties": {"NAME": "K-8234", "TITLE": "Star School Hill Prairie State Conservation Area"}}, {"type": "Feature", "geometry": {"type": "Point", "coordinates": [-95.1618, 39.908]}, "properties": {"NAME": "K-8235", "TITLE": "Wolf Creek Bend State Conservation Area"}}, {"type": "Feature", "geometry": {"type": "Point", "coordinates": [-90.6971, 39.1077]}, "properties": {"NAME": "K-8236", "TITLE": "B.K. Leach Memorial State Conservation Area"}}, {"type": "Feature", "geometry": {"type": "Point", "coordinates": [-94.7812, 39.5672]}, "properties": {"NAME": "K-8237", "TITLE": "Bee Creek State Conservation Area"}}, {"type": "Feature", "geometry": {"type": "Point", "coordinates": [-94.3733, 37.4002]}, "properties": {"NAME": "K-8238", "TITLE": "Bethel Prairie State Conservation Area"}}, {"type": "Feature", "geometry": {"type": "Point", "coordinates": [-89.702, 36.2557]}, "properties": {"NAME": "K-8239", "TITLE": "Black Island State Conservation Area"}}, {"type": "Feature", "geometry": {"type": "Point", "coordinates": [-93.9517, 39.6259]}, "properties": {"NAME": "K-8240", "TITLE": "Bonanza State Conservation Area"}}, {"type": "Feature", "geometry": {"type": "Point", "coordinates": [-94.256, 37.7964]}, "properties": {"NAME": "K-8241", "TITLE": "Bristow State Conservation Area"}}, {"type": "Feature", "geometry": {"type": "Point", "coordinates": [-94.2995, 37.618]}, "properties": {"NAME": "K-8242", "TITLE": "Buffalo Wallow State Conservation Area"}}, {"type": "Feature", "geometry": {"type": "Point", "coordinates": [-93.5852, 39.5811]}, "properties": {"NAME": "K-8243", "TITLE": "Bunch Hollow State Conservation Area"}}, {"type": "Feature", "geometry": {"type": "Point", "coordinates": [-92.393, 36.6772]}, "properties": {"NAME": "K-8244", "TITLE": "Caney State Conservation Area"}}, {"type": "Feature", "geometry": {"type": "Point", "coordinates": [-94.226, 37.6308]}, "properties": {"NAME": "K-8245", "TITLE": "Clear Creek State Conservation Area"}}, {"type": "Feature", "geometry": {"type": "Point", "coordinates": [-90.6689, 38.9138]}, "properties": {"NAME": "K-8246", "TITLE": "Cuivre Island State Conservation Area"}}, {"type": "Feature", "geometry": {"type": "Point", "coordinates": [-94.2276, 37.382]}, "properties": {"NAME": "K-8247", "TITLE": "Dorris Creek Prairie State Conservation Area"}}, {"type": "Feature", "geometry": {"type": "Point", "coordinates": [-91.0245, 36.5104]}, "properties": {"NAME": "K-8248", "TITLE": "Fourche Creek State Conservation Area"}}, {"type": "Feature", "geometry": {"type": "Point", "coordinates": [-89.5551, 36.3557]}, "properties": {"NAME": "K-8249", "TITLE": "Girvin State Conservation Area"}}, {"type": "Feature", "geometry": {"type": "Point", "coordinates": [-94.965, 39.9516]}, "properties": {"NAME": "K-8251", "TITLE": "Honey Creek State Conservation Area"}}, {"type": "Feature", "geometry": {"type": "Point", "coordinates": [-90.6793, 37.5529]}, "properties": {"NAME": "K-8252", "TITLE": "Ketcherside Mountain State Conservation Area"}}, {"type": "Feature", "geometry": {"type": "Point", "coordinates": [-93.2812, 39.5444]}, "properties": {"NAME": "K-8253", "TITLE": "Little Compton Lake State Conservation Area"}}, {"type": "Feature", "geometry": {"type": "Point", "coordinates": [-93.1083, 36.5521]}, "properties": {"NAME": "K-8254", "TITLE": "Mincy State Conservation Area"}}, {"type": "Feature", "geometry": {"type": "Point", "coordinates": [-94.3707, 37.5466]}, "properties": {"NAME": "K-8255", "TITLE": "Mo-No-I Prairie State Conservation Area"}}, {"type": "Feature", "geometry": {"type": "Point", "coordinates": [-94.999, 39.9372]}, "properties": {"NAME": "K-8256", "TITLE": "Monkey Mountain State Conservation Area"}}, {"type": "Feature", "geometry": {"type": "Point", "coordinates": [-94.3253, 37.7533]}, "properties": {"NAME": "K-8257", "TITLE": "Osage Prairie State Conservation Area"}}, {"type": "Feature", "geometry": {"type": "Point", "coordinates": [-94.2076, 37.4158]}, "properties": {"NAME": "K-8258", "TITLE": "Pa Sole Prairie State Conservation Area"}}, {"type": "Feature", "geometry": {"type": "Point", "coordinates": [-90.2728, 38.86]}, "properties": {"NAME": "K-8259", "TITLE": "Pelican Island State Conservation Area"}}, {"type": "Feature", "geometry": {"type": "Point", "coordinates": [-91.2904, 39.4654]}, "properties": {"NAME": "K-8260", "TITLE": "Ranacker State Conservation Area"}}, {"type": "Feature", "geometry": {"type": "Point", "coordinates": [-94.4249, 37.5483]}, "properties": {"NAME": "K-8261", "TITLE": "Redwing Prairie State Conservation Area"}}, {"type": "Feature", "geometry": {"type": "Point", "coordinates": [-95.1297, 39.9379]}, "properties": {"NAME": "K-8262", "TITLE": "Riverbreaks State Conservation Area"}}, {"type": "Feature", "geometry": {"type": "Point", "coordinates": [-94.2153, 37.4694]}, "properties": {"NAME": "K-8263", "TITLE": "Treaty Line State Conservation Area"}}, {"type": "Feature", "geometry": {"type": "Point", "coordinates": [-91.8505, 36.5595]}, "properties": {"NAME": "K-8264", "TITLE": "White Ranch State Conservation Area"}}, {"type": "Feature", "geometry": {"type": "Point", "coordinates": [-94.9336, 39.8543]}, "properties": {"NAME": "K-8265", "TITLE": "Worthwine Island State Conservation Area"}}, {"type": "Feature", "geometry": {"type": "Point", "coordinates": [-93.2356, 39.5855]}, "properties": {"NAME": "K-8266", "TITLE": "Yellow Creek State Conservation Area"}}, {"type": "Feature", "geometry": {"type": "Point", "coordinates": [-95.6656, 40.4597]}, "properties": {"NAME": "K-8268", "TITLE": "Nishnabotna State Conservation Area"}}, {"type": "Feature", "geometry": {"type": "Point", "coordinates": [-94.211, 37.6304]}, "properties": {"NAME": "K-8274", "TITLE": "Risch State Conservation Area"}}, {"type": "Feature", "geometry": {"type": "Point", "coordinates": [-94.0223, 37.537]}, "properties": {"NAME": "K-8275", "TITLE": "Stoney Point Prairie State Conservation Area"}}, {"type": "Feature", "geometry": {"type": "Point", "coordinates": [-93.9465, 37.6957]}, "properties": {"NAME": "K-8276", "TITLE": "Sky Prairie State Conservation Area"}}, {"type": "Feature", "geometry": {"type": "Point", "coordinates": [-93.7614, 37.7859]}, "properties": {"NAME": "K-8277", "TITLE": "Bluff Springs State Conservation Area"}}, {"type": "Feature", "geometry": {"type": "Point", "coordinates": [-93.6288, 37.8148]}, "properties": {"NAME": "K-8278", "TITLE": "Brush Creek State Conservation Area"}}, {"type": "Feature", "geometry": {"type": "Point", "coordinates": [-92.3951, 38.7242]}, "properties": {"NAME": "K-8279", "TITLE": "Marion Bottoms State Conservation Area"}}, {"type": "Feature", "geometry": {"type": "Point", "coordinates": [-92.2814, 38.8482]}, "properties": {"NAME": "K-8280", "TITLE": "Three Creeks State Conservation Area"}}, {"type": "Feature", "geometry": {"type": "Point", "coordinates": [-90.6926, 37.6804]}, "properties": {"NAME": "K-8281", "TITLE": "Buford Mountain State Conservation Area"}}, {"type": "Feature", "geometry": {"type": "Point", "coordinates": [-90.3963, 36.895]}, "properties": {"NAME": "K-8282", "TITLE": "University Forest State Conservation Area"}}, {"type": "Feature", "geometry": {"type": "Point", "coordinates": [-93.7187, 37.8784]}, "properties": {"NAME": "K-8284", "TITLE": "Birdsong State Conservation Area"}}, {"type": "Feature", "geometry": {"type": "Point", "coordinates": [-89.9621, 36.2429]}, "properties": {"NAME": "K-8285", "TITLE": "Little River State Conservation Area"}}, {"type": "Feature", "geometry": {"type": "Point", "coordinates": [-90.0934, 36.045]}, "properties": {"NAME": "K-8286", "TITLE": "Hornersville State Conservation Area"}}, {"type": "Feature", "geometry": {"type": "Point", "coordinates": [-94.3327, 38.1115]}, "properties": {"NAME": "K-8301", "TITLE": "Ripgut Prairie State Conservation Area"}}, {"type": "Feature", "geometry": {"type": "Point", "coordinates": [-94.36, 38.1427]}, "properties": {"NAME": "K-8302", "TITLE": "Old Town Access State Conservation Area"}}, {"type": "Feature", "geometry": {"type": "Point", "coordinates": [-94.4229, 39.5437]}, "properties": {"NAME": "K-8304", "TITLE": "McGee Family State Conservation Area"}}, {"type": "Feature", "geometry": {"type": "Point", "coordinates": [-93.5739, 36.5405]}, "properties": {"NAME": "K-8308", "TITLE": "Pilot Knob State Conservation Area"}}, {"type": "Feature", "geometry": {"type": "Point", "coordinates": [-94.5092, 38.5375]}, "properties": {"NAME": "K-8309", "TITLE": "Dr Harry and Lina Berrier Memorial State Conservation Area"}}, {"type": "Feature", "geometry": {"type": "Point", "coordinates": [-93.9563, 38.4826]}, "properties": {"NAME": "K-8310", "TITLE": "Urich State Conservation Area"}}, {"type": "Feature", "geometry": {"type": "Point", "coordinates": [-90.7154, 38.4771]}, "properties": {"NAME": "K-8314", "TITLE": "Pacific Palisades State Conservation Area"}}, {"type": "Feature", "geometry": {"type": "Point", "coordinates": [-90.6656, 38.5639]}, "properties": {"NAME": "K-8315", "TITLE": "Rockwoods State Conservation Area"}}, {"type": "Feature", "geometry": {"type": "Point", "coordinates": [-92.8702, 39.7584]}, "properties": {"NAME": "K-8502", "TITLE": "Mussel Fork State Conservation Area"}}, {"type": "Feature", "geometry": {"type": "Point", "coordinates": [-92.8667, 40.3045]}, "properties": {"NAME": "K-8503", "TITLE": "Union Ridge State Conservation Area"}}, {"type": "Feature", "geometry": {"type": "Point", "coordinates": [-92.6511, 40.1139]}, "properties": {"NAME": "K-8504", "TITLE": "Sugar Creek State Conservation Area"}}, {"type": "Feature", "geometry": {"type": "Point", "coordinates": [-92.2403, 40.3335]}, "properties": {"NAME": "K-8505", "TITLE": "Indian Hills State Conservation Area"}}, {"type": "Feature", "geometry": {"type": "Point", "coordinates": [-92.6377, 39.9921]}, "properties": {"NAME": "K-8506", "TITLE": "Hidden Hollow State Conservation Area"}}, {"type": "Feature", "geometry": {"type": "Point", "coordinates": [-90.6987, 38.4227]}, "properties": {"NAME": "K-8507", "TITLE": "LaBarque Creek State Conservation Area"}}, {"type": "Feature", "geometry": {"type": "Point", "coordinates": [-92.6176, 40.1703]}, "properties": {"NAME": "K-8508", "TITLE": "Big Creek State Conservation Area"}}, {"type": "Feature", "geometry": {"type": "Point", "coordinates": [-92.7991, 40.2939]}, "properties": {"NAME": "K-8509", "TITLE": "Shoemaker State Conservation Area"}}, {"type": "Feature", "geometry": {"type": "Point", "coordinates": [-93.2953, 36.6575]}, "properties": {"NAME": "K-8510", "TITLE": "Ruth and Paul Henning Conservation Area State Conservation Area"}}, {"type": "Feature", "geometry": {"type": "Point", "coordinates": [-93.2872, 36.6834]}, "properties": {"NAME": "K-8511", "TITLE": "White River Balds Natural Area State Conservation Area"}}, {"type": "Feature", "geometry": {"type": "Point", "coordinates": [-93.2402, 37.1297]}, "properties": {"NAME": "K-8512", "TITLE": "Springfield Conservation Nature Center State Conservation Area"}}, {"type": "Feature", "geometry": {"type": "Point", "coordinates": [-93.5251, 38.5355]}, "properties": {"NAME": "K-9753", "TITLE": "Katy Trail Rock Island Spur State Park"}}, {"type": "Feature", "geometry": {"type": "Point", "coordinates": [-104.827, 31.896]}, "properties": {"NAME": "K-9757", "TITLE": "Butterfield Overland National Historic Trail"}}]}