{"type": "FeatureCollection", "name": "US-NE POTA PARKS", "features": [{"type": "Feature", "geometry": {"type": "Point", "coordinates": [-95.9509, 41.4517]}, "properties": {"NAME": "US-0441", "TITLE": "Boyer Chute National Wildlife Refuge"}}, {"type": "Feature", "geometry": {"type": "Point", "coordinates": [-102.4, 41.7105]}, "properties": {"NAME": "US-0442", "TITLE": "Crescent Lake National Wildlife Refuge"}}, {"type": "Feature", "geometry": {"type": "Point", "coordinates": [-100.477, 42.893]}, "properties": {"NAME": "US-0443", "TITLE": "Fort Niobrara National Wildlife Refuge"}}, {"type": "Feature", "geometry": {"type": "Point", "coordinates": [-103.532, 41.9549]}, "properties": {"NAME": "US-0445", "TITLE": "North Platte National Wildlife Refuge"}}, {"type": "Feature", "geometry": {"type": "Point", "coordinates": [-99.2171, 40.5173]}, "properties": {"NAME": "US-0446", "TITLE": "Rainwater Basin Wetland Management District"}}, {"type": "Feature", "geometry": {"type": "Point", "coordinates": [-100.535, 42.5391]}, "properties": {"NAME": "US-0447", "TITLE": "Valentine National Wildlife Refuge"}}, {"type": "Feature", "geometry": {"type": "Point", "coordinates": [-97.4774, 42.8486]}, "properties": {"NAME": "US-0675", "TITLE": "Missouri National Recreational River National Wild & Scenic River"}}, {"type": "Feature", "geometry": {"type": "Point", "coordinates": [-103.734, 42.4252]}, "properties": {"NAME": "US-0900", "TITLE": "Agate Fossil Beds National Monument"}}, {"type": "Feature", "geometry": {"type": "Point", "coordinates": [-96.8358, 40.2915]}, "properties": {"NAME": "US-0942", "TITLE": "Homestead National Historical Park"}}, {"type": "Feature", "geometry": {"type": "Point", "coordinates": [-103.7, 41.8369]}, "properties": {"NAME": "US-0962", "TITLE": "Scotts Bluff National Monument"}}, {"type": "Feature", "geometry": {"type": "Point", "coordinates": [-98.1586, 42.425]}, "properties": {"NAME": "US-2608", "TITLE": "Ashfall Fossil Beds State Historical Park"}}, {"type": "Feature", "geometry": {"type": "Point", "coordinates": [-102.123, 41.2929]}, "properties": {"NAME": "US-2609", "TITLE": "Ash Hollow State Park"}}, {"type": "Feature", "geometry": {"type": "Point", "coordinates": [-95.8783, 40.6809]}, "properties": {"NAME": "US-2610", "TITLE": "Arbor Lodge State Historical Park"}}, {"type": "Feature", "geometry": {"type": "Point", "coordinates": [-101.67, 42.9562]}, "properties": {"NAME": "US-2611", "TITLE": "Bowring Ranch State Historical Park"}}, {"type": "Feature", "geometry": {"type": "Point", "coordinates": [-100.795, 41.1632]}, "properties": {"NAME": "US-2612", "TITLE": "Buffalo Bill Ranch State Historical Park"}}, {"type": "Feature", "geometry": {"type": "Point", "coordinates": [-103.009, 42.7081]}, "properties": {"NAME": "US-2613", "TITLE": "Chadron State Park"}}, {"type": "Feature", "geometry": {"type": "Point", "coordinates": [-96.3139, 41.0253]}, "properties": {"NAME": "US-2614", "TITLE": "Eugene T. Mahoney State Park"}}, {"type": "Feature", "geometry": {"type": "Point", "coordinates": [-96.017, 41.4541]}, "properties": {"NAME": "US-2615", "TITLE": "Fort Atkinson State Historical Park"}}, {"type": "Feature", "geometry": {"type": "Point", "coordinates": [-99.0243, 41.7226]}, "properties": {"NAME": "US-2616", "TITLE": "Fort Hartsuff State Historical Park"}}, {"type": "Feature", "geometry": {"type": "Point", "coordinates": [-99.0051, 40.6437]}, "properties": {"NAME": "US-2617", "TITLE": "Fort Kearny State Historical Park"}}, {"type": "Feature", "geometry": {"type": "Point", "coordinates": [-103.469, 42.6693]}, "properties": {"NAME": "US-2618", "TITLE": "Fort Robinson State Park"}}, {"type": "Feature", "geometry": {"type": "Point", "coordinates": [-95.5773, 40.2647]}, "properties": {"NAME": "US-2619", "TITLE": "Indian Cave State Park"}}, {"type": "Feature", "geometry": {"type": "Point", "coordinates": [-98.0659, 42.7529]}, "properties": {"NAME": "US-2620", "TITLE": "Niobrara State Park"}}, {"type": "Feature", "geometry": {"type": "Point", "coordinates": [-96.2165, 40.9867]}, "properties": {"NAME": "US-2621", "TITLE": "Platte River State Park"}}, {"type": "Feature", "geometry": {"type": "Point", "coordinates": [-96.7193, 42.6052]}, "properties": {"NAME": "US-2622", "TITLE": "Ponca State Park"}}, {"type": "Feature", "geometry": {"type": "Point", "coordinates": [-97.0575, 40.113]}, "properties": {"NAME": "US-2623", "TITLE": "Rock Creek Station State Historical Park"}}, {"type": "Feature", "geometry": {"type": "Point", "coordinates": [-100.311, 42.892]}, "properties": {"NAME": "US-2624", "TITLE": "Smith Falls State Park"}}, {"type": "Feature", "geometry": {"type": "Point", "coordinates": [-103.012, 42.7907]}, "properties": {"NAME": "US-3371", "TITLE": "Nebraska National Forest"}}, {"type": "Feature", "geometry": {"type": "Point", "coordinates": [-101.025, 42.719]}, "properties": {"NAME": "US-3372", "TITLE": "Samuel R McKelvie National Forest"}}, {"type": "Feature", "geometry": {"type": "Point", "coordinates": [-103.331, 41.7024]}, "properties": {"NAME": "US-3373", "TITLE": "Chimney Rock National Historic Site"}}, {"type": "Feature", "geometry": {"type": "Point", "coordinates": [-98.0311, 42.1264]}, "properties": {"NAME": "US-3374", "TITLE": "Neligh Mill State Historic Site"}}, {"type": "Feature", "geometry": {"type": "Point", "coordinates": [-98.3611, 40.9001]}, "properties": {"NAME": "US-3375", "TITLE": "Stolley National Historic Site"}}, {"type": "Feature", "geometry": {"type": "Point", "coordinates": [-99.7513, 41.6086]}, "properties": {"NAME": "US-3376", "TITLE": "Victoria Springs State Recreation Area"}}, {"type": "Feature", "geometry": {"type": "Point", "coordinates": [-95.8822, 41.0407]}, "properties": {"NAME": "US-3377", "TITLE": "Schilling Wildlife Management Area"}}, {"type": "Feature", "geometry": {"type": "Point", "coordinates": [-99.4927, 40.3864]}, "properties": {"NAME": "US-3483", "TITLE": "Atlanta National Waterfowl Production Area"}}, {"type": "Feature", "geometry": {"type": "Point", "coordinates": [-99.6592, 40.481]}, "properties": {"NAME": "US-3484", "TITLE": "Peterson National Waterfowl Production Area"}}, {"type": "Feature", "geometry": {"type": "Point", "coordinates": [-98.7454, 40.3975]}, "properties": {"NAME": "US-3485", "TITLE": "Jensen Lagoon National Waterfowl Production Area"}}, {"type": "Feature", "geometry": {"type": "Point", "coordinates": [-97.99, 40.4836]}, "properties": {"NAME": "US-3486", "TITLE": "Moger National Waterfowl Production Area"}}, {"type": "Feature", "geometry": {"type": "Point", "coordinates": [-96.0302, 41.5213]}, "properties": {"NAME": "US-3487", "TITLE": "DeSoto (NE) National Wildlife Refuge"}}, {"type": "Feature", "geometry": {"type": "Point", "coordinates": [-97.9925, 40.491]}, "properties": {"NAME": "US-3488", "TITLE": "Alberding Lagoon National Wildlife Management Area"}}, {"type": "Feature", "geometry": {"type": "Point", "coordinates": [-98.0327, 40.4785]}, "properties": {"NAME": "US-3489", "TITLE": "Massie National Waterfowl Production Area"}}, {"type": "Feature", "geometry": {"type": "Point", "coordinates": [-97.9761, 40.4376]}, "properties": {"NAME": "US-3490", "TITLE": "Smith Lagoon National Waterfowl Production Area"}}, {"type": "Feature", "geometry": {"type": "Point", "coordinates": [-96.6192, 41.2464]}, "properties": {"NAME": "US-3491", "TITLE": "Lake Wanahoo State Recreation Area"}}, {"type": "Feature", "geometry": {"type": "Point", "coordinates": [-98.5229, 40.0039]}, "properties": {"NAME": "US-3492", "TITLE": "Willa Cather Memorial Prairie State Historic Site"}}, {"type": "Feature", "geometry": {"type": "Point", "coordinates": [-96.8056, 40.8717]}, "properties": {"NAME": "US-3493", "TITLE": "Nine Mile Prairie National Historical Park"}}, {"type": "Feature", "geometry": {"type": "Point", "coordinates": [-96.0971, 41.2926]}, "properties": {"NAME": "US-4010", "TITLE": "Heron Haven State Park"}}, {"type": "Feature", "geometry": {"type": "Point", "coordinates": [-96.1556, 41.1709]}, "properties": {"NAME": "US-4011", "TITLE": "Chalco Hills State Recreation Area"}}, {"type": "Feature", "geometry": {"type": "Point", "coordinates": [-96.3021, 41.3608]}, "properties": {"NAME": "US-4012", "TITLE": "Elkhorn Crossing State Park"}}, {"type": "Feature", "geometry": {"type": "Point", "coordinates": [-96.1973, 41.3737]}, "properties": {"NAME": "US-4013", "TITLE": "Prairie View State Recreation Area"}}, {"type": "Feature", "geometry": {"type": "Point", "coordinates": [-96.1152, 41.1617]}, "properties": {"NAME": "US-4014", "TITLE": "Prairie Queen State Recreation Area"}}, {"type": "Feature", "geometry": {"type": "Point", "coordinates": [-96.4039, 41.3194]}, "properties": {"NAME": "US-4015", "TITLE": "Platte River Landing State Park"}}, {"type": "Feature", "geometry": {"type": "Point", "coordinates": [-96.764, 40.6454]}, "properties": {"NAME": "US-4016", "TITLE": "Cottontail Wildlife Management Area"}}, {"type": "Feature", "geometry": {"type": "Point", "coordinates": [-96.7282, 40.8226]}, "properties": {"NAME": "US-4017", "TITLE": "Lincoln Saline Wetland State Park"}}, {"type": "Feature", "geometry": {"type": "Point", "coordinates": [-96.8377, 41.0375]}, "properties": {"NAME": "US-4018", "TITLE": "Wildwood Lake Wildlife Management Area"}}, {"type": "Feature", "geometry": {"type": "Point", "coordinates": [-96.8863, 40.6128]}, "properties": {"NAME": "US-4019", "TITLE": "Wild Plum Wildlife Management Area"}}, {"type": "Feature", "geometry": {"type": "Point", "coordinates": [-96.9638, 41.1637]}, "properties": {"NAME": "US-4020", "TITLE": "Timber Point Wildlife Management Area"}}, {"type": "Feature", "geometry": {"type": "Point", "coordinates": [-96.8728, 41.1639]}, "properties": {"NAME": "US-4021", "TITLE": "Red Cedar Wildlife Management Area"}}, {"type": "Feature", "geometry": {"type": "Point", "coordinates": [-96.8566, 40.6036]}, "properties": {"NAME": "US-4022", "TITLE": "Merganser Wildlife Management Area"}}, {"type": "Feature", "geometry": {"type": "Point", "coordinates": [-97.3743, 42.799]}, "properties": {"NAME": "US-4023", "TITLE": "Chalkrock Wildlife Management Area"}}, {"type": "Feature", "geometry": {"type": "Point", "coordinates": [-97.5052, 40.3526]}, "properties": {"NAME": "US-4024", "TITLE": "Bruning Dam Wildlife Management Area"}}, {"type": "Feature", "geometry": {"type": "Point", "coordinates": [-97.3058, 40.0692]}, "properties": {"NAME": "US-4025", "TITLE": "Buckley Creek State Recreation Area"}}, {"type": "Feature", "geometry": {"type": "Point", "coordinates": [-98.301, 40.2637]}, "properties": {"NAME": "US-4026", "TITLE": "Liberty Cove State Recreation Area"}}, {"type": "Feature", "geometry": {"type": "Point", "coordinates": [-97.383, 40.4178]}, "properties": {"NAME": "US-4027", "TITLE": "Lone Star State Recreation Area"}}, {"type": "Feature", "geometry": {"type": "Point", "coordinates": [-98.4902, 40.5389]}, "properties": {"NAME": "US-4028", "TITLE": "Prairie Lake State Recreation Area"}}, {"type": "Feature", "geometry": {"type": "Point", "coordinates": [-98.5844, 40.5523]}, "properties": {"NAME": "US-4029", "TITLE": "Roseland Lake State Recreation Area"}}, {"type": "Feature", "geometry": {"type": "Point", "coordinates": [-96.6808, 40.3173]}, "properties": {"NAME": "US-4030", "TITLE": "Bear Creek Wildlife Management Area"}}, {"type": "Feature", "geometry": {"type": "Point", "coordinates": [-96.6926, 40.0574]}, "properties": {"NAME": "US-4031", "TITLE": "Big Indian State Recreation Area"}}, {"type": "Feature", "geometry": {"type": "Point", "coordinates": [-96.8625, 40.4832]}, "properties": {"NAME": "US-4032", "TITLE": "Clatonia State Recreation Area"}}, {"type": "Feature", "geometry": {"type": "Point", "coordinates": [-97.0489, 40.2393]}, "properties": {"NAME": "US-4033", "TITLE": "Cub Creek State Recreation Area"}}, {"type": "Feature", "geometry": {"type": "Point", "coordinates": [-96.9857, 40.259]}, "properties": {"NAME": "US-4034", "TITLE": "Leisure Lake Wildlife Management Area"}}, {"type": "Feature", "geometry": {"type": "Point", "coordinates": [-97.1082, 40.425]}, "properties": {"NAME": "US-4035", "TITLE": "Swanton Wildlife Management Area"}}, {"type": "Feature", "geometry": {"type": "Point", "coordinates": [-96.0653, 41.1399]}, "properties": {"NAME": "US-4036", "TITLE": "Walnut Creek State Recreation Area"}}, {"type": "Feature", "geometry": {"type": "Point", "coordinates": [-97.2654, 40.4579]}, "properties": {"NAME": "US-4037", "TITLE": "Willard L. Meyer State Recreation Area"}}, {"type": "Feature", "geometry": {"type": "Point", "coordinates": [-96.4986, 40.1575]}, "properties": {"NAME": "US-4038", "TITLE": "Wolf-Wildcat Wildlife Management Area"}}, {"type": "Feature", "geometry": {"type": "Point", "coordinates": [-97.245, 41.7121]}, "properties": {"NAME": "US-4039", "TITLE": "Maple Creek State Recreation Area"}}, {"type": "Feature", "geometry": {"type": "Point", "coordinates": [-97.2405, 41.9849]}, "properties": {"NAME": "US-4040", "TITLE": "Maskenthine Lake State Recreation Area"}}, {"type": "Feature", "geometry": {"type": "Point", "coordinates": [-97.0403, 42.0263]}, "properties": {"NAME": "US-4041", "TITLE": "Pilger State Recreation Area"}}, {"type": "Feature", "geometry": {"type": "Point", "coordinates": [-94.4833, 38.9943]}, "properties": {"NAME": "US-4566", "TITLE": "California National Historic Trail"}}, {"type": "Feature", "geometry": {"type": "Point", "coordinates": [-95.9246, 41.2646]}, "properties": {"NAME": "US-4572", "TITLE": "Lewis and Clark National Historic Trail"}}, {"type": "Feature", "geometry": {"type": "Point", "coordinates": [-95.9653, 41.3347]}, "properties": {"NAME": "US-4573", "TITLE": "Mormon Pioneer National Historic Trail"}}, {"type": "Feature", "geometry": {"type": "Point", "coordinates": [-96.4057, 39.3826]}, "properties": {"NAME": "US-4576", "TITLE": "Oregon National Historic Trail"}}, {"type": "Feature", "geometry": {"type": "Point", "coordinates": [-94.8486, 39.7562]}, "properties": {"NAME": "US-4578", "TITLE": "Pony Express National Historic Trail"}}, {"type": "Feature", "geometry": {"type": "Point", "coordinates": [-100.027, 42.7836]}, "properties": {"NAME": "US-5622", "TITLE": "Niobrara National Wild and Scenic River"}}, {"type": "Feature", "geometry": {"type": "Point", "coordinates": [-98.369, 40.8252]}, "properties": {"NAME": "US-5625", "TITLE": "Mormon Island State Recreation Area"}}, {"type": "Feature", "geometry": {"type": "Point", "coordinates": [-98.8437, 40.706]}, "properties": {"NAME": "US-5626", "TITLE": "Windmill State Recreation Area"}}, {"type": "Feature", "geometry": {"type": "Point", "coordinates": [-98.5896, 40.7651]}, "properties": {"NAME": "US-5627", "TITLE": "Cheyenne State Recreation Area"}}, {"type": "Feature", "geometry": {"type": "Point", "coordinates": [-98.9883, 40.6548]}, "properties": {"NAME": "US-5628", "TITLE": "Fort Kearny State Recreation Area"}}, {"type": "Feature", "geometry": {"type": "Point", "coordinates": [-98.8931, 41.299]}, "properties": {"NAME": "US-5629", "TITLE": "Sherman Reservoir State Recreation Area"}}, {"type": "Feature", "geometry": {"type": "Point", "coordinates": [-99.217, 41.8457]}, "properties": {"NAME": "US-5630", "TITLE": "Calamus Reservoir State Recreation Area"}}, {"type": "Feature", "geometry": {"type": "Point", "coordinates": [-100.892, 42.5975]}, "properties": {"NAME": "US-5631", "TITLE": "Merritt Reservoir State Recreation Area"}}, {"type": "Feature", "geometry": {"type": "Point", "coordinates": [-98.4556, 41.2637]}, "properties": {"NAME": "US-5632", "TITLE": "North Loup State Recreation Area"}}, {"type": "Feature", "geometry": {"type": "Point", "coordinates": [-101.073, 40.1717]}, "properties": {"NAME": "US-5642", "TITLE": "Swanson Reservoir State Recreation Area"}}, {"type": "Feature", "geometry": {"type": "Point", "coordinates": [-101.712, 41.2498]}, "properties": {"NAME": "US-5646", "TITLE": "Lake McConaughy State Recreation Area"}}, {"type": "Feature", "geometry": {"type": "Point", "coordinates": [-96.8707, 40.973]}, "properties": {"NAME": "US-5647", "TITLE": "Branched Oak State Recreation Area"}}, {"type": "Feature", "geometry": {"type": "Point", "coordinates": [-96.444, 41.1023]}, "properties": {"NAME": "US-5648", "TITLE": "Memphis Lake State Recreation Area"}}, {"type": "Feature", "geometry": {"type": "Point", "coordinates": [-96.8699, 40.8483]}, "properties": {"NAME": "US-5649", "TITLE": "Pawnee State Recreation Area"}}, {"type": "Feature", "geometry": {"type": "Point", "coordinates": [-96.1668, 41.004]}, "properties": {"NAME": "US-5650", "TITLE": "Louisville State Recreation Area"}}, {"type": "Feature", "geometry": {"type": "Point", "coordinates": [-96.8475, 40.5802]}, "properties": {"NAME": "US-5651", "TITLE": "Olive Creek Lake State Recreation Area"}}, {"type": "Feature", "geometry": {"type": "Point", "coordinates": [-96.7956, 40.6283]}, "properties": {"NAME": "US-5652", "TITLE": "Bluestem Lake State Recreation Area"}}, {"type": "Feature", "geometry": {"type": "Point", "coordinates": [-96.6467, 40.6008]}, "properties": {"NAME": "US-5653", "TITLE": "Stagecoach Lake State Recreation Area"}}, {"type": "Feature", "geometry": {"type": "Point", "coordinates": [-96.5792, 40.6264]}, "properties": {"NAME": "US-5654", "TITLE": "Wagon Train Lake State Recreation Area"}}, {"type": "Feature", "geometry": {"type": "Point", "coordinates": [-103.501, 41.9303]}, "properties": {"NAME": "US-5655", "TITLE": "Lake Minatare State Recreation Area"}}, {"type": "Feature", "geometry": {"type": "Point", "coordinates": [-96.1822, 41.311]}, "properties": {"NAME": "US-5656", "TITLE": "Flanagan Lake State Recreation Area"}}, {"type": "Feature", "geometry": {"type": "Point", "coordinates": [-96.1275, 41.316]}, "properties": {"NAME": "US-5657", "TITLE": "Standing Bear Lake State Recreation Area"}}, {"type": "Feature", "geometry": {"type": "Point", "coordinates": [-96.1611, 41.2151]}, "properties": {"NAME": "US-5658", "TITLE": "Lake Zorinsky State Park"}}, {"type": "Feature", "geometry": {"type": "Point", "coordinates": [-97.3286, 40.2322]}, "properties": {"NAME": "US-5659", "TITLE": "Alexandria Lakes State Recreation Area"}}, {"type": "Feature", "geometry": {"type": "Point", "coordinates": [-103.073, 42.4598]}, "properties": {"NAME": "US-5660", "TITLE": "Box Butte Reservoir State Recreation Area"}}, {"type": "Feature", "geometry": {"type": "Point", "coordinates": [-103.108, 41.681]}, "properties": {"NAME": "US-5661", "TITLE": "Bridgeport State Recreation Area"}}, {"type": "Feature", "geometry": {"type": "Point", "coordinates": [-96.8496, 40.7699]}, "properties": {"NAME": "US-5662", "TITLE": "Conestoga Lake State Recreation Area"}}, {"type": "Feature", "geometry": {"type": "Point", "coordinates": [-96.6873, 41.7174]}, "properties": {"NAME": "US-5663", "TITLE": "Dead Timber State Recreation Area"}}, {"type": "Feature", "geometry": {"type": "Point", "coordinates": [-101.523, 40.4296]}, "properties": {"NAME": "US-5664", "TITLE": "Enders Reservoir State Recreation Area"}}, {"type": "Feature", "geometry": {"type": "Point", "coordinates": [-96.5472, 41.439]}, "properties": {"NAME": "US-5665", "TITLE": "Fremont Lakes State Recreation Area"}}, {"type": "Feature", "geometry": {"type": "Point", "coordinates": [-99.9779, 40.7354]}, "properties": {"NAME": "US-5666", "TITLE": "Gallagher Canyon State Recreation Area"}}, {"type": "Feature", "geometry": {"type": "Point", "coordinates": [-99.831, 40.6826]}, "properties": {"NAME": "US-5667", "TITLE": "Johnson Lake State Recreation Area"}}, {"type": "Feature", "geometry": {"type": "Point", "coordinates": [-99.7732, 42.6672]}, "properties": {"NAME": "US-5668", "TITLE": "Keller Park State Recreation Area"}}, {"type": "Feature", "geometry": {"type": "Point", "coordinates": [-100.767, 41.0453]}, "properties": {"NAME": "US-5669", "TITLE": "Lake Maloney State Recreation Area"}}, {"type": "Feature", "geometry": {"type": "Point", "coordinates": [-101.665, 41.2342]}, "properties": {"NAME": "US-5671", "TITLE": "Lake Ogallala State Recreation Area"}}, {"type": "Feature", "geometry": {"type": "Point", "coordinates": [-96.112, 41.8336]}, "properties": {"NAME": "US-5672", "TITLE": "Pelican Point State Recreation Area"}}, {"type": "Feature", "geometry": {"type": "Point", "coordinates": [-100.667, 40.3691]}, "properties": {"NAME": "US-5673", "TITLE": "Red Willow Reservoir State Recreation Area"}}, {"type": "Feature", "geometry": {"type": "Point", "coordinates": [-96.2924, 41.7608]}, "properties": {"NAME": "US-5674", "TITLE": "Summit Lake State Recreation Area"}}, {"type": "Feature", "geometry": {"type": "Point", "coordinates": [-101.138, 41.1258]}, "properties": {"NAME": "US-5675", "TITLE": "Sutherland Reservoir State Recreation Area"}}, {"type": "Feature", "geometry": {"type": "Point", "coordinates": [-96.3548, 41.2208]}, "properties": {"NAME": "US-5676", "TITLE": "Two Rivers State Recreation Area"}}, {"type": "Feature", "geometry": {"type": "Point", "coordinates": [-99.2521, 40.6789]}, "properties": {"NAME": "US-5677", "TITLE": "Union Pacific State Recreation Area"}}, {"type": "Feature", "geometry": {"type": "Point", "coordinates": [-95.7269, 40.1473]}, "properties": {"NAME": "US-5678", "TITLE": "Verdon Lake State Recreation Area"}}, {"type": "Feature", "geometry": {"type": "Point", "coordinates": [-97.5632, 42.1763]}, "properties": {"NAME": "US-5679", "TITLE": "Willow Creek State Recreation Area"}}, {"type": "Feature", "geometry": {"type": "Point", "coordinates": [-103.589, 42.94]}, "properties": {"NAME": "US-7478", "TITLE": "Oglala National Grassland"}}, {"type": "Feature", "geometry": {"type": "Point", "coordinates": [-98.7352, 40.7246]}, "properties": {"NAME": "US-8614", "TITLE": "War Axe State Recreation Area"}}, {"type": "Feature", "geometry": {"type": "Point", "coordinates": [-98.6107, 40.7567]}, "properties": {"NAME": "US-8615", "TITLE": "Wood River West Wildlife Management Area"}}, {"type": "Feature", "geometry": {"type": "Point", "coordinates": [-98.6399, 40.7356]}, "properties": {"NAME": "US-8616", "TITLE": "Martin's Reach Wildlife Management Area"}}, {"type": "Feature", "geometry": {"type": "Point", "coordinates": [-100.578, 42.5502]}, "properties": {"NAME": "US-9356", "TITLE": "Willow Lake Wildlife Management Area"}}, {"type": "Feature", "geometry": {"type": "Point", "coordinates": [-97.1184, 40.7055]}, "properties": {"NAME": "US-9357", "TITLE": "Blue River State Recreation Area"}}, {"type": "Feature", "geometry": {"type": "Point", "coordinates": [-101.676, 42.9146]}, "properties": {"NAME": "US-9358", "TITLE": "Cottonwood Lake State Recreation Area"}}, {"type": "Feature", "geometry": {"type": "Point", "coordinates": [-96.5849, 42.3774]}, "properties": {"NAME": "US-9359", "TITLE": "Danish Alps State Recreation Area"}}, {"type": "Feature", "geometry": {"type": "Point", "coordinates": [-97.5752, 42.8361]}, "properties": {"NAME": "US-9360", "TITLE": "Lewis and Clark Lake State Recreation Area"}}, {"type": "Feature", "geometry": {"type": "Point", "coordinates": [-99.7098, 42.5435]}, "properties": {"NAME": "US-9362", "TITLE": "Long Pine State Recreation Area"}}, {"type": "Feature", "geometry": {"type": "Point", "coordinates": [-100.217, 40.3831]}, "properties": {"NAME": "US-9363", "TITLE": "Medicine Creek State Recreation Area"}}, {"type": "Feature", "geometry": {"type": "Point", "coordinates": [-95.8497, 40.6923]}, "properties": {"NAME": "US-9364", "TITLE": "Riverview State Recreation Area"}}, {"type": "Feature", "geometry": {"type": "Point", "coordinates": [-101.762, 40.0882]}, "properties": {"NAME": "US-9365", "TITLE": "Rock Creek State Recreation Area"}}, {"type": "Feature", "geometry": {"type": "Point", "coordinates": [-97.0654, 40.1113]}, "properties": {"NAME": "US-9366", "TITLE": "Rock Creek Station State Recreation Area"}}, {"type": "Feature", "geometry": {"type": "Point", "coordinates": [-96.5828, 40.2267]}, "properties": {"NAME": "US-9367", "TITLE": "Rockford Lake State Recreation Area"}}, {"type": "Feature", "geometry": {"type": "Point", "coordinates": [-99.3729, 40.6693]}, "properties": {"NAME": "US-9368", "TITLE": "Sandy Channel State Recreation Area"}}, {"type": "Feature", "geometry": {"type": "Point", "coordinates": [-96.2523, 41.0258]}, "properties": {"NAME": "US-9369", "TITLE": "Schramm Park State Recreation Area"}}, {"type": "Feature", "geometry": {"type": "Point", "coordinates": [-102.627, 42.6402]}, "properties": {"NAME": "US-9370", "TITLE": "Walgren Lake State Recreation Area"}}, {"type": "Feature", "geometry": {"type": "Point", "coordinates": [-103.668, 41.7104]}, "properties": {"NAME": "US-9371", "TITLE": "Wildcat Hills State Recreation Area"}}, {"type": "Feature", "geometry": {"type": "Point", "coordinates": [-99.7021, 41.1814]}, "properties": {"NAME": "US-11273", "TITLE": "Pressey Wildlife Management Area"}}, {"type": "Feature", "geometry": {"type": "Point", "coordinates": [-96.3647, 40.3064]}, "properties": {"NAME": "US-11867", "TITLE": "Hickory Ridge Wildlife Management Area"}}, {"type": "Feature", "geometry": {"type": "Point", "coordinates": [-96.3134, 40.03]}, "properties": {"NAME": "US-11868", "TITLE": "Pawnee Prairie Wildlife Management Area"}}, {"type": "Feature", "geometry": {"type": "Point", "coordinates": [-98.9486, 40.6864]}, "properties": {"NAME": "US-11871", "TITLE": "Bassway Strip Wildlife Management Area"}}, {"type": "Feature", "geometry": {"type": "Point", "coordinates": [-98.7707, 41.5663]}, "properties": {"NAME": "US-12087", "TITLE": "Scotia Canal Wildlife Management Area"}}, {"type": "Feature", "geometry": {"type": "Point", "coordinates": [-98.7867, 41.4451]}, "properties": {"NAME": "US-12088", "TITLE": "Davis Creek Wildlife Management Area"}}, {"type": "Feature", "geometry": {"type": "Point", "coordinates": [-99.2445, 41.4986]}, "properties": {"NAME": "US-12089", "TITLE": "Arcadia Diversion Dam Wildlife Management Area"}}, {"type": "Feature", "geometry": {"type": "Point", "coordinates": [-99.7726, 41.7504]}, "properties": {"NAME": "US-12090", "TITLE": "Milburn Dam Wildlife Management Area"}}, {"type": "Feature", "geometry": {"type": "Point", "coordinates": [-99.5404, 41.7404]}, "properties": {"NAME": "US-12091", "TITLE": "Myrtle E. Hall Wildlife Management Area"}}]}