{"type": "FeatureCollection", "name": "W0N/PH SUMMITS", "features": [{"type": "Feature", "geometry": {"type": "Point", "coordinates": [-103.8027, 42.2317]}, "properties": {"NAME": "W0N/PH-001", "TITLE": "5076", "REGION": "Panhandle", "ASSOCIATION": "USA - Nebraska", "POINTS": "4", "BONUSPOINTS": "3"}}, {"type": "Feature", "geometry": {"type": "Point", "coordinates": [-103.7357, 41.6649]}, "properties": {"NAME": "W0N/PH-002", "TITLE": "Hogback Mountain", "REGION": "Panhandle", "ASSOCIATION": "USA - Nebraska", "POINTS": "4", "BONUSPOINTS": "3"}}, {"type": "Feature", "geometry": {"type": "Point", "coordinates": [-103.8274, 41.8397]}, "properties": {"NAME": "W0N/PH-003", "TITLE": "4897", "REGION": "Panhandle", "ASSOCIATION": "USA - Nebraska", "POINTS": "2", "BONUSPOINTS": "3"}}, {"type": "Feature", "geometry": {"type": "Point", "coordinates": [-103.7709, 41.83]}, "properties": {"NAME": "W0N/PH-004", "TITLE": "4749", "REGION": "Panhandle", "ASSOCIATION": "USA - Nebraska", "POINTS": "2", "BONUSPOINTS": "3"}}, {"type": "Feature", "geometry": {"type": "Point", "coordinates": [-103.6987, 41.838]}, "properties": {"NAME": "W0N/PH-005", "TITLE": "Scotts Bluff", "REGION": "Panhandle", "ASSOCIATION": "USA - Nebraska", "POINTS": "2", "BONUSPOINTS": "3"}}, {"type": "Feature", "geometry": {"type": "Point", "coordinates": [-103.4945, 41.7183]}, "properties": {"NAME": "W0N/PH-006", "TITLE": "Roundtop", "REGION": "Panhandle", "ASSOCIATION": "USA - Nebraska", "POINTS": "2", "BONUSPOINTS": "3"}}, {"type": "Feature", "geometry": {"type": "Point", "coordinates": [-103.4875, 41.7254]}, "properties": {"NAME": "W0N/PH-007", "TITLE": "Coyote Rock", "REGION": "Panhandle", "ASSOCIATION": "USA - Nebraska", "POINTS": "1", "BONUSPOINTS": "0"}}, {"type": "Feature", "geometry": {"type": "Point", "coordinates": [-103.4711, 41.7373]}, "properties": {"NAME": "W0N/PH-008", "TITLE": "Castle Rock", "REGION": "Panhandle", "ASSOCIATION": "USA - Nebraska", "POINTS": "1", "BONUSPOINTS": "0"}}, {"type": "Feature", "geometry": {"type": "Point", "coordinates": [-103.3306, 42.6681]}, "properties": {"NAME": "W0N/PH-009", "TITLE": "Crow Butte", "REGION": "Panhandle", "ASSOCIATION": "USA - Nebraska", "POINTS": "1", "BONUSPOINTS": "0"}}, {"type": "Feature", "geometry": {"type": "Point", "coordinates": [-103.2275, 41.614]}, "properties": {"NAME": "W0N/PH-010", "TITLE": "4378", "REGION": "Panhandle", "ASSOCIATION": "USA - Nebraska", "POINTS": "1", "BONUSPOINTS": "0"}}, {"type": "Feature", "geometry": {"type": "Point", "coordinates": [-102.2334, 42.2666]}, "properties": {"NAME": "W0N/PH-011", "TITLE": "Morton Hill", "REGION": "Panhandle", "ASSOCIATION": "USA - Nebraska", "POINTS": "1", "BONUSPOINTS": "0"}}, {"type": "Feature", "geometry": {"type": "Point", "coordinates": [-102.3749, 42.1062]}, "properties": {"NAME": "W0N/PH-012", "TITLE": "4230", "REGION": "Panhandle", "ASSOCIATION": "USA - Nebraska", "POINTS": "1", "BONUSPOINTS": "0"}}]}